{'lipoC2': 7.53, 'lipoC3S1': 4.04, 'temp': 30.13, 'lipoC3S3': 12.21, 'lipoC3S2': 8.09, 'rot1': 0, 'rot0': 0, 'rot3': 0, 'rot2': 0, 'state': 'normal', 'yaw': -0.16, 'datetime': '2018-10-10 00:39:29.803292', 'mgs': 0, 'volt': 0.835, 'depth': 0.546, 'time': 1, 'pitch': 1.75, 'roll': 0.61, 'pres': 171}
{'lipoC2': 7.53, 'lipoC3S1': 4.04, 'temp': 30.13, 'lipoC3S3': 12.21, 'lipoC3S2': 8.09, 'rot1': 0, 'rot0': 0, 'rot3': 0, 'rot2': 0, 'state': 'normal', 'yaw': 0.11, 'datetime': '2018-10-10 00:39:29.824879', 'mgs': 0, 'volt': 0.835, 'depth': 0.546, 'time': 1, 'pitch': 1.24, 'roll': 0.72, 'pres': 171}
{'lipoC2': 7.53, 'lipoC3S1': 4.04, 'temp': 30.13, 'lipoC3S3': 12.21, 'lipoC3S2': 8.09, 'rot1': 0, 'rot0': 0, 'rot3': 0, 'rot2': 0, 'state': 'normal', 'yaw': 0.8, 'datetime': '2018-10-10 00:39:29.846645', 'mgs': 0, 'volt': 0.8398, 'depth': 0.623, 'time': 1, 'pitch': 0.96, 'roll': 0.99, 'pres': 172}
{'lipoC2': 7.53, 'lipoC3S1': 4.04, 'temp': 30.13, 'lipoC3S3': 12.21, 'lipoC3S2': 8.09, 'rot1': 0, 'rot0': 0, 'rot3': 0, 'rot2': 0, 'state': 'normal', 'yaw': 1.77, 'datetime': '2018-10-10 00:39:29.868240', 'mgs': 0, 'volt': 0.8398, 'depth': 0.623, 'time': 1, 'pitch': 1.32, 'roll': 1.35, 'pres': 172}
{'lipoC2': 7.53, 'lipoC3S1': 4.04, 'temp': 30.19, 'lipoC3S3': 12.21, 'lipoC3S2': 8.09, 'rot1': 0, 'rot0': 0, 'rot3': 0, 'rot2': 0, 'state': 'normal', 'yaw': 2.53, 'datetime': '2018-10-10 00:39:29.890105', 'mgs': 0, 'volt': 0.835, 'depth': 0.546, 'time': 1, 'pitch': 1.99, 'roll': 1.6, 'pres': 171}
{'lipoC2': 7.53, 'lipoC3S1': 4.04, 'temp': 30.19, 'lipoC3S3': 12.21, 'lipoC3S2': 8.09, 'rot1': 0, 'rot0': 0, 'rot3': 0, 'rot2': 0, 'state': 'normal', 'yaw': 2.77, 'datetime': '2018-10-10 00:39:29.911921', 'mgs': 0, 'volt': 0.8398, 'depth': 0.623, 'time': 1, 'pitch': 2.3, 'roll': 1.82, 'pres': 172}
{'lipoC2': 7.53, 'lipoC3S1': 4.04, 'temp': 30.19, 'lipoC3S3': 12.21, 'lipoC3S2': 8.09, 'rot1': 0, 'rot0': 0, 'rot3': 0, 'rot2': 0, 'state': 'normal', 'yaw': 2.55, 'datetime': '2018-10-10 00:39:29.927900', 'mgs': 0, 'volt': 0.8398, 'depth': 0.623, 'time': 1, 'pitch': 2.19, 'roll': 1.94, 'pres': 172}
{'lipoC2': 7.53, 'lipoC3S1': 4.04, 'temp': 30.19, 'lipoC3S3': 12.21, 'lipoC3S2': 8.09, 'rot1': 0, 'rot0': 0, 'rot3': 0, 'rot2': 0, 'state': 'normal', 'yaw': 2.06, 'datetime': '2018-10-10 00:39:29.937318', 'mgs': 0, 'volt': 0.8447, 'depth': 0.699, 'time': 2, 'pitch': 1.94, 'roll': 2.05, 'pres': 173}
{'lipoC2': 7.53, 'lipoC3S1': 4.04, 'temp': 30.13, 'lipoC3S3': 12.21, 'lipoC3S2': 8.09, 'rot1': 0, 'rot0': 0, 'rot3': 0, 'rot2': 0, 'state': 'normal', 'yaw': 1.56, 'datetime': '2018-10-10 00:39:29.946704', 'mgs': 0, 'volt': 0.8447, 'depth': 0.699, 'time': 2, 'pitch': 1.76, 'roll': 2.27, 'pres': 173}
{'lipoC2': 7.53, 'lipoC3S1': 4.04, 'temp': 30.13, 'lipoC3S3': 12.21, 'lipoC3S2': 8.09, 'rot1': 0, 'rot0': 0, 'rot3': 0, 'rot2': 0, 'state': 'normal', 'yaw': 1.38, 'datetime': '2018-10-10 00:39:29.956061', 'mgs': 0, 'volt': 0.8447, 'depth': 0.699, 'time': 2, 'pitch': 1.54, 'roll': 2.56, 'pres': 173}
{'lipoC2': 7.53, 'lipoC3S1': 4.04, 'temp': 30.13, 'lipoC3S3': 12.21, 'lipoC3S2': 8.09, 'rot1': 0, 'rot0': 0, 'rot3': 0, 'rot2': 0, 'state': 'normal', 'yaw': 1.56, 'datetime': '2018-10-10 00:39:29.965413', 'mgs': 0, 'volt': 0.8447, 'depth': 0.699, 'time': 2, 'pitch': 1.38, 'roll': 2.84, 'pres': 173}
{'lipoC2': 7.53, 'lipoC3S1': 4.04, 'temp': 30.13, 'lipoC3S3': 12.21, 'lipoC3S2': 8.09, 'rot1': 0, 'rot0': 0, 'rot3': 0, 'rot2': 0, 'state': 'normal', 'yaw': 1.8, 'datetime': '2018-10-10 00:39:29.974759', 'mgs': 0, 'volt': 0.8496, 'depth': 0.775, 'time': 2, 'pitch': 1.5, 'roll': 3.12, 'pres': 174}
{'lipoC2': 7.53, 'lipoC3S1': 4.04, 'temp': 30.13, 'lipoC3S3': 12.21, 'lipoC3S2': 8.09, 'rot1': 0, 'rot0': 0, 'rot3': 0, 'rot2': 0, 'state': 'normal', 'yaw': 1.78, 'datetime': '2018-10-10 00:39:29.984121', 'mgs': 0, 'volt': 0.8496, 'depth': 0.775, 'time': 2, 'pitch': 1.65, 'roll': 3.37, 'pres': 174}
{'lipoC2': 7.53, 'lipoC3S1': 4.04, 'temp': 30.13, 'lipoC3S3': 12.21, 'lipoC3S2': 8.09, 'rot1': 0, 'rot0': 0, 'rot3': 0, 'rot2': 0, 'state': 'normal', 'yaw': 1.61, 'datetime': '2018-10-10 00:39:30.052533', 'mgs': 0, 'volt': 0.8496, 'depth': 0.775, 'time': 2, 'pitch': 1.58, 'roll': 3.33, 'pres': 174}
{'lipoC2': 7.53, 'lipoC3S1': 4.04, 'temp': 30.13, 'lipoC3S3': 12.21, 'lipoC3S2': 8.09, 'rot1': 0, 'rot0': 0, 'rot3': 0, 'rot2': 0, 'state': 'normal', 'yaw': 1.52, 'datetime': '2018-10-10 00:39:30.157029', 'mgs': 0, 'volt': 0.8496, 'depth': 0.775, 'time': 2, 'pitch': 1.4, 'roll': 2.92, 'pres': 174}
{'lipoC2': 7.53, 'lipoC3S1': 4.04, 'temp': 30.19, 'lipoC3S3': 12.21, 'lipoC3S2': 8.09, 'rot1': 0, 'rot0': 0, 'rot3': 0, 'rot2': 0, 'state': 'normal', 'yaw': 1.51, 'datetime': '2018-10-10 00:39:30.260230', 'mgs': 0, 'volt': 0.8496, 'depth': 0.775, 'time': 2, 'pitch': 1.3, 'roll': 2.3, 'pres': 174}
{'lipoC2': 7.53, 'lipoC3S1': 4.04, 'temp': 30.19, 'lipoC3S3': 12.21, 'lipoC3S2': 8.09, 'rot1': 0, 'rot0': 0, 'rot3': 0, 'rot2': 0, 'state': 'normal', 'yaw': 1.45, 'datetime': '2018-10-10 00:39:30.363435', 'mgs': 0, 'volt': 0.8447, 'depth': 0.699, 'time': 3, 'pitch': 1.3, 'roll': 1.9, 'pres': 173}
{'lipoC2': 7.53, 'lipoC3S1': 4.04, 'temp': 30.19, 'lipoC3S3': 12.21, 'lipoC3S2': 8.09, 'rot1': 0, 'rot0': 0, 'rot3': 0, 'rot2': 0, 'state': 'normal', 'yaw': 1.17, 'datetime': '2018-10-10 00:39:30.467945', 'mgs': 0, 'volt': 0.8447, 'depth': 0.699, 'time': 3, 'pitch': 1.37, 'roll': 1.8, 'pres': 173}
{'lipoC2': 7.53, 'lipoC3S1': 4.04, 'temp': 30.06, 'lipoC3S3': 12.21, 'lipoC3S2': 8.09, 'rot1': 0, 'rot0': 0, 'rot3': 0, 'rot2': 0, 'state': 'normal', 'yaw': 0.86, 'datetime': '2018-10-10 00:39:30.571143', 'mgs': 0, 'volt': 0.8398, 'depth': 0.623, 'time': 3, 'pitch': 1.44, 'roll': 1.79, 'pres': 172}
{'lipoC2': 7.53, 'lipoC3S1': 4.04, 'temp': 30.06, 'lipoC3S3': 12.21, 'lipoC3S2': 8.09, 'rot1': 0, 'rot0': 0, 'rot3': 0, 'rot2': 0, 'state': 'normal', 'yaw': 0.68, 'datetime': '2018-10-10 00:39:30.675643', 'mgs': 0, 'volt': 0.8398, 'depth': 0.623, 'time': 3, 'pitch': 1.4, 'roll': 1.75, 'pres': 172}
{'lipoC2': 7.53, 'lipoC3S1': 4.04, 'temp': 30.13, 'lipoC3S3': 12.21, 'lipoC3S2': 8.09, 'rot1': 0, 'rot0': 0, 'rot3': 0, 'rot2': 0, 'state': 'normal', 'yaw': 0.65, 'datetime': '2018-10-10 00:39:30.780395', 'mgs': 0, 'volt': 0.8447, 'depth': 0.699, 'time': 3, 'pitch': 1.18, 'roll': 1.55, 'pres': 173}
{'lipoC2': 7.53, 'lipoC3S1': 4.04, 'temp': 30.13, 'lipoC3S3': 12.21, 'lipoC3S2': 8.09, 'rot1': 0, 'rot0': 0, 'rot3': 0, 'rot2': 0, 'state': 'normal', 'yaw': 0.64, 'datetime': '2018-10-10 00:39:30.883556', 'mgs': 0, 'volt': 0.8398, 'depth': 0.623, 'time': 3, 'pitch': 0.89, 'roll': 1.2, 'pres': 172}
{'lipoC2': 7.53, 'lipoC3S1': 4.04, 'temp': 30.19, 'lipoC3S3': 12.21, 'lipoC3S2': 8.09, 'rot1': 0, 'rot0': 0, 'rot3': 0, 'rot2': 0, 'state': 'normal', 'yaw': 0.57, 'datetime': '2018-10-10 00:39:30.986718', 'mgs': 0, 'volt': 0.8398, 'depth': 0.623, 'time': 3, 'pitch': 0.72, 'roll': 0.94, 'pres': 172}
{'lipoC2': 7.53, 'lipoC3S1': 4.04, 'temp': 30.19, 'lipoC3S3': 12.21, 'lipoC3S2': 8.09, 'rot1': 0, 'rot0': 0, 'rot3': 0, 'rot2': 0, 'state': 'normal', 'yaw': 0.57, 'datetime': '2018-10-10 00:39:31.089935', 'mgs': 0, 'volt': 0.8398, 'depth': 0.623, 'time': 3, 'pitch': 0.7, 'roll': 0.95, 'pres': 172}
{'lipoC2': 7.53, 'lipoC3S1': 4.04, 'temp': 30.19, 'lipoC3S3': 12.21, 'lipoC3S2': 8.09, 'rot1': 0, 'rot0': 0, 'rot3': 0, 'rot2': 0, 'state': 'normal', 'yaw': 0.8, 'datetime': '2018-10-10 00:39:31.193150', 'mgs': 0, 'volt': 0.8398, 'depth': 0.623, 'time': 3, 'pitch': 0.87, 'roll': 1.39, 'pres': 172}
{'lipoC2': 7.53, 'lipoC3S1': 4.04, 'temp': 30.13, 'lipoC3S3': 12.21, 'lipoC3S2': 8.09, 'rot1': 0, 'rot0': 0, 'rot3': 0, 'rot2': 0, 'state': 'normal', 'yaw': 1.19, 'datetime': '2018-10-10 00:39:31.296339', 'mgs': 0, 'volt': 0.8398, 'depth': 0.623, 'time': 3, 'pitch': 1.03, 'roll': 2.06, 'pres': 172}
{'lipoC2': 7.53, 'lipoC3S1': 4.04, 'temp': 30.13, 'lipoC3S3': 12.21, 'lipoC3S2': 8.09, 'rot1': 0, 'rot0': 0, 'rot3': 0, 'rot2': 0, 'state': 'normal', 'yaw': 1.69, 'datetime': '2018-10-10 00:39:31.402339', 'mgs': 0, 'volt': 0.8398, 'depth': 0.623, 'time': 4, 'pitch': 0.96, 'roll': 2.57, 'pres': 172}
{'lipoC2': 7.53, 'lipoC3S1': 4.04, 'temp': 30.13, 'lipoC3S3': 12.21, 'lipoC3S2': 8.09, 'rot1': 0, 'rot0': 0, 'rot3': 0, 'rot2': 0, 'state': 'normal', 'yaw': 2.23, 'datetime': '2018-10-10 00:39:31.508461', 'mgs': 0, 'volt': 0.8398, 'depth': 0.623, 'time': 4, 'pitch': 0.8, 'roll': 2.59, 'pres': 172}
{'lipoC2': 7.53, 'lipoC3S1': 4.04, 'temp': 30.13, 'lipoC3S3': 12.21, 'lipoC3S2': 8.09, 'rot1': 0, 'rot0': 0, 'rot3': 0, 'rot2': 0, 'state': 'normal', 'yaw': 2.34, 'datetime': '2018-10-10 00:39:31.611819', 'mgs': 0, 'volt': 0.8398, 'depth': 0.623, 'time': 4, 'pitch': 0.81, 'roll': 2.31, 'pres': 172}
{'lipoC2': 7.53, 'lipoC3S1': 4.04, 'temp': 30.19, 'lipoC3S3': 12.21, 'lipoC3S2': 8.09, 'rot1': 0, 'rot0': 0, 'rot3': 0, 'rot2': 0, 'state': 'normal', 'yaw': 1.99, 'datetime': '2018-10-10 00:39:31.715981', 'mgs': 0, 'volt': 0.8398, 'depth': 0.623, 'time': 4, 'pitch': 0.97, 'roll': 2.21, 'pres': 172}
{'lipoC2': 7.53, 'lipoC3S1': 4.04, 'temp': 30.19, 'lipoC3S3': 12.21, 'lipoC3S2': 8.09, 'rot1': 0, 'rot0': 0, 'rot3': 0, 'rot2': 0, 'state': 'normal', 'yaw': 1.48, 'datetime': '2018-10-10 00:39:31.819392', 'mgs': 0, 'volt': 0.8398, 'depth': 0.623, 'time': 4, 'pitch': 1.19, 'roll': 2.66, 'pres': 172}
{'lipoC2': 7.53, 'lipoC3S1': 4.04, 'temp': 30.19, 'lipoC3S3': 12.21, 'lipoC3S2': 8.09, 'rot1': 0, 'rot0': 0, 'rot3': 0, 'rot2': 0, 'state': 'normal', 'yaw': 1.21, 'datetime': '2018-10-10 00:39:31.922482', 'mgs': 0, 'volt': 0.8447, 'depth': 0.699, 'time': 4, 'pitch': 1.16, 'roll': 3.46, 'pres': 173}
{'lipoC2': 7.53, 'lipoC3S1': 4.04, 'temp': 30.19, 'lipoC3S3': 12.21, 'lipoC3S2': 8.09, 'rot1': 0, 'rot0': 0, 'rot3': 0, 'rot2': 0, 'state': 'normal', 'yaw': 1.2, 'datetime': '2018-10-10 00:39:32.026973', 'mgs': 0, 'volt': 0.8398, 'depth': 0.623, 'time': 4, 'pitch': 0.88, 'roll': 4.29, 'pres': 172}
{'lipoC2': 7.53, 'lipoC3S1': 4.04, 'temp': 30.19, 'lipoC3S3': 12.21, 'lipoC3S2': 8.09, 'rot1': 0, 'rot0': 0, 'rot3': 0, 'rot2': 0, 'state': 'normal', 'yaw': 1.25, 'datetime': '2018-10-10 00:39:32.130211', 'mgs': 0, 'volt': 0.8447, 'depth': 0.699, 'time': 4, 'pitch': 0.66, 'roll': 4.88, 'pres': 173}
{'lipoC2': 7.53, 'lipoC3S1': 4.04, 'temp': 30.13, 'lipoC3S3': 12.21, 'lipoC3S2': 8.09, 'rot1': 0, 'rot0': 0, 'rot3': 0, 'rot2': 0, 'state': 'normal', 'yaw': 1.24, 'datetime': '2018-10-10 00:39:32.233395', 'mgs': 0, 'volt': 0.8447, 'depth': 0.699, 'time': 4, 'pitch': 0.66, 'roll': 4.83, 'pres': 173}
{'lipoC2': 7.53, 'lipoC3S1': 4.04, 'temp': 30.13, 'lipoC3S3': 12.21, 'lipoC3S2': 8.09, 'rot1': 0, 'rot0': 0, 'rot3': 0, 'rot2': 0, 'state': 'normal', 'yaw': 1.21, 'datetime': '2018-10-10 00:39:32.337939', 'mgs': 0, 'volt': 0.8447, 'depth': 0.699, 'time': 4, 'pitch': 0.54, 'roll': 4.28, 'pres': 173}
{'lipoC2': 7.53, 'lipoC3S1': 4.04, 'temp': 30.13, 'lipoC3S3': 12.21, 'lipoC3S2': 8.09, 'rot1': 0, 'rot0': 0, 'rot3': 0, 'rot2': 0, 'state': 'normal', 'yaw': 1.34, 'datetime': '2018-10-10 00:39:32.441079', 'mgs': 0, 'volt': 0.8447, 'depth': 0.699, 'time': 5, 'pitch': 0.0, 'roll': 3.48, 'pres': 173}
{'lipoC2': 7.53, 'lipoC3S1': 4.04, 'temp': 30.13, 'lipoC3S3': 12.21, 'lipoC3S2': 8.09, 'rot1': 0, 'rot0': 0, 'rot3': 0, 'rot2': 0, 'state': 'normal', 'yaw': 1.46, 'datetime': '2018-10-10 00:39:32.544274', 'mgs': 0, 'volt': 0.8447, 'depth': 0.699, 'time': 5, 'pitch': -0.74, 'roll': 3.04, 'pres': 173}
{'lipoC2': 7.53, 'lipoC3S1': 4.04, 'temp': 30.13, 'lipoC3S3': 12.21, 'lipoC3S2': 8.09, 'rot1': 0, 'rot0': 0, 'rot3': 0, 'rot2': 0, 'state': 'normal', 'yaw': 1.53, 'datetime': '2018-10-10 00:39:32.647432', 'mgs': 0, 'volt': 0.8447, 'depth': 0.699, 'time': 5, 'pitch': -1.16, 'roll': 2.89, 'pres': 173}
{'lipoC2': 7.53, 'lipoC3S1': 4.04, 'temp': 30.13, 'lipoC3S3': 12.21, 'lipoC3S2': 8.09, 'rot1': 0, 'rot0': 0, 'rot3': 0, 'rot2': 0, 'state': 'normal', 'yaw': 1.62, 'datetime': '2018-10-10 00:39:32.750894', 'mgs': 0, 'volt': 0.8447, 'depth': 0.699, 'time': 5, 'pitch': -1.18, 'roll': 2.95, 'pres': 173}
{'lipoC2': 7.53, 'lipoC3S1': 4.04, 'temp': 30.13, 'lipoC3S3': 12.21, 'lipoC3S2': 8.09, 'rot1': 0, 'rot0': 0, 'rot3': 0, 'rot2': 0, 'state': 'normal', 'yaw': 1.66, 'datetime': '2018-10-10 00:39:32.854067', 'mgs': 0, 'volt': 0.8447, 'depth': 0.699, 'time': 5, 'pitch': -1.16, 'roll': 3.11, 'pres': 173}
{'lipoC2': 7.53, 'lipoC3S1': 4.04, 'temp': 30.13, 'lipoC3S3': 12.21, 'lipoC3S2': 8.09, 'rot1': 0, 'rot0': 0, 'rot3': 0, 'rot2': 0, 'state': 'normal', 'yaw': 1.62, 'datetime': '2018-10-10 00:39:32.957429', 'mgs': 0, 'volt': 0.8496, 'depth': 0.775, 'time': 5, 'pitch': -1.4, 'roll': 3.2, 'pres': 174}
{'lipoC2': 7.53, 'lipoC3S1': 4.04, 'temp': 30.13, 'lipoC3S3': 12.21, 'lipoC3S2': 8.09, 'rot1': 0, 'rot0': 0, 'rot3': 0, 'rot2': 0, 'state': 'normal', 'yaw': 1.51, 'datetime': '2018-10-10 00:39:33.060441', 'mgs': 0, 'volt': 0.8545, 'depth': 0.851, 'time': 5, 'pitch': -1.74, 'roll': 3.18, 'pres': 175}
{'lipoC2': 7.53, 'lipoC3S1': 4.04, 'temp': 30.19, 'lipoC3S3': 12.21, 'lipoC3S2': 8.09, 'rot1': 0, 'rot0': 0, 'rot3': 0, 'rot2': 0, 'state': 'normal', 'yaw': 1.48, 'datetime': '2018-10-10 00:39:33.163720', 'mgs': 0, 'volt': 0.8545, 'depth': 0.851, 'time': 5, 'pitch': -2.09, 'roll': 2.96, 'pres': 175}
{'lipoC2': 7.53, 'lipoC3S1': 4.04, 'temp': 30.19, 'lipoC3S3': 12.21, 'lipoC3S2': 8.09, 'rot1': 0, 'rot0': 0, 'rot3': 0, 'rot2': 0, 'state': 'normal', 'yaw': 1.52, 'datetime': '2018-10-10 00:39:33.266869', 'mgs': 0, 'volt': 0.8496, 'depth': 0.775, 'time': 5, 'pitch': -2.42, 'roll': 2.78, 'pres': 174}
{'lipoC2': 7.53, 'lipoC3S1': 4.04, 'temp': 30.19, 'lipoC3S3': 12.21, 'lipoC3S2': 8.09, 'rot1': 0, 'rot0': 0, 'rot3': 0, 'rot2': 0, 'state': 'normal', 'yaw': 1.45, 'datetime': '2018-10-10 00:39:33.371353', 'mgs': 0, 'volt': 0.8545, 'depth': 0.851, 'time': 6, 'pitch': -2.75, 'roll': 2.83, 'pres': 175}
{'lipoC2': 7.53, 'lipoC3S1': 4.04, 'temp': 30.13, 'lipoC3S3': 12.21, 'lipoC3S2': 8.09, 'rot1': 0, 'rot0': 0, 'rot3': 0, 'rot2': 0, 'state': 'normal', 'yaw': 1.15, 'datetime': '2018-10-10 00:39:33.474583', 'mgs': 0, 'volt': 0.8594, 'depth': 0.928, 'time': 6, 'pitch': -3.02, 'roll': 3.29, 'pres': 176}
{'lipoC2': 7.53, 'lipoC3S1': 4.04, 'temp': 30.13, 'lipoC3S3': 12.21, 'lipoC3S2': 8.09, 'rot1': 0, 'rot0': 0, 'rot3': 0, 'rot2': 0, 'state': 'normal', 'yaw': 0.84, 'datetime': '2018-10-10 00:39:33.577769', 'mgs': 0, 'volt': 0.8594, 'depth': 0.928, 'time': 6, 'pitch': -2.99, 'roll': 3.85, 'pres': 176}
{'lipoC2': 7.53, 'lipoC3S1': 4.04, 'temp': 30.13, 'lipoC3S3': 12.21, 'lipoC3S2': 8.09, 'rot1': 0, 'rot0': 0, 'rot3': 0, 'rot2': 0, 'state': 'normal', 'yaw': 0.69, 'datetime': '2018-10-10 00:39:33.682321', 'mgs': 0, 'volt': 0.8594, 'depth': 0.928, 'time': 6, 'pitch': -2.72, 'roll': 4.25, 'pres': 176}
{'lipoC2': 7.53, 'lipoC3S1': 4.04, 'temp': 30.13, 'lipoC3S3': 12.21, 'lipoC3S2': 8.09, 'rot1': 0, 'rot0': 0, 'rot3': 0, 'rot2': 0, 'state': 'normal', 'yaw': 0.83, 'datetime': '2018-10-10 00:39:33.785523', 'mgs': 0, 'volt': 0.8545, 'depth': 0.851, 'time': 6, 'pitch': -2.33, 'roll': 4.25, 'pres': 175}
{'lipoC2': 7.53, 'lipoC3S1': 4.04, 'temp': 30.13, 'lipoC3S3': 12.21, 'lipoC3S2': 8.09, 'rot1': 0, 'rot0': 0, 'rot3': 0, 'rot2': 0, 'state': 'normal', 'yaw': 1.11, 'datetime': '2018-10-10 00:39:33.889342', 'mgs': 0, 'volt': 0.8594, 'depth': 0.928, 'time': 6, 'pitch': -2.17, 'roll': 3.89, 'pres': 176}
{'lipoC2': 7.53, 'lipoC3S1': 4.04, 'temp': 30.13, 'lipoC3S3': 12.21, 'lipoC3S2': 8.09, 'rot1': 0, 'rot0': 0, 'rot3': 0, 'rot2': 0, 'state': 'normal', 'yaw': 1.33, 'datetime': '2018-10-10 00:39:33.993977', 'mgs': 0, 'volt': 0.8594, 'depth': 0.928, 'time': 6, 'pitch': -2.25, 'roll': 3.43, 'pres': 176}
{'lipoC2': 7.53, 'lipoC3S1': 4.04, 'temp': 30.13, 'lipoC3S3': 12.21, 'lipoC3S2': 8.09, 'rot1': 0, 'rot0': 0, 'rot3': 0, 'rot2': 0, 'state': 'normal', 'yaw': 1.41, 'datetime': '2018-10-10 00:39:34.097198', 'mgs': 0, 'volt': 0.8594, 'depth': 0.928, 'time': 6, 'pitch': -2.5, 'roll': 3.1, 'pres': 176}
{'lipoC2': 7.53, 'lipoC3S1': 4.04, 'temp': 30.13, 'lipoC3S3': 12.21, 'lipoC3S2': 8.09, 'rot1': 0, 'rot0': 0, 'rot3': 0, 'rot2': 0, 'state': 'normal', 'yaw': 1.27, 'datetime': '2018-10-10 00:39:34.200388', 'mgs': 0, 'volt': 0.8594, 'depth': 0.928, 'time': 6, 'pitch': -2.72, 'roll': 3.01, 'pres': 176}
{'lipoC2': 7.53, 'lipoC3S1': 4.04, 'temp': 30.13, 'lipoC3S3': 12.21, 'lipoC3S2': 8.09, 'rot1': 0, 'rot0': 0, 'rot3': 0, 'rot2': 0, 'state': 'normal', 'yaw': 0.94, 'datetime': '2018-10-10 00:39:34.303632', 'mgs': 0, 'volt': 0.8594, 'depth': 0.928, 'time': 6, 'pitch': -2.73, 'roll': 3.2, 'pres': 176}
{'lipoC2': 7.53, 'lipoC3S1': 4.04, 'temp': 30.13, 'lipoC3S3': 12.21, 'lipoC3S2': 8.09, 'rot1': 0, 'rot0': 0, 'rot3': 0, 'rot2': 0, 'state': 'normal', 'yaw': 0.47, 'datetime': '2018-10-10 00:39:34.407820', 'mgs': 0, 'volt': 0.8594, 'depth': 0.928, 'time': 7, 'pitch': -2.5, 'roll': 3.47, 'pres': 176}
{'lipoC2': 7.53, 'lipoC3S1': 4.04, 'temp': 30.13, 'lipoC3S3': 12.21, 'lipoC3S2': 8.09, 'rot1': 0, 'rot0': 0, 'rot3': 0, 'rot2': 0, 'state': 'normal', 'yaw': 0.18, 'datetime': '2018-10-10 00:39:34.510049', 'mgs': 0, 'volt': 0.8594, 'depth': 0.928, 'time': 7, 'pitch': -2.19, 'roll': 3.52, 'pres': 176}
{'lipoC2': 7.53, 'lipoC3S1': 4.04, 'temp': 30.13, 'lipoC3S3': 12.21, 'lipoC3S2': 8.09, 'rot1': 0, 'rot0': 0, 'rot3': 0, 'rot2': 0, 'state': 'normal', 'yaw': 0.06, 'datetime': '2018-10-10 00:39:34.613199', 'mgs': 0, 'volt': 0.8594, 'depth': 0.928, 'time': 7, 'pitch': -1.98, 'roll': 3.22, 'pres': 176}
{'lipoC2': 7.53, 'lipoC3S1': 4.04, 'temp': 30.19, 'lipoC3S3': 12.21, 'lipoC3S2': 8.09, 'rot1': 0, 'rot0': 0, 'rot3': 0, 'rot2': 0, 'state': 'normal', 'yaw': -0.09, 'datetime': '2018-10-10 00:39:34.711734', 'mgs': 0, 'volt': 0.8594, 'depth': 0.928, 'time': 7, 'pitch': -1.91, 'roll': 2.78, 'pres': 176}
{'lipoC2': 7.53, 'lipoC3S1': 4.04, 'temp': 30.19, 'lipoC3S3': 12.21, 'lipoC3S2': 8.09, 'rot1': 0, 'rot0': 0, 'rot3': 0, 'rot2': 0, 'state': 'normal', 'yaw': -0.56, 'datetime': '2018-10-10 00:39:34.819549', 'mgs': 0, 'volt': 0.8594, 'depth': 0.928, 'time': 7, 'pitch': -2.09, 'roll': 2.49, 'pres': 176}
{'lipoC2': 7.53, 'lipoC3S1': 4.04, 'temp': 30.19, 'lipoC3S3': 12.21, 'lipoC3S2': 8.09, 'rot1': 0, 'rot0': 0, 'rot3': 0, 'rot2': 0, 'state': 'normal', 'yaw': -1.14, 'datetime': '2018-10-10 00:39:34.923593', 'mgs': 0, 'volt': 0.8594, 'depth': 0.928, 'time': 7, 'pitch': -2.7, 'roll': 2.6, 'pres': 176}
{'lipoC2': 7.53, 'lipoC3S1': 4.04, 'temp': 30.19, 'lipoC3S3': 12.21, 'lipoC3S2': 8.09, 'rot1': 0, 'rot0': 0, 'rot3': 0, 'rot2': 0, 'state': 'normal', 'yaw': -1.67, 'datetime': '2018-10-10 00:39:35.027607', 'mgs': 0, 'volt': 0.8545, 'depth': 0.851, 'time': 7, 'pitch': -3.69, 'roll': 3.09, 'pres': 175}
{'lipoC2': 7.53, 'lipoC3S1': 4.04, 'temp': 30.13, 'lipoC3S3': 12.21, 'lipoC3S2': 8.09, 'rot1': 0, 'rot0': 0, 'rot3': 0, 'rot2': 0, 'state': 'normal', 'yaw': -1.91, 'datetime': '2018-10-10 00:39:35.130174', 'mgs': 0, 'volt': 0.8545, 'depth': 0.851, 'time': 7, 'pitch': -4.62, 'roll': 3.68, 'pres': 175}
{'lipoC2': 7.53, 'lipoC3S1': 4.04, 'temp': 30.13, 'lipoC3S3': 12.21, 'lipoC3S2': 8.09, 'rot1': 0, 'rot0': 0, 'rot3': 0, 'rot2': 0, 'state': 'normal', 'yaw': -1.94, 'datetime': '2018-10-10 00:39:35.234619', 'mgs': 0, 'volt': 0.8545, 'depth': 0.851, 'time': 7, 'pitch': -5.16, 'roll': 4.08, 'pres': 175}
{'lipoC2': 7.53, 'lipoC3S1': 4.04, 'temp': 30.13, 'lipoC3S3': 12.21, 'lipoC3S2': 8.09, 'rot1': 0, 'rot0': 0, 'rot3': 0, 'rot2': 0, 'state': 'normal', 'yaw': -1.9, 'datetime': '2018-10-10 00:39:35.337799', 'mgs': 0, 'volt': 0.8545, 'depth': 0.851, 'time': 7, 'pitch': -5.33, 'roll': 4.14, 'pres': 175}
{'lipoC2': 7.53, 'lipoC3S1': 4.04, 'temp': 30.13, 'lipoC3S3': 12.21, 'lipoC3S2': 8.09, 'rot1': 0, 'rot0': 0, 'rot3': 0, 'rot2': 0, 'state': 'normal', 'yaw': -1.94, 'datetime': '2018-10-10 00:39:35.440961', 'mgs': 0, 'volt': 0.8545, 'depth': 0.851, 'time': 8, 'pitch': -4.79, 'roll': 3.83, 'pres': 175}
{'lipoC2': 7.53, 'lipoC3S1': 4.04, 'temp': 30.13, 'lipoC3S3': 12.21, 'lipoC3S2': 8.09, 'rot1': 0, 'rot0': 0, 'rot3': 0, 'rot2': 0, 'state': 'normal', 'yaw': -1.97, 'datetime': '2018-10-10 00:39:35.545529', 'mgs': 0, 'volt': 0.8545, 'depth': 0.851, 'time': 8, 'pitch': -3.58, 'roll': 3.08, 'pres': 175}
{'lipoC2': 7.53, 'lipoC3S1': 4.04, 'temp': 30.13, 'lipoC3S3': 12.21, 'lipoC3S2': 8.09, 'rot1': 0, 'rot0': 0, 'rot3': 0, 'rot2': 0, 'state': 'normal', 'yaw': -1.97, 'datetime': '2018-10-10 00:39:35.648768', 'mgs': 0, 'volt': 0.8496, 'depth': 0.775, 'time': 8, 'pitch': -2.27, 'roll': 1.95, 'pres': 174}
{'lipoC2': 7.53, 'lipoC3S1': 4.04, 'temp': 30.13, 'lipoC3S3': 12.21, 'lipoC3S2': 8.09, 'rot1': 0, 'rot0': 0, 'rot3': 0, 'rot2': 0, 'state': 'normal', 'yaw': -2.09, 'datetime': '2018-10-10 00:39:35.751942', 'mgs': 0, 'volt': 0.8447, 'depth': 0.699, 'time': 8, 'pitch': -1.84, 'roll': 1.13, 'pres': 173}
{'lipoC2': 7.53, 'lipoC3S1': 4.04, 'temp': 30.19, 'lipoC3S3': 12.21, 'lipoC3S2': 8.09, 'rot1': 0, 'rot0': 0, 'rot3': 0, 'rot2': 0, 'state': 'normal', 'yaw': -2.24, 'datetime': '2018-10-10 00:39:35.855175', 'mgs': 0, 'volt': 0.8398, 'depth': 0.623, 'time': 8, 'pitch': -1.84, 'roll': 0.77, 'pres': 172}
{'lipoC2': 7.53, 'lipoC3S1': 4.04, 'temp': 30.19, 'lipoC3S3': 12.21, 'lipoC3S2': 8.09, 'rot1': 0, 'rot0': 0, 'rot3': 0, 'rot2': 0, 'state': 'normal', 'yaw': -2.36, 'datetime': '2018-10-10 00:39:35.958805', 'mgs': 0, 'volt': 0.835, 'depth': 0.546, 'time': 8, 'pitch': -1.63, 'roll': 0.66, 'pres': 171}
{'lipoC2': 7.53, 'lipoC3S1': 4.04, 'temp': 30.19, 'lipoC3S3': 12.21, 'lipoC3S2': 8.09, 'rot1': 0, 'rot0': 0, 'rot3': 0, 'rot2': 0, 'state': 'normal', 'yaw': -2.18, 'datetime': '2018-10-10 00:39:36.061909', 'mgs': 0, 'volt': 0.8301, 'depth': 0.47, 'time': 8, 'pitch': -1.13, 'roll': 0.34, 'pres': 170}
{'lipoC2': 7.53, 'lipoC3S1': 4.04, 'temp': 30.13, 'lipoC3S3': 12.21, 'lipoC3S2': 8.09, 'rot1': 0, 'rot0': 0, 'rot3': 0, 'rot2': 0, 'state': 'normal', 'yaw': -1.82, 'datetime': '2018-10-10 00:39:36.165010', 'mgs': 0, 'volt': 0.8252, 'depth': 0.394, 'time': 8, 'pitch': -0.84, 'roll': -0.26, 'pres': 169}
{'lipoC2': 7.53, 'lipoC3S1': 4.04, 'temp': 30.13, 'lipoC3S3': 12.21, 'lipoC3S2': 8.09, 'rot1': 0, 'rot0': 0, 'rot3': 0, 'rot2': 0, 'state': 'normal', 'yaw': -1.36, 'datetime': '2018-10-10 00:39:36.268177', 'mgs': 0, 'volt': 0.8252, 'depth': 0.394, 'time': 8, 'pitch': -0.87, 'roll': -1.06, 'pres': 169}
{'lipoC2': 7.53, 'lipoC3S1': 4.04, 'temp': 30.13, 'lipoC3S3': 12.21, 'lipoC3S2': 8.09, 'rot1': 0, 'rot0': 0, 'rot3': 0, 'rot2': 0, 'state': 'normal', 'yaw': -0.99, 'datetime': '2018-10-10 00:39:36.371367', 'mgs': 0, 'volt': 0.8203, 'depth': 0.317, 'time': 9, 'pitch': -1.01, 'roll': -1.77, 'pres': 168}
{'lipoC2': 7.53, 'lipoC3S1': 4.04, 'temp': 30.13, 'lipoC3S3': 12.21, 'lipoC3S2': 8.09, 'rot1': 0, 'rot0': 0, 'rot3': 0, 'rot2': 0, 'state': 'normal', 'yaw': -0.85, 'datetime': '2018-10-10 00:39:36.474536', 'mgs': 0, 'volt': 0.8203, 'depth': 0.317, 'time': 9, 'pitch': -1.02, 'roll': -1.84, 'pres': 168}
{'lipoC2': 7.53, 'lipoC3S1': 4.04, 'temp': 30.13, 'lipoC3S3': 12.21, 'lipoC3S2': 8.09, 'rot1': 0, 'rot0': 0, 'rot3': 0, 'rot2': 0, 'state': 'normal', 'yaw': -0.71, 'datetime': '2018-10-10 00:39:36.579048', 'mgs': 0, 'volt': 0.8154, 'depth': 0.241, 'time': 9, 'pitch': -1.09, 'roll': -1.24, 'pres': 167}
{'lipoC2': 7.53, 'lipoC3S1': 4.04, 'temp': 30.13, 'lipoC3S3': 12.21, 'lipoC3S2': 8.09, 'rot1': 0, 'rot0': 0, 'rot3': 0, 'rot2': 0, 'state': 'normal', 'yaw': -0.23, 'datetime': '2018-10-10 00:39:36.682222', 'mgs': 0, 'volt': 0.8154, 'depth': 0.241, 'time': 9, 'pitch': -1.43, 'roll': -0.08, 'pres': 167}
{'lipoC2': 7.53, 'lipoC3S1': 4.04, 'temp': 30.13, 'lipoC3S3': 12.21, 'lipoC3S2': 8.09, 'rot1': 0, 'rot0': 0, 'rot3': 0, 'rot2': 0, 'state': 'normal', 'yaw': 0.5, 'datetime': '2018-10-10 00:39:36.785354', 'mgs': 0, 'volt': 0.8154, 'depth': 0.241, 'time': 9, 'pitch': -1.69, 'roll': 0.91, 'pres': 167}
{'lipoC2': 7.53, 'lipoC3S1': 4.04, 'temp': 30.13, 'lipoC3S3': 12.21, 'lipoC3S2': 8.09, 'rot1': 0, 'rot0': 0, 'rot3': 0, 'rot2': 0, 'state': 'normal', 'yaw': 1.13, 'datetime': '2018-10-10 00:39:36.889880', 'mgs': 0, 'volt': 0.8154, 'depth': 0.241, 'time': 9, 'pitch': -1.74, 'roll': 1.45, 'pres': 167}
{'lipoC2': 7.53, 'lipoC3S1': 4.04, 'temp': 30.13, 'lipoC3S3': 12.21, 'lipoC3S2': 8.09, 'rot1': 0, 'rot0': 0, 'rot3': 0, 'rot2': 0, 'state': 'normal', 'yaw': 1.21, 'datetime': '2018-10-10 00:39:36.993091', 'mgs': 0, 'volt': 0.8154, 'depth': 0.241, 'time': 9, 'pitch': -1.83, 'roll': 1.31, 'pres': 167}
{'lipoC2': 7.53, 'lipoC3S1': 4.04, 'temp': 30.13, 'lipoC3S3': 12.21, 'lipoC3S2': 8.09, 'rot1': 0, 'rot0': 0, 'rot3': 0, 'rot2': 0, 'state': 'normal', 'yaw': 0.85, 'datetime': '2018-10-10 00:39:37.096795', 'mgs': 0, 'volt': 0.8154, 'depth': 0.241, 'time': 9, 'pitch': -1.84, 'roll': 0.58, 'pres': 167}
{'lipoC2': 7.53, 'lipoC3S1': 4.04, 'temp': 30.13, 'lipoC3S3': 12.21, 'lipoC3S2': 8.09, 'rot1': 0, 'rot0': 0, 'rot3': 0, 'rot2': 0, 'state': 'normal', 'yaw': 0.35, 'datetime': '2018-10-10 00:39:37.201500', 'mgs': 0, 'volt': 0.8154, 'depth': 0.241, 'time': 9, 'pitch': -1.61, 'roll': -0.37, 'pres': 167}
{'lipoC2': 7.53, 'lipoC3S1': 4.04, 'temp': 30.13, 'lipoC3S3': 12.21, 'lipoC3S2': 8.09, 'rot1': 0, 'rot0': 0, 'rot3': 0, 'rot2': 0, 'state': 'normal', 'yaw': -0.18, 'datetime': '2018-10-10 00:39:37.304679', 'mgs': 0, 'volt': 0.8154, 'depth': 0.241, 'time': 9, 'pitch': -1.34, 'roll': -1.12, 'pres': 167}
{'lipoC2': 7.53, 'lipoC3S1': 4.04, 'temp': 30.13, 'lipoC3S3': 12.21, 'lipoC3S2': 8.09, 'rot1': 0, 'rot0': 0, 'rot3': 0, 'rot2': 0, 'state': 'normal', 'yaw': -0.51, 'datetime': '2018-10-10 00:39:37.409092', 'mgs': 0, 'volt': 0.8154, 'depth': 0.241, 'time': 10, 'pitch': -1.27, 'roll': -1.34, 'pres': 167}
{'lipoC2': 7.53, 'lipoC3S1': 4.04, 'temp': 30.13, 'lipoC3S3': 12.21, 'lipoC3S2': 8.09, 'rot1': 0, 'rot0': 0, 'rot3': 0, 'rot2': 0, 'state': 'normal', 'yaw': -0.5, 'datetime': '2018-10-10 00:39:37.511358', 'mgs': 0, 'volt': 0.8154, 'depth': 0.241, 'time': 10, 'pitch': -1.27, 'roll': -1.12, 'pres': 167}
{'lipoC2': 7.53, 'lipoC3S1': 4.04, 'temp': 30.13, 'lipoC3S3': 12.21, 'lipoC3S2': 8.09, 'rot1': 0, 'rot0': 0, 'rot3': 0, 'rot2': 0, 'state': 'normal', 'yaw': -0.22, 'datetime': '2018-10-10 00:39:37.614686', 'mgs': 0, 'volt': 0.8154, 'depth': 0.241, 'time': 10, 'pitch': -1.33, 'roll': -0.4, 'pres': 167}
{'lipoC2': 7.53, 'lipoC3S1': 4.04, 'temp': 30.13, 'lipoC3S3': 12.21, 'lipoC3S2': 8.09, 'rot1': 0, 'rot0': 0, 'rot3': 0, 'rot2': 0, 'state': 'normal', 'yaw': 0.11, 'datetime': '2018-10-10 00:39:37.718633', 'mgs': 0, 'volt': 0.8154, 'depth': 0.241, 'time': 10, 'pitch': -1.44, 'roll': 0.38, 'pres': 167}
{'lipoC2': 7.53, 'lipoC3S1': 4.03, 'temp': 30.13, 'lipoC3S3': 12.21, 'lipoC3S2': 8.09, 'rot1': 0, 'rot0': 0, 'rot3': 0, 'rot2': 0, 'state': 'normal', 'yaw': 0.41, 'datetime': '2018-10-10 00:39:37.821224', 'mgs': 0, 'volt': 0.8154, 'depth': 0.241, 'time': 10, 'pitch': -1.58, 'roll': 0.97, 'pres': 167}
{'lipoC2': 7.53, 'lipoC3S1': 4.03, 'temp': 30.13, 'lipoC3S3': 12.21, 'lipoC3S2': 8.09, 'rot1': 0, 'rot0': 0, 'rot3': 0, 'rot2': 0, 'state': 'normal', 'yaw': 0.57, 'datetime': '2018-10-10 00:39:37.924538', 'mgs': 0, 'volt': 0.8154, 'depth': 0.241, 'time': 10, 'pitch': -1.7, 'roll': 1.2, 'pres': 167}
{'lipoC2': 7.53, 'lipoC3S1': 4.04, 'temp': 30.19, 'lipoC3S3': 12.21, 'lipoC3S2': 8.09, 'rot1': 0, 'rot0': 0, 'rot3': 0, 'rot2': 0, 'state': 'normal', 'yaw': 0.46, 'datetime': '2018-10-10 00:39:38.027699', 'mgs': 0, 'volt': 0.8203, 'depth': 0.317, 'time': 10, 'pitch': -1.58, 'roll': 1.13, 'pres': 168}
{'lipoC2': 7.53, 'lipoC3S1': 4.04, 'temp': 30.19, 'lipoC3S3': 12.21, 'lipoC3S2': 8.09, 'rot1': 0, 'rot0': 0, 'rot3': 0, 'rot2': 0, 'state': 'normal', 'yaw': 0.16, 'datetime': '2018-10-10 00:39:38.132343', 'mgs': 0, 'volt': 0.8154, 'depth': 0.241, 'time': 10, 'pitch': -1.46, 'roll': 0.96, 'pres': 167}
{'lipoC2': 7.53, 'lipoC3S1': 4.04, 'temp': 30.19, 'lipoC3S3': 12.21, 'lipoC3S2': 8.09, 'rot1': 0, 'rot0': 0, 'rot3': 0, 'rot2': 0, 'state': 'normal', 'yaw': 0.04, 'datetime': '2018-10-10 00:39:38.235554', 'mgs': 0, 'volt': 0.8203, 'depth': 0.317, 'time': 10, 'pitch': -1.73, 'roll': 0.86, 'pres': 168}
{'lipoC2': 7.53, 'lipoC3S1': 4.04, 'temp': 30.13, 'lipoC3S3': 12.21, 'lipoC3S2': 8.09, 'rot1': 0, 'rot0': 0, 'rot3': 0, 'rot2': 0, 'state': 'normal', 'yaw': 0.15, 'datetime': '2018-10-10 00:39:38.338948', 'mgs': 0, 'volt': 0.8203, 'depth': 0.317, 'time': 10, 'pitch': -2.17, 'roll': 0.85, 'pres': 168}
{'lipoC2': 7.53, 'lipoC3S1': 4.04, 'temp': 30.13, 'lipoC3S3': 12.21, 'lipoC3S2': 8.09, 'rot1': 0, 'rot0': 0, 'rot3': 0, 'rot2': 0, 'state': 'normal', 'yaw': 0.37, 'datetime': '2018-10-10 00:39:38.443552', 'mgs': 0, 'volt': 0.8203, 'depth': 0.317, 'time': 11, 'pitch': -2.0, 'roll': 0.9, 'pres': 168}
{'lipoC2': 7.53, 'lipoC3S1': 4.04, 'temp': 30.13, 'lipoC3S3': 12.21, 'lipoC3S2': 8.09, 'rot1': 0, 'rot0': 0, 'rot3': 0, 'rot2': 0, 'state': 'normal', 'yaw': 0.53, 'datetime': '2018-10-10 00:39:38.546873', 'mgs': 0, 'volt': 0.8203, 'depth': 0.317, 'time': 11, 'pitch': -1.65, 'roll': 1.1, 'pres': 168}
{'lipoC2': 7.53, 'lipoC3S1': 4.04, 'temp': 30.13, 'lipoC3S3': 12.21, 'lipoC3S2': 8.09, 'rot1': 0, 'rot0': 0, 'rot3': 0, 'rot2': 0, 'state': 'normal', 'yaw': 0.54, 'datetime': '2018-10-10 00:39:38.650417', 'mgs': 0, 'volt': 0.8252, 'depth': 0.394, 'time': 11, 'pitch': -1.89, 'roll': 1.32, 'pres': 169}
{'lipoC2': 7.53, 'lipoC3S1': 4.04, 'temp': 30.13, 'lipoC3S3': 12.21, 'lipoC3S2': 8.09, 'rot1': 0, 'rot0': 0, 'rot3': 0, 'rot2': 0, 'state': 'normal', 'yaw': 0.53, 'datetime': '2018-10-10 00:39:38.755163', 'mgs': 0, 'volt': 0.8252, 'depth': 0.394, 'time': 11, 'pitch': -2.32, 'roll': 1.51, 'pres': 169}
{'lipoC2': 7.53, 'lipoC3S1': 4.04, 'temp': 30.13, 'lipoC3S3': 12.21, 'lipoC3S2': 8.09, 'rot1': 0, 'rot0': 0, 'rot3': 0, 'rot2': 0, 'state': 'normal', 'yaw': 0.83, 'datetime': '2018-10-10 00:39:38.858339', 'mgs': 0, 'volt': 0.8252, 'depth': 0.394, 'time': 11, 'pitch': -2.41, 'roll': 1.52, 'pres': 169}
{'lipoC2': 7.53, 'lipoC3S1': 4.04, 'temp': 30.13, 'lipoC3S3': 12.21, 'lipoC3S2': 8.09, 'rot1': 0, 'rot0': 0, 'rot3': 0, 'rot2': 0, 'state': 'normal', 'yaw': 1.32, 'datetime': '2018-10-10 00:39:38.962260', 'mgs': 0, 'volt': 0.8252, 'depth': 0.394, 'time': 11, 'pitch': -2.43, 'roll': 1.51, 'pres': 169}
{'lipoC2': 7.53, 'lipoC3S1': 4.04, 'temp': 30.13, 'lipoC3S3': 12.21, 'lipoC3S2': 8.09, 'rot1': 0, 'rot0': 0, 'rot3': 0, 'rot2': 0, 'state': 'normal', 'yaw': 1.75, 'datetime': '2018-10-10 00:39:39.065103', 'mgs': 0, 'volt': 0.8301, 'depth': 0.47, 'time': 11, 'pitch': -2.54, 'roll': 1.6, 'pres': 170}
{'lipoC2': 7.53, 'lipoC3S1': 4.04, 'temp': 30.13, 'lipoC3S3': 12.21, 'lipoC3S2': 8.09, 'rot1': 0, 'rot0': 0, 'rot3': 0, 'rot2': 0, 'state': 'normal', 'yaw': 2.1, 'datetime': '2018-10-10 00:39:39.168352', 'mgs': 0, 'volt': 0.8301, 'depth': 0.47, 'time': 11, 'pitch': -2.62, 'roll': 1.63, 'pres': 170}
{'lipoC2': 7.53, 'lipoC3S1': 4.04, 'temp': 30.13, 'lipoC3S3': 12.21, 'lipoC3S2': 8.09, 'rot1': 0, 'rot0': 0, 'rot3': 0, 'rot2': 0, 'state': 'normal', 'yaw': 2.49, 'datetime': '2018-10-10 00:39:39.271684', 'mgs': 0, 'volt': 0.8301, 'depth': 0.47, 'time': 11, 'pitch': -2.56, 'roll': 1.41, 'pres': 170}
{'lipoC2': 7.53, 'lipoC3S1': 4.04, 'temp': 30.13, 'lipoC3S3': 12.21, 'lipoC3S2': 8.09, 'rot1': 0, 'rot0': 0, 'rot3': 0, 'rot2': 0, 'state': 'normal', 'yaw': 2.85, 'datetime': '2018-10-10 00:39:39.372512', 'mgs': 0, 'volt': 0.8301, 'depth': 0.47, 'time': 12, 'pitch': -2.37, 'roll': 0.98, 'pres': 170}
{'lipoC2': 7.53, 'lipoC3S1': 4.04, 'temp': 30.13, 'lipoC3S3': 12.21, 'lipoC3S2': 8.09, 'rot1': 0, 'rot0': 0, 'rot3': 0, 'rot2': 0, 'state': 'normal', 'yaw': 2.85, 'datetime': '2018-10-10 00:39:39.472704', 'mgs': 0, 'volt': 0.835, 'depth': 0.546, 'time': 12, 'pitch': -2.3, 'roll': 0.58, 'pres': 171}
{'lipoC2': 7.53, 'lipoC3S1': 4.04, 'temp': 30.13, 'lipoC3S3': 12.21, 'lipoC3S2': 8.09, 'rot1': 0, 'rot0': 0, 'rot3': 0, 'rot2': 0, 'state': 'normal', 'yaw': 2.65, 'datetime': '2018-10-10 00:39:39.580900', 'mgs': 0, 'volt': 0.835, 'depth': 0.546, 'time': 12, 'pitch': -2.54, 'roll': 0.33, 'pres': 171}
{'lipoC2': 7.53, 'lipoC3S1': 4.04, 'temp': 30.13, 'lipoC3S3': 12.21, 'lipoC3S2': 8.09, 'rot1': 0, 'rot0': 0, 'rot3': 0, 'rot2': 0, 'state': 'normal', 'yaw': 2.58, 'datetime': '2018-10-10 00:39:39.686326', 'mgs': 0, 'volt': 0.8398, 'depth': 0.623, 'time': 12, 'pitch': -2.89, 'roll': 0.19, 'pres': 172}
{'lipoC2': 7.53, 'lipoC3S1': 4.04, 'temp': 30.19, 'lipoC3S3': 12.21, 'lipoC3S2': 8.09, 'rot1': 0, 'rot0': 0, 'rot3': 0, 'rot2': 0, 'state': 'normal', 'yaw': 2.71, 'datetime': '2018-10-10 00:39:39.789649', 'mgs': 0, 'volt': 0.8398, 'depth': 0.623, 'time': 12, 'pitch': -3.08, 'roll': 0.21, 'pres': 172}
{'lipoC2': 7.53, 'lipoC3S1': 4.04, 'temp': 30.19, 'lipoC3S3': 12.21, 'lipoC3S2': 8.09, 'rot1': 0, 'rot0': 0, 'rot3': 0, 'rot2': 0, 'state': 'normal', 'yaw': 2.97, 'datetime': '2018-10-10 00:39:39.892892', 'mgs': 0, 'volt': 0.8398, 'depth': 0.623, 'time': 12, 'pitch': -3.09, 'roll': 0.4, 'pres': 172}
{'lipoC2': 7.53, 'lipoC3S1': 4.04, 'temp': 30.13, 'lipoC3S3': 12.21, 'lipoC3S2': 8.09, 'rot1': 0, 'rot0': 0, 'rot3': 0, 'rot2': 0, 'state': 'normal', 'yaw': 3.26, 'datetime': '2018-10-10 00:39:39.997696', 'mgs': 0, 'volt': 0.8398, 'depth': 0.623, 'time': 12, 'pitch': -3.2, 'roll': 0.68, 'pres': 172}
{'lipoC2': 7.53, 'lipoC3S1': 4.04, 'temp': 30.13, 'lipoC3S3': 12.21, 'lipoC3S2': 8.09, 'rot1': 0, 'rot0': 0, 'rot3': 0, 'rot2': 0, 'state': 'normal', 'yaw': 3.41, 'datetime': '2018-10-10 00:39:40.100902', 'mgs': 0, 'volt': 0.8398, 'depth': 0.623, 'time': 12, 'pitch': -3.31, 'roll': 0.95, 'pres': 172}
{'lipoC2': 7.53, 'lipoC3S1': 4.04, 'temp': 30.19, 'lipoC3S3': 12.21, 'lipoC3S2': 8.09, 'rot1': 0, 'rot0': 0, 'rot3': 0, 'rot2': 0, 'state': 'normal', 'yaw': 3.45, 'datetime': '2018-10-10 00:39:40.205378', 'mgs': 0, 'volt': 0.8398, 'depth': 0.623, 'time': 12, 'pitch': -3.29, 'roll': 1.05, 'pres': 172}
{'lipoC2': 7.53, 'lipoC3S1': 4.04, 'temp': 30.19, 'lipoC3S3': 12.21, 'lipoC3S2': 8.09, 'rot1': 0, 'rot0': 0, 'rot3': 0, 'rot2': 0, 'state': 'normal', 'yaw': 3.46, 'datetime': '2018-10-10 00:39:40.309629', 'mgs': 0, 'volt': 0.835, 'depth': 0.546, 'time': 12, 'pitch': -3.18, 'roll': 1.0, 'pres': 171}
{'lipoC2': 7.53, 'lipoC3S1': 4.04, 'temp': 30.19, 'lipoC3S3': 12.21, 'lipoC3S2': 8.09, 'rot1': 0, 'rot0': 0, 'rot3': 0, 'rot2': 0, 'state': 'normal', 'yaw': 3.45, 'datetime': '2018-10-10 00:39:40.413567', 'mgs': 0, 'volt': 0.8398, 'depth': 0.623, 'time': 13, 'pitch': -3.13, 'roll': 0.81, 'pres': 172}
{'lipoC2': 7.53, 'lipoC3S1': 4.04, 'temp': 30.13, 'lipoC3S3': 12.21, 'lipoC3S2': 8.09, 'rot1': 0, 'rot0': 0, 'rot3': 0, 'rot2': 0, 'state': 'normal', 'yaw': 3.32, 'datetime': '2018-10-10 00:39:40.516351', 'mgs': 0, 'volt': 0.8398, 'depth': 0.623, 'time': 13, 'pitch': -3.32, 'roll': 0.7, 'pres': 172}
{'lipoC2': 7.53, 'lipoC3S1': 4.04, 'temp': 30.13, 'lipoC3S3': 12.21, 'lipoC3S2': 8.09, 'rot1': 0, 'rot0': 0, 'rot3': 0, 'rot2': 0, 'state': 'normal', 'yaw': 3.06, 'datetime': '2018-10-10 00:39:40.619912', 'mgs': 0, 'volt': 0.8398, 'depth': 0.623, 'time': 13, 'pitch': -3.48, 'roll': 0.82, 'pres': 172}
{'lipoC2': 7.53, 'lipoC3S1': 4.04, 'temp': 30.13, 'lipoC3S3': 12.21, 'lipoC3S2': 8.09, 'rot1': 0, 'rot0': 0, 'rot3': 0, 'rot2': 0, 'state': 'normal', 'yaw': 2.63, 'datetime': '2018-10-10 00:39:40.723348', 'mgs': 0, 'volt': 0.8398, 'depth': 0.623, 'time': 13, 'pitch': -3.31, 'roll': 1.27, 'pres': 172}
{'lipoC2': 7.53, 'lipoC3S1': 4.04, 'temp': 30.13, 'lipoC3S3': 12.21, 'lipoC3S2': 8.09, 'rot1': 0, 'rot0': 0, 'rot3': 0, 'rot2': 0, 'state': 'normal', 'yaw': 2.27, 'datetime': '2018-10-10 00:39:40.826609', 'mgs': 0, 'volt': 0.8398, 'depth': 0.623, 'time': 13, 'pitch': -2.84, 'roll': 1.86, 'pres': 172}
{'lipoC2': 7.53, 'lipoC3S1': 4.04, 'temp': 30.13, 'lipoC3S3': 12.21, 'lipoC3S2': 8.09, 'rot1': 0, 'rot0': 0, 'rot3': 0, 'rot2': 0, 'state': 'normal', 'yaw': 2.06, 'datetime': '2018-10-10 00:39:40.929857', 'mgs': 0, 'volt': 0.835, 'depth': 0.546, 'time': 13, 'pitch': -2.41, 'roll': 2.46, 'pres': 171}
{'lipoC2': 7.53, 'lipoC3S1': 4.04, 'temp': 30.13, 'lipoC3S3': 12.21, 'lipoC3S2': 8.09, 'rot1': 0, 'rot0': 0, 'rot3': 0, 'rot2': 0, 'state': 'normal', 'yaw': 1.92, 'datetime': '2018-10-10 00:39:41.033240', 'mgs': 0, 'volt': 0.835, 'depth': 0.546, 'time': 13, 'pitch': -2.39, 'roll': 3.09, 'pres': 171}
{'lipoC2': 7.53, 'lipoC3S1': 4.04, 'temp': 30.13, 'lipoC3S3': 12.21, 'lipoC3S2': 8.09, 'rot1': 0, 'rot0': 0, 'rot3': 0, 'rot2': 0, 'state': 'normal', 'yaw': 1.74, 'datetime': '2018-10-10 00:39:41.136479', 'mgs': 0, 'volt': 0.835, 'depth': 0.546, 'time': 13, 'pitch': -2.62, 'roll': 3.44, 'pres': 171}
{'lipoC2': 7.53, 'lipoC3S1': 4.04, 'temp': 30.13, 'lipoC3S3': 12.21, 'lipoC3S2': 8.09, 'rot1': 0, 'rot0': 0, 'rot3': 0, 'rot2': 0, 'state': 'normal', 'yaw': 1.5, 'datetime': '2018-10-10 00:39:41.241110', 'mgs': 0, 'volt': 0.8301, 'depth': 0.47, 'time': 13, 'pitch': -2.74, 'roll': 3.56, 'pres': 170}
{'lipoC2': 7.53, 'lipoC3S1': 4.04, 'temp': 30.13, 'lipoC3S3': 12.21, 'lipoC3S2': 8.09, 'rot1': 0, 'rot0': 0, 'rot3': 0, 'rot2': 0, 'state': 'normal', 'yaw': 1.16, 'datetime': '2018-10-10 00:39:41.344512', 'mgs': 0, 'volt': 0.835, 'depth': 0.546, 'time': 13, 'pitch': -2.73, 'roll': 3.64, 'pres': 171}
{'lipoC2': 7.53, 'lipoC3S1': 4.04, 'temp': 30.13, 'lipoC3S3': 12.21, 'lipoC3S2': 8.09, 'rot1': 0, 'rot0': 0, 'rot3': 0, 'rot2': 0, 'state': 'normal', 'yaw': 0.84, 'datetime': '2018-10-10 00:39:41.449151', 'mgs': 0, 'volt': 0.8301, 'depth': 0.47, 'time': 14, 'pitch': -2.71, 'roll': 3.83, 'pres': 170}
{'lipoC2': 7.53, 'lipoC3S1': 4.04, 'temp': 30.13, 'lipoC3S3': 12.21, 'lipoC3S2': 8.09, 'rot1': 0, 'rot0': 0, 'rot3': 0, 'rot2': 0, 'state': 'normal', 'yaw': 0.74, 'datetime': '2018-10-10 00:39:41.552772', 'mgs': 0, 'volt': 0.8301, 'depth': 0.47, 'time': 14, 'pitch': -2.82, 'roll': 4.05, 'pres': 170}
{'lipoC2': 7.53, 'lipoC3S1': 4.04, 'temp': 30.13, 'lipoC3S3': 12.21, 'lipoC3S2': 8.09, 'rot1': 0, 'rot0': 0, 'rot3': 0, 'rot2': 0, 'state': 'normal', 'yaw': 0.86, 'datetime': '2018-10-10 00:39:41.656227', 'mgs': 0, 'volt': 0.8301, 'depth': 0.47, 'time': 14, 'pitch': -3.01, 'roll': 4.17, 'pres': 170}
{'lipoC2': 7.53, 'lipoC3S1': 4.04, 'temp': 30.13, 'lipoC3S3': 12.21, 'lipoC3S2': 8.09, 'rot1': 0, 'rot0': 0, 'rot3': 0, 'rot2': 0, 'state': 'normal', 'yaw': 1.03, 'datetime': '2018-10-10 00:39:41.760679', 'mgs': 0, 'volt': 0.8301, 'depth': 0.47, 'time': 14, 'pitch': -2.9, 'roll': 4.18, 'pres': 170}
{'lipoC2': 7.53, 'lipoC3S1': 4.04, 'temp': 30.13, 'lipoC3S3': 12.21, 'lipoC3S2': 8.09, 'rot1': 0, 'rot0': 0, 'rot3': 0, 'rot2': 0, 'state': 'normal', 'yaw': 1.07, 'datetime': '2018-10-10 00:39:41.864125', 'mgs': 0, 'volt': 0.8301, 'depth': 0.47, 'time': 14, 'pitch': -2.49, 'roll': 4.16, 'pres': 170}
{'lipoC2': 7.53, 'lipoC3S1': 4.04, 'temp': 30.13, 'lipoC3S3': 12.21, 'lipoC3S2': 8.09, 'rot1': 0, 'rot0': 0, 'rot3': 0, 'rot2': 0, 'state': 'normal', 'yaw': 1.15, 'datetime': '2018-10-10 00:39:41.967486', 'mgs': 0, 'volt': 0.8252, 'depth': 0.394, 'time': 14, 'pitch': -2.21, 'roll': 3.87, 'pres': 169}
{'lipoC2': 7.53, 'lipoC3S1': 4.04, 'temp': 30.13, 'lipoC3S3': 12.21, 'lipoC3S2': 8.09, 'rot1': 0, 'rot0': 0, 'rot3': 0, 'rot2': 0, 'state': 'normal', 'yaw': 1.39, 'datetime': '2018-10-10 00:39:42.070704', 'mgs': 0, 'volt': 0.8301, 'depth': 0.47, 'time': 14, 'pitch': -2.36, 'roll': 3.25, 'pres': 170}
{'lipoC2': 7.53, 'lipoC3S1': 4.04, 'temp': 30.13, 'lipoC3S3': 12.21, 'lipoC3S2': 8.09, 'rot1': 0, 'rot0': 0, 'rot3': 0, 'rot2': 0, 'state': 'normal', 'yaw': 1.69, 'datetime': '2018-10-10 00:39:42.174273', 'mgs': 0, 'volt': 0.8252, 'depth': 0.394, 'time': 14, 'pitch': -2.77, 'roll': 2.33, 'pres': 169}
{'lipoC2': 7.53, 'lipoC3S1': 4.04, 'temp': 30.13, 'lipoC3S3': 12.21, 'lipoC3S2': 8.09, 'rot1': 0, 'rot0': 0, 'rot3': 0, 'rot2': 0, 'state': 'normal', 'yaw': 1.89, 'datetime': '2018-10-10 00:39:42.276396', 'mgs': 0, 'volt': 0.8252, 'depth': 0.394, 'time': 14, 'pitch': -3.24, 'roll': 1.24, 'pres': 169}
{'lipoC2': 7.53, 'lipoC3S1': 4.04, 'temp': 30.19, 'lipoC3S3': 12.21, 'lipoC3S2': 8.09, 'rot1': 0, 'rot0': 0, 'rot3': 0, 'rot2': 0, 'state': 'normal', 'yaw': 1.9, 'datetime': '2018-10-10 00:39:42.380949', 'mgs': 0, 'volt': 0.8252, 'depth': 0.394, 'time': 15, 'pitch': -3.48, 'roll': 0.49, 'pres': 169}
{'lipoC2': 7.53, 'lipoC3S1': 4.04, 'temp': 30.19, 'lipoC3S3': 12.21, 'lipoC3S2': 8.09, 'rot1': 0, 'rot0': 0, 'rot3': 0, 'rot2': 0, 'state': 'normal', 'yaw': 1.9, 'datetime': '2018-10-10 00:39:42.484398', 'mgs': 0, 'volt': 0.8301, 'depth': 0.47, 'time': 15, 'pitch': -3.26, 'roll': 0.05, 'pres': 170}
{'lipoC2': 7.53, 'lipoC3S1': 4.04, 'temp': 30.19, 'lipoC3S3': 12.21, 'lipoC3S2': 8.09, 'rot1': 0, 'rot0': 0, 'rot3': 0, 'rot2': 0, 'state': 'normal', 'yaw': 2.1, 'datetime': '2018-10-10 00:39:42.587803', 'mgs': 0, 'volt': 0.8301, 'depth': 0.47, 'time': 15, 'pitch': -3.06, 'roll': -0.32, 'pres': 170}
{'lipoC2': 7.53, 'lipoC3S1': 4.04, 'temp': 30.13, 'lipoC3S3': 12.21, 'lipoC3S2': 8.09, 'rot1': 0, 'rot0': 0, 'rot3': 0, 'rot2': 0, 'state': 'normal', 'yaw': 2.5, 'datetime': '2018-10-10 00:39:42.691109', 'mgs': 0, 'volt': 0.8301, 'depth': 0.47, 'time': 15, 'pitch': -3.22, 'roll': -0.74, 'pres': 170}
{'lipoC2': 7.53, 'lipoC3S1': 4.04, 'temp': 30.13, 'lipoC3S3': 12.21, 'lipoC3S2': 8.09, 'rot1': 0, 'rot0': 0, 'rot3': 0, 'rot2': 0, 'state': 'normal', 'yaw': 2.85, 'datetime': '2018-10-10 00:39:42.795364', 'mgs': 0, 'volt': 0.8301, 'depth': 0.47, 'time': 15, 'pitch': -3.27, 'roll': -1.18, 'pres': 170}
{'lipoC2': 7.53, 'lipoC3S1': 4.04, 'temp': 30.19, 'lipoC3S3': 12.21, 'lipoC3S2': 8.09, 'rot1': 0, 'rot0': 0, 'rot3': 0, 'rot2': 0, 'state': 'normal', 'yaw': 2.77, 'datetime': '2018-10-10 00:39:42.898811', 'mgs': 0, 'volt': 0.835, 'depth': 0.546, 'time': 15, 'pitch': -3.13, 'roll': -1.34, 'pres': 171}
{'lipoC2': 7.53, 'lipoC3S1': 4.04, 'temp': 30.19, 'lipoC3S3': 12.21, 'lipoC3S2': 8.09, 'rot1': 0, 'rot0': 0, 'rot3': 0, 'rot2': 0, 'state': 'normal', 'yaw': 2.26, 'datetime': '2018-10-10 00:39:43.002950', 'mgs': 0, 'volt': 0.835, 'depth': 0.546, 'time': 15, 'pitch': -3.15, 'roll': -1.03, 'pres': 171}
{'lipoC2': 7.53, 'lipoC3S1': 4.04, 'temp': 30.13, 'lipoC3S3': 12.21, 'lipoC3S2': 8.09, 'rot1': 0, 'rot0': 0, 'rot3': 0, 'rot2': 0, 'state': 'normal', 'yaw': 1.64, 'datetime': '2018-10-10 00:39:43.106694', 'mgs': 0, 'volt': 0.8398, 'depth': 0.623, 'time': 15, 'pitch': -3.45, 'roll': -0.45, 'pres': 172}
{'lipoC2': 7.53, 'lipoC3S1': 4.04, 'temp': 30.13, 'lipoC3S3': 12.21, 'lipoC3S2': 8.09, 'rot1': 0, 'rot0': 0, 'rot3': 0, 'rot2': 0, 'state': 'normal', 'yaw': 1.32, 'datetime': '2018-10-10 00:39:43.210000', 'mgs': 0, 'volt': 0.8447, 'depth': 0.699, 'time': 15, 'pitch': -3.8, 'roll': -0.0, 'pres': 173}
{'lipoC2': 7.53, 'lipoC3S1': 4.04, 'temp': 30.13, 'lipoC3S3': 12.21, 'lipoC3S2': 8.09, 'rot1': 0, 'rot0': 0, 'rot3': 0, 'rot2': 0, 'state': 'normal', 'yaw': 1.6, 'datetime': '2018-10-10 00:39:43.314664', 'mgs': 0, 'volt': 0.8447, 'depth': 0.699, 'time': 15, 'pitch': -3.76, 'roll': 0.01, 'pres': 173}
{'lipoC2': 7.53, 'lipoC3S1': 4.04, 'temp': 30.13, 'lipoC3S3': 12.21, 'lipoC3S2': 8.09, 'rot1': 0, 'rot0': 0, 'rot3': 0, 'rot2': 0, 'state': 'normal', 'yaw': 2.13, 'datetime': '2018-10-10 00:39:43.418259', 'mgs': 0, 'volt': 0.8447, 'depth': 0.699, 'time': 16, 'pitch': -3.34, 'roll': -0.39, 'pres': 173}
{'lipoC2': 7.53, 'lipoC3S1': 4.04, 'temp': 30.13, 'lipoC3S3': 12.21, 'lipoC3S2': 8.09, 'rot1': 0, 'rot0': 0, 'rot3': 0, 'rot2': 0, 'state': 'normal', 'yaw': 2.54, 'datetime': '2018-10-10 00:39:43.521364', 'mgs': 0, 'volt': 0.8447, 'depth': 0.699, 'time': 16, 'pitch': -2.67, 'roll': -1.04, 'pres': 173}
{'lipoC2': 7.53, 'lipoC3S1': 4.04, 'temp': 30.13, 'lipoC3S3': 12.21, 'lipoC3S2': 8.09, 'rot1': 0, 'rot0': 0, 'rot3': 0, 'rot2': 0, 'state': 'normal', 'yaw': 2.8, 'datetime': '2018-10-10 00:39:43.624749', 'mgs': 0, 'volt': 0.8447, 'depth': 0.699, 'time': 16, 'pitch': -2.17, 'roll': -1.71, 'pres': 173}
{'lipoC2': 7.53, 'lipoC3S1': 4.04, 'temp': 30.13, 'lipoC3S3': 12.21, 'lipoC3S2': 8.09, 'rot1': 0, 'rot0': 0, 'rot3': 0, 'rot2': 0, 'state': 'normal', 'yaw': 2.93, 'datetime': '2018-10-10 00:39:43.728225', 'mgs': 0, 'volt': 0.8447, 'depth': 0.699, 'time': 16, 'pitch': -2.21, 'roll': -2.15, 'pres': 173}
{'lipoC2': 7.53, 'lipoC3S1': 4.04, 'temp': 30.13, 'lipoC3S3': 12.21, 'lipoC3S2': 8.09, 'rot1': 0, 'rot0': 0, 'rot3': 0, 'rot2': 0, 'state': 'normal', 'yaw': 2.89, 'datetime': '2018-10-10 00:39:43.831461', 'mgs': 0, 'volt': 0.8447, 'depth': 0.699, 'time': 16, 'pitch': -2.65, 'roll': -2.26, 'pres': 173}
{'lipoC2': 7.53, 'lipoC3S1': 4.04, 'temp': 30.13, 'lipoC3S3': 12.21, 'lipoC3S2': 8.09, 'rot1': 0, 'rot0': 0, 'rot3': 0, 'rot2': 0, 'state': 'normal', 'yaw': 2.72, 'datetime': '2018-10-10 00:39:43.934935', 'mgs': 0, 'volt': 0.8447, 'depth': 0.699, 'time': 16, 'pitch': -2.77, 'roll': -1.99, 'pres': 173}
{'lipoC2': 7.53, 'lipoC3S1': 4.04, 'temp': 30.13, 'lipoC3S3': 12.21, 'lipoC3S2': 8.09, 'rot1': 0, 'rot0': 0, 'rot3': 0, 'rot2': 0, 'state': 'normal', 'yaw': 2.63, 'datetime': '2018-10-10 00:39:44.038452', 'mgs': 0, 'volt': 0.8447, 'depth': 0.699, 'time': 16, 'pitch': -2.23, 'roll': -1.52, 'pres': 173}
{'lipoC2': 7.53, 'lipoC3S1': 4.04, 'temp': 30.13, 'lipoC3S3': 12.21, 'lipoC3S2': 8.09, 'rot1': 0, 'rot0': 0, 'rot3': 0, 'rot2': 0, 'state': 'normal', 'yaw': 2.81, 'datetime': '2018-10-10 00:39:44.141894', 'mgs': 0, 'volt': 0.8398, 'depth': 0.623, 'time': 16, 'pitch': -1.19, 'roll': -1.08, 'pres': 172}
{'lipoC2': 7.53, 'lipoC3S1': 4.03, 'temp': 30.13, 'lipoC3S3': 12.21, 'lipoC3S2': 8.09, 'rot1': 0, 'rot0': 0, 'rot3': 0, 'rot2': 0, 'state': 'normal', 'yaw': 3.25, 'datetime': '2018-10-10 00:39:44.245260', 'mgs': 0, 'volt': 0.8398, 'depth': 0.623, 'time': 16, 'pitch': -0.47, 'roll': -0.8, 'pres': 172}
{'lipoC2': 7.53, 'lipoC3S1': 4.04, 'temp': 30.13, 'lipoC3S3': 12.21, 'lipoC3S2': 8.09, 'rot1': 0, 'rot0': 0, 'rot3': 0, 'rot2': 0, 'state': 'normal', 'yaw': 3.76, 'datetime': '2018-10-10 00:39:44.349383', 'mgs': 0, 'volt': 0.835, 'depth': 0.546, 'time': 16, 'pitch': -0.26, 'roll': -0.52, 'pres': 171}
{'lipoC2': 7.53, 'lipoC3S1': 4.04, 'temp': 30.13, 'lipoC3S3': 12.21, 'lipoC3S2': 8.09, 'rot1': 0, 'rot0': 0, 'rot3': 0, 'rot2': 0, 'state': 'normal', 'yaw': 4.32, 'datetime': '2018-10-10 00:39:44.451272', 'mgs': 0, 'volt': 0.835, 'depth': 0.546, 'time': 17, 'pitch': -0.5, 'roll': 0.07, 'pres': 171}
{'lipoC2': 7.53, 'lipoC3S1': 4.04, 'temp': 30.13, 'lipoC3S3': 12.21, 'lipoC3S2': 8.09, 'rot1': 0, 'rot0': 0, 'rot3': 0, 'rot2': 0, 'state': 'normal', 'yaw': 4.76, 'datetime': '2018-10-10 00:39:44.551697', 'mgs': 0, 'volt': 0.835, 'depth': 0.546, 'time': 17, 'pitch': -0.55, 'roll': 0.91, 'pres': 171}
{'lipoC2': 7.53, 'lipoC3S1': 4.04, 'temp': 30.13, 'lipoC3S3': 12.21, 'lipoC3S2': 8.09, 'rot1': 0, 'rot0': 0, 'rot3': 0, 'rot2': 0, 'state': 'normal', 'yaw': 5.05, 'datetime': '2018-10-10 00:39:44.654950', 'mgs': 0, 'volt': 0.835, 'depth': 0.546, 'time': 17, 'pitch': -0.11, 'roll': 2.1, 'pres': 171}
{'lipoC2': 7.53, 'lipoC3S1': 4.04, 'temp': 30.13, 'lipoC3S3': 12.21, 'lipoC3S2': 8.09, 'rot1': 0, 'rot0': 0, 'rot3': 0, 'rot2': 0, 'state': 'normal', 'yaw': 5.05, 'datetime': '2018-10-10 00:39:44.758259', 'mgs': 0, 'volt': 0.835, 'depth': 0.546, 'time': 17, 'pitch': 0.58, 'roll': 3.24, 'pres': 171}
{'lipoC2': 7.53, 'lipoC3S1': 4.04, 'temp': 30.13, 'lipoC3S3': 12.21, 'lipoC3S2': 8.09, 'rot1': 0, 'rot0': 0, 'rot3': 0, 'rot2': 0, 'state': 'normal', 'yaw': 4.9, 'datetime': '2018-10-10 00:39:44.862908', 'mgs': 0, 'volt': 0.8301, 'depth': 0.47, 'time': 17, 'pitch': 1.02, 'roll': 4.04, 'pres': 170}
{'lipoC2': 7.53, 'lipoC3S1': 4.04, 'temp': 30.13, 'lipoC3S3': 12.21, 'lipoC3S2': 8.09, 'rot1': 0, 'rot0': 0, 'rot3': 0, 'rot2': 0, 'state': 'normal', 'yaw': 4.84, 'datetime': '2018-10-10 00:39:44.966243', 'mgs': 0, 'volt': 0.8301, 'depth': 0.47, 'time': 17, 'pitch': 0.92, 'roll': 4.04, 'pres': 170}
{'lipoC2': 7.53, 'lipoC3S1': 4.04, 'temp': 30.13, 'lipoC3S3': 12.21, 'lipoC3S2': 8.09, 'rot1': 0, 'rot0': 0, 'rot3': 0, 'rot2': 0, 'state': 'normal', 'yaw': 5.08, 'datetime': '2018-10-10 00:39:45.069523', 'mgs': 0, 'volt': 0.8252, 'depth': 0.394, 'time': 17, 'pitch': 0.33, 'roll': 3.09, 'pres': 169}
{'lipoC2': 7.53, 'lipoC3S1': 4.04, 'temp': 30.13, 'lipoC3S3': 12.21, 'lipoC3S2': 8.09, 'rot1': 0, 'rot0': 0, 'rot3': 0, 'rot2': 0, 'state': 'normal', 'yaw': 5.52, 'datetime': '2018-10-10 00:39:45.172874', 'mgs': 0, 'volt': 0.8252, 'depth': 0.394, 'time': 17, 'pitch': -0.78, 'roll': 1.5, 'pres': 169}
{'lipoC2': 7.53, 'lipoC3S1': 4.04, 'temp': 30.13, 'lipoC3S3': 12.21, 'lipoC3S2': 8.09, 'rot1': 0, 'rot0': 0, 'rot3': 0, 'rot2': 0, 'state': 'normal', 'yaw': 5.87, 'datetime': '2018-10-10 00:39:45.276361', 'mgs': 0, 'volt': 0.8252, 'depth': 0.394, 'time': 17, 'pitch': -2.02, 'roll': 0.11, 'pres': 169}
{'lipoC2': 7.53, 'lipoC3S1': 4.04, 'temp': 30.13, 'lipoC3S3': 12.21, 'lipoC3S2': 8.09, 'rot1': 0, 'rot0': 0, 'rot3': 0, 'rot2': 0, 'state': 'normal', 'yaw': 5.82, 'datetime': '2018-10-10 00:39:45.379723', 'mgs': 0, 'volt': 0.8252, 'depth': 0.394, 'time': 18, 'pitch': -2.66, 'roll': -0.41, 'pres': 169}
{'lipoC2': 7.53, 'lipoC3S1': 4.04, 'temp': 30.13, 'lipoC3S3': 12.21, 'lipoC3S2': 8.09, 'rot1': 0, 'rot0': 0, 'rot3': 0, 'rot2': 0, 'state': 'normal', 'yaw': 5.49, 'datetime': '2018-10-10 00:39:45.483043', 'mgs': 0, 'volt': 0.8252, 'depth': 0.394, 'time': 18, 'pitch': -2.49, 'roll': -0.22, 'pres': 169}
{'lipoC2': 7.53, 'lipoC3S1': 4.04, 'temp': 30.13, 'lipoC3S3': 12.21, 'lipoC3S2': 8.09, 'rot1': 0, 'rot0': 0, 'rot3': 0, 'rot2': 0, 'state': 'normal', 'yaw': 5.17, 'datetime': '2018-10-10 00:39:45.586630', 'mgs': 0, 'volt': 0.8252, 'depth': 0.394, 'time': 18, 'pitch': -2.1, 'roll': 0.04, 'pres': 169}
{'lipoC2': 7.53, 'lipoC3S1': 4.04, 'temp': 30.13, 'lipoC3S3': 12.21, 'lipoC3S2': 8.09, 'rot1': 0, 'rot0': 0, 'rot3': 0, 'rot2': 0, 'state': 'normal', 'yaw': 5.03, 'datetime': '2018-10-10 00:39:45.689970', 'mgs': 0, 'volt': 0.8252, 'depth': 0.394, 'time': 18, 'pitch': -1.74, 'roll': -0.12, 'pres': 169}
{'lipoC2': 7.53, 'lipoC3S1': 4.04, 'temp': 30.13, 'lipoC3S3': 12.21, 'lipoC3S2': 8.09, 'rot1': 0, 'rot0': 0, 'rot3': 0, 'rot2': 0, 'state': 'normal', 'yaw': 5.01, 'datetime': '2018-10-10 00:39:45.793712', 'mgs': 0, 'volt': 0.8252, 'depth': 0.394, 'time': 18, 'pitch': -1.65, 'roll': -0.74, 'pres': 169}
{'lipoC2': 7.53, 'lipoC3S1': 4.04, 'temp': 30.13, 'lipoC3S3': 12.21, 'lipoC3S2': 8.09, 'rot1': 0, 'rot0': 0, 'rot3': 0, 'rot2': 0, 'state': 'normal', 'yaw': 4.92, 'datetime': '2018-10-10 00:39:45.897814', 'mgs': 0, 'volt': 0.8301, 'depth': 0.47, 'time': 18, 'pitch': -1.65, 'roll': -1.57, 'pres': 170}
{'lipoC2': 7.53, 'lipoC3S1': 4.04, 'temp': 30.13, 'lipoC3S3': 12.21, 'lipoC3S2': 8.09, 'rot1': 0, 'rot0': 0, 'rot3': 0, 'rot2': 0, 'state': 'normal', 'yaw': 4.75, 'datetime': '2018-10-10 00:39:46.000953', 'mgs': 0, 'volt': 0.8301, 'depth': 0.47, 'time': 18, 'pitch': -1.49, 'roll': -2.4, 'pres': 170}
{'lipoC2': 7.53, 'lipoC3S1': 4.04, 'temp': 30.13, 'lipoC3S3': 12.21, 'lipoC3S2': 8.09, 'rot1': 0, 'rot0': 0, 'rot3': 0, 'rot2': 0, 'state': 'normal', 'yaw': 4.57, 'datetime': '2018-10-10 00:39:46.105553', 'mgs': 0, 'volt': 0.835, 'depth': 0.546, 'time': 18, 'pitch': -0.89, 'roll': -2.89, 'pres': 171}
{'lipoC2': 7.53, 'lipoC3S1': 4.04, 'temp': 30.13, 'lipoC3S3': 12.21, 'lipoC3S2': 8.09, 'rot1': 0, 'rot0': 0, 'rot3': 0, 'rot2': 0, 'state': 'normal', 'yaw': 4.19, 'datetime': '2018-10-10 00:39:46.208912', 'mgs': 0, 'volt': 0.8398, 'depth': 0.623, 'time': 18, 'pitch': 0.18, 'roll': -3.08, 'pres': 172}
{'lipoC2': 7.53, 'lipoC3S1': 4.04, 'temp': 30.13, 'lipoC3S3': 12.21, 'lipoC3S2': 8.09, 'rot1': 0, 'rot0': 0, 'rot3': 0, 'rot2': 0, 'state': 'normal', 'yaw': 3.68, 'datetime': '2018-10-10 00:39:46.312251', 'mgs': 0, 'volt': 0.8398, 'depth': 0.623, 'time': 18, 'pitch': 1.17, 'roll': -3.0, 'pres': 172}
{'lipoC2': 7.53, 'lipoC3S1': 4.04, 'temp': 30.13, 'lipoC3S3': 12.21, 'lipoC3S2': 8.09, 'rot1': 0, 'rot0': 0, 'rot3': 0, 'rot2': 0, 'state': 'normal', 'yaw': 3.01, 'datetime': '2018-10-10 00:39:46.416896', 'mgs': 0, 'volt': 0.8398, 'depth': 0.623, 'time': 19, 'pitch': 1.88, 'roll': -2.91, 'pres': 172}
{'lipoC2': 7.53, 'lipoC3S1': 4.04, 'temp': 30.13, 'lipoC3S3': 12.21, 'lipoC3S2': 8.09, 'rot1': 0, 'rot0': 0, 'rot3': 0, 'rot2': 0, 'state': 'normal', 'yaw': 2.22, 'datetime': '2018-10-10 00:39:46.520193', 'mgs': 0, 'volt': 0.8447, 'depth': 0.699, 'time': 19, 'pitch': 2.26, 'roll': -3.11, 'pres': 173}
{'lipoC2': 7.53, 'lipoC3S1': 4.04, 'temp': 30.13, 'lipoC3S3': 12.21, 'lipoC3S2': 8.09, 'rot1': 0, 'rot0': 0, 'rot3': 0, 'rot2': 0, 'state': 'normal', 'yaw': 1.66, 'datetime': '2018-10-10 00:39:46.623501', 'mgs': 0, 'volt': 0.8496, 'depth': 0.775, 'time': 19, 'pitch': 2.39, 'roll': -3.49, 'pres': 174}
{'lipoC2': 7.53, 'lipoC3S1': 4.04, 'temp': 30.13, 'lipoC3S3': 12.21, 'lipoC3S2': 8.09, 'rot1': 0, 'rot0': 0, 'rot3': 0, 'rot2': 0, 'state': 'normal', 'yaw': 1.37, 'datetime': '2018-10-10 00:39:46.726827', 'mgs': 0, 'volt': 0.8496, 'depth': 0.775, 'time': 19, 'pitch': 2.42, 'roll': -3.81, 'pres': 174}
{'lipoC2': 7.53, 'lipoC3S1': 4.04, 'temp': 30.13, 'lipoC3S3': 12.21, 'lipoC3S2': 8.09, 'rot1': 0, 'rot0': 0, 'rot3': 0, 'rot2': 0, 'state': 'normal', 'yaw': 1.38, 'datetime': '2018-10-10 00:39:46.830132', 'mgs': 0, 'volt': 0.8496, 'depth': 0.775, 'time': 19, 'pitch': 2.53, 'roll': -3.81, 'pres': 174}
{'lipoC2': 7.53, 'lipoC3S1': 4.04, 'temp': 30.13, 'lipoC3S3': 12.21, 'lipoC3S2': 8.09, 'rot1': 0, 'rot0': 0, 'rot3': 0, 'rot2': 0, 'state': 'normal', 'yaw': 1.65, 'datetime': '2018-10-10 00:39:46.933448', 'mgs': 0, 'volt': 0.8545, 'depth': 0.851, 'time': 19, 'pitch': 2.68, 'roll': -3.51, 'pres': 175}
{'lipoC2': 7.53, 'lipoC3S1': 4.04, 'temp': 30.13, 'lipoC3S3': 12.21, 'lipoC3S2': 8.09, 'rot1': 0, 'rot0': 0, 'rot3': 0, 'rot2': 0, 'state': 'normal', 'yaw': 1.97, 'datetime': '2018-10-10 00:39:47.036779', 'mgs': 0, 'volt': 0.8545, 'depth': 0.851, 'time': 19, 'pitch': 2.62, 'roll': -3.05, 'pres': 175}
{'lipoC2': 7.53, 'lipoC3S1': 4.04, 'temp': 30.13, 'lipoC3S3': 12.21, 'lipoC3S2': 8.09, 'rot1': 0, 'rot0': 0, 'rot3': 0, 'rot2': 0, 'state': 'normal', 'yaw': 2.21, 'datetime': '2018-10-10 00:39:47.140265', 'mgs': 0, 'volt': 0.8545, 'depth': 0.851, 'time': 19, 'pitch': 2.46, 'roll': -2.66, 'pres': 175}
{'lipoC2': 7.53, 'lipoC3S1': 4.04, 'temp': 30.13, 'lipoC3S3': 12.21, 'lipoC3S2': 8.09, 'rot1': 0, 'rot0': 0, 'rot3': 0, 'rot2': 0, 'state': 'normal', 'yaw': 2.33, 'datetime': '2018-10-10 00:39:47.243615', 'mgs': 0, 'volt': 0.8545, 'depth': 0.851, 'time': 19, 'pitch': 2.14, 'roll': -2.61, 'pres': 175}
{'lipoC2': 7.53, 'lipoC3S1': 4.04, 'temp': 30.13, 'lipoC3S3': 12.21, 'lipoC3S2': 8.09, 'rot1': 0, 'rot0': 0, 'rot3': 0, 'rot2': 0, 'state': 'normal', 'yaw': 2.43, 'datetime': '2018-10-10 00:39:47.347949', 'mgs': 0, 'volt': 0.8545, 'depth': 0.851, 'time': 19, 'pitch': 1.81, 'roll': -2.85, 'pres': 175}
{'lipoC2': 7.53, 'lipoC3S1': 4.04, 'temp': 30.13, 'lipoC3S3': 12.21, 'lipoC3S2': 8.09, 'rot1': 0, 'rot0': 0, 'rot3': 0, 'rot2': 0, 'state': 'normal', 'yaw': 2.42, 'datetime': '2018-10-10 00:39:47.451621', 'mgs': 0, 'volt': 0.8545, 'depth': 0.851, 'time': 20, 'pitch': 1.92, 'roll': -3.08, 'pres': 175}
{'lipoC2': 7.53, 'lipoC3S1': 4.04, 'temp': 30.13, 'lipoC3S3': 12.21, 'lipoC3S2': 8.09, 'rot1': 0, 'rot0': 0, 'rot3': 0, 'rot2': 0, 'state': 'normal', 'yaw': 2.32, 'datetime': '2018-10-10 00:39:47.554917', 'mgs': 0, 'volt': 0.8594, 'depth': 0.928, 'time': 20, 'pitch': 2.61, 'roll': -3.08, 'pres': 176}
{'lipoC2': 7.53, 'lipoC3S1': 4.03, 'temp': 30.13, 'lipoC3S3': 12.21, 'lipoC3S2': 8.09, 'rot1': 0, 'rot0': 0, 'rot3': 0, 'rot2': 0, 'state': 'normal', 'yaw': 2.18, 'datetime': '2018-10-10 00:39:47.659541', 'mgs': 0, 'volt': 0.8545, 'depth': 0.851, 'time': 20, 'pitch': 3.47, 'roll': -2.91, 'pres': 175}
{'lipoC2': 7.53, 'lipoC3S1': 4.04, 'temp': 30.13, 'lipoC3S3': 12.21, 'lipoC3S2': 8.09, 'rot1': 0, 'rot0': 0, 'rot3': 0, 'rot2': 0, 'state': 'normal', 'yaw': 2.08, 'datetime': '2018-10-10 00:39:47.762885', 'mgs': 0, 'volt': 0.8545, 'depth': 0.851, 'time': 20, 'pitch': 3.96, 'roll': -2.68, 'pres': 175}
{'lipoC2': 7.53, 'lipoC3S1': 4.04, 'temp': 30.13, 'lipoC3S3': 12.21, 'lipoC3S2': 8.09, 'rot1': 0, 'rot0': 0, 'rot3': 0, 'rot2': 0, 'state': 'normal', 'yaw': 1.96, 'datetime': '2018-10-10 00:39:47.866219', 'mgs': 0, 'volt': 0.8545, 'depth': 0.851, 'time': 20, 'pitch': 3.71, 'roll': -2.63, 'pres': 175}
{'lipoC2': 7.53, 'lipoC3S1': 4.04, 'temp': 30.13, 'lipoC3S3': 12.21, 'lipoC3S2': 8.09, 'rot1': 0, 'rot0': 0, 'rot3': 0, 'rot2': 0, 'state': 'normal', 'yaw': 1.74, 'datetime': '2018-10-10 00:39:47.970837', 'mgs': 0, 'volt': 0.8594, 'depth': 0.928, 'time': 20, 'pitch': 3.07, 'roll': -2.73, 'pres': 176}
{'lipoC2': 7.53, 'lipoC3S1': 4.04, 'temp': 30.13, 'lipoC3S3': 12.21, 'lipoC3S2': 8.09, 'rot1': 0, 'rot0': 0, 'rot3': 0, 'rot2': 0, 'state': 'normal', 'yaw': 1.56, 'datetime': '2018-10-10 00:39:48.074158', 'mgs': 0, 'volt': 0.8594, 'depth': 0.928, 'time': 20, 'pitch': 2.48, 'roll': -2.73, 'pres': 176}
{'lipoC2': 7.53, 'lipoC3S1': 4.04, 'temp': 30.13, 'lipoC3S3': 12.21, 'lipoC3S2': 8.09, 'rot1': 0, 'rot0': 0, 'rot3': 0, 'rot2': 0, 'state': 'normal', 'yaw': 1.57, 'datetime': '2018-10-10 00:39:48.177497', 'mgs': 0, 'volt': 0.8594, 'depth': 0.928, 'time': 20, 'pitch': 2.26, 'roll': -2.36, 'pres': 176}
{'lipoC2': 7.53, 'lipoC3S1': 4.04, 'temp': 30.13, 'lipoC3S3': 12.21, 'lipoC3S2': 8.09, 'rot1': 0, 'rot0': 0, 'rot3': 0, 'rot2': 0, 'state': 'normal', 'yaw': 1.72, 'datetime': '2018-10-10 00:39:48.280823', 'mgs': 0, 'volt': 0.8594, 'depth': 0.928, 'time': 20, 'pitch': 2.27, 'roll': -1.78, 'pres': 176}
{'lipoC2': 7.53, 'lipoC3S1': 4.04, 'temp': 30.13, 'lipoC3S3': 12.21, 'lipoC3S2': 8.09, 'rot1': 0, 'rot0': 0, 'rot3': 0, 'rot2': 0, 'state': 'normal', 'yaw': 2.0, 'datetime': '2018-10-10 00:39:48.384118', 'mgs': 0, 'volt': 0.8643, 'depth': 1.004, 'time': 21, 'pitch': 2.58, 'roll': -1.15, 'pres': 177}
{'lipoC2': 7.53, 'lipoC3S1': 4.04, 'temp': 30.13, 'lipoC3S3': 12.21, 'lipoC3S2': 8.09, 'rot1': 0, 'rot0': 0, 'rot3': 0, 'rot2': 0, 'state': 'normal', 'yaw': 2.25, 'datetime': '2018-10-10 00:39:48.487466', 'mgs': 0, 'volt': 0.8643, 'depth': 1.004, 'time': 21, 'pitch': 3.33, 'roll': -0.72, 'pres': 177}
{'lipoC2': 7.53, 'lipoC3S1': 4.04, 'temp': 30.13, 'lipoC3S3': 12.21, 'lipoC3S2': 8.09, 'rot1': 0, 'rot0': 0, 'rot3': 0, 'rot2': 0, 'state': 'normal', 'yaw': 2.28, 'datetime': '2018-10-10 00:39:48.590774', 'mgs': 0, 'volt': 0.8643, 'depth': 1.004, 'time': 21, 'pitch': 4.07, 'roll': -0.76, 'pres': 177}
{'lipoC2': 7.53, 'lipoC3S1': 4.04, 'temp': 30.06, 'lipoC3S3': 12.21, 'lipoC3S2': 8.09, 'rot1': 0, 'rot0': 0, 'rot3': 0, 'rot2': 0, 'state': 'normal', 'yaw': 2.1, 'datetime': '2018-10-10 00:39:48.694302', 'mgs': 0, 'volt': 0.8643, 'depth': 1.004, 'time': 21, 'pitch': 4.35, 'roll': -1.17, 'pres': 177}
{'lipoC2': 7.53, 'lipoC3S1': 4.04, 'temp': 30.06, 'lipoC3S3': 12.21, 'lipoC3S2': 8.09, 'rot1': 0, 'rot0': 0, 'rot3': 0, 'rot2': 0, 'state': 'normal', 'yaw': 1.82, 'datetime': '2018-10-10 00:39:48.797676', 'mgs': 0, 'volt': 0.8643, 'depth': 1.004, 'time': 21, 'pitch': 3.85, 'roll': -1.62, 'pres': 177}
{'lipoC2': 7.53, 'lipoC3S1': 4.04, 'temp': 30.06, 'lipoC3S3': 12.21, 'lipoC3S2': 8.09, 'rot1': 0, 'rot0': 0, 'rot3': 0, 'rot2': 0, 'state': 'normal', 'yaw': 1.78, 'datetime': '2018-10-10 00:39:48.901424', 'mgs': 0, 'volt': 0.8643, 'depth': 1.004, 'time': 21, 'pitch': 2.82, 'roll': -1.72, 'pres': 177}
{'lipoC2': 7.53, 'lipoC3S1': 4.04, 'temp': 30.13, 'lipoC3S3': 12.21, 'lipoC3S2': 8.09, 'rot1': 0, 'rot0': 0, 'rot3': 0, 'rot2': 0, 'state': 'normal', 'yaw': 1.96, 'datetime': '2018-10-10 00:39:49.005318', 'mgs': 0, 'volt': 0.8643, 'depth': 1.004, 'time': 21, 'pitch': 1.84, 'roll': -1.49, 'pres': 177}
{'lipoC2': 7.53, 'lipoC3S1': 4.04, 'temp': 30.13, 'lipoC3S3': 12.21, 'lipoC3S2': 8.09, 'rot1': 0, 'rot0': 0, 'rot3': 0, 'rot2': 0, 'state': 'normal', 'yaw': 2.3, 'datetime': '2018-10-10 00:39:49.108638', 'mgs': 0, 'volt': 0.8643, 'depth': 1.004, 'time': 21, 'pitch': 1.66, 'roll': -1.07, 'pres': 177}
{'lipoC2': 7.53, 'lipoC3S1': 4.04, 'temp': 30.13, 'lipoC3S3': 12.21, 'lipoC3S2': 8.09, 'rot1': 0, 'rot0': 0, 'rot3': 0, 'rot2': 0, 'state': 'normal', 'yaw': 2.58, 'datetime': '2018-10-10 00:39:49.213298', 'mgs': 0, 'volt': 0.8643, 'depth': 1.004, 'time': 21, 'pitch': 2.45, 'roll': -0.87, 'pres': 177}
