{'lipoC2': 0.0, 'lipoC3S1': 4.04, 'temp': 26.31, 'lipoC3S3': 12.21, 'lipoC3S2': 8.08, 'rot1': 13, 'rot0': 11, 'rot3': 50, 'rot2': 41, 'state': 'normal', 'yaw': -6.86, 'datetime': '2018-10-03 16:37:23.342956', 'mgs': 0, 'volt': 0.8936, 'depth': 1.462, 'time': 58, 'pitch': -1.81, 'roll': 4.29, 'pres': 183}
{'lipoC2': 0.0, 'lipoC3S1': 4.04, 'temp': 26.25, 'lipoC3S3': 12.21, 'lipoC3S2': 8.08, 'rot1': 0, 'rot0': 0, 'rot3': 0, 'rot2': 0, 'state': 'normal', 'yaw': -0.0, 'datetime': '2018-10-03 16:37:23.366379', 'mgs': 0, 'volt': 0.9131, 'depth': 1.767, 'time': 1, 'pitch': -8.53, 'roll': 2.11, 'pres': 187}
{'lipoC2': 0.0, 'lipoC3S1': 4.04, 'temp': 26.25, 'lipoC3S3': 12.21, 'lipoC3S2': 8.08, 'rot1': 0, 'rot0': 0, 'rot3': 0, 'rot2': 0, 'state': 'normal', 'yaw': 0.12, 'datetime': '2018-10-03 16:37:23.389381', 'mgs': 0, 'volt': 0.9131, 'depth': 1.767, 'time': 1, 'pitch': -9.12, 'roll': 2.07, 'pres': 187}
{'lipoC2': 0.0, 'lipoC3S1': 4.04, 'temp': 26.25, 'lipoC3S3': 12.21, 'lipoC3S2': 8.08, 'rot1': 0, 'rot0': 0, 'rot3': 0, 'rot2': 0, 'state': 'normal', 'yaw': 0.1, 'datetime': '2018-10-03 16:37:23.405375', 'mgs': 0, 'volt': 0.9131, 'depth': 1.767, 'time': 1, 'pitch': -9.57, 'roll': 2.16, 'pres': 187}
{'lipoC2': 0.0, 'lipoC3S1': 4.03, 'temp': 26.25, 'lipoC3S3': 12.21, 'lipoC3S2': 8.08, 'rot1': 0, 'rot0': 0, 'rot3': 0, 'rot2': 0, 'state': 'normal', 'yaw': -0.07, 'datetime': '2018-10-03 16:37:23.415454', 'mgs': 0, 'volt': 0.9131, 'depth': 1.767, 'time': 1, 'pitch': -9.86, 'roll': 2.34, 'pres': 187}
{'lipoC2': 0.0, 'lipoC3S1': 4.04, 'temp': 26.25, 'lipoC3S3': 12.21, 'lipoC3S2': 8.08, 'rot1': 0, 'rot0': 0, 'rot3': 0, 'rot2': 0, 'state': 'normal', 'yaw': -0.12, 'datetime': '2018-10-03 16:37:23.425475', 'mgs': 0, 'volt': 0.9131, 'depth': 1.767, 'time': 1, 'pitch': -9.79, 'roll': 2.45, 'pres': 187}
{'lipoC2': 0.0, 'lipoC3S1': 4.04, 'temp': 26.25, 'lipoC3S3': 12.21, 'lipoC3S2': 8.08, 'rot1': 0, 'rot0': 0, 'rot3': 0, 'rot2': 0, 'state': 'normal', 'yaw': -0.1, 'datetime': '2018-10-03 16:37:23.435555', 'mgs': 0, 'volt': 0.9131, 'depth': 1.767, 'time': 1, 'pitch': -9.56, 'roll': 2.42, 'pres': 187}
{'lipoC2': 0.0, 'lipoC3S1': 4.04, 'temp': 26.25, 'lipoC3S3': 12.21, 'lipoC3S2': 8.08, 'rot1': 0, 'rot0': 0, 'rot3': 0, 'rot2': 0, 'state': 'normal', 'yaw': -0.02, 'datetime': '2018-10-03 16:37:23.445495', 'mgs': 0, 'volt': 0.9131, 'depth': 1.767, 'time': 1, 'pitch': -9.38, 'roll': 2.29, 'pres': 187}
{'lipoC2': 0.0, 'lipoC3S1': 4.04, 'temp': 26.31, 'lipoC3S3': 12.21, 'lipoC3S2': 8.08, 'rot1': 0, 'rot0': 0, 'rot3': 0, 'rot2': 0, 'state': 'normal', 'yaw': 0.16, 'datetime': '2018-10-03 16:37:23.455473', 'mgs': 0, 'volt': 0.9131, 'depth': 1.767, 'time': 1, 'pitch': -9.41, 'roll': 1.96, 'pres': 187}
{'lipoC2': 0.0, 'lipoC3S1': 4.04, 'temp': 26.31, 'lipoC3S3': 12.21, 'lipoC3S2': 8.08, 'rot1': 0, 'rot0': 0, 'rot3': 0, 'rot2': 0, 'state': 'normal', 'yaw': 0.41, 'datetime': '2018-10-03 16:37:23.464861', 'mgs': 0, 'volt': 0.9131, 'depth': 1.767, 'time': 2, 'pitch': -9.43, 'roll': 1.56, 'pres': 187}
{'lipoC2': 0.0, 'lipoC3S1': 4.04, 'temp': 26.31, 'lipoC3S3': 12.21, 'lipoC3S2': 8.08, 'rot1': 0, 'rot0': 0, 'rot3': 0, 'rot2': 0, 'state': 'normal', 'yaw': 0.68, 'datetime': '2018-10-03 16:37:23.474361', 'mgs': 0, 'volt': 0.9131, 'depth': 1.767, 'time': 2, 'pitch': -9.3, 'roll': 1.17, 'pres': 187}
{'lipoC2': 0.0, 'lipoC3S1': 4.04, 'temp': 26.31, 'lipoC3S3': 12.21, 'lipoC3S2': 8.08, 'rot1': 0, 'rot0': 0, 'rot3': 0, 'rot2': 0, 'state': 'normal', 'yaw': 0.91, 'datetime': '2018-10-03 16:37:23.483838', 'mgs': 0, 'volt': 0.9082, 'depth': 1.691, 'time': 2, 'pitch': -9.04, 'roll': 0.83, 'pres': 186}
{'lipoC2': 0.0, 'lipoC3S1': 4.04, 'temp': 26.31, 'lipoC3S3': 12.21, 'lipoC3S2': 8.08, 'rot1': 0, 'rot0': 0, 'rot3': 0, 'rot2': 0, 'state': 'normal', 'yaw': 1.16, 'datetime': '2018-10-03 16:37:23.493355', 'mgs': 0, 'volt': 0.9082, 'depth': 1.691, 'time': 2, 'pitch': -8.63, 'roll': 0.57, 'pres': 186}
{'lipoC2': 0.0, 'lipoC3S1': 4.04, 'temp': 26.25, 'lipoC3S3': 12.21, 'lipoC3S2': 8.08, 'rot1': 0, 'rot0': 0, 'rot3': 0, 'rot2': 0, 'state': 'normal', 'yaw': 1.37, 'datetime': '2018-10-03 16:37:23.502770', 'mgs': 0, 'volt': 0.9082, 'depth': 1.691, 'time': 2, 'pitch': -8.2, 'roll': 0.43, 'pres': 186}
{'lipoC2': 0.0, 'lipoC3S1': 4.04, 'temp': 26.25, 'lipoC3S3': 12.21, 'lipoC3S2': 8.08, 'rot1': 0, 'rot0': 0, 'rot3': 0, 'rot2': 0, 'state': 'normal', 'yaw': 1.63, 'datetime': '2018-10-03 16:37:23.513001', 'mgs': 0, 'volt': 0.9082, 'depth': 1.691, 'time': 2, 'pitch': -7.63, 'roll': 0.35, 'pres': 186}
{'lipoC2': 0.0, 'lipoC3S1': 4.04, 'temp': 26.31, 'lipoC3S3': 12.21, 'lipoC3S2': 8.08, 'rot1': 0, 'rot0': 0, 'rot3': 0, 'rot2': 0, 'state': 'normal', 'yaw': 1.74, 'datetime': '2018-10-03 16:37:23.523380', 'mgs': 0, 'volt': 0.9082, 'depth': 1.691, 'time': 2, 'pitch': -7.0, 'roll': 0.39, 'pres': 186}
{'lipoC2': 0.0, 'lipoC3S1': 4.04, 'temp': 26.31, 'lipoC3S3': 12.21, 'lipoC3S2': 8.08, 'rot1': 0, 'rot0': 0, 'rot3': 0, 'rot2': 0, 'state': 'normal', 'yaw': 1.74, 'datetime': '2018-10-03 16:37:23.532908', 'mgs': 0, 'volt': 0.9082, 'depth': 1.691, 'time': 2, 'pitch': -6.5, 'roll': 0.43, 'pres': 186}
{'lipoC2': 0.0, 'lipoC3S1': 4.04, 'temp': 26.31, 'lipoC3S3': 12.21, 'lipoC3S2': 8.08, 'rot1': 0, 'rot0': 0, 'rot3': 0, 'rot2': 0, 'state': 'normal', 'yaw': 1.74, 'datetime': '2018-10-03 16:37:23.542722', 'mgs': 0, 'volt': 0.9033, 'depth': 1.614, 'time': 2, 'pitch': -6.19, 'roll': 0.42, 'pres': 185}
{'lipoC2': 0.0, 'lipoC3S1': 4.04, 'temp': 26.31, 'lipoC3S3': 12.21, 'lipoC3S2': 8.08, 'rot1': 0, 'rot0': 0, 'rot3': 0, 'rot2': 0, 'state': 'normal', 'yaw': 1.89, 'datetime': '2018-10-03 16:37:23.552611', 'mgs': 0, 'volt': 0.9033, 'depth': 1.614, 'time': 3, 'pitch': -6.12, 'roll': 0.39, 'pres': 185}
{'lipoC2': 0.0, 'lipoC3S1': 4.04, 'temp': 26.31, 'lipoC3S3': 12.21, 'lipoC3S2': 8.08, 'rot1': 0, 'rot0': 0, 'rot3': 0, 'rot2': 0, 'state': 'normal', 'yaw': 2.14, 'datetime': '2018-10-03 16:37:23.562138', 'mgs': 0, 'volt': 0.9033, 'depth': 1.614, 'time': 3, 'pitch': -6.13, 'roll': 0.27, 'pres': 185}
{'lipoC2': 0.0, 'lipoC3S1': 4.04, 'temp': 26.31, 'lipoC3S3': 12.21, 'lipoC3S2': 8.08, 'rot1': 0, 'rot0': 0, 'rot3': 0, 'rot2': 0, 'state': 'normal', 'yaw': 2.44, 'datetime': '2018-10-03 16:37:23.571505', 'mgs': 0, 'volt': 0.9033, 'depth': 1.614, 'time': 3, 'pitch': -6.05, 'roll': 0.14, 'pres': 185}
{'lipoC2': 0.0, 'lipoC3S1': 4.04, 'temp': 26.31, 'lipoC3S3': 12.21, 'lipoC3S2': 8.08, 'rot1': 0, 'rot0': 0, 'rot3': 0, 'rot2': 0, 'state': 'normal', 'yaw': 2.73, 'datetime': '2018-10-03 16:37:23.580911', 'mgs': 0, 'volt': 0.8984, 'depth': 1.538, 'time': 3, 'pitch': -5.85, 'roll': 0.05, 'pres': 184}
{'lipoC2': 0.0, 'lipoC3S1': 4.04, 'temp': 26.31, 'lipoC3S3': 12.21, 'lipoC3S2': 8.08, 'rot1': 0, 'rot0': 0, 'rot3': 0, 'rot2': 0, 'state': 'normal', 'yaw': 2.98, 'datetime': '2018-10-03 16:37:23.590341', 'mgs': 0, 'volt': 0.8984, 'depth': 1.538, 'time': 3, 'pitch': -5.7, 'roll': 0.02, 'pres': 184}
{'lipoC2': 0.0, 'lipoC3S1': 4.04, 'temp': 26.31, 'lipoC3S3': 12.21, 'lipoC3S2': 8.08, 'rot1': 0, 'rot0': 0, 'rot3': 0, 'rot2': 0, 'state': 'normal', 'yaw': 3.18, 'datetime': '2018-10-03 16:37:23.599709', 'mgs': 0, 'volt': 0.8984, 'depth': 1.538, 'time': 3, 'pitch': -5.57, 'roll': 0.05, 'pres': 184}
{'lipoC2': 0.0, 'lipoC3S1': 4.04, 'temp': 26.31, 'lipoC3S3': 12.21, 'lipoC3S2': 8.08, 'rot1': 0, 'rot0': 0, 'rot3': 0, 'rot2': 0, 'state': 'normal', 'yaw': 3.31, 'datetime': '2018-10-03 16:37:23.609083', 'mgs': 0, 'volt': 0.8984, 'depth': 1.538, 'time': 3, 'pitch': -5.46, 'roll': 0.2, 'pres': 184}
{'lipoC2': 0.0, 'lipoC3S1': 4.04, 'temp': 26.31, 'lipoC3S3': 12.21, 'lipoC3S2': 8.08, 'rot1': 0, 'rot0': 0, 'rot3': 0, 'rot2': 0, 'state': 'normal', 'yaw': 3.33, 'datetime': '2018-10-03 16:37:23.618525', 'mgs': 0, 'volt': 0.8984, 'depth': 1.538, 'time': 3, 'pitch': -5.4, 'roll': 0.47, 'pres': 184}
{'lipoC2': 0.0, 'lipoC3S1': 4.04, 'temp': 26.31, 'lipoC3S3': 12.21, 'lipoC3S2': 8.08, 'rot1': 0, 'rot0': 0, 'rot3': 0, 'rot2': 0, 'state': 'normal', 'yaw': 3.33, 'datetime': '2018-10-03 16:37:23.628978', 'mgs': 0, 'volt': 0.8936, 'depth': 1.462, 'time': 3, 'pitch': -5.4, 'roll': 0.77, 'pres': 183}
{'lipoC2': 0.0, 'lipoC3S1': 4.04, 'temp': 26.25, 'lipoC3S3': 12.21, 'lipoC3S2': 8.08, 'rot1': 0, 'rot0': 0, 'rot3': 0, 'rot2': 0, 'state': 'normal', 'yaw': 3.33, 'datetime': '2018-10-03 16:37:23.733440', 'mgs': 0, 'volt': 0.8936, 'depth': 1.462, 'time': 3, 'pitch': -5.4, 'roll': 1.07, 'pres': 183}
{'lipoC2': 0.0, 'lipoC3S1': 4.04, 'temp': 26.25, 'lipoC3S3': 12.21, 'lipoC3S2': 8.08, 'rot1': 0, 'rot0': 0, 'rot3': 0, 'rot2': 0, 'state': 'normal', 'yaw': 3.33, 'datetime': '2018-10-03 16:37:23.836542', 'mgs': 0, 'volt': 0.8936, 'depth': 1.462, 'time': 4, 'pitch': -5.4, 'roll': 1.39, 'pres': 183}
{'lipoC2': 0.0, 'lipoC3S1': 4.04, 'temp': 26.31, 'lipoC3S3': 12.21, 'lipoC3S2': 8.08, 'rot1': 0, 'rot0': 0, 'rot3': 0, 'rot2': 0, 'state': 'normal', 'yaw': 3.34, 'datetime': '2018-10-03 16:37:23.939893', 'mgs': 0, 'volt': 0.8936, 'depth': 1.462, 'time': 4, 'pitch': -5.37, 'roll': 1.64, 'pres': 183}
{'lipoC2': 0.0, 'lipoC3S1': 4.04, 'temp': 26.31, 'lipoC3S3': 12.21, 'lipoC3S2': 8.08, 'rot1': 0, 'rot0': 0, 'rot3': 0, 'rot2': 0, 'state': 'normal', 'yaw': 3.45, 'datetime': '2018-10-03 16:37:24.044240', 'mgs': 0, 'volt': 0.8936, 'depth': 1.462, 'time': 4, 'pitch': -5.39, 'roll': 1.82, 'pres': 183}
{'lipoC2': 0.0, 'lipoC3S1': 4.04, 'temp': 26.31, 'lipoC3S3': 12.21, 'lipoC3S2': 8.08, 'rot1': 0, 'rot0': 0, 'rot3': 0, 'rot2': 0, 'state': 'normal', 'yaw': 3.63, 'datetime': '2018-10-03 16:37:24.148056', 'mgs': 0, 'volt': 0.8936, 'depth': 1.462, 'time': 4, 'pitch': -5.6, 'roll': 1.96, 'pres': 183}
{'lipoC2': 0.0, 'lipoC3S1': 4.04, 'temp': 26.31, 'lipoC3S3': 12.21, 'lipoC3S2': 8.08, 'rot1': 0, 'rot0': 0, 'rot3': 0, 'rot2': 0, 'state': 'normal', 'yaw': 3.82, 'datetime': '2018-10-03 16:37:24.251154', 'mgs': 0, 'volt': 0.8936, 'depth': 1.462, 'time': 4, 'pitch': -5.96, 'roll': 1.96, 'pres': 183}
{'lipoC2': 0.0, 'lipoC3S1': 4.04, 'temp': 26.31, 'lipoC3S3': 12.21, 'lipoC3S2': 8.08, 'rot1': 0, 'rot0': 0, 'rot3': 0, 'rot2': 0, 'state': 'normal', 'yaw': 4.0, 'datetime': '2018-10-03 16:37:24.355509', 'mgs': 0, 'volt': 0.8936, 'depth': 1.462, 'time': 4, 'pitch': -6.3, 'roll': 1.92, 'pres': 183}
{'lipoC2': 0.0, 'lipoC3S1': 4.04, 'temp': 26.31, 'lipoC3S3': 12.21, 'lipoC3S2': 8.08, 'rot1': 0, 'rot0': 0, 'rot3': 0, 'rot2': 0, 'state': 'normal', 'yaw': 4.16, 'datetime': '2018-10-03 16:37:24.458601', 'mgs': 0, 'volt': 0.8936, 'depth': 1.462, 'time': 4, 'pitch': -6.4, 'roll': 1.77, 'pres': 183}
{'lipoC2': 0.0, 'lipoC3S1': 4.04, 'temp': 26.31, 'lipoC3S3': 12.21, 'lipoC3S2': 8.08, 'rot1': 0, 'rot0': 0, 'rot3': 0, 'rot2': 0, 'state': 'normal', 'yaw': 4.19, 'datetime': '2018-10-03 16:37:24.561717', 'mgs': 0, 'volt': 0.8936, 'depth': 1.462, 'time': 4, 'pitch': -6.15, 'roll': 1.67, 'pres': 183}
{'lipoC2': 0.0, 'lipoC3S1': 4.04, 'temp': 26.31, 'lipoC3S3': 12.21, 'lipoC3S2': 8.08, 'rot1': 0, 'rot0': 0, 'rot3': 0, 'rot2': 0, 'state': 'normal', 'yaw': 4.15, 'datetime': '2018-10-03 16:37:24.664823', 'mgs': 0, 'volt': 0.8936, 'depth': 1.462, 'time': 4, 'pitch': -5.83, 'roll': 1.6, 'pres': 183}
{'lipoC2': 0.0, 'lipoC3S1': 4.04, 'temp': 26.31, 'lipoC3S3': 12.21, 'lipoC3S2': 8.08, 'rot1': 0, 'rot0': 0, 'rot3': 0, 'rot2': 0, 'state': 'normal', 'yaw': 3.98, 'datetime': '2018-10-03 16:37:24.768051', 'mgs': 0, 'volt': 0.8936, 'depth': 1.462, 'time': 4, 'pitch': -5.72, 'roll': 1.54, 'pres': 183}
{'lipoC2': 0.0, 'lipoC3S1': 4.04, 'temp': 26.31, 'lipoC3S3': 12.21, 'lipoC3S2': 8.08, 'rot1': 0, 'rot0': 0, 'rot3': 0, 'rot2': 0, 'state': 'normal', 'yaw': 3.78, 'datetime': '2018-10-03 16:37:24.871170', 'mgs': 0, 'volt': 0.8936, 'depth': 1.462, 'time': 5, 'pitch': -5.86, 'roll': 1.46, 'pres': 183}
{'lipoC2': 0.0, 'lipoC3S1': 4.04, 'temp': 26.31, 'lipoC3S3': 12.21, 'lipoC3S2': 8.08, 'rot1': 0, 'rot0': 0, 'rot3': 0, 'rot2': 0, 'state': 'normal', 'yaw': 3.65, 'datetime': '2018-10-03 16:37:24.974258', 'mgs': 0, 'volt': 0.8936, 'depth': 1.462, 'time': 5, 'pitch': -6.06, 'roll': 1.3, 'pres': 183}
{'lipoC2': 0.0, 'lipoC3S1': 4.04, 'temp': 26.31, 'lipoC3S3': 12.21, 'lipoC3S2': 8.08, 'rot1': 0, 'rot0': 0, 'rot3': 0, 'rot2': 0, 'state': 'normal', 'yaw': 3.51, 'datetime': '2018-10-03 16:37:25.077351', 'mgs': 0, 'volt': 0.8936, 'depth': 1.462, 'time': 5, 'pitch': -6.26, 'roll': 1.13, 'pres': 183}
{'lipoC2': 0.0, 'lipoC3S1': 4.04, 'temp': 26.31, 'lipoC3S3': 12.21, 'lipoC3S2': 8.08, 'rot1': 0, 'rot0': 0, 'rot3': 0, 'rot2': 0, 'state': 'normal', 'yaw': 3.35, 'datetime': '2018-10-03 16:37:25.180481', 'mgs': 0, 'volt': 0.8936, 'depth': 1.462, 'time': 5, 'pitch': -6.4, 'roll': 0.94, 'pres': 183}
{'lipoC2': 0.0, 'lipoC3S1': 4.04, 'temp': 26.31, 'lipoC3S3': 12.21, 'lipoC3S2': 8.08, 'rot1': 0, 'rot0': 0, 'rot3': 0, 'rot2': 0, 'state': 'normal', 'yaw': 3.14, 'datetime': '2018-10-03 16:37:25.283597', 'mgs': 0, 'volt': 0.8936, 'depth': 1.462, 'time': 5, 'pitch': -6.46, 'roll': 0.8, 'pres': 183}
{'lipoC2': 0.0, 'lipoC3S1': 4.04, 'temp': 26.31, 'lipoC3S3': 12.21, 'lipoC3S2': 8.08, 'rot1': 0, 'rot0': 0, 'rot3': 0, 'rot2': 0, 'state': 'normal', 'yaw': 2.97, 'datetime': '2018-10-03 16:37:25.387890', 'mgs': 0, 'volt': 0.8936, 'depth': 1.462, 'time': 5, 'pitch': -6.46, 'roll': 0.67, 'pres': 183}
{'lipoC2': 0.0, 'lipoC3S1': 4.04, 'temp': 26.31, 'lipoC3S3': 12.21, 'lipoC3S2': 8.08, 'rot1': 0, 'rot0': 0, 'rot3': 0, 'rot2': 0, 'state': 'normal', 'yaw': 2.86, 'datetime': '2018-10-03 16:37:25.490996', 'mgs': 0, 'volt': 0.8936, 'depth': 1.462, 'time': 5, 'pitch': -6.51, 'roll': 0.5, 'pres': 183}
{'lipoC2': 0.0, 'lipoC3S1': 4.04, 'temp': 26.31, 'lipoC3S3': 12.21, 'lipoC3S2': 8.08, 'rot1': 0, 'rot0': 0, 'rot3': 0, 'rot2': 0, 'state': 'normal', 'yaw': 2.82, 'datetime': '2018-10-03 16:37:25.594082', 'mgs': 0, 'volt': 0.8936, 'depth': 1.462, 'time': 5, 'pitch': -6.67, 'roll': 0.33, 'pres': 183}
{'lipoC2': 0.0, 'lipoC3S1': 4.04, 'temp': 26.38, 'lipoC3S3': 12.21, 'lipoC3S2': 8.08, 'rot1': 0, 'rot0': 0, 'rot3': 0, 'rot2': 0, 'state': 'normal', 'yaw': 2.82, 'datetime': '2018-10-03 16:37:25.698497', 'mgs': 0, 'volt': 0.8887, 'depth': 1.385, 'time': 5, 'pitch': -6.86, 'roll': 0.18, 'pres': 182}
{'lipoC2': 0.0, 'lipoC3S1': 4.04, 'temp': 26.38, 'lipoC3S3': 12.21, 'lipoC3S2': 8.08, 'rot1': 0, 'rot0': 0, 'rot3': 0, 'rot2': 0, 'state': 'normal', 'yaw': 2.82, 'datetime': '2018-10-03 16:37:25.801600', 'mgs': 0, 'volt': 0.8936, 'depth': 1.462, 'time': 6, 'pitch': -7.0, 'roll': 0.06, 'pres': 183}
{'lipoC2': 0.0, 'lipoC3S1': 4.04, 'temp': 26.31, 'lipoC3S3': 12.21, 'lipoC3S2': 8.08, 'rot1': 0, 'rot0': 0, 'rot3': 0, 'rot2': 0, 'state': 'normal', 'yaw': 2.82, 'datetime': '2018-10-03 16:37:25.904703', 'mgs': 0, 'volt': 0.8887, 'depth': 1.385, 'time': 6, 'pitch': -7.03, 'roll': 0.03, 'pres': 182}
{'lipoC2': 0.0, 'lipoC3S1': 4.04, 'temp': 26.31, 'lipoC3S3': 12.21, 'lipoC3S2': 8.08, 'rot1': 0, 'rot0': 0, 'rot3': 0, 'rot2': 0, 'state': 'normal', 'yaw': 2.82, 'datetime': '2018-10-03 16:37:26.009094', 'mgs': 0, 'volt': 0.8936, 'depth': 1.462, 'time': 6, 'pitch': -7.04, 'roll': 0.04, 'pres': 183}
{'lipoC2': 0.0, 'lipoC3S1': 4.04, 'temp': 26.31, 'lipoC3S3': 12.21, 'lipoC3S2': 8.08, 'rot1': 0, 'rot0': 0, 'rot3': 0, 'rot2': 0, 'state': 'normal', 'yaw': 2.82, 'datetime': '2018-10-03 16:37:26.112697', 'mgs': 0, 'volt': 0.8887, 'depth': 1.385, 'time': 6, 'pitch': -7.14, 'roll': 0.17, 'pres': 182}
{'lipoC2': 0.0, 'lipoC3S1': 4.04, 'temp': 26.31, 'lipoC3S3': 12.21, 'lipoC3S2': 8.08, 'rot1': 0, 'rot0': 0, 'rot3': 0, 'rot2': 0, 'state': 'normal', 'yaw': 2.81, 'datetime': '2018-10-03 16:37:26.215719', 'mgs': 0, 'volt': 0.8887, 'depth': 1.385, 'time': 6, 'pitch': -7.27, 'roll': 0.35, 'pres': 182}
{'lipoC2': 0.0, 'lipoC3S1': 4.04, 'temp': 26.31, 'lipoC3S3': 12.21, 'lipoC3S2': 8.08, 'rot1': 0, 'rot0': 0, 'rot3': 0, 'rot2': 0, 'state': 'normal', 'yaw': 2.78, 'datetime': '2018-10-03 16:37:26.318830', 'mgs': 0, 'volt': 0.8887, 'depth': 1.385, 'time': 6, 'pitch': -7.46, 'roll': 0.55, 'pres': 182}
{'lipoC2': 0.0, 'lipoC3S1': 4.04, 'temp': 26.31, 'lipoC3S3': 12.21, 'lipoC3S2': 8.08, 'rot1': 0, 'rot0': 0, 'rot3': 0, 'rot2': 0, 'state': 'normal', 'yaw': 2.79, 'datetime': '2018-10-03 16:37:26.422226', 'mgs': 0, 'volt': 0.8887, 'depth': 1.385, 'time': 6, 'pitch': -7.61, 'roll': 0.72, 'pres': 182}
{'lipoC2': 0.0, 'lipoC3S1': 4.04, 'temp': 26.31, 'lipoC3S3': 12.21, 'lipoC3S2': 8.08, 'rot1': 0, 'rot0': 0, 'rot3': 0, 'rot2': 0, 'state': 'normal', 'yaw': 2.78, 'datetime': '2018-10-03 16:37:26.525334', 'mgs': 0, 'volt': 0.8887, 'depth': 1.385, 'time': 6, 'pitch': -7.78, 'roll': 0.92, 'pres': 182}
{'lipoC2': 0.0, 'lipoC3S1': 4.04, 'temp': 26.25, 'lipoC3S3': 12.21, 'lipoC3S2': 8.08, 'rot1': 0, 'rot0': 0, 'rot3': 0, 'rot2': 0, 'state': 'normal', 'yaw': 2.78, 'datetime': '2018-10-03 16:37:26.628463', 'mgs': 0, 'volt': 0.8887, 'depth': 1.385, 'time': 6, 'pitch': -7.92, 'roll': 1.1, 'pres': 182}
{'lipoC2': 0.0, 'lipoC3S1': 4.04, 'temp': 26.25, 'lipoC3S3': 12.21, 'lipoC3S2': 8.08, 'rot1': 0, 'rot0': 0, 'rot3': 0, 'rot2': 0, 'state': 'normal', 'yaw': 2.8, 'datetime': '2018-10-03 16:37:26.731555', 'mgs': 0, 'volt': 0.8887, 'depth': 1.385, 'time': 6, 'pitch': -8.02, 'roll': 1.25, 'pres': 182}
{'lipoC2': 0.0, 'lipoC3S1': 4.04, 'temp': 26.31, 'lipoC3S3': 12.21, 'lipoC3S2': 8.08, 'rot1': 0, 'rot0': 0, 'rot3': 0, 'rot2': 0, 'state': 'normal', 'yaw': 2.93, 'datetime': '2018-10-03 16:37:26.834688', 'mgs': 0, 'volt': 0.8887, 'depth': 1.385, 'time': 7, 'pitch': -8.07, 'roll': 1.36, 'pres': 182}
{'lipoC2': 0.0, 'lipoC3S1': 4.04, 'temp': 26.31, 'lipoC3S3': 12.21, 'lipoC3S2': 8.08, 'rot1': 0, 'rot0': 0, 'rot3': 0, 'rot2': 0, 'state': 'normal', 'yaw': 3.09, 'datetime': '2018-10-03 16:37:26.937804', 'mgs': 0, 'volt': 0.8887, 'depth': 1.385, 'time': 7, 'pitch': -8.13, 'roll': 1.41, 'pres': 182}
{'lipoC2': 0.0, 'lipoC3S1': 4.04, 'temp': 26.31, 'lipoC3S3': 12.21, 'lipoC3S2': 8.08, 'rot1': 0, 'rot0': 0, 'rot3': 0, 'rot2': 0, 'state': 'normal', 'yaw': 3.28, 'datetime': '2018-10-03 16:37:27.040871', 'mgs': 0, 'volt': 0.8887, 'depth': 1.385, 'time': 7, 'pitch': -8.23, 'roll': 1.38, 'pres': 182}
{'lipoC2': 0.0, 'lipoC3S1': 4.04, 'temp': 26.31, 'lipoC3S3': 12.21, 'lipoC3S2': 8.08, 'rot1': 0, 'rot0': 0, 'rot3': 0, 'rot2': 0, 'state': 'normal', 'yaw': 3.44, 'datetime': '2018-10-03 16:37:27.144804', 'mgs': 0, 'volt': 0.8936, 'depth': 1.462, 'time': 7, 'pitch': -8.38, 'roll': 1.36, 'pres': 183}
{'lipoC2': 0.0, 'lipoC3S1': 4.04, 'temp': 26.31, 'lipoC3S3': 12.21, 'lipoC3S2': 8.08, 'rot1': 0, 'rot0': 0, 'rot3': 0, 'rot2': 0, 'state': 'normal', 'yaw': 3.57, 'datetime': '2018-10-03 16:37:27.247968', 'mgs': 0, 'volt': 0.8887, 'depth': 1.385, 'time': 7, 'pitch': -8.58, 'roll': 1.3, 'pres': 182}
{'lipoC2': 0.0, 'lipoC3S1': 4.04, 'temp': 26.31, 'lipoC3S3': 12.21, 'lipoC3S2': 8.08, 'rot1': 0, 'rot0': 0, 'rot3': 0, 'rot2': 0, 'state': 'normal', 'yaw': 3.61, 'datetime': '2018-10-03 16:37:27.352239', 'mgs': 0, 'volt': 0.8936, 'depth': 1.462, 'time': 7, 'pitch': -8.71, 'roll': 1.26, 'pres': 183}
{'lipoC2': 0.0, 'lipoC3S1': 4.04, 'temp': 26.31, 'lipoC3S3': 12.21, 'lipoC3S2': 8.08, 'rot1': 0, 'rot0': 0, 'rot3': 0, 'rot2': 0, 'state': 'normal', 'yaw': 3.61, 'datetime': '2018-10-03 16:37:27.455909', 'mgs': 0, 'volt': 0.8936, 'depth': 1.462, 'time': 7, 'pitch': -8.76, 'roll': 1.25, 'pres': 183}
{'lipoC2': 0.0, 'lipoC3S1': 4.04, 'temp': 26.25, 'lipoC3S3': 12.21, 'lipoC3S2': 8.08, 'rot1': 0, 'rot0': 0, 'rot3': 0, 'rot2': 0, 'state': 'normal', 'yaw': 3.48, 'datetime': '2018-10-03 16:37:27.558980', 'mgs': 0, 'volt': 0.8936, 'depth': 1.462, 'time': 7, 'pitch': -8.81, 'roll': 1.27, 'pres': 183}
{'lipoC2': 0.0, 'lipoC3S1': 4.04, 'temp': 26.25, 'lipoC3S3': 12.21, 'lipoC3S2': 8.08, 'rot1': 0, 'rot0': 0, 'rot3': 0, 'rot2': 0, 'state': 'normal', 'yaw': 3.18, 'datetime': '2018-10-03 16:37:27.663397', 'mgs': 0, 'volt': 0.8936, 'depth': 1.462, 'time': 7, 'pitch': -8.96, 'roll': 1.39, 'pres': 183}
{'lipoC2': 0.0, 'lipoC3S1': 4.04, 'temp': 26.25, 'lipoC3S3': 12.21, 'lipoC3S2': 8.08, 'rot1': 0, 'rot0': 0, 'rot3': 0, 'rot2': 0, 'state': 'normal', 'yaw': 2.85, 'datetime': '2018-10-03 16:37:27.767249', 'mgs': 0, 'volt': 0.8936, 'depth': 1.462, 'time': 7, 'pitch': -9.1, 'roll': 1.52, 'pres': 183}
{'lipoC2': 0.0, 'lipoC3S1': 4.04, 'temp': 26.31, 'lipoC3S3': 12.21, 'lipoC3S2': 8.08, 'rot1': 0, 'rot0': 0, 'rot3': 0, 'rot2': 0, 'state': 'normal', 'yaw': 2.56, 'datetime': '2018-10-03 16:37:27.870345', 'mgs': 0, 'volt': 0.8887, 'depth': 1.385, 'time': 8, 'pitch': -9.12, 'roll': 1.57, 'pres': 182}
{'lipoC2': 0.0, 'lipoC3S1': 4.04, 'temp': 26.31, 'lipoC3S3': 12.21, 'lipoC3S2': 8.08, 'rot1': 0, 'rot0': 0, 'rot3': 0, 'rot2': 0, 'state': 'normal', 'yaw': 2.41, 'datetime': '2018-10-03 16:37:27.973438', 'mgs': 0, 'volt': 0.8936, 'depth': 1.462, 'time': 8, 'pitch': -9.02, 'roll': 1.5, 'pres': 183}
{'lipoC2': 0.0, 'lipoC3S1': 4.04, 'temp': 26.25, 'lipoC3S3': 12.21, 'lipoC3S2': 8.08, 'rot1': 0, 'rot0': 0, 'rot3': 0, 'rot2': 0, 'state': 'normal', 'yaw': 2.29, 'datetime': '2018-10-03 16:37:28.076588', 'mgs': 0, 'volt': 0.8936, 'depth': 1.462, 'time': 8, 'pitch': -8.92, 'roll': 1.34, 'pres': 183}
{'lipoC2': 0.0, 'lipoC3S1': 4.04, 'temp': 26.25, 'lipoC3S3': 12.21, 'lipoC3S2': 8.08, 'rot1': 0, 'rot0': 0, 'rot3': 0, 'rot2': 0, 'state': 'normal', 'yaw': 2.17, 'datetime': '2018-10-03 16:37:28.179696', 'mgs': 0, 'volt': 0.8936, 'depth': 1.462, 'time': 8, 'pitch': -8.81, 'roll': 1.12, 'pres': 183}
{'lipoC2': 0.0, 'lipoC3S1': 4.04, 'temp': 26.31, 'lipoC3S3': 12.21, 'lipoC3S2': 8.08, 'rot1': 0, 'rot0': 0, 'rot3': 0, 'rot2': 0, 'state': 'normal', 'yaw': 2.2, 'datetime': '2018-10-03 16:37:28.282848', 'mgs': 0, 'volt': 0.8936, 'depth': 1.462, 'time': 8, 'pitch': -8.68, 'roll': 0.84, 'pres': 183}
{'lipoC2': 0.0, 'lipoC3S1': 4.04, 'temp': 26.31, 'lipoC3S3': 12.21, 'lipoC3S2': 8.08, 'rot1': 0, 'rot0': 0, 'rot3': 0, 'rot2': 0, 'state': 'normal', 'yaw': 2.39, 'datetime': '2018-10-03 16:37:28.385914', 'mgs': 0, 'volt': 0.8936, 'depth': 1.462, 'time': 8, 'pitch': -8.62, 'roll': 0.48, 'pres': 183}
{'lipoC2': 0.0, 'lipoC3S1': 4.04, 'temp': 26.31, 'lipoC3S3': 12.21, 'lipoC3S2': 8.08, 'rot1': 0, 'rot0': 0, 'rot3': 0, 'rot2': 0, 'state': 'normal', 'yaw': 2.64, 'datetime': '2018-10-03 16:37:28.489218', 'mgs': 0, 'volt': 0.8936, 'depth': 1.462, 'time': 8, 'pitch': -8.63, 'roll': 0.12, 'pres': 183}
{'lipoC2': 0.0, 'lipoC3S1': 4.04, 'temp': 26.31, 'lipoC3S3': 12.21, 'lipoC3S2': 8.08, 'rot1': 0, 'rot0': 0, 'rot3': 0, 'rot2': 0, 'state': 'normal', 'yaw': 2.92, 'datetime': '2018-10-03 16:37:28.592369', 'mgs': 0, 'volt': 0.8936, 'depth': 1.462, 'time': 8, 'pitch': -8.69, 'roll': -0.12, 'pres': 183}
{'lipoC2': 0.0, 'lipoC3S1': 4.04, 'temp': 26.31, 'lipoC3S3': 12.21, 'lipoC3S2': 8.08, 'rot1': 0, 'rot0': 0, 'rot3': 0, 'rot2': 0, 'state': 'normal', 'yaw': 3.11, 'datetime': '2018-10-03 16:37:28.695428', 'mgs': 0, 'volt': 0.8936, 'depth': 1.462, 'time': 8, 'pitch': -8.69, 'roll': -0.22, 'pres': 183}
{'lipoC2': 0.0, 'lipoC3S1': 4.04, 'temp': 26.25, 'lipoC3S3': 12.21, 'lipoC3S2': 8.08, 'rot1': 0, 'rot0': 0, 'rot3': 0, 'rot2': 0, 'state': 'normal', 'yaw': 3.16, 'datetime': '2018-10-03 16:37:28.799462', 'mgs': 0, 'volt': 0.8936, 'depth': 1.462, 'time': 9, 'pitch': -8.68, 'roll': -0.15, 'pres': 183}
{'lipoC2': 0.0, 'lipoC3S1': 4.04, 'temp': 26.25, 'lipoC3S3': 12.21, 'lipoC3S2': 8.08, 'rot1': 0, 'rot0': 0, 'rot3': 0, 'rot2': 0, 'state': 'normal', 'yaw': 3.08, 'datetime': '2018-10-03 16:37:28.902638', 'mgs': 0, 'volt': 0.8984, 'depth': 1.538, 'time': 9, 'pitch': -8.67, 'roll': 0.12, 'pres': 184}
{'lipoC2': 0.0, 'lipoC3S1': 4.04, 'temp': 26.31, 'lipoC3S3': 12.21, 'lipoC3S2': 8.08, 'rot1': 0, 'rot0': 0, 'rot3': 0, 'rot2': 0, 'state': 'normal', 'yaw': 2.85, 'datetime': '2018-10-03 16:37:29.005820', 'mgs': 0, 'volt': 0.8984, 'depth': 1.538, 'time': 9, 'pitch': -8.68, 'roll': 0.53, 'pres': 184}
{'lipoC2': 0.0, 'lipoC3S1': 4.04, 'temp': 26.31, 'lipoC3S3': 12.21, 'lipoC3S2': 8.08, 'rot1': 0, 'rot0': 0, 'rot3': 0, 'rot2': 0, 'state': 'normal', 'yaw': 2.51, 'datetime': '2018-10-03 16:37:29.110179', 'mgs': 0, 'volt': 0.8984, 'depth': 1.538, 'time': 9, 'pitch': -8.68, 'roll': 1.04, 'pres': 184}
{'lipoC2': 0.0, 'lipoC3S1': 4.04, 'temp': 26.31, 'lipoC3S3': 12.21, 'lipoC3S2': 8.08, 'rot1': 0, 'rot0': 0, 'rot3': 0, 'rot2': 0, 'state': 'normal', 'yaw': 2.15, 'datetime': '2018-10-03 16:37:29.213315', 'mgs': 0, 'volt': 0.8984, 'depth': 1.538, 'time': 9, 'pitch': -8.62, 'roll': 1.55, 'pres': 184}
{'lipoC2': 0.0, 'lipoC3S1': 4.04, 'temp': 26.25, 'lipoC3S3': 12.21, 'lipoC3S2': 8.08, 'rot1': 0, 'rot0': 0, 'rot3': 0, 'rot2': 0, 'state': 'normal', 'yaw': 1.9, 'datetime': '2018-10-03 16:37:29.316848', 'mgs': 0, 'volt': 0.8984, 'depth': 1.538, 'time': 9, 'pitch': -8.57, 'roll': 1.87, 'pres': 184}
{'lipoC2': 0.0, 'lipoC3S1': 4.04, 'temp': 26.25, 'lipoC3S3': 12.21, 'lipoC3S2': 8.08, 'rot1': 0, 'rot0': 0, 'rot3': 0, 'rot2': 0, 'state': 'normal', 'yaw': 1.82, 'datetime': '2018-10-03 16:37:29.421337', 'mgs': 0, 'volt': 0.8984, 'depth': 1.538, 'time': 9, 'pitch': -8.61, 'roll': 1.99, 'pres': 184}
{'lipoC2': 0.0, 'lipoC3S1': 4.04, 'temp': 26.31, 'lipoC3S3': 12.21, 'lipoC3S2': 8.08, 'rot1': 0, 'rot0': 0, 'rot3': 0, 'rot2': 0, 'state': 'normal', 'yaw': 1.87, 'datetime': '2018-10-03 16:37:29.524468', 'mgs': 0, 'volt': 0.8984, 'depth': 1.538, 'time': 9, 'pitch': -8.8, 'roll': 1.91, 'pres': 184}
{'lipoC2': 0.0, 'lipoC3S1': 4.04, 'temp': 26.31, 'lipoC3S3': 12.21, 'lipoC3S2': 8.08, 'rot1': 0, 'rot0': 0, 'rot3': 0, 'rot2': 0, 'state': 'normal', 'yaw': 2.0, 'datetime': '2018-10-03 16:37:29.627570', 'mgs': 0, 'volt': 0.8984, 'depth': 1.538, 'time': 9, 'pitch': -9.05, 'roll': 1.71, 'pres': 184}
{'lipoC2': 0.0, 'lipoC3S1': 4.04, 'temp': 26.31, 'lipoC3S3': 12.21, 'lipoC3S2': 8.08, 'rot1': 0, 'rot0': 0, 'rot3': 0, 'rot2': 0, 'state': 'normal', 'yaw': 2.1, 'datetime': '2018-10-03 16:37:29.730732', 'mgs': 0, 'volt': 0.8984, 'depth': 1.538, 'time': 9, 'pitch': -9.28, 'roll': 1.48, 'pres': 184}
{'lipoC2': 0.0, 'lipoC3S1': 4.04, 'temp': 26.31, 'lipoC3S3': 12.21, 'lipoC3S2': 8.08, 'rot1': 0, 'rot0': 0, 'rot3': 0, 'rot2': 0, 'state': 'normal', 'yaw': 2.12, 'datetime': '2018-10-03 16:37:29.833924', 'mgs': 0, 'volt': 0.8984, 'depth': 1.538, 'time': 10, 'pitch': -9.42, 'roll': 1.26, 'pres': 184}
{'lipoC2': 0.0, 'lipoC3S1': 4.04, 'temp': 26.31, 'lipoC3S3': 12.21, 'lipoC3S2': 8.08, 'rot1': 0, 'rot0': 0, 'rot3': 0, 'rot2': 0, 'state': 'normal', 'yaw': 2.11, 'datetime': '2018-10-03 16:37:29.937098', 'mgs': 0, 'volt': 0.8984, 'depth': 1.538, 'time': 10, 'pitch': -9.41, 'roll': 1.04, 'pres': 184}
{'lipoC2': 0.0, 'lipoC3S1': 4.04, 'temp': 26.31, 'lipoC3S3': 12.21, 'lipoC3S2': 8.08, 'rot1': 0, 'rot0': 0, 'rot3': 0, 'rot2': 0, 'state': 'normal', 'yaw': 2.02, 'datetime': '2018-10-03 16:37:30.040347', 'mgs': 0, 'volt': 0.8936, 'depth': 1.462, 'time': 10, 'pitch': -9.32, 'roll': 0.83, 'pres': 183}
{'lipoC2': 0.0, 'lipoC3S1': 4.04, 'temp': 26.31, 'lipoC3S3': 12.21, 'lipoC3S2': 8.08, 'rot1': 0, 'rot0': 0, 'rot3': 0, 'rot2': 0, 'state': 'normal', 'yaw': 1.9, 'datetime': '2018-10-03 16:37:30.143808', 'mgs': 0, 'volt': 0.8936, 'depth': 1.462, 'time': 10, 'pitch': -9.22, 'roll': 0.61, 'pres': 183}
{'lipoC2': 0.0, 'lipoC3S1': 4.04, 'temp': 26.31, 'lipoC3S3': 12.21, 'lipoC3S2': 8.08, 'rot1': 0, 'rot0': 0, 'rot3': 0, 'rot2': 0, 'state': 'normal', 'yaw': 1.78, 'datetime': '2018-10-03 16:37:30.246946', 'mgs': 0, 'volt': 0.8936, 'depth': 1.462, 'time': 10, 'pitch': -9.12, 'roll': 0.33, 'pres': 183}
{'lipoC2': 0.0, 'lipoC3S1': 4.04, 'temp': 26.31, 'lipoC3S3': 12.21, 'lipoC3S2': 8.08, 'rot1': 0, 'rot0': 0, 'rot3': 0, 'rot2': 0, 'state': 'normal', 'yaw': 1.71, 'datetime': '2018-10-03 16:37:30.350198', 'mgs': 0, 'volt': 0.8936, 'depth': 1.462, 'time': 10, 'pitch': -9.07, 'roll': 0.08, 'pres': 183}
{'lipoC2': 0.0, 'lipoC3S1': 4.04, 'temp': 26.31, 'lipoC3S3': 12.21, 'lipoC3S2': 8.08, 'rot1': 0, 'rot0': 0, 'rot3': 0, 'rot2': 0, 'state': 'normal', 'yaw': 1.71, 'datetime': '2018-10-03 16:37:30.454464', 'mgs': 0, 'volt': 0.8936, 'depth': 1.462, 'time': 10, 'pitch': -8.98, 'roll': -0.13, 'pres': 183}
{'lipoC2': 0.0, 'lipoC3S1': 4.04, 'temp': 26.31, 'lipoC3S3': 12.21, 'lipoC3S2': 8.08, 'rot1': 0, 'rot0': 0, 'rot3': 0, 'rot2': 0, 'state': 'normal', 'yaw': 1.71, 'datetime': '2018-10-03 16:37:30.557731', 'mgs': 0, 'volt': 0.8936, 'depth': 1.462, 'time': 10, 'pitch': -8.9, 'roll': -0.26, 'pres': 183}
{'lipoC2': 0.0, 'lipoC3S1': 4.04, 'temp': 26.31, 'lipoC3S3': 12.21, 'lipoC3S2': 8.08, 'rot1': 0, 'rot0': 0, 'rot3': 0, 'rot2': 0, 'state': 'normal', 'yaw': 1.71, 'datetime': '2018-10-03 16:37:30.661992', 'mgs': 0, 'volt': 0.8936, 'depth': 1.462, 'time': 10, 'pitch': -8.9, 'roll': -0.26, 'pres': 183}
{'lipoC2': 0.0, 'lipoC3S1': 4.04, 'temp': 26.31, 'lipoC3S3': 12.21, 'lipoC3S2': 8.08, 'rot1': 0, 'rot0': 0, 'rot3': 0, 'rot2': 0, 'state': 'normal', 'yaw': 1.7, 'datetime': '2018-10-03 16:37:30.765796', 'mgs': 0, 'volt': 0.8936, 'depth': 1.462, 'time': 10, 'pitch': -8.94, 'roll': -0.24, 'pres': 183}
{'lipoC2': 0.0, 'lipoC3S1': 4.04, 'temp': 26.31, 'lipoC3S3': 12.21, 'lipoC3S2': 8.08, 'rot1': 0, 'rot0': 0, 'rot3': 0, 'rot2': 0, 'state': 'normal', 'yaw': 1.71, 'datetime': '2018-10-03 16:37:30.868992', 'mgs': 0, 'volt': 0.8936, 'depth': 1.462, 'time': 11, 'pitch': -8.94, 'roll': -0.11, 'pres': 183}
{'lipoC2': 0.0, 'lipoC3S1': 4.04, 'temp': 26.31, 'lipoC3S3': 12.21, 'lipoC3S2': 8.08, 'rot1': 0, 'rot0': 0, 'rot3': 0, 'rot2': 0, 'state': 'normal', 'yaw': 1.68, 'datetime': '2018-10-03 16:37:30.973509', 'mgs': 0, 'volt': 0.8936, 'depth': 1.462, 'time': 11, 'pitch': -8.94, 'roll': 0.1, 'pres': 183}
{'lipoC2': 0.0, 'lipoC3S1': 4.04, 'temp': 26.31, 'lipoC3S3': 12.21, 'lipoC3S2': 8.08, 'rot1': 0, 'rot0': 0, 'rot3': 0, 'rot2': 0, 'state': 'normal', 'yaw': 1.49, 'datetime': '2018-10-03 16:37:31.077180', 'mgs': 0, 'volt': 0.8936, 'depth': 1.462, 'time': 11, 'pitch': -8.77, 'roll': 0.41, 'pres': 183}
{'lipoC2': 0.0, 'lipoC3S1': 4.04, 'temp': 26.31, 'lipoC3S3': 12.21, 'lipoC3S2': 8.08, 'rot1': 0, 'rot0': 0, 'rot3': 0, 'rot2': 0, 'state': 'normal', 'yaw': 1.18, 'datetime': '2018-10-03 16:37:31.180417', 'mgs': 0, 'volt': 0.8936, 'depth': 1.462, 'time': 11, 'pitch': -8.28, 'roll': 0.81, 'pres': 183}
{'lipoC2': 0.0, 'lipoC3S1': 4.04, 'temp': 26.31, 'lipoC3S3': 12.21, 'lipoC3S2': 8.08, 'rot1': 0, 'rot0': 0, 'rot3': 0, 'rot2': 0, 'state': 'normal', 'yaw': 0.8, 'datetime': '2018-10-03 16:37:31.283691', 'mgs': 0, 'volt': 0.8936, 'depth': 1.462, 'time': 11, 'pitch': -7.6, 'roll': 1.33, 'pres': 183}
{'lipoC2': 0.0, 'lipoC3S1': 4.04, 'temp': 26.31, 'lipoC3S3': 12.21, 'lipoC3S2': 8.08, 'rot1': 0, 'rot0': 0, 'rot3': 0, 'rot2': 0, 'state': 'normal', 'yaw': 0.36, 'datetime': '2018-10-03 16:37:31.387022', 'mgs': 0, 'volt': 0.8936, 'depth': 1.462, 'time': 11, 'pitch': -6.97, 'roll': 1.81, 'pres': 183}
{'lipoC2': 0.0, 'lipoC3S1': 4.04, 'temp': 26.25, 'lipoC3S3': 12.21, 'lipoC3S2': 8.08, 'rot1': 0, 'rot0': 0, 'rot3': 0, 'rot2': 0, 'state': 'normal', 'yaw': -0.14, 'datetime': '2018-10-03 16:37:31.503371', 'mgs': 0, 'volt': 0.8887, 'depth': 1.385, 'time': 11, 'pitch': -6.34, 'roll': 2.17, 'pres': 182}
{'lipoC2': 0.0, 'lipoC3S1': 4.04, 'temp': 26.25, 'lipoC3S3': 12.21, 'lipoC3S2': 8.08, 'rot1': 0, 'rot0': 0, 'rot3': 0, 'rot2': 0, 'state': 'normal', 'yaw': -0.66, 'datetime': '2018-10-03 16:37:31.593495', 'mgs': 0, 'volt': 0.8887, 'depth': 1.385, 'time': 11, 'pitch': -5.96, 'roll': 2.36, 'pres': 182}
{'lipoC2': 0.0, 'lipoC3S1': 4.04, 'temp': 26.25, 'lipoC3S3': 12.21, 'lipoC3S2': 8.08, 'rot1': 0, 'rot0': 0, 'rot3': 0, 'rot2': 0, 'state': 'normal', 'yaw': -1.33, 'datetime': '2018-10-03 16:37:31.696708', 'mgs': 0, 'volt': 0.8838, 'depth': 1.309, 'time': 11, 'pitch': -5.95, 'roll': 2.4, 'pres': 181}
{'lipoC2': 0.0, 'lipoC3S1': 4.04, 'temp': 26.25, 'lipoC3S3': 12.21, 'lipoC3S2': 8.08, 'rot1': 0, 'rot0': 0, 'rot3': 0, 'rot2': 0, 'state': 'normal', 'yaw': -2.07, 'datetime': '2018-10-03 16:37:31.799954', 'mgs': 0, 'volt': 0.8789, 'depth': 1.233, 'time': 11, 'pitch': -6.32, 'roll': 2.17, 'pres': 180}
{'lipoC2': 0.0, 'lipoC3S1': 4.04, 'temp': 26.31, 'lipoC3S3': 12.21, 'lipoC3S2': 8.08, 'rot1': 0, 'rot0': 0, 'rot3': 0, 'rot2': 0, 'state': 'normal', 'yaw': -2.53, 'datetime': '2018-10-03 16:37:31.903214', 'mgs': 0, 'volt': 0.874, 'depth': 1.157, 'time': 12, 'pitch': -6.49, 'roll': 1.62, 'pres': 179}
{'lipoC2': 0.0, 'lipoC3S1': 4.04, 'temp': 26.31, 'lipoC3S3': 12.21, 'lipoC3S2': 8.08, 'rot1': 0, 'rot0': 0, 'rot3': 0, 'rot2': 0, 'state': 'normal', 'yaw': -2.84, 'datetime': '2018-10-03 16:37:32.006369', 'mgs': 0, 'volt': 0.8643, 'depth': 1.004, 'time': 12, 'pitch': -6.45, 'roll': 0.85, 'pres': 177}
{'lipoC2': 0.0, 'lipoC3S1': 4.04, 'temp': 26.31, 'lipoC3S3': 12.21, 'lipoC3S2': 8.08, 'rot1': 0, 'rot0': 0, 'rot3': 0, 'rot2': 0, 'state': 'normal', 'yaw': -2.91, 'datetime': '2018-10-03 16:37:32.109996', 'mgs': 0, 'volt': 0.8594, 'depth': 0.928, 'time': 12, 'pitch': -6.11, 'roll': 0.05, 'pres': 176}
{'lipoC2': 0.0, 'lipoC3S1': 4.04, 'temp': 26.31, 'lipoC3S3': 12.22, 'lipoC3S2': 8.08, 'rot1': 0, 'rot0': 0, 'rot3': 0, 'rot2': 0, 'state': 'normal', 'yaw': -2.8, 'datetime': '2018-10-03 16:37:32.213414', 'mgs': 0, 'volt': 0.8545, 'depth': 0.851, 'time': 12, 'pitch': -5.72, 'roll': -0.53, 'pres': 175}
{'lipoC2': 0.0, 'lipoC3S1': 4.04, 'temp': 26.31, 'lipoC3S3': 12.21, 'lipoC3S2': 8.08, 'rot1': 0, 'rot0': 0, 'rot3': 0, 'rot2': 0, 'state': 'normal', 'yaw': -2.63, 'datetime': '2018-10-03 16:37:32.317810', 'mgs': 0, 'volt': 0.8447, 'depth': 0.699, 'time': 12, 'pitch': -5.73, 'roll': -0.67, 'pres': 173}
{'lipoC2': 0.0, 'lipoC3S1': 4.04, 'temp': 26.25, 'lipoC3S3': 12.21, 'lipoC3S2': 8.08, 'rot1': 0, 'rot0': 0, 'rot3': 0, 'rot2': 0, 'state': 'normal', 'yaw': -2.24, 'datetime': '2018-10-03 16:37:32.421231', 'mgs': 0, 'volt': 0.8398, 'depth': 0.623, 'time': 12, 'pitch': -5.97, 'roll': -0.55, 'pres': 172}
{'lipoC2': 0.0, 'lipoC3S1': 4.04, 'temp': 26.25, 'lipoC3S3': 12.21, 'lipoC3S2': 8.08, 'rot1': 0, 'rot0': 0, 'rot3': 0, 'rot2': 0, 'state': 'normal', 'yaw': -1.8, 'datetime': '2018-10-03 16:37:32.524437', 'mgs': 0, 'volt': 0.8398, 'depth': 0.623, 'time': 12, 'pitch': -6.16, 'roll': -0.28, 'pres': 172}
{'lipoC2': 0.0, 'lipoC3S1': 4.04, 'temp': 26.25, 'lipoC3S3': 12.21, 'lipoC3S2': 8.08, 'rot1': 0, 'rot0': 0, 'rot3': 0, 'rot2': 0, 'state': 'normal', 'yaw': -1.29, 'datetime': '2018-10-03 16:37:32.628986', 'mgs': 0, 'volt': 0.835, 'depth': 0.546, 'time': 12, 'pitch': -6.24, 'roll': -0.01, 'pres': 171}
{'lipoC2': 0.0, 'lipoC3S1': 4.04, 'temp': 26.25, 'lipoC3S3': 12.21, 'lipoC3S2': 8.08, 'rot1': 0, 'rot0': 0, 'rot3': 0, 'rot2': 0, 'state': 'normal', 'yaw': -0.84, 'datetime': '2018-10-03 16:37:32.732376', 'mgs': 0, 'volt': 0.8301, 'depth': 0.47, 'time': 12, 'pitch': -6.02, 'roll': 0.23, 'pres': 170}
{'lipoC2': 0.0, 'lipoC3S1': 4.04, 'temp': 26.25, 'lipoC3S3': 12.21, 'lipoC3S2': 8.08, 'rot1': 0, 'rot0': 0, 'rot3': 0, 'rot2': 0, 'state': 'normal', 'yaw': -0.57, 'datetime': '2018-10-03 16:37:32.839706', 'mgs': 0, 'volt': 0.8252, 'depth': 0.394, 'time': 13, 'pitch': -5.78, 'roll': 0.47, 'pres': 169}
{'lipoC2': 0.0, 'lipoC3S1': 4.04, 'temp': 26.31, 'lipoC3S3': 12.21, 'lipoC3S2': 8.08, 'rot1': 0, 'rot0': 0, 'rot3': 0, 'rot2': 0, 'state': 'normal', 'yaw': -0.5, 'datetime': '2018-10-03 16:37:32.944456', 'mgs': 0, 'volt': 0.8252, 'depth': 0.394, 'time': 13, 'pitch': -5.73, 'roll': 0.72, 'pres': 169}
{'lipoC2': 0.0, 'lipoC3S1': 4.04, 'temp': 26.31, 'lipoC3S3': 12.22, 'lipoC3S2': 8.08, 'rot1': 0, 'rot0': 0, 'rot3': 0, 'rot2': 0, 'state': 'normal', 'yaw': -0.58, 'datetime': '2018-10-03 16:37:33.047941', 'mgs': 0, 'volt': 0.8252, 'depth': 0.394, 'time': 13, 'pitch': -5.92, 'roll': 0.91, 'pres': 169}
{'lipoC2': 0.0, 'lipoC3S1': 4.04, 'temp': 26.31, 'lipoC3S3': 12.21, 'lipoC3S2': 8.08, 'rot1': 0, 'rot0': 0, 'rot3': 0, 'rot2': 0, 'state': 'normal', 'yaw': -0.65, 'datetime': '2018-10-03 16:37:33.151198', 'mgs': 0, 'volt': 0.8252, 'depth': 0.394, 'time': 13, 'pitch': -6.24, 'roll': 0.94, 'pres': 169}
{'lipoC2': 0.0, 'lipoC3S1': 4.04, 'temp': 26.31, 'lipoC3S3': 12.22, 'lipoC3S2': 8.08, 'rot1': 0, 'rot0': 0, 'rot3': 0, 'rot2': 0, 'state': 'normal', 'yaw': -0.6, 'datetime': '2018-10-03 16:37:33.254391', 'mgs': 0, 'volt': 0.8252, 'depth': 0.394, 'time': 13, 'pitch': -6.57, 'roll': 0.92, 'pres': 169}
{'lipoC2': 0.0, 'lipoC3S1': 4.04, 'temp': 26.31, 'lipoC3S3': 12.21, 'lipoC3S2': 8.08, 'rot1': 0, 'rot0': 0, 'rot3': 0, 'rot2': 0, 'state': 'normal', 'yaw': -0.46, 'datetime': '2018-10-03 16:37:33.357597', 'mgs': 0, 'volt': 0.8252, 'depth': 0.394, 'time': 13, 'pitch': -6.92, 'roll': 0.84, 'pres': 169}
{'lipoC2': 0.0, 'lipoC3S1': 4.04, 'temp': 26.31, 'lipoC3S3': 12.21, 'lipoC3S2': 8.08, 'rot1': 0, 'rot0': 0, 'rot3': 0, 'rot2': 0, 'state': 'normal', 'yaw': -0.31, 'datetime': '2018-10-03 16:37:33.460832', 'mgs': 0, 'volt': 0.8252, 'depth': 0.394, 'time': 13, 'pitch': -7.22, 'roll': 0.66, 'pres': 169}
{'lipoC2': 0.0, 'lipoC3S1': 4.04, 'temp': 26.31, 'lipoC3S3': 12.21, 'lipoC3S2': 8.08, 'rot1': 0, 'rot0': 0, 'rot3': 0, 'rot2': 0, 'state': 'normal', 'yaw': -0.3, 'datetime': '2018-10-03 16:37:33.564716', 'mgs': 0, 'volt': 0.8203, 'depth': 0.317, 'time': 13, 'pitch': -7.26, 'roll': 0.49, 'pres': 168}
{'lipoC2': 0.0, 'lipoC3S1': 4.04, 'temp': 26.31, 'lipoC3S3': 12.22, 'lipoC3S2': 8.08, 'rot1': 0, 'rot0': 0, 'rot3': 0, 'rot2': 0, 'state': 'normal', 'yaw': -0.43, 'datetime': '2018-10-03 16:37:33.668255', 'mgs': 0, 'volt': 0.8203, 'depth': 0.317, 'time': 13, 'pitch': -7.16, 'roll': 0.44, 'pres': 168}
{'lipoC2': 0.0, 'lipoC3S1': 4.04, 'temp': 26.31, 'lipoC3S3': 12.21, 'lipoC3S2': 8.08, 'rot1': 0, 'rot0': 0, 'rot3': 0, 'rot2': 0, 'state': 'normal', 'yaw': -0.58, 'datetime': '2018-10-03 16:37:33.771502', 'mgs': 0, 'volt': 0.8203, 'depth': 0.317, 'time': 13, 'pitch': -7.17, 'roll': 0.49, 'pres': 168}
{'lipoC2': 0.0, 'lipoC3S1': 4.04, 'temp': 26.25, 'lipoC3S3': 12.21, 'lipoC3S2': 8.08, 'rot1': 0, 'rot0': 0, 'rot3': 0, 'rot2': 0, 'state': 'normal', 'yaw': -0.63, 'datetime': '2018-10-03 16:37:33.874713', 'mgs': 0, 'volt': 0.8203, 'depth': 0.317, 'time': 14, 'pitch': -7.33, 'roll': 0.71, 'pres': 168}
{'lipoC2': 0.0, 'lipoC3S1': 4.04, 'temp': 26.25, 'lipoC3S3': 12.21, 'lipoC3S2': 8.08, 'rot1': 0, 'rot0': 0, 'rot3': 0, 'rot2': 0, 'state': 'normal', 'yaw': -0.58, 'datetime': '2018-10-03 16:37:33.979200', 'mgs': 0, 'volt': 0.8252, 'depth': 0.394, 'time': 14, 'pitch': -7.53, 'roll': 1.02, 'pres': 169}
{'lipoC2': 0.0, 'lipoC3S1': 4.04, 'temp': 26.31, 'lipoC3S3': 12.22, 'lipoC3S2': 8.08, 'rot1': 0, 'rot0': 0, 'rot3': 0, 'rot2': 0, 'state': 'normal', 'yaw': -0.34, 'datetime': '2018-10-03 16:37:34.082608', 'mgs': 0, 'volt': 0.8203, 'depth': 0.317, 'time': 14, 'pitch': -7.73, 'roll': 1.34, 'pres': 168}
{'lipoC2': 0.0, 'lipoC3S1': 4.04, 'temp': 26.31, 'lipoC3S3': 12.21, 'lipoC3S2': 8.08, 'rot1': 0, 'rot0': 0, 'rot3': 0, 'rot2': 0, 'state': 'normal', 'yaw': -0.11, 'datetime': '2018-10-03 16:37:34.185695', 'mgs': 0, 'volt': 0.8203, 'depth': 0.317, 'time': 14, 'pitch': -7.92, 'roll': 1.56, 'pres': 168}
{'lipoC2': 0.0, 'lipoC3S1': 4.04, 'temp': 26.31, 'lipoC3S3': 12.21, 'lipoC3S2': 8.08, 'rot1': 0, 'rot0': 0, 'rot3': 0, 'rot2': 0, 'state': 'normal', 'yaw': 0.03, 'datetime': '2018-10-03 16:37:34.290564', 'mgs': 0, 'volt': 0.8203, 'depth': 0.317, 'time': 14, 'pitch': -8.13, 'roll': 1.72, 'pres': 168}
{'lipoC2': 0.0, 'lipoC3S1': 4.04, 'temp': 26.31, 'lipoC3S3': 12.21, 'lipoC3S2': 8.08, 'rot1': 0, 'rot0': 0, 'rot3': 0, 'rot2': 0, 'state': 'normal', 'yaw': 0.04, 'datetime': '2018-10-03 16:37:34.386990', 'mgs': 0, 'volt': 0.8203, 'depth': 0.317, 'time': 14, 'pitch': -8.28, 'roll': 1.85, 'pres': 168}
{'lipoC2': 0.0, 'lipoC3S1': 4.04, 'temp': 26.31, 'lipoC3S3': 12.21, 'lipoC3S2': 8.08, 'rot1': 0, 'rot0': 0, 'rot3': 0, 'rot2': 0, 'state': 'normal', 'yaw': -0.05, 'datetime': '2018-10-03 16:37:34.490190', 'mgs': 0, 'volt': 0.8252, 'depth': 0.394, 'time': 14, 'pitch': -8.31, 'roll': 1.88, 'pres': 169}
{'lipoC2': 0.0, 'lipoC3S1': 4.04, 'temp': 26.31, 'lipoC3S3': 12.21, 'lipoC3S2': 8.08, 'rot1': 0, 'rot0': 0, 'rot3': 0, 'rot2': 0, 'state': 'normal', 'yaw': -0.27, 'datetime': '2018-10-03 16:37:34.593610', 'mgs': 0, 'volt': 0.8203, 'depth': 0.317, 'time': 14, 'pitch': -8.3, 'roll': 1.92, 'pres': 168}
{'lipoC2': 0.0, 'lipoC3S1': 4.04, 'temp': 26.31, 'lipoC3S3': 12.21, 'lipoC3S2': 8.08, 'rot1': 0, 'rot0': 0, 'rot3': 0, 'rot2': 0, 'state': 'normal', 'yaw': -0.47, 'datetime': '2018-10-03 16:37:34.696850', 'mgs': 0, 'volt': 0.8252, 'depth': 0.394, 'time': 14, 'pitch': -8.31, 'roll': 1.91, 'pres': 169}
{'lipoC2': 0.0, 'lipoC3S1': 4.04, 'temp': 26.31, 'lipoC3S3': 12.22, 'lipoC3S2': 8.08, 'rot1': 0, 'rot0': 0, 'rot3': 0, 'rot2': 0, 'state': 'normal', 'yaw': -0.61, 'datetime': '2018-10-03 16:37:34.800041', 'mgs': 0, 'volt': 0.8203, 'depth': 0.317, 'time': 14, 'pitch': -8.21, 'roll': 1.75, 'pres': 168}
{'lipoC2': 0.0, 'lipoC3S1': 4.04, 'temp': 26.31, 'lipoC3S3': 12.21, 'lipoC3S2': 8.08, 'rot1': 0, 'rot0': 0, 'rot3': 0, 'rot2': 0, 'state': 'normal', 'yaw': -0.65, 'datetime': '2018-10-03 16:37:34.903306', 'mgs': 0, 'volt': 0.8203, 'depth': 0.317, 'time': 15, 'pitch': -7.96, 'roll': 1.55, 'pres': 168}
{'lipoC2': 0.0, 'lipoC3S1': 4.04, 'temp': 26.31, 'lipoC3S3': 12.21, 'lipoC3S2': 8.08, 'rot1': 0, 'rot0': 0, 'rot3': 0, 'rot2': 0, 'state': 'normal', 'yaw': -0.7, 'datetime': '2018-10-03 16:37:35.006507', 'mgs': 0, 'volt': 0.8203, 'depth': 0.317, 'time': 15, 'pitch': -7.67, 'roll': 1.34, 'pres': 168}
{'lipoC2': 0.0, 'lipoC3S1': 4.04, 'temp': 26.31, 'lipoC3S3': 12.21, 'lipoC3S2': 8.08, 'rot1': 0, 'rot0': 0, 'rot3': 0, 'rot2': 0, 'state': 'normal', 'yaw': -0.8, 'datetime': '2018-10-03 16:37:35.116281', 'mgs': 0, 'volt': 0.8203, 'depth': 0.317, 'time': 15, 'pitch': -7.54, 'roll': 1.16, 'pres': 168}
{'lipoC2': 0.0, 'lipoC3S1': 4.04, 'temp': 26.31, 'lipoC3S3': 12.21, 'lipoC3S2': 8.08, 'rot1': 0, 'rot0': 0, 'rot3': 0, 'rot2': 0, 'state': 'normal', 'yaw': -0.9, 'datetime': '2018-10-03 16:37:35.219544', 'mgs': 0, 'volt': 0.8203, 'depth': 0.317, 'time': 15, 'pitch': -7.56, 'roll': 1.14, 'pres': 168}
{'lipoC2': 0.0, 'lipoC3S1': 4.04, 'temp': 26.31, 'lipoC3S3': 12.22, 'lipoC3S2': 8.08, 'rot1': 0, 'rot0': 0, 'rot3': 0, 'rot2': 0, 'state': 'normal', 'yaw': -0.97, 'datetime': '2018-10-03 16:37:35.324014', 'mgs': 0, 'volt': 0.8203, 'depth': 0.317, 'time': 15, 'pitch': -7.57, 'roll': 1.19, 'pres': 168}
{'lipoC2': 0.0, 'lipoC3S1': 4.04, 'temp': 26.31, 'lipoC3S3': 12.22, 'lipoC3S2': 8.08, 'rot1': 0, 'rot0': 0, 'rot3': 0, 'rot2': 0, 'state': 'normal', 'yaw': -0.96, 'datetime': '2018-10-03 16:37:35.427225', 'mgs': 0, 'volt': 0.8203, 'depth': 0.317, 'time': 15, 'pitch': -7.48, 'roll': 1.28, 'pres': 168}
{'lipoC2': 0.0, 'lipoC3S1': 4.04, 'temp': 26.31, 'lipoC3S3': 12.22, 'lipoC3S2': 8.08, 'rot1': 0, 'rot0': 0, 'rot3': 0, 'rot2': 0, 'state': 'normal', 'yaw': -0.96, 'datetime': '2018-10-03 16:37:35.532399', 'mgs': 0, 'volt': 0.8203, 'depth': 0.317, 'time': 15, 'pitch': -7.45, 'roll': 1.27, 'pres': 168}
{'lipoC2': 0.0, 'lipoC3S1': 4.04, 'temp': 26.31, 'lipoC3S3': 12.21, 'lipoC3S2': 8.08, 'rot1': 0, 'rot0': 0, 'rot3': 0, 'rot2': 0, 'state': 'normal', 'yaw': -0.95, 'datetime': '2018-10-03 16:37:35.635524', 'mgs': 0, 'volt': 0.8252, 'depth': 0.394, 'time': 15, 'pitch': -7.44, 'roll': 1.25, 'pres': 169}
{'lipoC2': 0.0, 'lipoC3S1': 4.04, 'temp': 26.31, 'lipoC3S3': 12.21, 'lipoC3S2': 8.08, 'rot1': 0, 'rot0': 0, 'rot3': 0, 'rot2': 0, 'state': 'normal', 'yaw': -0.92, 'datetime': '2018-10-03 16:37:35.738696', 'mgs': 0, 'volt': 0.8203, 'depth': 0.317, 'time': 15, 'pitch': -7.44, 'roll': 1.15, 'pres': 168}
{'lipoC2': 0.0, 'lipoC3S1': 4.04, 'temp': 26.31, 'lipoC3S3': 12.21, 'lipoC3S2': 8.08, 'rot1': 0, 'rot0': 0, 'rot3': 0, 'rot2': 0, 'state': 'normal', 'yaw': -0.92, 'datetime': '2018-10-03 16:37:35.843064', 'mgs': 0, 'volt': 0.8252, 'depth': 0.394, 'time': 16, 'pitch': -7.45, 'roll': 1.15, 'pres': 169}
{'lipoC2': 0.0, 'lipoC3S1': 4.04, 'temp': 26.31, 'lipoC3S3': 12.22, 'lipoC3S2': 8.08, 'rot1': 0, 'rot0': 0, 'rot3': 0, 'rot2': 0, 'state': 'normal', 'yaw': -0.97, 'datetime': '2018-10-03 16:37:35.947124', 'mgs': 0, 'volt': 0.8203, 'depth': 0.317, 'time': 16, 'pitch': -7.51, 'roll': 1.31, 'pres': 168}
{'lipoC2': 0.0, 'lipoC3S1': 4.04, 'temp': 26.31, 'lipoC3S3': 12.21, 'lipoC3S2': 8.08, 'rot1': 0, 'rot0': 0, 'rot3': 0, 'rot2': 0, 'state': 'normal', 'yaw': -1.02, 'datetime': '2018-10-03 16:37:36.050288', 'mgs': 0, 'volt': 0.8203, 'depth': 0.317, 'time': 16, 'pitch': -7.59, 'roll': 1.59, 'pres': 168}
{'lipoC2': 0.0, 'lipoC3S1': 4.04, 'temp': 26.31, 'lipoC3S3': 12.21, 'lipoC3S2': 8.08, 'rot1': 0, 'rot0': 0, 'rot3': 0, 'rot2': 0, 'state': 'normal', 'yaw': -1.02, 'datetime': '2018-10-03 16:37:36.153598', 'mgs': 0, 'volt': 0.8203, 'depth': 0.317, 'time': 16, 'pitch': -7.65, 'roll': 1.81, 'pres': 168}
{'lipoC2': 0.0, 'lipoC3S1': 4.04, 'temp': 26.31, 'lipoC3S3': 12.22, 'lipoC3S2': 8.08, 'rot1': 0, 'rot0': 0, 'rot3': 0, 'rot2': 0, 'state': 'normal', 'yaw': -0.95, 'datetime': '2018-10-03 16:37:36.256946', 'mgs': 0, 'volt': 0.8252, 'depth': 0.394, 'time': 16, 'pitch': -7.75, 'roll': 1.93, 'pres': 169}
{'lipoC2': 0.0, 'lipoC3S1': 4.04, 'temp': 26.31, 'lipoC3S3': 12.21, 'lipoC3S2': 8.08, 'rot1': 0, 'rot0': 0, 'rot3': 0, 'rot2': 0, 'state': 'normal', 'yaw': -0.91, 'datetime': '2018-10-03 16:37:36.360266', 'mgs': 0, 'volt': 0.8252, 'depth': 0.394, 'time': 16, 'pitch': -8.14, 'roll': 2.03, 'pres': 169}
{'lipoC2': 0.0, 'lipoC3S1': 4.04, 'temp': 26.31, 'lipoC3S3': 12.22, 'lipoC3S2': 8.08, 'rot1': 0, 'rot0': 0, 'rot3': 0, 'rot2': 0, 'state': 'normal', 'yaw': -0.89, 'datetime': '2018-10-03 16:37:36.463465', 'mgs': 0, 'volt': 0.8252, 'depth': 0.394, 'time': 16, 'pitch': -8.39, 'roll': 2.13, 'pres': 169}
{'lipoC2': 0.0, 'lipoC3S1': 4.04, 'temp': 26.31, 'lipoC3S3': 12.22, 'lipoC3S2': 8.08, 'rot1': 0, 'rot0': 0, 'rot3': 0, 'rot2': 0, 'state': 'normal', 'yaw': -0.77, 'datetime': '2018-10-03 16:37:36.566638', 'mgs': 0, 'volt': 0.8252, 'depth': 0.394, 'time': 16, 'pitch': -8.43, 'roll': 2.29, 'pres': 169}
{'lipoC2': 0.0, 'lipoC3S1': 4.04, 'temp': 26.31, 'lipoC3S3': 12.22, 'lipoC3S2': 8.08, 'rot1': 0, 'rot0': 0, 'rot3': 0, 'rot2': 0, 'state': 'normal', 'yaw': -0.64, 'datetime': '2018-10-03 16:37:36.669973', 'mgs': 0, 'volt': 0.8301, 'depth': 0.47, 'time': 16, 'pitch': -8.27, 'roll': 2.63, 'pres': 170}
{'lipoC2': 0.0, 'lipoC3S1': 4.04, 'temp': 26.31, 'lipoC3S3': 12.21, 'lipoC3S2': 8.08, 'rot1': 0, 'rot0': 0, 'rot3': 0, 'rot2': 0, 'state': 'normal', 'yaw': -0.44, 'datetime': '2018-10-03 16:37:36.773141', 'mgs': 0, 'volt': 0.8301, 'depth': 0.47, 'time': 16, 'pitch': -8.03, 'roll': 3.02, 'pres': 170}
{'lipoC2': 0.0, 'lipoC3S1': 4.04, 'temp': 26.31, 'lipoC3S3': 12.22, 'lipoC3S2': 8.08, 'rot1': 0, 'rot0': 0, 'rot3': 0, 'rot2': 0, 'state': 'normal', 'yaw': -0.35, 'datetime': '2018-10-03 16:37:36.876295', 'mgs': 0, 'volt': 0.835, 'depth': 0.546, 'time': 17, 'pitch': -8.07, 'roll': 3.47, 'pres': 171}
{'lipoC2': 0.0, 'lipoC3S1': 4.04, 'temp': 26.31, 'lipoC3S3': 12.21, 'lipoC3S2': 8.08, 'rot1': 0, 'rot0': 0, 'rot3': 0, 'rot2': 0, 'state': 'normal', 'yaw': -0.25, 'datetime': '2018-10-03 16:37:36.979940', 'mgs': 0, 'volt': 0.8398, 'depth': 0.623, 'time': 17, 'pitch': -8.2, 'roll': 3.8, 'pres': 172}
{'lipoC2': 0.0, 'lipoC3S1': 4.04, 'temp': 26.38, 'lipoC3S3': 12.21, 'lipoC3S2': 8.08, 'rot1': 0, 'rot0': 0, 'rot3': 0, 'rot2': 0, 'state': 'normal', 'yaw': -0.01, 'datetime': '2018-10-03 16:37:37.083124', 'mgs': 0, 'volt': 0.8398, 'depth': 0.623, 'time': 17, 'pitch': -8.32, 'roll': 3.8, 'pres': 172}
{'lipoC2': 0.0, 'lipoC3S1': 4.04, 'temp': 26.38, 'lipoC3S3': 12.21, 'lipoC3S2': 8.08, 'rot1': 0, 'rot0': 0, 'rot3': 0, 'rot2': 0, 'state': 'normal', 'yaw': 0.28, 'datetime': '2018-10-03 16:37:37.187717', 'mgs': 0, 'volt': 0.8447, 'depth': 0.699, 'time': 17, 'pitch': -8.19, 'roll': 3.47, 'pres': 173}
{'lipoC2': 0.0, 'lipoC3S1': 4.04, 'temp': 26.31, 'lipoC3S3': 12.21, 'lipoC3S2': 8.08, 'rot1': 0, 'rot0': 0, 'rot3': 0, 'rot2': 0, 'state': 'normal', 'yaw': 0.61, 'datetime': '2018-10-03 16:37:37.291023', 'mgs': 0, 'volt': 0.8447, 'depth': 0.699, 'time': 17, 'pitch': -7.81, 'roll': 2.91, 'pres': 173}
{'lipoC2': 0.0, 'lipoC3S1': 4.04, 'temp': 26.31, 'lipoC3S3': 12.22, 'lipoC3S2': 8.08, 'rot1': 0, 'rot0': 0, 'rot3': 0, 'rot2': 0, 'state': 'normal', 'yaw': 0.79, 'datetime': '2018-10-03 16:37:37.394355', 'mgs': 0, 'volt': 0.8496, 'depth': 0.775, 'time': 17, 'pitch': -7.52, 'roll': 2.38, 'pres': 174}
{'lipoC2': 0.0, 'lipoC3S1': 4.04, 'temp': 26.31, 'lipoC3S3': 12.22, 'lipoC3S2': 8.08, 'rot1': 0, 'rot0': 0, 'rot3': 0, 'rot2': 0, 'state': 'normal', 'yaw': 0.79, 'datetime': '2018-10-03 16:37:37.498886', 'mgs': 0, 'volt': 0.8545, 'depth': 0.851, 'time': 17, 'pitch': -7.32, 'roll': 1.96, 'pres': 175}
{'lipoC2': 0.0, 'lipoC3S1': 4.04, 'temp': 26.31, 'lipoC3S3': 12.21, 'lipoC3S2': 8.08, 'rot1': 0, 'rot0': 0, 'rot3': 0, 'rot2': 0, 'state': 'normal', 'yaw': 0.66, 'datetime': '2018-10-03 16:37:37.603158', 'mgs': 0, 'volt': 0.8545, 'depth': 0.851, 'time': 17, 'pitch': -7.2, 'roll': 1.63, 'pres': 175}
{'lipoC2': 0.0, 'lipoC3S1': 4.04, 'temp': 26.31, 'lipoC3S3': 12.21, 'lipoC3S2': 8.08, 'rot1': 0, 'rot0': 0, 'rot3': 0, 'rot2': 0, 'state': 'normal', 'yaw': 0.62, 'datetime': '2018-10-03 16:37:37.705370', 'mgs': 0, 'volt': 0.8594, 'depth': 0.928, 'time': 17, 'pitch': -7.07, 'roll': 1.32, 'pres': 176}
{'lipoC2': 0.0, 'lipoC3S1': 4.04, 'temp': 26.31, 'lipoC3S3': 12.21, 'lipoC3S2': 8.08, 'rot1': 0, 'rot0': 0, 'rot3': 0, 'rot2': 0, 'state': 'normal', 'yaw': 0.69, 'datetime': '2018-10-03 16:37:37.808703', 'mgs': 0, 'volt': 0.8643, 'depth': 1.004, 'time': 17, 'pitch': -6.95, 'roll': 0.96, 'pres': 177}
{'lipoC2': 0.0, 'lipoC3S1': 4.04, 'temp': 26.31, 'lipoC3S3': 12.21, 'lipoC3S2': 8.08, 'rot1': 0, 'rot0': 0, 'rot3': 0, 'rot2': 0, 'state': 'normal', 'yaw': 0.93, 'datetime': '2018-10-03 16:37:37.911984', 'mgs': 0, 'volt': 0.8643, 'depth': 1.004, 'time': 18, 'pitch': -7.06, 'roll': 0.5, 'pres': 177}
{'lipoC2': 0.0, 'lipoC3S1': 4.04, 'temp': 26.31, 'lipoC3S3': 12.22, 'lipoC3S2': 8.08, 'rot1': 0, 'rot0': 0, 'rot3': 0, 'rot2': 0, 'state': 'normal', 'yaw': 1.31, 'datetime': '2018-10-03 16:37:38.015302', 'mgs': 0, 'volt': 0.8643, 'depth': 1.004, 'time': 18, 'pitch': -7.59, 'roll': -0.06, 'pres': 177}
{'lipoC2': 0.0, 'lipoC3S1': 4.04, 'temp': 26.31, 'lipoC3S3': 12.21, 'lipoC3S2': 8.08, 'rot1': 0, 'rot0': 0, 'rot3': 0, 'rot2': 0, 'state': 'normal', 'yaw': 1.61, 'datetime': '2018-10-03 16:37:38.118578', 'mgs': 0, 'volt': 0.8691, 'depth': 1.08, 'time': 18, 'pitch': -8.3, 'roll': -0.43, 'pres': 178}
{'lipoC2': 0.0, 'lipoC3S1': 4.04, 'temp': 26.31, 'lipoC3S3': 12.21, 'lipoC3S2': 8.08, 'rot1': 0, 'rot0': 0, 'rot3': 0, 'rot2': 0, 'state': 'normal', 'yaw': 1.82, 'datetime': '2018-10-03 16:37:38.221659', 'mgs': 0, 'volt': 0.874, 'depth': 1.157, 'time': 18, 'pitch': -8.93, 'roll': -0.58, 'pres': 179}
{'lipoC2': 0.0, 'lipoC3S1': 4.04, 'temp': 26.31, 'lipoC3S3': 12.22, 'lipoC3S2': 8.08, 'rot1': 0, 'rot0': 0, 'rot3': 0, 'rot2': 0, 'state': 'normal', 'yaw': 1.91, 'datetime': '2018-10-03 16:37:38.324916', 'mgs': 0, 'volt': 0.874, 'depth': 1.157, 'time': 18, 'pitch': -9.36, 'roll': -0.48, 'pres': 179}
{'lipoC2': 0.0, 'lipoC3S1': 4.04, 'temp': 26.31, 'lipoC3S3': 12.21, 'lipoC3S2': 8.08, 'rot1': 0, 'rot0': 0, 'rot3': 0, 'rot2': 0, 'state': 'normal', 'yaw': 1.89, 'datetime': '2018-10-03 16:37:38.428161', 'mgs': 0, 'volt': 0.8789, 'depth': 1.233, 'time': 18, 'pitch': -9.61, 'roll': -0.19, 'pres': 180}
{'lipoC2': 0.0, 'lipoC3S1': 4.04, 'temp': 26.31, 'lipoC3S3': 12.22, 'lipoC3S2': 8.08, 'rot1': 0, 'rot0': 0, 'rot3': 0, 'rot2': 0, 'state': 'normal', 'yaw': 1.88, 'datetime': '2018-10-03 16:37:38.533178', 'mgs': 0, 'volt': 0.8838, 'depth': 1.309, 'time': 18, 'pitch': -9.88, 'roll': 0.15, 'pres': 181}
{'lipoC2': 0.0, 'lipoC3S1': 4.04, 'temp': 26.31, 'lipoC3S3': 12.21, 'lipoC3S2': 8.08, 'rot1': 0, 'rot0': 0, 'rot3': 0, 'rot2': 0, 'state': 'normal', 'yaw': 1.98, 'datetime': '2018-10-03 16:37:38.636043', 'mgs': 0, 'volt': 0.8838, 'depth': 1.309, 'time': 18, 'pitch': -10.21, 'roll': 0.41, 'pres': 181}
{'lipoC2': 0.0, 'lipoC3S1': 4.04, 'temp': 26.31, 'lipoC3S3': 12.22, 'lipoC3S2': 8.08, 'rot1': 0, 'rot0': 0, 'rot3': 0, 'rot2': 0, 'state': 'normal', 'yaw': 2.22, 'datetime': '2018-10-03 16:37:38.739108', 'mgs': 0, 'volt': 0.8887, 'depth': 1.385, 'time': 18, 'pitch': -10.58, 'roll': 0.51, 'pres': 182}
{'lipoC2': 0.0, 'lipoC3S1': 4.04, 'temp': 26.31, 'lipoC3S3': 12.22, 'lipoC3S2': 8.08, 'rot1': 0, 'rot0': 0, 'rot3': 0, 'rot2': 0, 'state': 'normal', 'yaw': 2.52, 'datetime': '2018-10-03 16:37:38.843589', 'mgs': 0, 'volt': 0.8887, 'depth': 1.385, 'time': 19, 'pitch': -10.99, 'roll': 0.55, 'pres': 182}
{'lipoC2': 0.0, 'lipoC3S1': 4.04, 'temp': 26.31, 'lipoC3S3': 12.22, 'lipoC3S2': 8.08, 'rot1': 0, 'rot0': 0, 'rot3': 0, 'rot2': 0, 'state': 'normal', 'yaw': 2.83, 'datetime': '2018-10-03 16:37:38.946752', 'mgs': 0, 'volt': 0.8936, 'depth': 1.462, 'time': 19, 'pitch': -11.43, 'roll': 0.49, 'pres': 183}
{'lipoC2': 0.0, 'lipoC3S1': 4.04, 'temp': 26.31, 'lipoC3S3': 12.22, 'lipoC3S2': 8.08, 'rot1': 0, 'rot0': 0, 'rot3': 0, 'rot2': 0, 'state': 'normal', 'yaw': 3.01, 'datetime': '2018-10-03 16:37:39.050889', 'mgs': 0, 'volt': 0.8984, 'depth': 1.538, 'time': 19, 'pitch': -11.81, 'roll': 0.46, 'pres': 184}
{'lipoC2': 0.0, 'lipoC3S1': 4.04, 'temp': 26.31, 'lipoC3S3': 12.21, 'lipoC3S2': 8.08, 'rot1': 0, 'rot0': 0, 'rot3': 0, 'rot2': 0, 'state': 'normal', 'yaw': 3.06, 'datetime': '2018-10-03 16:37:39.154549', 'mgs': 0, 'volt': 0.8984, 'depth': 1.538, 'time': 19, 'pitch': -12.11, 'roll': 0.45, 'pres': 184}
{'lipoC2': 0.0, 'lipoC3S1': 4.04, 'temp': 26.31, 'lipoC3S3': 12.22, 'lipoC3S2': 8.08, 'rot1': 0, 'rot0': 0, 'rot3': 0, 'rot2': 0, 'state': 'normal', 'yaw': 3.06, 'datetime': '2018-10-03 16:37:39.257700', 'mgs': 0, 'volt': 0.8984, 'depth': 1.538, 'time': 19, 'pitch': -12.34, 'roll': 0.45, 'pres': 184}
{'lipoC2': 0.0, 'lipoC3S1': 4.04, 'temp': 26.31, 'lipoC3S3': 12.22, 'lipoC3S2': 8.08, 'rot1': 0, 'rot0': 0, 'rot3': 0, 'rot2': 0, 'state': 'normal', 'yaw': 2.96, 'datetime': '2018-10-03 16:37:39.361034', 'mgs': 0, 'volt': 0.9033, 'depth': 1.614, 'time': 19, 'pitch': -12.55, 'roll': 0.45, 'pres': 185}
{'lipoC2': 0.0, 'lipoC3S1': 4.04, 'temp': 26.31, 'lipoC3S3': 12.21, 'lipoC3S2': 8.08, 'rot1': 0, 'rot0': 0, 'rot3': 0, 'rot2': 0, 'state': 'normal', 'yaw': 2.85, 'datetime': '2018-10-03 16:37:39.464146', 'mgs': 0, 'volt': 0.9033, 'depth': 1.614, 'time': 19, 'pitch': -12.75, 'roll': 0.35, 'pres': 185}
{'lipoC2': 0.0, 'lipoC3S1': 4.04, 'temp': 26.31, 'lipoC3S3': 12.22, 'lipoC3S2': 8.08, 'rot1': 0, 'rot0': 0, 'rot3': 0, 'rot2': 0, 'state': 'normal', 'yaw': 2.74, 'datetime': '2018-10-03 16:37:39.567525', 'mgs': 0, 'volt': 0.9033, 'depth': 1.614, 'time': 19, 'pitch': -12.9, 'roll': 0.21, 'pres': 185}
{'lipoC2': 0.0, 'lipoC3S1': 4.04, 'temp': 26.31, 'lipoC3S3': 12.22, 'lipoC3S2': 8.08, 'rot1': 0, 'rot0': 0, 'rot3': 0, 'rot2': 0, 'state': 'normal', 'yaw': 2.61, 'datetime': '2018-10-03 16:37:39.672732', 'mgs': 0, 'volt': 0.9033, 'depth': 1.614, 'time': 19, 'pitch': -13.04, 'roll': 0.01, 'pres': 185}
{'lipoC2': 0.0, 'lipoC3S1': 4.04, 'temp': 26.31, 'lipoC3S3': 12.22, 'lipoC3S2': 8.08, 'rot1': 0, 'rot0': 0, 'rot3': 0, 'rot2': 0, 'state': 'normal', 'yaw': 2.45, 'datetime': '2018-10-03 16:37:39.773989', 'mgs': 0, 'volt': 0.9033, 'depth': 1.614, 'time': 19, 'pitch': -13.17, 'roll': -0.19, 'pres': 185}
{'lipoC2': 0.0, 'lipoC3S1': 4.04, 'temp': 26.31, 'lipoC3S3': 12.21, 'lipoC3S2': 8.08, 'rot1': 0, 'rot0': 0, 'rot3': 0, 'rot2': 0, 'state': 'normal', 'yaw': 2.34, 'datetime': '2018-10-03 16:37:39.877340', 'mgs': 0, 'volt': 0.9033, 'depth': 1.614, 'time': 20, 'pitch': -13.33, 'roll': -0.4, 'pres': 185}
{'lipoC2': 0.0, 'lipoC3S1': 4.04, 'temp': 26.31, 'lipoC3S3': 12.22, 'lipoC3S2': 8.08, 'rot1': 0, 'rot0': 0, 'rot3': 0, 'rot2': 0, 'state': 'normal', 'yaw': 2.3, 'datetime': '2018-10-03 16:37:39.980598', 'mgs': 0, 'volt': 0.9082, 'depth': 1.691, 'time': 20, 'pitch': -13.48, 'roll': -0.7, 'pres': 186}
{'lipoC2': 0.0, 'lipoC3S1': 4.04, 'temp': 26.31, 'lipoC3S3': 12.21, 'lipoC3S2': 8.08, 'rot1': 0, 'rot0': 0, 'rot3': 0, 'rot2': 0, 'state': 'normal', 'yaw': 2.37, 'datetime': '2018-10-03 16:37:40.083927', 'mgs': 1, 'volt': 0.9082, 'depth': 1.691, 'time': 20, 'pitch': -13.52, 'roll': -0.96, 'pres': 186}
{'lipoC2': 0.0, 'lipoC3S1': 4.04, 'temp': 26.31, 'lipoC3S3': 12.22, 'lipoC3S2': 8.08, 'rot1': 0, 'rot0': 0, 'rot3': 0, 'rot2': 0, 'state': 'normal', 'yaw': 0.0, 'datetime': '2018-10-03 16:37:46.120222', 'mgs': 1, 'volt': 0.9131, 'depth': 1.767, 'time': 1, 'pitch': -12.65, 'roll': 0.61, 'pres': 187}
{'lipoC2': 0.0, 'lipoC3S1': 4.04, 'temp': 26.31, 'lipoC3S3': 12.21, 'lipoC3S2': 8.08, 'rot1': 0, 'rot0': 0, 'rot3': 0, 'rot2': 0, 'state': 'normal', 'yaw': -0.02, 'datetime': '2018-10-03 16:37:49.164593', 'mgs': 1, 'volt': 0.9082, 'depth': 1.691, 'time': 1, 'pitch': -12.62, 'roll': 0.5, 'pres': 186}
{'lipoC2': 0.0, 'lipoC3S1': 4.04, 'temp': 26.31, 'lipoC3S3': 12.22, 'lipoC3S2': 8.09, 'rot1': 0, 'rot0': 0, 'rot3': 0, 'rot2': 0, 'state': 'normal', 'yaw': -0.03, 'datetime': '2018-10-03 16:37:49.197856', 'mgs': 1, 'volt': 0.9082, 'depth': 1.691, 'time': 1, 'pitch': -12.42, 'roll': 0.29, 'pres': 186}
{'lipoC2': 0.0, 'lipoC3S1': 4.04, 'temp': 26.31, 'lipoC3S3': 12.22, 'lipoC3S2': 8.09, 'rot1': 0, 'rot0': 0, 'rot3': 0, 'rot2': 0, 'state': 'normal', 'yaw': -0.07, 'datetime': '2018-10-03 16:37:49.235855', 'mgs': 1, 'volt': 0.9082, 'depth': 1.691, 'time': 1, 'pitch': -12.06, 'roll': 0.07, 'pres': 186}
{'lipoC2': 0.0, 'lipoC3S1': 4.04, 'temp': 26.31, 'lipoC3S3': 12.22, 'lipoC3S2': 8.09, 'rot1': 0, 'rot0': 0, 'rot3': 0, 'rot2': 0, 'state': 'normal', 'yaw': -0.14, 'datetime': '2018-10-03 16:37:49.267400', 'mgs': 1, 'volt': 0.9082, 'depth': 1.691, 'time': 1, 'pitch': -11.57, 'roll': -0.22, 'pres': 186}
{'lipoC2': 0.0, 'lipoC3S1': 4.04, 'temp': 26.31, 'lipoC3S3': 12.22, 'lipoC3S2': 8.09, 'rot1': 0, 'rot0': 0, 'rot3': 0, 'rot2': 0, 'state': 'normal', 'yaw': -0.23, 'datetime': '2018-10-03 16:37:49.292046', 'mgs': 1, 'volt': 0.9082, 'depth': 1.691, 'time': 1, 'pitch': -11.0, 'roll': -0.47, 'pres': 186}
{'lipoC2': 0.0, 'lipoC3S1': 4.04, 'temp': 26.31, 'lipoC3S3': 12.22, 'lipoC3S2': 8.09, 'rot1': 0, 'rot0': 0, 'rot3': 0, 'rot2': 0, 'state': 'normal', 'yaw': -0.38, 'datetime': '2018-10-03 16:37:49.308650', 'mgs': 1, 'volt': 0.9082, 'depth': 1.691, 'time': 1, 'pitch': -10.41, 'roll': -0.67, 'pres': 186}
{'lipoC2': 0.0, 'lipoC3S1': 4.04, 'temp': 26.31, 'lipoC3S3': 12.22, 'lipoC3S2': 8.08, 'rot1': 0, 'rot0': 0, 'rot3': 0, 'rot2': 0, 'state': 'normal', 'yaw': -0.57, 'datetime': '2018-10-03 16:37:49.328161', 'mgs': 1, 'volt': 0.9082, 'depth': 1.691, 'time': 1, 'pitch': -9.88, 'roll': -0.84, 'pres': 186}
{'lipoC2': 0.0, 'lipoC3S1': 4.04, 'temp': 26.31, 'lipoC3S3': 12.22, 'lipoC3S2': 8.08, 'rot1': 0, 'rot0': 0, 'rot3': 0, 'rot2': 0, 'state': 'normal', 'yaw': -0.75, 'datetime': '2018-10-03 16:37:49.344264', 'mgs': 1, 'volt': 0.9082, 'depth': 1.691, 'time': 2, 'pitch': -9.66, 'roll': -0.91, 'pres': 186}
{'lipoC2': 0.0, 'lipoC3S1': 4.04, 'temp': 26.31, 'lipoC3S3': 12.22, 'lipoC3S2': 8.08, 'rot1': 0, 'rot0': 0, 'rot3': 0, 'rot2': 0, 'state': 'normal', 'yaw': -0.85, 'datetime': '2018-10-03 16:37:49.363090', 'mgs': 1, 'volt': 0.9082, 'depth': 1.691, 'time': 2, 'pitch': -9.68, 'roll': -0.97, 'pres': 186}
{'lipoC2': 0.0, 'lipoC3S1': 4.04, 'temp': 26.31, 'lipoC3S3': 12.22, 'lipoC3S2': 8.08, 'rot1': 0, 'rot0': 0, 'rot3': 0, 'rot2': 0, 'state': 'normal', 'yaw': -0.94, 'datetime': '2018-10-03 16:37:49.379234', 'mgs': 1, 'volt': 0.9082, 'depth': 1.691, 'time': 2, 'pitch': -9.69, 'roll': -0.99, 'pres': 186}
{'lipoC2': 0.0, 'lipoC3S1': 4.04, 'temp': 26.31, 'lipoC3S3': 12.22, 'lipoC3S2': 8.08, 'rot1': 0, 'rot0': 0, 'rot3': 0, 'rot2': 0, 'state': 'normal', 'yaw': -0.94, 'datetime': '2018-10-03 16:37:49.398072', 'mgs': 1, 'volt': 0.9082, 'depth': 1.691, 'time': 2, 'pitch': -9.56, 'roll': -0.98, 'pres': 186}
{'lipoC2': 0.0, 'lipoC3S1': 4.04, 'temp': 26.31, 'lipoC3S3': 12.22, 'lipoC3S2': 8.09, 'rot1': 0, 'rot0': 0, 'rot3': 0, 'rot2': 0, 'state': 'normal', 'yaw': -0.94, 'datetime': '2018-10-03 16:37:49.414010', 'mgs': 1, 'volt': 0.9082, 'depth': 1.691, 'time': 2, 'pitch': -9.39, 'roll': -0.98, 'pres': 186}
