{'lipoC2': 7.64, 'lipoC3S1': 4.15, 'temp': 30.63, 'lipoC3S3': 12.55, 'lipoC3S2': 8.3, 'rot1': 0, 'rot0': 0, 'rot3': 0, 'rot2': 0, 'state': 'normal', 'yaw': -156.62, 'datetime': '2018-10-09 11:38:09.331401', 'mgs': 0, 'volt': 0.0, 'depth': -12.5, 'time': 135, 'pitch': 1.9, 'roll': -0.74, 'pres': 0}
{'lipoC2': 7.64, 'lipoC3S1': 4.15, 'temp': 30.63, 'lipoC3S3': 12.55, 'lipoC3S2': 8.3, 'rot1': 0, 'rot0': 0, 'rot3': 0, 'rot2': 0, 'state': 'normal', 'yaw': -156.68, 'datetime': '2018-10-09 11:38:09.355082', 'mgs': 0, 'volt': 0.0, 'depth': -12.5, 'time': 135, 'pitch': 2.76, 'roll': -1.01, 'pres': 0}
{'lipoC2': 7.64, 'lipoC3S1': 4.15, 'temp': 30.63, 'lipoC3S3': 12.54, 'lipoC3S2': 8.3, 'rot1': 0, 'rot0': 0, 'rot3': 0, 'rot2': 0, 'state': 'normal', 'yaw': -156.7, 'datetime': '2018-10-09 11:38:09.378940', 'mgs': 0, 'volt': 0.0, 'depth': -12.5, 'time': 135, 'pitch': 3.62, 'roll': -1.29, 'pres': 0}
{'lipoC2': 7.65, 'lipoC3S1': 4.15, 'temp': 30.69, 'lipoC3S3': 12.54, 'lipoC3S2': 8.3, 'rot1': 0, 'rot0': 0, 'rot3': 0, 'rot2': 0, 'state': 'normal', 'yaw': -156.76, 'datetime': '2018-10-09 11:38:09.402728', 'mgs': 0, 'volt': 0.0, 'depth': -12.5, 'time': 135, 'pitch': 4.19, 'roll': -1.47, 'pres': 0}
{'lipoC2': 7.65, 'lipoC3S1': 4.15, 'temp': 30.69, 'lipoC3S3': 12.54, 'lipoC3S2': 8.3, 'rot1': 0, 'rot0': 0, 'rot3': 0, 'rot2': 0, 'state': 'normal', 'yaw': -156.87, 'datetime': '2018-10-09 11:38:09.426469', 'mgs': 0, 'volt': 0.0, 'depth': -12.5, 'time': 135, 'pitch': 4.28, 'roll': -1.41, 'pres': 0}
{'lipoC2': 7.64, 'lipoC3S1': 4.15, 'temp': 30.69, 'lipoC3S3': 12.55, 'lipoC3S2': 8.3, 'rot1': 0, 'rot0': 0, 'rot3': 0, 'rot2': 0, 'state': 'normal', 'yaw': -156.99, 'datetime': '2018-10-09 11:38:09.448928', 'mgs': 0, 'volt': 0.0, 'depth': -12.5, 'time': 135, 'pitch': 4.23, 'roll': -1.17, 'pres': 0}
{'lipoC2': 7.64, 'lipoC3S1': 4.15, 'temp': 30.63, 'lipoC3S3': 12.54, 'lipoC3S2': 8.3, 'rot1': 0, 'rot0': 0, 'rot3': 0, 'rot2': 0, 'state': 'normal', 'yaw': -157.14, 'datetime': '2018-10-09 11:38:09.463007', 'mgs': 0, 'volt': 0.0, 'depth': -12.5, 'time': 135, 'pitch': 4.28, 'roll': -0.9, 'pres': 0}
{'lipoC2': 7.64, 'lipoC3S1': 4.15, 'temp': 30.63, 'lipoC3S3': 12.55, 'lipoC3S2': 8.3, 'rot1': 0, 'rot0': 0, 'rot3': 0, 'rot2': 0, 'state': 'normal', 'yaw': -157.29, 'datetime': '2018-10-09 11:38:09.472722', 'mgs': 0, 'volt': 0.0, 'depth': -12.5, 'time': 135, 'pitch': 4.69, 'roll': -0.71, 'pres': 0}
{'lipoC2': 7.65, 'lipoC3S1': 4.15, 'temp': 30.69, 'lipoC3S3': 12.54, 'lipoC3S2': 8.3, 'rot1': 0, 'rot0': 0, 'rot3': 0, 'rot2': 0, 'state': 'normal', 'yaw': -157.42, 'datetime': '2018-10-09 11:38:09.482433', 'mgs': 0, 'volt': 0.0, 'depth': -12.5, 'time': 135, 'pitch': 5.29, 'roll': -0.72, 'pres': 0}
{'lipoC2': 7.64, 'lipoC3S1': 4.15, 'temp': 30.69, 'lipoC3S3': 12.55, 'lipoC3S2': 8.3, 'rot1': 0, 'rot0': 0, 'rot3': 0, 'rot2': 0, 'state': 'normal', 'yaw': -157.54, 'datetime': '2018-10-09 11:38:09.492072', 'mgs': 0, 'volt': 0.0, 'depth': -12.5, 'time': 136, 'pitch': 5.82, 'roll': -0.86, 'pres': 0}
{'lipoC2': 7.64, 'lipoC3S1': 4.15, 'temp': 30.69, 'lipoC3S3': 12.54, 'lipoC3S2': 8.29, 'rot1': 0, 'rot0': 0, 'rot3': 0, 'rot2': 0, 'state': 'normal', 'yaw': -157.6, 'datetime': '2018-10-09 11:38:09.501712', 'mgs': 0, 'volt': 0.0, 'depth': -12.5, 'time': 136, 'pitch': 6.05, 'roll': -1.1, 'pres': 0}
{'lipoC2': 7.64, 'lipoC3S1': 4.15, 'temp': 30.69, 'lipoC3S3': 12.54, 'lipoC3S2': 8.29, 'rot1': 0, 'rot0': 0, 'rot3': 0, 'rot2': 0, 'state': 'normal', 'yaw': -157.59, 'datetime': '2018-10-09 11:38:09.511330', 'mgs': 0, 'volt': 0.0, 'depth': -12.5, 'time': 136, 'pitch': 5.88, 'roll': -1.29, 'pres': 0}
{'lipoC2': 7.64, 'lipoC3S1': 4.15, 'temp': 30.69, 'lipoC3S3': 12.54, 'lipoC3S2': 8.29, 'rot1': 0, 'rot0': 0, 'rot3': 0, 'rot2': 0, 'state': 'normal', 'yaw': -157.58, 'datetime': '2018-10-09 11:38:09.520968', 'mgs': 0, 'volt': 0.0, 'depth': -12.5, 'time': 136, 'pitch': 5.48, 'roll': -1.42, 'pres': 0}
{'lipoC2': 7.64, 'lipoC3S1': 4.15, 'temp': 30.69, 'lipoC3S3': 12.54, 'lipoC3S2': 8.29, 'rot1': 0, 'rot0': 0, 'rot3': 0, 'rot2': 0, 'state': 'normal', 'yaw': -157.6, 'datetime': '2018-10-09 11:38:09.530618', 'mgs': 0, 'volt': 0.0, 'depth': -12.5, 'time': 136, 'pitch': 4.92, 'roll': -1.41, 'pres': 0}
{'lipoC2': 7.65, 'lipoC3S1': 4.15, 'temp': 30.69, 'lipoC3S3': 12.54, 'lipoC3S2': 8.29, 'rot1': 0, 'rot0': 0, 'rot3': 0, 'rot2': 0, 'state': 'normal', 'yaw': -157.69, 'datetime': '2018-10-09 11:38:09.540588', 'mgs': 0, 'volt': 0.0, 'depth': -12.5, 'time': 136, 'pitch': 4.44, 'roll': -1.24, 'pres': 0}
{'lipoC2': 7.64, 'lipoC3S1': 4.15, 'temp': 30.63, 'lipoC3S3': 12.54, 'lipoC3S2': 8.29, 'rot1': 0, 'rot0': 0, 'rot3': 0, 'rot2': 0, 'state': 'normal', 'yaw': -157.78, 'datetime': '2018-10-09 11:38:09.550305', 'mgs': 0, 'volt': 0.0, 'depth': -12.5, 'time': 136, 'pitch': 4.08, 'roll': -0.92, 'pres': 0}
{'lipoC2': 7.64, 'lipoC3S1': 4.15, 'temp': 30.63, 'lipoC3S3': 12.54, 'lipoC3S2': 8.29, 'rot1': 0, 'rot0': 0, 'rot3': 0, 'rot2': 0, 'state': 'normal', 'yaw': -157.88, 'datetime': '2018-10-09 11:38:09.559964', 'mgs': 0, 'volt': 0.0, 'depth': -12.5, 'time': 136, 'pitch': 3.96, 'roll': -0.6, 'pres': 0}
{'lipoC2': 7.64, 'lipoC3S1': 4.15, 'temp': 30.63, 'lipoC3S3': 12.54, 'lipoC3S2': 8.29, 'rot1': 0, 'rot0': 0, 'rot3': 0, 'rot2': 0, 'state': 'normal', 'yaw': -157.97, 'datetime': '2018-10-09 11:38:09.569628', 'mgs': 0, 'volt': 0.0, 'depth': -12.5, 'time': 136, 'pitch': 4.31, 'roll': -0.48, 'pres': 0}
{'lipoC2': 7.64, 'lipoC3S1': 4.15, 'temp': 30.63, 'lipoC3S3': 12.54, 'lipoC3S2': 8.29, 'rot1': 0, 'rot0': 0, 'rot3': 0, 'rot2': 0, 'state': 'normal', 'yaw': -158.07, 'datetime': '2018-10-09 11:38:09.579340', 'mgs': 0, 'volt': 0.0, 'depth': -12.5, 'time': 137, 'pitch': 5.07, 'roll': -0.62, 'pres': 0}
{'lipoC2': 7.64, 'lipoC3S1': 4.15, 'temp': 30.63, 'lipoC3S3': 12.54, 'lipoC3S2': 8.29, 'rot1': 0, 'rot0': 0, 'rot3': 0, 'rot2': 0, 'state': 'normal', 'yaw': -158.13, 'datetime': '2018-10-09 11:38:09.588990', 'mgs': 0, 'volt': 0.0, 'depth': -12.5, 'time': 137, 'pitch': 5.83, 'roll': -0.77, 'pres': 0}
{'lipoC2': 7.64, 'lipoC3S1': 4.15, 'temp': 30.63, 'lipoC3S3': 12.54, 'lipoC3S2': 8.29, 'rot1': 0, 'rot0': 0, 'rot3': 0, 'rot2': 0, 'state': 'normal', 'yaw': -158.14, 'datetime': '2018-10-09 11:38:09.598633', 'mgs': 0, 'volt': 0.0, 'depth': -12.5, 'time': 137, 'pitch': 6.19, 'roll': -0.79, 'pres': 0}
{'lipoC2': 7.64, 'lipoC3S1': 4.15, 'temp': 30.63, 'lipoC3S3': 12.54, 'lipoC3S2': 8.29, 'rot1': 0, 'rot0': 0, 'rot3': 0, 'rot2': 0, 'state': 'normal', 'yaw': -158.17, 'datetime': '2018-10-09 11:38:09.608280', 'mgs': 0, 'volt': 0.0, 'depth': -12.5, 'time': 137, 'pitch': 5.85, 'roll': -0.75, 'pres': 0}
{'lipoC2': 7.64, 'lipoC3S1': 4.15, 'temp': 30.63, 'lipoC3S3': 12.54, 'lipoC3S2': 8.29, 'rot1': 0, 'rot0': 0, 'rot3': 0, 'rot2': 0, 'state': 'normal', 'yaw': -158.26, 'datetime': '2018-10-09 11:38:09.617938', 'mgs': 0, 'volt': 0.0, 'depth': -12.5, 'time': 137, 'pitch': 4.97, 'roll': -0.64, 'pres': 0}
{'lipoC2': 7.64, 'lipoC3S1': 4.15, 'temp': 30.63, 'lipoC3S3': 12.54, 'lipoC3S2': 8.29, 'rot1': 0, 'rot0': 0, 'rot3': 0, 'rot2': 0, 'state': 'normal', 'yaw': -158.36, 'datetime': '2018-10-09 11:38:09.688146', 'mgs': 0, 'volt': 0.0, 'depth': -12.5, 'time': 137, 'pitch': 3.94, 'roll': -0.56, 'pres': 0}
{'lipoC2': 7.64, 'lipoC3S1': 4.15, 'temp': 30.63, 'lipoC3S3': 12.54, 'lipoC3S2': 8.29, 'rot1': 0, 'rot0': 0, 'rot3': 0, 'rot2': 0, 'state': 'normal', 'yaw': -158.47, 'datetime': '2018-10-09 11:38:09.791007', 'mgs': 0, 'volt': 0.0, 'depth': -12.5, 'time': 137, 'pitch': 3.07, 'roll': -0.58, 'pres': 0}
{'lipoC2': 7.64, 'lipoC3S1': 4.15, 'temp': 30.63, 'lipoC3S3': 12.54, 'lipoC3S2': 8.29, 'rot1': 0, 'rot0': 0, 'rot3': 0, 'rot2': 0, 'state': 'normal', 'yaw': -158.56, 'datetime': '2018-10-09 11:38:09.894898', 'mgs': 0, 'volt': 0.0, 'depth': -12.5, 'time': 137, 'pitch': 2.74, 'roll': -0.73, 'pres': 0}
{'lipoC2': 7.64, 'lipoC3S1': 4.15, 'temp': 30.63, 'lipoC3S3': 12.54, 'lipoC3S2': 8.29, 'rot1': 0, 'rot0': 0, 'rot3': 0, 'rot2': 0, 'state': 'normal', 'yaw': -158.65, 'datetime': '2018-10-09 11:38:09.998629', 'mgs': 0, 'volt': 0.0, 'depth': -12.5, 'time': 137, 'pitch': 2.89, 'roll': -0.99, 'pres': 0}
{'lipoC2': 7.64, 'lipoC3S1': 4.15, 'temp': 30.63, 'lipoC3S3': 12.54, 'lipoC3S2': 8.29, 'rot1': 0, 'rot0': 0, 'rot3': 0, 'rot2': 0, 'state': 'normal', 'yaw': -158.68, 'datetime': '2018-10-09 11:38:10.101537', 'mgs': 0, 'volt': 0.0, 'depth': -12.5, 'time': 137, 'pitch': 3.37, 'roll': -1.24, 'pres': 0}
{'lipoC2': 7.64, 'lipoC3S1': 4.15, 'temp': 30.63, 'lipoC3S3': 12.54, 'lipoC3S2': 8.29, 'rot1': 0, 'rot0': 0, 'rot3': 0, 'rot2': 0, 'state': 'normal', 'yaw': -158.69, 'datetime': '2018-10-09 11:38:10.206085', 'mgs': 0, 'volt': 0.0, 'depth': -12.5, 'time': 138, 'pitch': 3.75, 'roll': -1.37, 'pres': 0}
{'lipoC2': 7.64, 'lipoC3S1': 4.15, 'temp': 30.69, 'lipoC3S3': 12.54, 'lipoC3S2': 8.29, 'rot1': 0, 'rot0': 0, 'rot3': 0, 'rot2': 0, 'state': 'normal', 'yaw': -158.73, 'datetime': '2018-10-09 11:38:10.310048', 'mgs': 0, 'volt': 0.0, 'depth': -12.5, 'time': 138, 'pitch': 3.8, 'roll': -1.41, 'pres': 0}
{'lipoC2': 7.64, 'lipoC3S1': 4.15, 'temp': 30.69, 'lipoC3S3': 12.54, 'lipoC3S2': 8.29, 'rot1': 0, 'rot0': 0, 'rot3': 0, 'rot2': 0, 'state': 'normal', 'yaw': -158.81, 'datetime': '2018-10-09 11:38:10.412998', 'mgs': 0, 'volt': 0.0, 'depth': -12.5, 'time': 138, 'pitch': 3.48, 'roll': -1.42, 'pres': 0}
{'lipoC2': 7.64, 'lipoC3S1': 4.15, 'temp': 30.69, 'lipoC3S3': 12.54, 'lipoC3S2': 8.29, 'rot1': 0, 'rot0': 0, 'rot3': 0, 'rot2': 0, 'state': 'normal', 'yaw': -158.9, 'datetime': '2018-10-09 11:38:10.515876', 'mgs': 0, 'volt': 0.0, 'depth': -12.5, 'time': 138, 'pitch': 3.15, 'roll': -1.43, 'pres': 0}
{'lipoC2': 7.64, 'lipoC3S1': 4.15, 'temp': 30.69, 'lipoC3S3': 12.54, 'lipoC3S2': 8.29, 'rot1': 0, 'rot0': 0, 'rot3': 0, 'rot2': 0, 'state': 'normal', 'yaw': -158.96, 'datetime': '2018-10-09 11:38:10.618669', 'mgs': 0, 'volt': 0.0, 'depth': -12.5, 'time': 138, 'pitch': 3.16, 'roll': -1.43, 'pres': 0}
{'lipoC2': 7.64, 'lipoC3S1': 4.15, 'temp': 30.69, 'lipoC3S3': 12.54, 'lipoC3S2': 8.29, 'rot1': 0, 'rot0': 0, 'rot3': 0, 'rot2': 0, 'state': 'normal', 'yaw': -159.0, 'datetime': '2018-10-09 11:38:10.721574', 'mgs': 0, 'volt': 0.0, 'depth': -12.5, 'time': 138, 'pitch': 3.76, 'roll': -1.43, 'pres': 0}
{'lipoC2': 7.64, 'lipoC3S1': 4.15, 'temp': 30.69, 'lipoC3S3': 12.54, 'lipoC3S2': 8.29, 'rot1': 0, 'rot0': 0, 'rot3': 0, 'rot2': 0, 'state': 'normal', 'yaw': -159.02, 'datetime': '2018-10-09 11:38:10.824434', 'mgs': 0, 'volt': 0.0, 'depth': -12.5, 'time': 138, 'pitch': 4.6, 'roll': -1.43, 'pres': 0}
{'lipoC2': 7.64, 'lipoC3S1': 4.15, 'temp': 30.69, 'lipoC3S3': 12.54, 'lipoC3S2': 8.29, 'rot1': 0, 'rot0': 0, 'rot3': 0, 'rot2': 0, 'state': 'normal', 'yaw': -159.04, 'datetime': '2018-10-09 11:38:10.927340', 'mgs': 0, 'volt': 0.0, 'depth': -12.5, 'time': 138, 'pitch': 5.37, 'roll': -1.43, 'pres': 0}
{'lipoC2': 7.64, 'lipoC3S1': 4.15, 'temp': 30.63, 'lipoC3S3': 12.54, 'lipoC3S2': 8.29, 'rot1': 0, 'rot0': 0, 'rot3': 0, 'rot2': 0, 'state': 'normal', 'yaw': -159.13, 'datetime': '2018-10-09 11:38:11.030236', 'mgs': 0, 'volt': 0.0, 'depth': -12.5, 'time': 138, 'pitch': 5.76, 'roll': -1.44, 'pres': 0}
{'lipoC2': 7.64, 'lipoC3S1': 4.15, 'temp': 30.63, 'lipoC3S3': 12.54, 'lipoC3S2': 8.29, 'rot1': 0, 'rot0': 0, 'rot3': 0, 'rot2': 0, 'state': 'normal', 'yaw': -159.2, 'datetime': '2018-10-09 11:38:11.133095', 'mgs': 0, 'volt': 0.0, 'depth': -12.5, 'time': 138, 'pitch': 5.5, 'roll': -1.44, 'pres': 0}
{'lipoC2': 7.64, 'lipoC3S1': 4.15, 'temp': 30.63, 'lipoC3S3': 12.54, 'lipoC3S2': 8.29, 'rot1': 0, 'rot0': 0, 'rot3': 0, 'rot2': 0, 'state': 'normal', 'yaw': -159.21, 'datetime': '2018-10-09 11:38:11.237248', 'mgs': 0, 'volt': 0.0, 'depth': -12.5, 'time': 139, 'pitch': 4.88, 'roll': -1.45, 'pres': 0}
{'lipoC2': 7.64, 'lipoC3S1': 4.15, 'temp': 30.63, 'lipoC3S3': 12.54, 'lipoC3S2': 8.29, 'rot1': 0, 'rot0': 0, 'rot3': 0, 'rot2': 0, 'state': 'normal', 'yaw': -159.19, 'datetime': '2018-10-09 11:38:11.338921', 'mgs': 0, 'volt': 0.0, 'depth': -12.5, 'time': 139, 'pitch': 4.26, 'roll': -1.47, 'pres': 0}
{'lipoC2': 7.64, 'lipoC3S1': 4.15, 'temp': 30.63, 'lipoC3S3': 12.54, 'lipoC3S2': 8.29, 'rot1': 0, 'rot0': 0, 'rot3': 0, 'rot2': 0, 'state': 'normal', 'yaw': -159.21, 'datetime': '2018-10-09 11:38:11.442318', 'mgs': 0, 'volt': 0.0, 'depth': -12.5, 'time': 139, 'pitch': 3.78, 'roll': -1.42, 'pres': 0}
{'lipoC2': 7.64, 'lipoC3S1': 4.15, 'temp': 30.63, 'lipoC3S3': 12.54, 'lipoC3S2': 8.29, 'rot1': 0, 'rot0': 0, 'rot3': 0, 'rot2': 0, 'state': 'normal', 'yaw': -159.29, 'datetime': '2018-10-09 11:38:11.545235', 'mgs': 0, 'volt': 0.0, 'depth': -12.5, 'time': 139, 'pitch': 3.54, 'roll': -1.29, 'pres': 0}
{'lipoC2': 7.64, 'lipoC3S1': 4.15, 'temp': 30.63, 'lipoC3S3': 12.54, 'lipoC3S2': 8.29, 'rot1': 0, 'rot0': 0, 'rot3': 0, 'rot2': 0, 'state': 'normal', 'yaw': -159.39, 'datetime': '2018-10-09 11:38:11.648486', 'mgs': 0, 'volt': 0.0, 'depth': -12.5, 'time': 139, 'pitch': 3.56, 'roll': -1.17, 'pres': 0}
{'lipoC2': 7.64, 'lipoC3S1': 4.15, 'temp': 30.63, 'lipoC3S3': 12.54, 'lipoC3S2': 8.29, 'rot1': 0, 'rot0': 0, 'rot3': 0, 'rot2': 0, 'state': 'normal', 'yaw': -159.47, 'datetime': '2018-10-09 11:38:11.752477', 'mgs': 0, 'volt': 0.0, 'depth': -12.5, 'time': 139, 'pitch': 3.89, 'roll': -1.09, 'pres': 0}
{'lipoC2': 7.64, 'lipoC3S1': 4.15, 'temp': 30.63, 'lipoC3S3': 12.54, 'lipoC3S2': 8.29, 'rot1': 0, 'rot0': 0, 'rot3': 0, 'rot2': 0, 'state': 'normal', 'yaw': -159.5, 'datetime': '2018-10-09 11:38:11.855353', 'mgs': 0, 'volt': 0.0, 'depth': -12.5, 'time': 139, 'pitch': 4.56, 'roll': -1.13, 'pres': 0}
{'lipoC2': 7.64, 'lipoC3S1': 4.15, 'temp': 30.63, 'lipoC3S3': 12.54, 'lipoC3S2': 8.29, 'rot1': 0, 'rot0': 0, 'rot3': 0, 'rot2': 0, 'state': 'normal', 'yaw': -159.5, 'datetime': '2018-10-09 11:38:11.958220', 'mgs': 0, 'volt': 0.0, 'depth': -12.5, 'time': 139, 'pitch': 5.28, 'roll': -1.28, 'pres': 0}
{'lipoC2': 7.64, 'lipoC3S1': 4.15, 'temp': 30.63, 'lipoC3S3': 12.54, 'lipoC3S2': 8.29, 'rot1': 0, 'rot0': 0, 'rot3': 0, 'rot2': 0, 'state': 'normal', 'yaw': -159.51, 'datetime': '2018-10-09 11:38:12.062368', 'mgs': 0, 'volt': 0.0, 'depth': -12.5, 'time': 139, 'pitch': 5.81, 'roll': -1.44, 'pres': 0}
{'lipoC2': 7.64, 'lipoC3S1': 4.15, 'temp': 30.63, 'lipoC3S3': 12.54, 'lipoC3S2': 8.29, 'rot1': 0, 'rot0': 0, 'rot3': 0, 'rot2': 0, 'state': 'normal', 'yaw': -159.5, 'datetime': '2018-10-09 11:38:12.165275', 'mgs': 0, 'volt': 0.0, 'depth': -12.5, 'time': 139, 'pitch': 5.88, 'roll': -1.44, 'pres': 0}
{'lipoC2': 7.64, 'lipoC3S1': 4.15, 'temp': 30.63, 'lipoC3S3': 12.54, 'lipoC3S2': 8.29, 'rot1': 0, 'rot0': 0, 'rot3': 0, 'rot2': 0, 'state': 'normal', 'yaw': -159.48, 'datetime': '2018-10-09 11:38:12.268302', 'mgs': 0, 'volt': 0.0, 'depth': -12.5, 'time': 140, 'pitch': 5.36, 'roll': -1.27, 'pres': 0}
{'lipoC2': 7.64, 'lipoC3S1': 4.15, 'temp': 30.63, 'lipoC3S3': 12.54, 'lipoC3S2': 8.29, 'rot1': 0, 'rot0': 0, 'rot3': 0, 'rot2': 0, 'state': 'normal', 'yaw': -159.51, 'datetime': '2018-10-09 11:38:12.371084', 'mgs': 0, 'volt': 0.0, 'depth': -12.5, 'time': 140, 'pitch': 4.52, 'roll': -0.95, 'pres': 0}
{'lipoC2': 7.64, 'lipoC3S1': 4.15, 'temp': 30.63, 'lipoC3S3': 12.54, 'lipoC3S2': 8.29, 'rot1': 0, 'rot0': 0, 'rot3': 0, 'rot2': 0, 'state': 'normal', 'yaw': -159.58, 'datetime': '2018-10-09 11:38:12.474126', 'mgs': 0, 'volt': 0.0, 'depth': -12.5, 'time': 140, 'pitch': 3.68, 'roll': -0.69, 'pres': 0}
{'lipoC2': 7.64, 'lipoC3S1': 4.15, 'temp': 30.63, 'lipoC3S3': 12.54, 'lipoC3S2': 8.29, 'rot1': 0, 'rot0': 0, 'rot3': 0, 'rot2': 0, 'state': 'normal', 'yaw': -159.68, 'datetime': '2018-10-09 11:38:12.576990', 'mgs': 0, 'volt': 0.0, 'depth': -12.5, 'time': 140, 'pitch': 3.13, 'roll': -0.61, 'pres': 0}
{'lipoC2': 7.64, 'lipoC3S1': 4.15, 'temp': 30.63, 'lipoC3S3': 12.54, 'lipoC3S2': 8.29, 'rot1': 0, 'rot0': 0, 'rot3': 0, 'rot2': 0, 'state': 'normal', 'yaw': -159.69, 'datetime': '2018-10-09 11:38:12.679910', 'mgs': 0, 'volt': 0.0, 'depth': -12.5, 'time': 140, 'pitch': 3.18, 'roll': -0.7, 'pres': 0}
{'lipoC2': 7.64, 'lipoC3S1': 4.15, 'temp': 30.63, 'lipoC3S3': 12.54, 'lipoC3S2': 8.29, 'rot1': 0, 'rot0': 0, 'rot3': 0, 'rot2': 0, 'state': 'normal', 'yaw': -159.7, 'datetime': '2018-10-09 11:38:12.782802', 'mgs': 0, 'volt': 0.0, 'depth': -12.5, 'time': 140, 'pitch': 3.76, 'roll': -0.88, 'pres': 0}
{'lipoC2': 7.64, 'lipoC3S1': 4.15, 'temp': 30.63, 'lipoC3S3': 12.54, 'lipoC3S2': 8.29, 'rot1': 0, 'rot0': 0, 'rot3': 0, 'rot2': 0, 'state': 'normal', 'yaw': -159.71, 'datetime': '2018-10-09 11:38:12.885865', 'mgs': 0, 'volt': 0.0, 'depth': -12.5, 'time': 140, 'pitch': 4.69, 'roll': -1.02, 'pres': 0}
{'lipoC2': 7.64, 'lipoC3S1': 4.15, 'temp': 30.63, 'lipoC3S3': 12.54, 'lipoC3S2': 8.29, 'rot1': 0, 'rot0': 0, 'rot3': 0, 'rot2': 0, 'state': 'normal', 'yaw': -159.73, 'datetime': '2018-10-09 11:38:12.988571', 'mgs': 0, 'volt': 0.0, 'depth': -12.5, 'time': 140, 'pitch': 5.59, 'roll': -1.04, 'pres': 0}
{'lipoC2': 7.64, 'lipoC3S1': 4.15, 'temp': 30.63, 'lipoC3S3': 12.54, 'lipoC3S2': 8.29, 'rot1': 0, 'rot0': 0, 'rot3': 0, 'rot2': 0, 'state': 'normal', 'yaw': -159.73, 'datetime': '2018-10-09 11:38:13.091436', 'mgs': 0, 'volt': 0.0, 'depth': -12.5, 'time': 140, 'pitch': 5.88, 'roll': -1.0, 'pres': 0}
{'lipoC2': 7.64, 'lipoC3S1': 4.15, 'temp': 30.69, 'lipoC3S3': 12.54, 'lipoC3S2': 8.29, 'rot1': 0, 'rot0': 0, 'rot3': 0, 'rot2': 0, 'state': 'normal', 'yaw': -159.78, 'datetime': '2018-10-09 11:38:13.195325', 'mgs': 0, 'volt': 0.0, 'depth': -12.5, 'time': 141, 'pitch': 5.56, 'roll': -0.95, 'pres': 0}
{'lipoC2': 7.64, 'lipoC3S1': 4.15, 'temp': 30.69, 'lipoC3S3': 12.54, 'lipoC3S2': 8.29, 'rot1': 0, 'rot0': 0, 'rot3': 0, 'rot2': 0, 'state': 'normal', 'yaw': -159.83, 'datetime': '2018-10-09 11:38:13.298199', 'mgs': 0, 'volt': 0.0, 'depth': -12.5, 'time': 141, 'pitch': 4.69, 'roll': -1.09, 'pres': 0}
{'lipoC2': 7.64, 'lipoC3S1': 4.15, 'temp': 30.69, 'lipoC3S3': 12.54, 'lipoC3S2': 8.29, 'rot1': 0, 'rot0': 0, 'rot3': 0, 'rot2': 0, 'state': 'normal', 'yaw': -159.8, 'datetime': '2018-10-09 11:38:13.401539', 'mgs': 0, 'volt': 0.0, 'depth': -12.5, 'time': 141, 'pitch': 3.73, 'roll': -1.3, 'pres': 0}
{'lipoC2': 7.64, 'lipoC3S1': 4.15, 'temp': 30.69, 'lipoC3S3': 12.54, 'lipoC3S2': 8.29, 'rot1': 0, 'rot0': 0, 'rot3': 0, 'rot2': 0, 'state': 'normal', 'yaw': -159.79, 'datetime': '2018-10-09 11:38:13.505770', 'mgs': 0, 'volt': 0.0, 'depth': -12.5, 'time': 141, 'pitch': 2.94, 'roll': -1.47, 'pres': 0}
{'lipoC2': 7.64, 'lipoC3S1': 4.15, 'temp': 30.69, 'lipoC3S3': 12.54, 'lipoC3S2': 8.29, 'rot1': 0, 'rot0': 0, 'rot3': 0, 'rot2': 0, 'state': 'normal', 'yaw': -159.78, 'datetime': '2018-10-09 11:38:13.608594', 'mgs': 0, 'volt': 0.0, 'depth': -12.5, 'time': 141, 'pitch': 2.49, 'roll': -1.56, 'pres': 0}
{'lipoC2': 7.64, 'lipoC3S1': 4.15, 'temp': 30.63, 'lipoC3S3': 12.54, 'lipoC3S2': 8.29, 'rot1': 0, 'rot0': 0, 'rot3': 0, 'rot2': 0, 'state': 'normal', 'yaw': -159.78, 'datetime': '2018-10-09 11:38:13.711501', 'mgs': 0, 'volt': 0.0, 'depth': -12.5, 'time': 141, 'pitch': 2.65, 'roll': -1.54, 'pres': 0}
{'lipoC2': 7.64, 'lipoC3S1': 4.15, 'temp': 30.63, 'lipoC3S3': 12.54, 'lipoC3S2': 8.29, 'rot1': 0, 'rot0': 0, 'rot3': 0, 'rot2': 0, 'state': 'normal', 'yaw': -159.81, 'datetime': '2018-10-09 11:38:13.815716', 'mgs': 0, 'volt': 0.0, 'depth': -12.5, 'time': 141, 'pitch': 3.38, 'roll': -1.45, 'pres': 0}
{'lipoC2': 7.64, 'lipoC3S1': 4.15, 'temp': 30.63, 'lipoC3S3': 12.54, 'lipoC3S2': 8.29, 'rot1': 0, 'rot0': 0, 'rot3': 0, 'rot2': 0, 'state': 'normal', 'yaw': -159.84, 'datetime': '2018-10-09 11:38:13.918562', 'mgs': 0, 'volt': 0.0, 'depth': -12.5, 'time': 141, 'pitch': 4.56, 'roll': -1.39, 'pres': 0}
{'lipoC2': 7.64, 'lipoC3S1': 4.15, 'temp': 30.63, 'lipoC3S3': 12.54, 'lipoC3S2': 8.29, 'rot1': 0, 'rot0': 0, 'rot3': 0, 'rot2': 0, 'state': 'normal', 'yaw': -159.87, 'datetime': '2018-10-09 11:38:14.021420', 'mgs': 0, 'volt': 0.0, 'depth': -12.5, 'time': 141, 'pitch': 5.63, 'roll': -1.42, 'pres': 0}
{'lipoC2': 7.64, 'lipoC3S1': 4.15, 'temp': 30.63, 'lipoC3S3': 12.54, 'lipoC3S2': 8.29, 'rot1': 0, 'rot0': 0, 'rot3': 0, 'rot2': 0, 'state': 'normal', 'yaw': -159.88, 'datetime': '2018-10-09 11:38:14.124335', 'mgs': 0, 'volt': 0.0, 'depth': -12.5, 'time': 141, 'pitch': 6.25, 'roll': -1.54, 'pres': 0}
{'lipoC2': 7.64, 'lipoC3S1': 4.15, 'temp': 30.69, 'lipoC3S3': 12.54, 'lipoC3S2': 8.29, 'rot1': 0, 'rot0': 0, 'rot3': 0, 'rot2': 0, 'state': 'normal', 'yaw': -159.88, 'datetime': '2018-10-09 11:38:14.227442', 'mgs': 0, 'volt': 0.0, 'depth': -12.5, 'time': 142, 'pitch': 6.18, 'roll': -1.68, 'pres': 0}
{'lipoC2': 7.64, 'lipoC3S1': 4.15, 'temp': 30.69, 'lipoC3S3': 12.54, 'lipoC3S2': 8.29, 'rot1': 0, 'rot0': 0, 'rot3': 0, 'rot2': 0, 'state': 'normal', 'yaw': -159.86, 'datetime': '2018-10-09 11:38:14.330310', 'mgs': 0, 'volt': 0.0, 'depth': -12.5, 'time': 142, 'pitch': 5.43, 'roll': -1.65, 'pres': 0}
{'lipoC2': 7.64, 'lipoC3S1': 4.15, 'temp': 30.63, 'lipoC3S3': 12.54, 'lipoC3S2': 8.29, 'rot1': 0, 'rot0': 0, 'rot3': 0, 'rot2': 0, 'state': 'normal', 'yaw': -159.84, 'datetime': '2018-10-09 11:38:14.433282', 'mgs': 0, 'volt': 0.0, 'depth': -12.5, 'time': 142, 'pitch': 4.55, 'roll': -1.43, 'pres': 0}
{'lipoC2': 7.64, 'lipoC3S1': 4.15, 'temp': 30.63, 'lipoC3S3': 12.54, 'lipoC3S2': 8.29, 'rot1': 0, 'rot0': 0, 'rot3': 0, 'rot2': 0, 'state': 'normal', 'yaw': -159.87, 'datetime': '2018-10-09 11:38:14.536198', 'mgs': 0, 'volt': 0.0, 'depth': -12.5, 'time': 142, 'pitch': 3.94, 'roll': -1.17, 'pres': 0}
{'lipoC2': 7.64, 'lipoC3S1': 4.15, 'temp': 30.63, 'lipoC3S3': 12.54, 'lipoC3S2': 8.29, 'rot1': 0, 'rot0': 0, 'rot3': 0, 'rot2': 0, 'state': 'normal', 'yaw': -159.92, 'datetime': '2018-10-09 11:38:14.639054', 'mgs': 0, 'volt': 0.0, 'depth': -12.5, 'time': 142, 'pitch': 3.75, 'roll': -0.97, 'pres': 0}
{'lipoC2': 7.64, 'lipoC3S1': 4.15, 'temp': 30.63, 'lipoC3S3': 12.54, 'lipoC3S2': 8.29, 'rot1': 0, 'rot0': 0, 'rot3': 0, 'rot2': 0, 'state': 'normal', 'yaw': -159.92, 'datetime': '2018-10-09 11:38:14.741923', 'mgs': 0, 'volt': 0.0, 'depth': -12.5, 'time': 142, 'pitch': 3.83, 'roll': -0.94, 'pres': 0}
{'lipoC2': 7.64, 'lipoC3S1': 4.15, 'temp': 30.63, 'lipoC3S3': 12.54, 'lipoC3S2': 8.29, 'rot1': 0, 'rot0': 0, 'rot3': 0, 'rot2': 0, 'state': 'normal', 'yaw': -159.93, 'datetime': '2018-10-09 11:38:14.844806', 'mgs': 0, 'volt': 0.0, 'depth': -12.5, 'time': 142, 'pitch': 4.09, 'roll': -1.07, 'pres': 0}
{'lipoC2': 7.64, 'lipoC3S1': 4.15, 'temp': 30.63, 'lipoC3S3': 12.54, 'lipoC3S2': 8.29, 'rot1': 0, 'rot0': 0, 'rot3': 0, 'rot2': 0, 'state': 'normal', 'yaw': -159.93, 'datetime': '2018-10-09 11:38:14.948794', 'mgs': 0, 'volt': 0.0, 'depth': -12.5, 'time': 142, 'pitch': 4.43, 'roll': -1.21, 'pres': 0}
{'lipoC2': 7.64, 'lipoC3S1': 4.15, 'temp': 30.63, 'lipoC3S3': 12.54, 'lipoC3S2': 8.29, 'rot1': 0, 'rot0': 0, 'rot3': 0, 'rot2': 0, 'state': 'normal', 'yaw': -159.93, 'datetime': '2018-10-09 11:38:15.051663', 'mgs': 0, 'volt': 0.0, 'depth': -12.5, 'time': 142, 'pitch': 4.89, 'roll': -1.25, 'pres': 0}
{'lipoC2': 7.64, 'lipoC3S1': 4.15, 'temp': 30.69, 'lipoC3S3': 12.54, 'lipoC3S2': 8.29, 'rot1': 0, 'rot0': 0, 'rot3': 0, 'rot2': 0, 'state': 'normal', 'yaw': -159.94, 'datetime': '2018-10-09 11:38:15.154522', 'mgs': 0, 'volt': 0.0, 'depth': -12.5, 'time': 142, 'pitch': 5.35, 'roll': -1.13, 'pres': 0}
{'lipoC2': 7.64, 'lipoC3S1': 4.15, 'temp': 30.69, 'lipoC3S3': 12.54, 'lipoC3S2': 8.29, 'rot1': 0, 'rot0': 0, 'rot3': 0, 'rot2': 0, 'state': 'normal', 'yaw': -159.94, 'datetime': '2018-10-09 11:38:15.258661', 'mgs': 0, 'volt': 0.0, 'depth': -12.5, 'time': 143, 'pitch': 5.72, 'roll': -0.9, 'pres': 0}
{'lipoC2': 7.64, 'lipoC3S1': 4.15, 'temp': 30.69, 'lipoC3S3': 12.54, 'lipoC3S2': 8.29, 'rot1': 0, 'rot0': 0, 'rot3': 0, 'rot2': 0, 'state': 'normal', 'yaw': -159.93, 'datetime': '2018-10-09 11:38:15.361562', 'mgs': 0, 'volt': 0.0, 'depth': -12.5, 'time': 143, 'pitch': 5.74, 'roll': -0.71, 'pres': 0}
{'lipoC2': 7.64, 'lipoC3S1': 4.15, 'temp': 30.69, 'lipoC3S3': 12.54, 'lipoC3S2': 8.29, 'rot1': 0, 'rot0': 0, 'rot3': 0, 'rot2': 0, 'state': 'normal', 'yaw': -159.92, 'datetime': '2018-10-09 11:38:15.464472', 'mgs': 0, 'volt': 0.0, 'depth': -12.5, 'time': 143, 'pitch': 5.28, 'roll': -0.67, 'pres': 0}
{'lipoC2': 7.64, 'lipoC3S1': 4.15, 'temp': 30.69, 'lipoC3S3': 12.54, 'lipoC3S2': 8.29, 'rot1': 0, 'rot0': 0, 'rot3': 0, 'rot2': 0, 'state': 'normal', 'yaw': -159.92, 'datetime': '2018-10-09 11:38:15.568629', 'mgs': 0, 'volt': 0.0, 'depth': -12.5, 'time': 143, 'pitch': 4.59, 'roll': -0.71, 'pres': 0}
{'lipoC2': 7.64, 'lipoC3S1': 4.15, 'temp': 30.69, 'lipoC3S3': 12.54, 'lipoC3S2': 8.29, 'rot1': 0, 'rot0': 0, 'rot3': 0, 'rot2': 0, 'state': 'normal', 'yaw': -159.91, 'datetime': '2018-10-09 11:38:15.686052', 'mgs': 0, 'volt': 0.0, 'depth': -12.5, 'time': 143, 'pitch': 3.98, 'roll': -0.86, 'pres': 0}
{'lipoC2': 7.64, 'lipoC3S1': 4.15, 'temp': 30.69, 'lipoC3S3': 12.54, 'lipoC3S2': 8.29, 'rot1': 0, 'rot0': 0, 'rot3': 0, 'rot2': 0, 'state': 'normal', 'yaw': -159.91, 'datetime': '2018-10-09 11:38:15.773760', 'mgs': 0, 'volt': 0.0, 'depth': -12.5, 'time': 143, 'pitch': 3.92, 'roll': -1.07, 'pres': 0}
{'lipoC2': 7.64, 'lipoC3S1': 4.15, 'temp': 30.69, 'lipoC3S3': 12.54, 'lipoC3S2': 8.29, 'rot1': 0, 'rot0': 0, 'rot3': 0, 'rot2': 0, 'state': 'normal', 'yaw': -159.92, 'datetime': '2018-10-09 11:38:15.876630', 'mgs': 0, 'volt': 0.0, 'depth': -12.5, 'time': 143, 'pitch': 4.31, 'roll': -1.28, 'pres': 0}
{'lipoC2': 7.64, 'lipoC3S1': 4.15, 'temp': 30.69, 'lipoC3S3': 12.54, 'lipoC3S2': 8.29, 'rot1': 0, 'rot0': 0, 'rot3': 0, 'rot2': 0, 'state': 'normal', 'yaw': -159.93, 'datetime': '2018-10-09 11:38:15.979717', 'mgs': 0, 'volt': 0.0, 'depth': -12.5, 'time': 143, 'pitch': 4.92, 'roll': -1.47, 'pres': 0}
{'lipoC2': 7.64, 'lipoC3S1': 4.15, 'temp': 30.69, 'lipoC3S3': 12.54, 'lipoC3S2': 8.29, 'rot1': 0, 'rot0': 0, 'rot3': 0, 'rot2': 0, 'state': 'normal', 'yaw': -159.94, 'datetime': '2018-10-09 11:38:16.082625', 'mgs': 0, 'volt': 0.0, 'depth': -12.5, 'time': 143, 'pitch': 5.4, 'roll': -1.56, 'pres': 0}
{'lipoC2': 7.64, 'lipoC3S1': 4.15, 'temp': 30.63, 'lipoC3S3': 12.54, 'lipoC3S2': 8.29, 'rot1': 0, 'rot0': 0, 'rot3': 0, 'rot2': 0, 'state': 'normal', 'yaw': -159.93, 'datetime': '2018-10-09 11:38:16.185506', 'mgs': 0, 'volt': 0.0, 'depth': -12.5, 'time': 144, 'pitch': 5.39, 'roll': -1.45, 'pres': 0}
{'lipoC2': 7.64, 'lipoC3S1': 4.15, 'temp': 30.63, 'lipoC3S3': 12.54, 'lipoC3S2': 8.29, 'rot1': 0, 'rot0': 0, 'rot3': 0, 'rot2': 0, 'state': 'normal', 'yaw': -159.93, 'datetime': '2018-10-09 11:38:16.288404', 'mgs': 0, 'volt': 0.0, 'depth': -12.5, 'time': 144, 'pitch': 5.02, 'roll': -1.23, 'pres': 0}
{'lipoC2': 7.64, 'lipoC3S1': 4.15, 'temp': 30.63, 'lipoC3S3': 12.54, 'lipoC3S2': 8.29, 'rot1': 0, 'rot0': 0, 'rot3': 0, 'rot2': 0, 'state': 'normal', 'yaw': -159.92, 'datetime': '2018-10-09 11:38:16.391484', 'mgs': 0, 'volt': 0.0, 'depth': -12.5, 'time': 144, 'pitch': 4.33, 'roll': -1.02, 'pres': 0}
{'lipoC2': 7.64, 'lipoC3S1': 4.15, 'temp': 30.63, 'lipoC3S3': 12.54, 'lipoC3S2': 8.29, 'rot1': 0, 'rot0': 0, 'rot3': 0, 'rot2': 0, 'state': 'normal', 'yaw': -159.91, 'datetime': '2018-10-09 11:38:16.504685', 'mgs': 0, 'volt': 0.0, 'depth': -12.5, 'time': 144, 'pitch': 3.56, 'roll': -1.0, 'pres': 0}
{'lipoC2': 7.64, 'lipoC3S1': 4.15, 'temp': 30.63, 'lipoC3S3': 12.54, 'lipoC3S2': 8.29, 'rot1': 0, 'rot0': 0, 'rot3': 0, 'rot2': 0, 'state': 'normal', 'yaw': -159.9, 'datetime': '2018-10-09 11:38:16.601939', 'mgs': 0, 'volt': 0.0, 'depth': -12.5, 'time': 144, 'pitch': 2.81, 'roll': -1.14, 'pres': 0}
{'lipoC2': 7.64, 'lipoC3S1': 4.15, 'temp': 30.63, 'lipoC3S3': 12.54, 'lipoC3S2': 8.29, 'rot1': 0, 'rot0': 0, 'rot3': 0, 'rot2': 0, 'state': 'normal', 'yaw': -159.89, 'datetime': '2018-10-09 11:38:16.705145', 'mgs': 0, 'volt': 0.0, 'depth': -12.5, 'time': 144, 'pitch': 2.37, 'roll': -1.31, 'pres': 0}
{'lipoC2': 7.64, 'lipoC3S1': 4.15, 'temp': 30.63, 'lipoC3S3': 12.54, 'lipoC3S2': 8.29, 'rot1': 0, 'rot0': 0, 'rot3': 0, 'rot2': 0, 'state': 'normal', 'yaw': -159.88, 'datetime': '2018-10-09 11:38:16.808019', 'mgs': 0, 'volt': 0.0, 'depth': -12.5, 'time': 144, 'pitch': 2.46, 'roll': -1.43, 'pres': 0}
{'lipoC2': 7.64, 'lipoC3S1': 4.15, 'temp': 30.63, 'lipoC3S3': 12.54, 'lipoC3S2': 8.29, 'rot1': 0, 'rot0': 0, 'rot3': 0, 'rot2': 0, 'state': 'normal', 'yaw': -159.88, 'datetime': '2018-10-09 11:38:16.911000', 'mgs': 0, 'volt': 0.0, 'depth': -12.5, 'time': 144, 'pitch': 3.01, 'roll': -1.39, 'pres': 0}
{'lipoC2': 7.64, 'lipoC3S1': 4.15, 'temp': 30.63, 'lipoC3S3': 12.54, 'lipoC3S2': 8.29, 'rot1': 0, 'rot0': 0, 'rot3': 0, 'rot2': 0, 'state': 'normal', 'yaw': -159.9, 'datetime': '2018-10-09 11:38:17.015340', 'mgs': 0, 'volt': 0.0, 'depth': -12.5, 'time': 144, 'pitch': 3.74, 'roll': -1.24, 'pres': 0}
{'lipoC2': 7.64, 'lipoC3S1': 4.15, 'temp': 30.63, 'lipoC3S3': 12.54, 'lipoC3S2': 8.29, 'rot1': 0, 'rot0': 0, 'rot3': 0, 'rot2': 0, 'state': 'normal', 'yaw': -159.91, 'datetime': '2018-10-09 11:38:17.117921', 'mgs': 0, 'volt': 0.0, 'depth': -12.5, 'time': 144, 'pitch': 4.47, 'roll': -1.1, 'pres': 0}
{'lipoC2': 7.64, 'lipoC3S1': 4.15, 'temp': 30.63, 'lipoC3S3': 12.54, 'lipoC3S2': 8.29, 'rot1': 0, 'rot0': 0, 'rot3': 0, 'rot2': 0, 'state': 'normal', 'yaw': -159.92, 'datetime': '2018-10-09 11:38:17.220898', 'mgs': 0, 'volt': 0.0, 'depth': -12.5, 'time': 145, 'pitch': 4.92, 'roll': -1.09, 'pres': 0}
{'lipoC2': 7.64, 'lipoC3S1': 4.15, 'temp': 30.63, 'lipoC3S3': 12.54, 'lipoC3S2': 8.29, 'rot1': 0, 'rot0': 0, 'rot3': 0, 'rot2': 0, 'state': 'normal', 'yaw': -159.92, 'datetime': '2018-10-09 11:38:17.325182', 'mgs': 0, 'volt': 0.0, 'depth': -12.5, 'time': 145, 'pitch': 5.2, 'roll': -1.08, 'pres': 0}
{'lipoC2': 7.64, 'lipoC3S1': 4.15, 'temp': 30.63, 'lipoC3S3': 12.54, 'lipoC3S2': 8.29, 'rot1': 0, 'rot0': 0, 'rot3': 0, 'rot2': 0, 'state': 'normal', 'yaw': -159.93, 'datetime': '2018-10-09 11:38:17.427925', 'mgs': 0, 'volt': 0.0, 'depth': -12.5, 'time': 145, 'pitch': 5.44, 'roll': -1.07, 'pres': 0}
{'lipoC2': 7.64, 'lipoC3S1': 4.15, 'temp': 30.63, 'lipoC3S3': 12.54, 'lipoC3S2': 8.29, 'rot1': 0, 'rot0': 0, 'rot3': 0, 'rot2': 0, 'state': 'normal', 'yaw': -159.93, 'datetime': '2018-10-09 11:38:17.530848', 'mgs': 0, 'volt': 0.0, 'depth': -12.5, 'time': 145, 'pitch': 5.53, 'roll': -1.01, 'pres': 0}
{'lipoC2': 7.64, 'lipoC3S1': 4.15, 'temp': 30.69, 'lipoC3S3': 12.54, 'lipoC3S2': 8.29, 'rot1': 0, 'rot0': 0, 'rot3': 0, 'rot2': 0, 'state': 'normal', 'yaw': -159.92, 'datetime': '2018-10-09 11:38:17.633620', 'mgs': 0, 'volt': 0.0, 'depth': -12.5, 'time': 145, 'pitch': 5.47, 'roll': -0.93, 'pres': 0}
{'lipoC2': 7.64, 'lipoC3S1': 4.15, 'temp': 30.69, 'lipoC3S3': 12.54, 'lipoC3S2': 8.29, 'rot1': 0, 'rot0': 0, 'rot3': 0, 'rot2': 0, 'state': 'normal', 'yaw': -159.91, 'datetime': '2018-10-09 11:38:17.736613', 'mgs': 0, 'volt': 0.0, 'depth': -12.5, 'time': 145, 'pitch': 5.16, 'roll': -0.94, 'pres': 0}
{'lipoC2': 7.64, 'lipoC3S1': 4.15, 'temp': 30.63, 'lipoC3S3': 12.54, 'lipoC3S2': 8.29, 'rot1': 0, 'rot0': 0, 'rot3': 0, 'rot2': 0, 'state': 'normal', 'yaw': -159.92, 'datetime': '2018-10-09 11:38:17.839509', 'mgs': 0, 'volt': 0.0, 'depth': -12.5, 'time': 145, 'pitch': 4.66, 'roll': -1.4, 'pres': 0}
{'lipoC2': 7.64, 'lipoC3S1': 4.15, 'temp': 30.63, 'lipoC3S3': 12.54, 'lipoC3S2': 8.29, 'rot1': 0, 'rot0': 0, 'rot3': 0, 'rot2': 0, 'state': 'normal', 'yaw': -160.04, 'datetime': '2018-10-09 11:38:17.942436', 'mgs': 0, 'volt': 0.0, 'depth': -12.5, 'time': 145, 'pitch': 4.36, 'roll': -2.84, 'pres': 0}
{'lipoC2': 7.64, 'lipoC3S1': 4.15, 'temp': 30.63, 'lipoC3S3': 12.54, 'lipoC3S2': 8.29, 'rot1': 0, 'rot0': 0, 'rot3': 0, 'rot2': 0, 'state': 'normal', 'yaw': -160.23, 'datetime': '2018-10-09 11:38:18.045287', 'mgs': 0, 'volt': 0.0, 'depth': -12.5, 'time': 145, 'pitch': 4.07, 'roll': -4.26, 'pres': 0}
{'lipoC2': 7.64, 'lipoC3S1': 4.15, 'temp': 30.63, 'lipoC3S3': 12.54, 'lipoC3S2': 8.29, 'rot1': 0, 'rot0': 0, 'rot3': 0, 'rot2': 0, 'state': 'normal', 'yaw': -160.4, 'datetime': '2018-10-09 11:38:18.148302', 'mgs': 0, 'volt': 0.0, 'depth': -12.5, 'time': 145, 'pitch': 3.91, 'roll': -5.32, 'pres': 0}
{'lipoC2': 7.64, 'lipoC3S1': 4.15, 'temp': 30.63, 'lipoC3S3': 12.54, 'lipoC3S2': 8.29, 'rot1': 0, 'rot0': 0, 'rot3': 0, 'rot2': 0, 'state': 'normal', 'yaw': -160.57, 'datetime': '2018-10-09 11:38:18.251154', 'mgs': 0, 'volt': 0.0, 'depth': -12.5, 'time': 146, 'pitch': 4.08, 'roll': -6.07, 'pres': 0}
{'lipoC2': 7.64, 'lipoC3S1': 4.15, 'temp': 30.63, 'lipoC3S3': 12.54, 'lipoC3S2': 8.29, 'rot1': 0, 'rot0': 0, 'rot3': 0, 'rot2': 0, 'state': 'normal', 'yaw': -160.78, 'datetime': '2018-10-09 11:38:18.354071', 'mgs': 0, 'volt': 0.0, 'depth': -12.5, 'time': 146, 'pitch': 4.69, 'roll': -6.65, 'pres': 0}
{'lipoC2': 7.64, 'lipoC3S1': 4.15, 'temp': 30.63, 'lipoC3S3': 12.54, 'lipoC3S2': 8.29, 'rot1': 0, 'rot0': 0, 'rot3': 0, 'rot2': 0, 'state': 'normal', 'yaw': -161.04, 'datetime': '2018-10-09 11:38:18.456997', 'mgs': 0, 'volt': 0.0, 'depth': -12.5, 'time': 146, 'pitch': 5.49, 'roll': -7.06, 'pres': 0}
{'lipoC2': 7.64, 'lipoC3S1': 4.15, 'temp': 30.63, 'lipoC3S3': 12.54, 'lipoC3S2': 8.29, 'rot1': 0, 'rot0': 0, 'rot3': 0, 'rot2': 0, 'state': 'normal', 'yaw': -161.27, 'datetime': '2018-10-09 11:38:18.560005', 'mgs': 0, 'volt': 0.0, 'depth': -12.5, 'time': 146, 'pitch': 6.14, 'roll': -7.17, 'pres': 0}
{'lipoC2': 7.64, 'lipoC3S1': 4.15, 'temp': 30.63, 'lipoC3S3': 12.54, 'lipoC3S2': 8.29, 'rot1': 0, 'rot0': 0, 'rot3': 0, 'rot2': 0, 'state': 'normal', 'yaw': -161.05, 'datetime': '2018-10-09 11:38:18.662907', 'mgs': 0, 'volt': 0.0, 'depth': -12.5, 'time': 146, 'pitch': 6.33, 'roll': -6.68, 'pres': 0}
{'lipoC2': 7.64, 'lipoC3S1': 4.15, 'temp': 30.63, 'lipoC3S3': 12.54, 'lipoC3S2': 8.29, 'rot1': 0, 'rot0': 0, 'rot3': 0, 'rot2': 0, 'state': 'normal', 'yaw': -160.39, 'datetime': '2018-10-09 11:38:18.766542', 'mgs': 0, 'volt': 0.0, 'depth': -12.5, 'time': 146, 'pitch': 6.14, 'roll': -5.17, 'pres': 0}
{'lipoC2': 7.64, 'lipoC3S1': 4.15, 'temp': 30.69, 'lipoC3S3': 12.54, 'lipoC3S2': 8.29, 'rot1': 0, 'rot0': 0, 'rot3': 0, 'rot2': 0, 'state': 'normal', 'yaw': -159.57, 'datetime': '2018-10-09 11:38:18.870085', 'mgs': 0, 'volt': 0.0, 'depth': -12.5, 'time': 146, 'pitch': 5.71, 'roll': -2.77, 'pres': 0}
{'lipoC2': 7.64, 'lipoC3S1': 4.15, 'temp': 30.69, 'lipoC3S3': 12.54, 'lipoC3S2': 8.29, 'rot1': 0, 'rot0': 0, 'rot3': 0, 'rot2': 0, 'state': 'normal', 'yaw': -158.73, 'datetime': '2018-10-09 11:38:18.972948', 'mgs': 0, 'volt': 0.0, 'depth': -12.5, 'time': 146, 'pitch': 5.3, 'roll': 0.34, 'pres': 0}
{'lipoC2': 7.64, 'lipoC3S1': 4.15, 'temp': 30.63, 'lipoC3S3': 12.54, 'lipoC3S2': 8.29, 'rot1': 0, 'rot0': 0, 'rot3': 0, 'rot2': 0, 'state': 'normal', 'yaw': -157.99, 'datetime': '2018-10-09 11:38:19.078892', 'mgs': 0, 'volt': 0.0, 'depth': -12.5, 'time': 146, 'pitch': 5.05, 'roll': 3.13, 'pres': 0}
{'lipoC2': 7.64, 'lipoC3S1': 4.15, 'temp': 30.63, 'lipoC3S3': 12.54, 'lipoC3S2': 8.29, 'rot1': 0, 'rot0': 0, 'rot3': 0, 'rot2': 0, 'state': 'normal', 'yaw': -157.21, 'datetime': '2018-10-09 11:38:19.179973', 'mgs': 0, 'volt': 0.0, 'depth': -12.5, 'time': 146, 'pitch': 4.95, 'roll': 5.8, 'pres': 0}
{'lipoC2': 7.64, 'lipoC3S1': 4.15, 'temp': 30.63, 'lipoC3S3': 12.54, 'lipoC3S2': 8.29, 'rot1': 0, 'rot0': 0, 'rot3': 0, 'rot2': 0, 'state': 'normal', 'yaw': -156.18, 'datetime': '2018-10-09 11:38:19.282891', 'mgs': 0, 'volt': 0.0, 'depth': -12.5, 'time': 147, 'pitch': 4.9, 'roll': 8.44, 'pres': 0}
{'lipoC2': 7.64, 'lipoC3S1': 4.15, 'temp': 30.63, 'lipoC3S3': 12.54, 'lipoC3S2': 8.29, 'rot1': 0, 'rot0': 0, 'rot3': 0, 'rot2': 0, 'state': 'normal', 'yaw': -155.13, 'datetime': '2018-10-09 11:38:19.386079', 'mgs': 0, 'volt': 0.0, 'depth': -12.5, 'time': 147, 'pitch': 4.79, 'roll': 10.37, 'pres': 0}
{'lipoC2': 7.64, 'lipoC3S1': 4.15, 'temp': 30.63, 'lipoC3S3': 12.54, 'lipoC3S2': 8.29, 'rot1': 0, 'rot0': 0, 'rot3': 0, 'rot2': 0, 'state': 'normal', 'yaw': -154.1, 'datetime': '2018-10-09 11:38:19.488729', 'mgs': 0, 'volt': 0.0, 'depth': -12.5, 'time': 147, 'pitch': 4.6, 'roll': 11.48, 'pres': 0}
{'lipoC2': 7.64, 'lipoC3S1': 4.15, 'temp': 30.63, 'lipoC3S3': 12.54, 'lipoC3S2': 8.29, 'rot1': 0, 'rot0': 0, 'rot3': 0, 'rot2': 0, 'state': 'normal', 'yaw': -153.26, 'datetime': '2018-10-09 11:38:19.591899', 'mgs': 0, 'volt': 0.0, 'depth': -12.5, 'time': 147, 'pitch': 4.41, 'roll': 11.4, 'pres': 0}
{'lipoC2': 7.64, 'lipoC3S1': 4.15, 'temp': 30.63, 'lipoC3S3': 12.54, 'lipoC3S2': 8.29, 'rot1': 0, 'rot0': 0, 'rot3': 0, 'rot2': 0, 'state': 'normal', 'yaw': -152.6, 'datetime': '2018-10-09 11:38:19.694693', 'mgs': 0, 'volt': 0.0, 'depth': -12.5, 'time': 147, 'pitch': 4.51, 'roll': 10.22, 'pres': 0}
{'lipoC2': 7.64, 'lipoC3S1': 4.15, 'temp': 30.63, 'lipoC3S3': 12.54, 'lipoC3S2': 8.29, 'rot1': 0, 'rot0': 0, 'rot3': 0, 'rot2': 0, 'state': 'normal', 'yaw': -152.09, 'datetime': '2018-10-09 11:38:19.797811', 'mgs': 0, 'volt': 0.0, 'depth': -12.5, 'time': 147, 'pitch': 4.94, 'roll': 8.67, 'pres': 0}
{'lipoC2': 7.64, 'lipoC3S1': 4.15, 'temp': 30.63, 'lipoC3S3': 12.54, 'lipoC3S2': 8.29, 'rot1': 0, 'rot0': 0, 'rot3': 0, 'rot2': 0, 'state': 'normal', 'yaw': -151.74, 'datetime': '2018-10-09 11:38:19.907811', 'mgs': 0, 'volt': 0.0, 'depth': -12.5, 'time': 147, 'pitch': 5.79, 'roll': 7.1, 'pres': 0}
{'lipoC2': 7.64, 'lipoC3S1': 4.15, 'temp': 30.69, 'lipoC3S3': 12.54, 'lipoC3S2': 8.29, 'rot1': 0, 'rot0': 0, 'rot3': 0, 'rot2': 0, 'state': 'normal', 'yaw': -151.66, 'datetime': '2018-10-09 11:38:20.009970', 'mgs': 0, 'volt': 0.0, 'depth': -12.5, 'time': 147, 'pitch': 7.12, 'roll': 5.67, 'pres': 0}
{'lipoC2': 7.64, 'lipoC3S1': 4.15, 'temp': 30.69, 'lipoC3S3': 12.54, 'lipoC3S2': 8.29, 'rot1': 0, 'rot0': 0, 'rot3': 0, 'rot2': 0, 'state': 'normal', 'yaw': -151.78, 'datetime': '2018-10-09 11:38:20.112977', 'mgs': 0, 'volt': 0.0, 'depth': -12.5, 'time': 147, 'pitch': 8.46, 'roll': 4.62, 'pres': 0}
{'lipoC2': 7.64, 'lipoC3S1': 4.15, 'temp': 30.69, 'lipoC3S3': 12.54, 'lipoC3S2': 8.29, 'rot1': 0, 'rot0': 0, 'rot3': 0, 'rot2': 0, 'state': 'normal', 'yaw': -152.03, 'datetime': '2018-10-09 11:38:20.215809', 'mgs': 0, 'volt': 0.0, 'depth': -12.5, 'time': 148, 'pitch': 9.6, 'roll': 3.68, 'pres': 0}
{'lipoC2': 7.64, 'lipoC3S1': 4.15, 'temp': 30.69, 'lipoC3S3': 12.54, 'lipoC3S2': 8.29, 'rot1': 0, 'rot0': 0, 'rot3': 0, 'rot2': 0, 'state': 'normal', 'yaw': -152.37, 'datetime': '2018-10-09 11:38:20.319434', 'mgs': 0, 'volt': 0.0, 'depth': -12.5, 'time': 148, 'pitch': 10.42, 'roll': 2.72, 'pres': 0}
{'lipoC2': 7.64, 'lipoC3S1': 4.15, 'temp': 30.69, 'lipoC3S3': 12.54, 'lipoC3S2': 8.29, 'rot1': 0, 'rot0': 0, 'rot3': 0, 'rot2': 0, 'state': 'normal', 'yaw': -152.87, 'datetime': '2018-10-09 11:38:20.422300', 'mgs': 0, 'volt': 0.0, 'depth': -12.5, 'time': 148, 'pitch': 10.84, 'roll': 1.55, 'pres': 0}
{'lipoC2': 7.64, 'lipoC3S1': 4.15, 'temp': 30.63, 'lipoC3S3': 12.54, 'lipoC3S2': 8.29, 'rot1': 0, 'rot0': 0, 'rot3': 0, 'rot2': 0, 'state': 'normal', 'yaw': -153.38, 'datetime': '2018-10-09 11:38:20.525332', 'mgs': 0, 'volt': 0.0, 'depth': -12.5, 'time': 148, 'pitch': 10.7, 'roll': 0.44, 'pres': 0}
{'lipoC2': 7.64, 'lipoC3S1': 4.15, 'temp': 30.63, 'lipoC3S3': 12.54, 'lipoC3S2': 8.29, 'rot1': 0, 'rot0': 0, 'rot3': 0, 'rot2': 0, 'state': 'normal', 'yaw': -153.93, 'datetime': '2018-10-09 11:38:20.629377', 'mgs': 0, 'volt': 0.0, 'depth': -12.5, 'time': 148, 'pitch': 10.13, 'roll': -0.55, 'pres': 0}
{'lipoC2': 7.64, 'lipoC3S1': 4.15, 'temp': 30.63, 'lipoC3S3': 12.54, 'lipoC3S2': 8.29, 'rot1': 0, 'rot0': 0, 'rot3': 0, 'rot2': 0, 'state': 'normal', 'yaw': -154.57, 'datetime': '2018-10-09 11:38:20.732294', 'mgs': 0, 'volt': 0.0, 'depth': -12.5, 'time': 148, 'pitch': 9.07, 'roll': -1.48, 'pres': 0}
{'lipoC2': 7.64, 'lipoC3S1': 4.15, 'temp': 30.63, 'lipoC3S3': 12.54, 'lipoC3S2': 8.29, 'rot1': 0, 'rot0': 0, 'rot3': 0, 'rot2': 0, 'state': 'normal', 'yaw': -155.03, 'datetime': '2018-10-09 11:38:20.835198', 'mgs': 0, 'volt': 0.0, 'depth': -12.5, 'time': 148, 'pitch': 7.79, 'roll': -2.33, 'pres': 0}
{'lipoC2': 7.64, 'lipoC3S1': 4.15, 'temp': 30.63, 'lipoC3S3': 12.54, 'lipoC3S2': 8.29, 'rot1': 0, 'rot0': 0, 'rot3': 0, 'rot2': 0, 'state': 'normal', 'yaw': -155.31, 'datetime': '2018-10-09 11:38:20.939524', 'mgs': 0, 'volt': 0.0, 'depth': -12.5, 'time': 148, 'pitch': 6.27, 'roll': -3.31, 'pres': 0}
{'lipoC2': 7.64, 'lipoC3S1': 4.15, 'temp': 30.69, 'lipoC3S3': 12.54, 'lipoC3S2': 8.29, 'rot1': 0, 'rot0': 0, 'rot3': 0, 'rot2': 0, 'state': 'normal', 'yaw': -155.44, 'datetime': '2018-10-09 11:38:21.042214', 'mgs': 0, 'volt': 0.0, 'depth': -12.5, 'time': 148, 'pitch': 4.45, 'roll': -4.44, 'pres': 0}
{'lipoC2': 7.64, 'lipoC3S1': 4.15, 'temp': 30.69, 'lipoC3S3': 12.54, 'lipoC3S2': 8.29, 'rot1': 0, 'rot0': 0, 'rot3': 0, 'rot2': 0, 'state': 'normal', 'yaw': -155.56, 'datetime': '2018-10-09 11:38:21.146618', 'mgs': 0, 'volt': 0.0, 'depth': -12.5, 'time': 148, 'pitch': 2.8, 'roll': -5.39, 'pres': 0}
{'lipoC2': 7.64, 'lipoC3S1': 4.15, 'temp': 30.69, 'lipoC3S3': 12.54, 'lipoC3S2': 8.29, 'rot1': 0, 'rot0': 0, 'rot3': 0, 'rot2': 0, 'state': 'normal', 'yaw': -155.84, 'datetime': '2018-10-09 11:38:21.248060', 'mgs': 0, 'volt': 0.0, 'depth': -12.5, 'time': 149, 'pitch': 1.35, 'roll': -6.24, 'pres': 0}
{'lipoC2': 7.64, 'lipoC3S1': 4.15, 'temp': 30.69, 'lipoC3S3': 12.54, 'lipoC3S2': 8.29, 'rot1': 0, 'rot0': 0, 'rot3': 0, 'rot2': 0, 'state': 'normal', 'yaw': -156.36, 'datetime': '2018-10-09 11:38:21.351100', 'mgs': 0, 'volt': 0.0, 'depth': -12.5, 'time': 149, 'pitch': 0.36, 'roll': -6.84, 'pres': 0}
{'lipoC2': 7.64, 'lipoC3S1': 4.15, 'temp': 30.69, 'lipoC3S3': 12.54, 'lipoC3S2': 8.29, 'rot1': 0, 'rot0': 0, 'rot3': 0, 'rot2': 0, 'state': 'normal', 'yaw': -157.06, 'datetime': '2018-10-09 11:38:21.453970', 'mgs': 0, 'volt': 0.0, 'depth': -12.5, 'time': 149, 'pitch': -0.32, 'roll': -7.01, 'pres': 0}
{'lipoC2': 7.64, 'lipoC3S1': 4.15, 'temp': 30.69, 'lipoC3S3': 12.54, 'lipoC3S2': 8.29, 'rot1': 0, 'rot0': 0, 'rot3': 0, 'rot2': 0, 'state': 'normal', 'yaw': -157.65, 'datetime': '2018-10-09 11:38:21.556947', 'mgs': 0, 'volt': 0.0, 'depth': -12.5, 'time': 149, 'pitch': -0.77, 'roll': -6.72, 'pres': 0}
{'lipoC2': 7.64, 'lipoC3S1': 4.15, 'temp': 30.69, 'lipoC3S3': 12.54, 'lipoC3S2': 8.29, 'rot1': 0, 'rot0': 0, 'rot3': 0, 'rot2': 0, 'state': 'normal', 'yaw': -158.1, 'datetime': '2018-10-09 11:38:21.659619', 'mgs': 0, 'volt': 0.0, 'depth': -12.5, 'time': 149, 'pitch': -1.13, 'roll': -6.2, 'pres': 0}
{'lipoC2': 7.64, 'lipoC3S1': 4.15, 'temp': 30.69, 'lipoC3S3': 12.54, 'lipoC3S2': 8.29, 'rot1': 0, 'rot0': 0, 'rot3': 0, 'rot2': 0, 'state': 'normal', 'yaw': -158.13, 'datetime': '2018-10-09 11:38:21.762789', 'mgs': 0, 'volt': 0.0, 'depth': -12.5, 'time': 149, 'pitch': -1.39, 'roll': -5.25, 'pres': 0}
{'lipoC2': 7.64, 'lipoC3S1': 4.15, 'temp': 30.69, 'lipoC3S3': 12.54, 'lipoC3S2': 8.29, 'rot1': 0, 'rot0': 0, 'rot3': 0, 'rot2': 0, 'state': 'normal', 'yaw': -157.6, 'datetime': '2018-10-09 11:38:21.865678', 'mgs': 0, 'volt': 0.0, 'depth': -12.5, 'time': 149, 'pitch': -1.31, 'roll': -3.59, 'pres': 0}
{'lipoC2': 7.64, 'lipoC3S1': 4.15, 'temp': 30.69, 'lipoC3S3': 12.54, 'lipoC3S2': 8.29, 'rot1': 0, 'rot0': 0, 'rot3': 0, 'rot2': 0, 'state': 'normal', 'yaw': -157.11, 'datetime': '2018-10-09 11:38:21.968467', 'mgs': 0, 'volt': 0.0, 'depth': -12.5, 'time': 149, 'pitch': -1.05, 'roll': -1.99, 'pres': 0}
{'lipoC2': 7.64, 'lipoC3S1': 4.15, 'temp': 30.69, 'lipoC3S3': 12.54, 'lipoC3S2': 8.29, 'rot1': 0, 'rot0': 0, 'rot3': 0, 'rot2': 0, 'state': 'normal', 'yaw': -156.69, 'datetime': '2018-10-09 11:38:22.071984', 'mgs': 0, 'volt': 0.0, 'depth': -12.5, 'time': 149, 'pitch': -0.45, 'roll': -0.77, 'pres': 0}
{'lipoC2': 7.64, 'lipoC3S1': 4.15, 'temp': 30.69, 'lipoC3S3': 12.54, 'lipoC3S2': 8.29, 'rot1': 0, 'rot0': 0, 'rot3': 0, 'rot2': 0, 'state': 'normal', 'yaw': -156.27, 'datetime': '2018-10-09 11:38:22.175024', 'mgs': 0, 'volt': 0.0, 'depth': -12.5, 'time': 149, 'pitch': 0.58, 'roll': -0.07, 'pres': 0}
{'lipoC2': 7.64, 'lipoC3S1': 4.15, 'temp': 30.69, 'lipoC3S3': 12.54, 'lipoC3S2': 8.29, 'rot1': 0, 'rot0': 0, 'rot3': 0, 'rot2': 0, 'state': 'normal', 'yaw': -156.03, 'datetime': '2018-10-09 11:38:22.277796', 'mgs': 0, 'volt': 0.0, 'depth': -12.5, 'time': 150, 'pitch': 1.77, 'roll': 0.0, 'pres': 0}
{'lipoC2': 7.64, 'lipoC3S1': 4.15, 'temp': 30.69, 'lipoC3S3': 12.54, 'lipoC3S2': 8.29, 'rot1': 0, 'rot0': 0, 'rot3': 0, 'rot2': 0, 'state': 'normal', 'yaw': -155.97, 'datetime': '2018-10-09 11:38:22.382351', 'mgs': 0, 'volt': 0.0, 'depth': -12.5, 'time': 150, 'pitch': 2.78, 'roll': -0.39, 'pres': 0}
{'lipoC2': 7.64, 'lipoC3S1': 4.15, 'temp': 30.69, 'lipoC3S3': 12.54, 'lipoC3S2': 8.29, 'rot1': 0, 'rot0': 0, 'rot3': 0, 'rot2': 0, 'state': 'normal', 'yaw': -156.12, 'datetime': '2018-10-09 11:38:22.484954', 'mgs': 0, 'volt': 0.0, 'depth': -12.5, 'time': 150, 'pitch': 3.44, 'roll': -1.26, 'pres': 0}
{'lipoC2': 7.64, 'lipoC3S1': 4.15, 'temp': 30.69, 'lipoC3S3': 12.54, 'lipoC3S2': 8.29, 'rot1': 0, 'rot0': 0, 'rot3': 0, 'rot2': 0, 'state': 'normal', 'yaw': -156.5, 'datetime': '2018-10-09 11:38:22.587836', 'mgs': 0, 'volt': 0.0, 'depth': -12.5, 'time': 150, 'pitch': 3.67, 'roll': -2.22, 'pres': 0}
{'lipoC2': 7.64, 'lipoC3S1': 4.15, 'temp': 30.63, 'lipoC3S3': 12.54, 'lipoC3S2': 8.29, 'rot1': 0, 'rot0': 0, 'rot3': 0, 'rot2': 0, 'state': 'normal', 'yaw': -157.13, 'datetime': '2018-10-09 11:38:22.691904', 'mgs': 0, 'volt': 0.0, 'depth': -12.5, 'time': 150, 'pitch': 3.72, 'roll': -3.29, 'pres': 0}
{'lipoC2': 7.64, 'lipoC3S1': 4.15, 'temp': 30.63, 'lipoC3S3': 12.54, 'lipoC3S2': 8.29, 'rot1': 0, 'rot0': 0, 'rot3': 0, 'rot2': 0, 'state': 'normal', 'yaw': -158.07, 'datetime': '2018-10-09 11:38:22.795293', 'mgs': 0, 'volt': 0.0, 'depth': -12.5, 'time': 150, 'pitch': 3.87, 'roll': -4.51, 'pres': 0}
{'lipoC2': 7.64, 'lipoC3S1': 4.15, 'temp': 30.69, 'lipoC3S3': 12.54, 'lipoC3S2': 8.29, 'rot1': 0, 'rot0': 0, 'rot3': 0, 'rot2': 0, 'state': 'normal', 'yaw': -159.14, 'datetime': '2018-10-09 11:38:22.891426', 'mgs': 0, 'volt': 0.0, 'depth': -12.5, 'time': 150, 'pitch': 4.13, 'roll': -5.64, 'pres': 0}
{'lipoC2': 7.64, 'lipoC3S1': 4.15, 'temp': 30.69, 'lipoC3S3': 12.54, 'lipoC3S2': 8.29, 'rot1': 0, 'rot0': 0, 'rot3': 0, 'rot2': 0, 'state': 'normal', 'yaw': -160.37, 'datetime': '2018-10-09 11:38:23.000929', 'mgs': 0, 'volt': 0.0, 'depth': -12.5, 'time': 150, 'pitch': 4.42, 'roll': -6.64, 'pres': 0}
{'lipoC2': 7.64, 'lipoC3S1': 4.15, 'temp': 30.69, 'lipoC3S3': 12.54, 'lipoC3S2': 8.29, 'rot1': 0, 'rot0': 0, 'rot3': 0, 'rot2': 0, 'state': 'normal', 'yaw': -161.65, 'datetime': '2018-10-09 11:38:23.103761', 'mgs': 0, 'volt': 0.0, 'depth': -12.5, 'time': 150, 'pitch': 4.63, 'roll': -7.4, 'pres': 0}
{'lipoC2': 7.64, 'lipoC3S1': 4.15, 'temp': 30.69, 'lipoC3S3': 12.54, 'lipoC3S2': 8.29, 'rot1': 0, 'rot0': 0, 'rot3': 0, 'rot2': 0, 'state': 'normal', 'yaw': -163.01, 'datetime': '2018-10-09 11:38:23.206720', 'mgs': 0, 'volt': 0.0, 'depth': -12.5, 'time': 151, 'pitch': 4.73, 'roll': -7.92, 'pres': 0}
{'lipoC2': 7.64, 'lipoC3S1': 4.15, 'temp': 30.69, 'lipoC3S3': 12.54, 'lipoC3S2': 8.29, 'rot1': 0, 'rot0': 0, 'rot3': 0, 'rot2': 0, 'state': 'normal', 'yaw': -164.15, 'datetime': '2018-10-09 11:38:23.309421', 'mgs': 0, 'volt': 0.0, 'depth': -12.5, 'time': 151, 'pitch': 4.61, 'roll': -7.99, 'pres': 0}
{'lipoC2': 7.64, 'lipoC3S1': 4.15, 'temp': 30.69, 'lipoC3S3': 12.54, 'lipoC3S2': 8.29, 'rot1': 0, 'rot0': 0, 'rot3': 0, 'rot2': 0, 'state': 'normal', 'yaw': -165.22, 'datetime': '2018-10-09 11:38:23.412487', 'mgs': 0, 'volt': 0.0, 'depth': -12.5, 'time': 151, 'pitch': 4.35, 'roll': -7.66, 'pres': 0}
{'lipoC2': 7.64, 'lipoC3S1': 4.15, 'temp': 30.69, 'lipoC3S3': 12.54, 'lipoC3S2': 8.29, 'rot1': 0, 'rot0': 0, 'rot3': 0, 'rot2': 0, 'state': 'normal', 'yaw': -166.32, 'datetime': '2018-10-09 11:38:23.515455', 'mgs': 0, 'volt': 0.0, 'depth': -12.5, 'time': 151, 'pitch': 4.16, 'roll': -7.12, 'pres': 0}
{'lipoC2': 7.64, 'lipoC3S1': 4.15, 'temp': 30.69, 'lipoC3S3': 12.54, 'lipoC3S2': 8.29, 'rot1': 0, 'rot0': 0, 'rot3': 0, 'rot2': 0, 'state': 'normal', 'yaw': -167.5, 'datetime': '2018-10-09 11:38:23.618447', 'mgs': 0, 'volt': 0.0, 'depth': -12.5, 'time': 151, 'pitch': 4.02, 'roll': -6.46, 'pres': 0}
{'lipoC2': 7.64, 'lipoC3S1': 4.15, 'temp': 30.69, 'lipoC3S3': 12.54, 'lipoC3S2': 8.29, 'rot1': 0, 'rot0': 0, 'rot3': 0, 'rot2': 0, 'state': 'normal', 'yaw': -168.47, 'datetime': '2018-10-09 11:38:23.721313', 'mgs': 0, 'volt': 0.0, 'depth': -12.5, 'time': 151, 'pitch': 3.85, 'roll': -5.78, 'pres': 0}
{'lipoC2': 7.64, 'lipoC3S1': 4.15, 'temp': 30.69, 'lipoC3S3': 12.54, 'lipoC3S2': 8.29, 'rot1': 0, 'rot0': 0, 'rot3': 0, 'rot2': 0, 'state': 'normal', 'yaw': -169.3, 'datetime': '2018-10-09 11:38:23.824313', 'mgs': 0, 'volt': 0.0, 'depth': -12.5, 'time': 151, 'pitch': 3.45, 'roll': -4.97, 'pres': 0}
{'lipoC2': 7.64, 'lipoC3S1': 4.15, 'temp': 30.69, 'lipoC3S3': 12.54, 'lipoC3S2': 8.29, 'rot1': 0, 'rot0': 0, 'rot3': 0, 'rot2': 0, 'state': 'normal', 'yaw': -170.09, 'datetime': '2018-10-09 11:38:23.927309', 'mgs': 0, 'volt': 0.0, 'depth': -12.5, 'time': 151, 'pitch': 2.78, 'roll': -4.02, 'pres': 0}
{'lipoC2': 7.64, 'lipoC3S1': 4.15, 'temp': 30.69, 'lipoC3S3': 12.54, 'lipoC3S2': 8.29, 'rot1': 0, 'rot0': 0, 'rot3': 0, 'rot2': 0, 'state': 'normal', 'yaw': -170.69, 'datetime': '2018-10-09 11:38:24.029930', 'mgs': 0, 'volt': 0.0, 'depth': -12.5, 'time': 151, 'pitch': 2.21, 'roll': -3.18, 'pres': 0}
{'lipoC2': 7.64, 'lipoC3S1': 4.15, 'temp': 30.69, 'lipoC3S3': 12.54, 'lipoC3S2': 8.29, 'rot1': 0, 'rot0': 0, 'rot3': 0, 'rot2': 0, 'state': 'normal', 'yaw': -171.09, 'datetime': '2018-10-09 11:38:24.133658', 'mgs': 0, 'volt': 0.0, 'depth': -12.5, 'time': 151, 'pitch': 2.04, 'roll': -2.41, 'pres': 0}
{'lipoC2': 7.64, 'lipoC3S1': 4.15, 'temp': 30.69, 'lipoC3S3': 12.54, 'lipoC3S2': 8.29, 'rot1': 0, 'rot0': 0, 'rot3': 0, 'rot2': 0, 'state': 'normal', 'yaw': -171.31, 'datetime': '2018-10-09 11:38:24.230760', 'mgs': 0, 'volt': 0.0, 'depth': -12.5, 'time': 152, 'pitch': 2.49, 'roll': -1.86, 'pres': 0}
{'lipoC2': 7.64, 'lipoC3S1': 4.15, 'temp': 30.69, 'lipoC3S3': 12.54, 'lipoC3S2': 8.29, 'rot1': 0, 'rot0': 0, 'rot3': 0, 'rot2': 0, 'state': 'normal', 'yaw': -171.37, 'datetime': '2018-10-09 11:38:24.340024', 'mgs': 0, 'volt': 0.0, 'depth': -12.5, 'time': 152, 'pitch': 3.58, 'roll': -1.64, 'pres': 0}
{'lipoC2': 7.64, 'lipoC3S1': 4.15, 'temp': 30.69, 'lipoC3S3': 12.54, 'lipoC3S2': 8.29, 'rot1': 0, 'rot0': 0, 'rot3': 0, 'rot2': 0, 'state': 'normal', 'yaw': -171.42, 'datetime': '2018-10-09 11:38:24.443182', 'mgs': 0, 'volt': 0.0, 'depth': -12.5, 'time': 152, 'pitch': 5.01, 'roll': -1.67, 'pres': 0}
{'lipoC2': 7.64, 'lipoC3S1': 4.15, 'temp': 30.69, 'lipoC3S3': 12.54, 'lipoC3S2': 8.29, 'rot1': 0, 'rot0': 0, 'rot3': 0, 'rot2': 0, 'state': 'normal', 'yaw': -171.48, 'datetime': '2018-10-09 11:38:24.547517', 'mgs': 0, 'volt': 0.0, 'depth': -12.5, 'time': 152, 'pitch': 6.44, 'roll': -1.91, 'pres': 0}
{'lipoC2': 7.64, 'lipoC3S1': 4.15, 'temp': 30.75, 'lipoC3S3': 12.54, 'lipoC3S2': 8.29, 'rot1': 0, 'rot0': 0, 'rot3': 0, 'rot2': 0, 'state': 'normal', 'yaw': -171.52, 'datetime': '2018-10-09 11:38:24.650510', 'mgs': 0, 'volt': 0.0, 'depth': -12.5, 'time': 152, 'pitch': 7.35, 'roll': -2.25, 'pres': 0}
{'lipoC2': 7.64, 'lipoC3S1': 4.15, 'temp': 30.75, 'lipoC3S3': 12.54, 'lipoC3S2': 8.29, 'rot1': 0, 'rot0': 0, 'rot3': 0, 'rot2': 0, 'state': 'normal', 'yaw': -171.53, 'datetime': '2018-10-09 11:38:24.753515', 'mgs': 0, 'volt': 0.0, 'depth': -12.5, 'time': 152, 'pitch': 7.48, 'roll': -2.49, 'pres': 0}
{'lipoC2': 7.64, 'lipoC3S1': 4.15, 'temp': 30.69, 'lipoC3S3': 12.54, 'lipoC3S2': 8.29, 'rot1': 0, 'rot0': 0, 'rot3': 0, 'rot2': 0, 'state': 'normal', 'yaw': -171.53, 'datetime': '2018-10-09 11:38:24.856293', 'mgs': 1, 'volt': 0.0, 'depth': -12.5, 'time': 152, 'pitch': 7.25, 'roll': -2.62, 'pres': 0}
{'lipoC2': 7.64, 'lipoC3S1': 4.15, 'temp': 30.69, 'lipoC3S3': 12.54, 'lipoC3S2': 8.29, 'rot1': 0, 'rot0': 0, 'rot3': 0, 'rot2': 0, 'state': 'normal', 'yaw': 0.0, 'datetime': '2018-10-09 11:38:27.890973', 'mgs': 0, 'volt': 0.0, 'depth': -12.5, 'time': 1, 'pitch': 7.36, 'roll': 1.41, 'pres': 0}
{'lipoC2': 7.64, 'lipoC3S1': 4.15, 'temp': 30.69, 'lipoC3S3': 12.54, 'lipoC3S2': 8.29, 'rot1': 0, 'rot0': 0, 'rot3': 0, 'rot2': 0, 'state': 'normal', 'yaw': 0.6, 'datetime': '2018-10-09 11:38:27.915041', 'mgs': 0, 'volt': 0.0, 'depth': -12.5, 'time': 1, 'pitch': 6.33, 'roll': 2.09, 'pres': 0}
{'lipoC2': 7.64, 'lipoC3S1': 4.15, 'temp': 30.69, 'lipoC3S3': 12.54, 'lipoC3S2': 8.3, 'rot1': 0, 'rot0': 0, 'rot3': 0, 'rot2': 0, 'state': 'normal', 'yaw': 1.13, 'datetime': '2018-10-09 11:38:27.939271', 'mgs': 0, 'volt': 0.0, 'depth': -12.5, 'time': 1, 'pitch': 5.33, 'roll': 2.43, 'pres': 0}
{'lipoC2': 7.64, 'lipoC3S1': 4.15, 'temp': 30.69, 'lipoC3S3': 12.55, 'lipoC3S2': 8.3, 'rot1': 0, 'rot0': 0, 'rot3': 0, 'rot2': 0, 'state': 'normal', 'yaw': 1.56, 'datetime': '2018-10-09 11:38:27.959256', 'mgs': 0, 'volt': 0.0, 'depth': -12.5, 'time': 1, 'pitch': 4.39, 'roll': 2.47, 'pres': 0}
{'lipoC2': 7.64, 'lipoC3S1': 4.15, 'temp': 30.69, 'lipoC3S3': 12.54, 'lipoC3S2': 8.29, 'rot1': 0, 'rot0': 0, 'rot3': 0, 'rot2': 0, 'state': 'normal', 'yaw': 1.92, 'datetime': '2018-10-09 11:38:27.972470', 'mgs': 0, 'volt': 0.0, 'depth': -12.5, 'time': 1, 'pitch': 3.64, 'roll': 2.15, 'pres': 0}
{'lipoC2': 7.64, 'lipoC3S1': 4.15, 'temp': 30.69, 'lipoC3S3': 12.54, 'lipoC3S2': 8.3, 'rot1': 0, 'rot0': 0, 'rot3': 0, 'rot2': 0, 'state': 'normal', 'yaw': 2.31, 'datetime': '2018-10-09 11:38:27.982988', 'mgs': 0, 'volt': 0.0, 'depth': -12.5, 'time': 1, 'pitch': 3.18, 'roll': 1.49, 'pres': 0}
{'lipoC2': 7.64, 'lipoC3S1': 4.15, 'temp': 30.69, 'lipoC3S3': 12.54, 'lipoC3S2': 8.3, 'rot1': 0, 'rot0': 0, 'rot3': 0, 'rot2': 0, 'state': 'normal', 'yaw': 2.78, 'datetime': '2018-10-09 11:38:27.993330', 'mgs': 0, 'volt': 0.0, 'depth': -12.5, 'time': 1, 'pitch': 3.18, 'roll': 0.81, 'pres': 0}
{'lipoC2': 7.64, 'lipoC3S1': 4.15, 'temp': 30.69, 'lipoC3S3': 12.54, 'lipoC3S2': 8.29, 'rot1': 0, 'rot0': 0, 'rot3': 0, 'rot2': 0, 'state': 'normal', 'yaw': 3.38, 'datetime': '2018-10-09 11:38:28.004410', 'mgs': 0, 'volt': 0.0, 'depth': -12.5, 'time': 1, 'pitch': 3.37, 'roll': 0.11, 'pres': 0}
{'lipoC2': 7.64, 'lipoC3S1': 4.15, 'temp': 30.69, 'lipoC3S3': 12.54, 'lipoC3S2': 8.29, 'rot1': 0, 'rot0': 0, 'rot3': 0, 'rot2': 0, 'state': 'normal', 'yaw': 4.14, 'datetime': '2018-10-09 11:38:28.014921', 'mgs': 0, 'volt': 0.0, 'depth': -12.5, 'time': 2, 'pitch': 3.3, 'roll': -0.7, 'pres': 0}
{'lipoC2': 7.64, 'lipoC3S1': 4.15, 'temp': 30.69, 'lipoC3S3': 12.54, 'lipoC3S2': 8.29, 'rot1': 0, 'rot0': 0, 'rot3': 0, 'rot2': 0, 'state': 'normal', 'yaw': 4.9, 'datetime': '2018-10-09 11:38:28.025289', 'mgs': 0, 'volt': 0.0, 'depth': -12.5, 'time': 2, 'pitch': 2.95, 'roll': -1.49, 'pres': 0}
{'lipoC2': 7.64, 'lipoC3S1': 4.15, 'temp': 30.69, 'lipoC3S3': 12.54, 'lipoC3S2': 8.29, 'rot1': 0, 'rot0': 0, 'rot3': 0, 'rot2': 0, 'state': 'normal', 'yaw': 5.62, 'datetime': '2018-10-09 11:38:28.035513', 'mgs': 1, 'volt': 0.0, 'depth': -12.5, 'time': 2, 'pitch': 2.64, 'roll': -2.2, 'pres': 0}
{'lipoC2': 7.64, 'lipoC3S1': 4.15, 'temp': 30.69, 'lipoC3S3': 12.54, 'lipoC3S2': 8.29, 'rot1': 0, 'rot0': 0, 'rot3': 0, 'rot2': 0, 'state': 'normal', 'yaw': 6.38, 'datetime': '2018-10-09 11:38:28.045937', 'mgs': 1, 'volt': 0.0, 'depth': -12.5, 'time': 2, 'pitch': 2.86, 'roll': -2.82, 'pres': 0}
{'lipoC2': 7.64, 'lipoC3S1': 4.15, 'temp': 30.69, 'lipoC3S3': 12.54, 'lipoC3S2': 8.29, 'rot1': 0, 'rot0': 0, 'rot3': 0, 'rot2': 0, 'state': 'normal', 'yaw': 6.98, 'datetime': '2018-10-09 11:38:28.057003', 'mgs': 1, 'volt': 0.0, 'depth': -12.5, 'time': 2, 'pitch': 3.68, 'roll': -3.36, 'pres': 0}
{'lipoC2': 7.64, 'lipoC3S1': 4.15, 'temp': 30.69, 'lipoC3S3': 12.54, 'lipoC3S2': 8.3, 'rot1': 0, 'rot0': 0, 'rot3': 0, 'rot2': 0, 'state': 'normal', 'yaw': 7.45, 'datetime': '2018-10-09 11:38:28.068365', 'mgs': 1, 'volt': 0.0, 'depth': -12.5, 'time': 2, 'pitch': 4.74, 'roll': -3.98, 'pres': 0}
{'lipoC2': 7.65, 'lipoC3S1': 4.15, 'temp': 30.69, 'lipoC3S3': 12.54, 'lipoC3S2': 8.29, 'rot1': 0, 'rot0': 0, 'rot3': 0, 'rot2': 0, 'state': 'normal', 'yaw': 7.76, 'datetime': '2018-10-09 11:38:28.079102', 'mgs': 1, 'volt': 0.0, 'depth': -12.5, 'time': 2, 'pitch': 5.73, 'roll': -4.86, 'pres': 0}
{'lipoC2': 7.64, 'lipoC3S1': 4.15, 'temp': 30.69, 'lipoC3S3': 12.54, 'lipoC3S2': 8.3, 'rot1': 0, 'rot0': 0, 'rot3': 0, 'rot2': 0, 'state': 'normal', 'yaw': 7.76, 'datetime': '2018-10-09 11:38:28.089307', 'mgs': 1, 'volt': 0.0, 'depth': -12.5, 'time': 2, 'pitch': 6.17, 'roll': -5.87, 'pres': 0}
{'lipoC2': 7.64, 'lipoC3S1': 4.15, 'temp': 30.69, 'lipoC3S3': 12.55, 'lipoC3S2': 8.29, 'rot1': 0, 'rot0': 0, 'rot3': 0, 'rot2': 0, 'state': 'normal', 'yaw': 7.55, 'datetime': '2018-10-09 11:38:28.099445', 'mgs': 1, 'volt': 0.0, 'depth': -12.5, 'time': 2, 'pitch': 6.07, 'roll': -7.06, 'pres': 0}
{'lipoC2': 7.64, 'lipoC3S1': 4.15, 'temp': 30.69, 'lipoC3S3': 12.54, 'lipoC3S2': 8.29, 'rot1': 0, 'rot0': 0, 'rot3': 0, 'rot2': 0, 'state': 'normal', 'yaw': 7.18, 'datetime': '2018-10-09 11:38:28.109667', 'mgs': 1, 'volt': 0.0, 'depth': -12.5, 'time': 3, 'pitch': 5.65, 'roll': -8.41, 'pres': 0}
{'lipoC2': 7.64, 'lipoC3S1': 4.14, 'temp': 30.69, 'lipoC3S3': 12.54, 'lipoC3S2': 8.29, 'rot1': 0, 'rot0': 0, 'rot3': 0, 'rot2': 0, 'state': 'normal', 'yaw': 6.83, 'datetime': '2018-10-09 11:38:28.119963', 'mgs': 1, 'volt': 0.0, 'depth': -12.5, 'time': 3, 'pitch': 5.41, 'roll': -9.37, 'pres': 0}
{'lipoC2': 7.64, 'lipoC3S1': 4.14, 'temp': 30.69, 'lipoC3S3': 12.54, 'lipoC3S2': 8.29, 'rot1': 0, 'rot0': 0, 'rot3': 0, 'rot2': 0, 'state': 'normal', 'yaw': 6.51, 'datetime': '2018-10-09 11:38:28.180047', 'mgs': 1, 'volt': 0.0, 'depth': -12.5, 'time': 3, 'pitch': 5.58, 'roll': -9.97, 'pres': 0}
{'lipoC2': 7.64, 'lipoC3S1': 4.14, 'temp': 30.69, 'lipoC3S3': 12.54, 'lipoC3S2': 8.29, 'rot1': 0, 'rot0': 0, 'rot3': 0, 'rot2': 0, 'state': 'normal', 'yaw': 7.09, 'datetime': '2018-10-09 11:38:28.283414', 'mgs': 1, 'volt': 0.0, 'depth': -12.5, 'time': 3, 'pitch': 6.61, 'roll': -10.44, 'pres': 0}
{'lipoC2': 7.64, 'lipoC3S1': 4.14, 'temp': 30.63, 'lipoC3S3': 12.54, 'lipoC3S2': 8.29, 'rot1': 0, 'rot0': 0, 'rot3': 0, 'rot2': 0, 'state': 'normal', 'yaw': 8.31, 'datetime': '2018-10-09 11:38:28.386601', 'mgs': 1, 'volt': 0.0, 'depth': -12.5, 'time': 3, 'pitch': 7.89, 'roll': -10.93, 'pres': 0}
{'lipoC2': 7.64, 'lipoC3S1': 4.14, 'temp': 30.63, 'lipoC3S3': 12.54, 'lipoC3S2': 8.29, 'rot1': 0, 'rot0': 0, 'rot3': 0, 'rot2': 0, 'state': 'normal', 'yaw': 9.53, 'datetime': '2018-10-09 11:38:28.489707', 'mgs': 0, 'volt': 0.0, 'depth': -12.5, 'time': 3, 'pitch': 8.41, 'roll': -10.82, 'pres': 0}
{'lipoC2': 7.64, 'lipoC3S1': 4.14, 'temp': 30.69, 'lipoC3S3': 12.54, 'lipoC3S2': 8.29, 'rot1': 0, 'rot0': 0, 'rot3': 0, 'rot2': 0, 'state': 'normal', 'yaw': 11.0, 'datetime': '2018-10-09 11:38:28.592797', 'mgs': 0, 'volt': 0.0, 'depth': -12.5, 'time': 3, 'pitch': 8.16, 'roll': -9.88, 'pres': 0}
{'lipoC2': 7.64, 'lipoC3S1': 4.14, 'temp': 30.69, 'lipoC3S3': 12.54, 'lipoC3S2': 8.29, 'rot1': 0, 'rot0': 0, 'rot3': 0, 'rot2': 0, 'state': 'normal', 'yaw': 12.91, 'datetime': '2018-10-09 11:38:28.699715', 'mgs': 0, 'volt': 0.0, 'depth': -12.5, 'time': 3, 'pitch': 7.19, 'roll': -8.03, 'pres': 0}
{'lipoC2': 7.64, 'lipoC3S1': 4.14, 'temp': 30.69, 'lipoC3S3': 12.54, 'lipoC3S2': 8.29, 'rot1': 0, 'rot0': 0, 'rot3': 0, 'rot2': 0, 'state': 'normal', 'yaw': 14.5, 'datetime': '2018-10-09 11:38:28.802996', 'mgs': 0, 'volt': 0.0, 'depth': -12.5, 'time': 3, 'pitch': 6.61, 'roll': -6.17, 'pres': 0}
{'lipoC2': 7.64, 'lipoC3S1': 4.14, 'temp': 30.69, 'lipoC3S3': 12.54, 'lipoC3S2': 8.29, 'rot1': 0, 'rot0': 0, 'rot3': 0, 'rot2': 0, 'state': 'normal', 'yaw': 15.6, 'datetime': '2018-10-09 11:38:28.906329', 'mgs': 0, 'volt': 0.0, 'depth': -12.5, 'time': 3, 'pitch': 6.97, 'roll': -4.31, 'pres': 0}
{'lipoC2': 7.64, 'lipoC3S1': 4.14, 'temp': 30.69, 'lipoC3S3': 12.54, 'lipoC3S2': 8.29, 'rot1': 0, 'rot0': 0, 'rot3': 0, 'rot2': 0, 'state': 'normal', 'yaw': 16.29, 'datetime': '2018-10-09 11:38:29.009530', 'mgs': 0, 'volt': 0.0, 'depth': -12.5, 'time': 4, 'pitch': 8.6, 'roll': -2.4, 'pres': 0}
{'lipoC2': 7.64, 'lipoC3S1': 4.14, 'temp': 30.69, 'lipoC3S3': 12.54, 'lipoC3S2': 8.29, 'rot1': 0, 'rot0': 0, 'rot3': 0, 'rot2': 0, 'state': 'normal', 'yaw': 16.42, 'datetime': '2018-10-09 11:38:29.112608', 'mgs': 0, 'volt': 0.0, 'depth': -12.5, 'time': 4, 'pitch': 11.09, 'roll': -0.59, 'pres': 0}
