{'lipoC2': 7.44, 'lipoC3S1': 4.05, 'temp': 30.56, 'lipoC3S3': 12.22, 'lipoC3S2': 8.09, 'rot1': 1125, 'rot0': 1113, 'rot3': 513, 'rot2': 458, 'state': 'normal', 'yaw': -108.78, 'datetime': '2018-10-09 12:57:06.837024', 'mgs': 0, 'volt': 0.9229, 'depth': 1.92, 'time': 520, 'pitch': 0.46, 'roll': -1.02, 'pres': 189}
{'lipoC2': 7.44, 'lipoC3S1': 4.04, 'temp': 30.56, 'lipoC3S3': 12.22, 'lipoC3S2': 8.09, 'rot1': 1125, 'rot0': 1113, 'rot3': 513, 'rot2': 458, 'state': 'normal', 'yaw': -108.71, 'datetime': '2018-10-09 12:57:06.868611', 'mgs': 0, 'volt': 0.9229, 'depth': 1.92, 'time': 520, 'pitch': 0.39, 'roll': -1.02, 'pres': 189}
{'lipoC2': 7.44, 'lipoC3S1': 4.04, 'temp': 30.56, 'lipoC3S3': 12.22, 'lipoC3S2': 8.09, 'rot1': 1125, 'rot0': 1113, 'rot3': 513, 'rot2': 458, 'state': 'normal', 'yaw': -108.61, 'datetime': '2018-10-09 12:57:06.900416', 'mgs': 0, 'volt': 0.9229, 'depth': 1.92, 'time': 520, 'pitch': 0.53, 'roll': -1.02, 'pres': 189}
{'lipoC2': 7.44, 'lipoC3S1': 4.04, 'temp': 30.56, 'lipoC3S3': 12.22, 'lipoC3S2': 8.09, 'rot1': 1125, 'rot0': 1113, 'rot3': 513, 'rot2': 458, 'state': 'normal', 'yaw': -108.51, 'datetime': '2018-10-09 12:57:06.921478', 'mgs': 0, 'volt': 0.9229, 'depth': 1.92, 'time': 520, 'pitch': 0.72, 'roll': -1.01, 'pres': 189}
{'lipoC2': 7.44, 'lipoC3S1': 4.05, 'temp': 30.56, 'lipoC3S3': 12.22, 'lipoC3S2': 8.09, 'rot1': 1125, 'rot0': 1113, 'rot3': 513, 'rot2': 458, 'state': 'normal', 'yaw': -108.39, 'datetime': '2018-10-09 12:57:06.933165', 'mgs': 0, 'volt': 0.9229, 'depth': 1.92, 'time': 520, 'pitch': 0.86, 'roll': -0.98, 'pres': 189}
{'lipoC2': 7.44, 'lipoC3S1': 4.05, 'temp': 30.56, 'lipoC3S3': 12.22, 'lipoC3S2': 8.09, 'rot1': 1125, 'rot0': 1113, 'rot3': 513, 'rot2': 458, 'state': 'normal', 'yaw': -108.28, 'datetime': '2018-10-09 12:57:06.945011', 'mgs': 0, 'volt': 0.918, 'depth': 1.843, 'time': 520, 'pitch': 0.87, 'roll': -0.98, 'pres': 188}
{'lipoC2': 7.44, 'lipoC3S1': 4.05, 'temp': 30.56, 'lipoC3S3': 12.22, 'lipoC3S2': 8.09, 'rot1': 1125, 'rot0': 1113, 'rot3': 513, 'rot2': 458, 'state': 'normal', 'yaw': -108.17, 'datetime': '2018-10-09 12:57:06.958703', 'mgs': 0, 'volt': 0.9229, 'depth': 1.92, 'time': 521, 'pitch': 0.87, 'roll': -1.04, 'pres': 189}
{'lipoC2': 7.44, 'lipoC3S1': 4.04, 'temp': 30.56, 'lipoC3S3': 12.22, 'lipoC3S2': 8.09, 'rot1': 1125, 'rot0': 1113, 'rot3': 513, 'rot2': 458, 'state': 'normal', 'yaw': -108.09, 'datetime': '2018-10-09 12:57:06.972374', 'mgs': 0, 'volt': 0.9229, 'depth': 1.92, 'time': 521, 'pitch': 0.89, 'roll': -1.14, 'pres': 189}
{'lipoC2': 7.44, 'lipoC3S1': 4.05, 'temp': 30.56, 'lipoC3S3': 12.22, 'lipoC3S2': 8.09, 'rot1': 1125, 'rot0': 1113, 'rot3': 513, 'rot2': 458, 'state': 'normal', 'yaw': -108.01, 'datetime': '2018-10-09 12:57:06.986091', 'mgs': 0, 'volt': 0.9229, 'depth': 1.92, 'time': 521, 'pitch': 0.97, 'roll': -1.23, 'pres': 189}
{'lipoC2': 7.44, 'lipoC3S1': 4.05, 'temp': 30.56, 'lipoC3S3': 12.22, 'lipoC3S2': 8.09, 'rot1': 1125, 'rot0': 1113, 'rot3': 513, 'rot2': 458, 'state': 'normal', 'yaw': -107.94, 'datetime': '2018-10-09 12:57:06.999823', 'mgs': 0, 'volt': 0.9229, 'depth': 1.92, 'time': 521, 'pitch': 0.97, 'roll': -1.23, 'pres': 189}
{'lipoC2': 7.44, 'lipoC3S1': 4.04, 'temp': 30.56, 'lipoC3S3': 12.22, 'lipoC3S2': 8.09, 'rot1': 1125, 'rot0': 1113, 'rot3': 513, 'rot2': 458, 'state': 'normal', 'yaw': -107.87, 'datetime': '2018-10-09 12:57:07.013513', 'mgs': 0, 'volt': 0.918, 'depth': 1.843, 'time': 521, 'pitch': 0.91, 'roll': -1.19, 'pres': 188}
{'lipoC2': 7.44, 'lipoC3S1': 4.04, 'temp': 30.63, 'lipoC3S3': 12.22, 'lipoC3S2': 8.09, 'rot1': 1125, 'rot0': 1113, 'rot3': 513, 'rot2': 458, 'state': 'normal', 'yaw': -107.79, 'datetime': '2018-10-09 12:57:07.026282', 'mgs': 0, 'volt': 0.9229, 'depth': 1.92, 'time': 521, 'pitch': 0.72, 'roll': -1.08, 'pres': 189}
{'lipoC2': 7.44, 'lipoC3S1': 4.04, 'temp': 30.63, 'lipoC3S3': 12.22, 'lipoC3S2': 8.09, 'rot1': 1125, 'rot0': 1113, 'rot3': 513, 'rot2': 458, 'state': 'normal', 'yaw': -107.71, 'datetime': '2018-10-09 12:57:07.038262', 'mgs': 0, 'volt': 0.9229, 'depth': 1.92, 'time': 521, 'pitch': 0.45, 'roll': -0.96, 'pres': 189}
{'lipoC2': 7.43, 'lipoC3S1': 4.04, 'temp': 30.63, 'lipoC3S3': 12.22, 'lipoC3S2': 8.09, 'rot1': 1125, 'rot0': 1113, 'rot3': 513, 'rot2': 458, 'state': 'normal', 'yaw': -107.63, 'datetime': '2018-10-09 12:57:07.048910', 'mgs': 0, 'volt': 0.9229, 'depth': 1.92, 'time': 521, 'pitch': 0.26, 'roll': -0.91, 'pres': 189}
{'lipoC2': 7.44, 'lipoC3S1': 4.04, 'temp': 30.63, 'lipoC3S3': 12.22, 'lipoC3S2': 8.09, 'rot1': 1125, 'rot0': 1113, 'rot3': 513, 'rot2': 458, 'state': 'normal', 'yaw': -107.54, 'datetime': '2018-10-09 12:57:07.059625', 'mgs': 0, 'volt': 0.9229, 'depth': 1.92, 'time': 521, 'pitch': 0.25, 'roll': -0.91, 'pres': 189}
{'lipoC2': 7.44, 'lipoC3S1': 4.04, 'temp': 30.63, 'lipoC3S3': 12.22, 'lipoC3S2': 8.09, 'rot1': 1125, 'rot0': 1113, 'rot3': 513, 'rot2': 458, 'state': 'normal', 'yaw': -107.46, 'datetime': '2018-10-09 12:57:07.073527', 'mgs': 0, 'volt': 0.918, 'depth': 1.843, 'time': 522, 'pitch': 0.46, 'roll': -0.91, 'pres': 188}
{'lipoC2': 7.43, 'lipoC3S1': 4.04, 'temp': 30.63, 'lipoC3S3': 12.22, 'lipoC3S2': 8.09, 'rot1': 1125, 'rot0': 1113, 'rot3': 513, 'rot2': 458, 'state': 'normal', 'yaw': -107.38, 'datetime': '2018-10-09 12:57:07.087313', 'mgs': 0, 'volt': 0.9229, 'depth': 1.92, 'time': 522, 'pitch': 0.83, 'roll': -0.91, 'pres': 189}
{'lipoC2': 7.43, 'lipoC3S1': 4.04, 'temp': 30.63, 'lipoC3S3': 12.22, 'lipoC3S2': 8.09, 'rot1': 1125, 'rot0': 1113, 'rot3': 513, 'rot2': 458, 'state': 'normal', 'yaw': -107.29, 'datetime': '2018-10-09 12:57:07.101048', 'mgs': 0, 'volt': 0.9229, 'depth': 1.92, 'time': 522, 'pitch': 1.24, 'roll': -0.96, 'pres': 189}
{'lipoC2': 7.44, 'lipoC3S1': 4.04, 'temp': 30.56, 'lipoC3S3': 12.22, 'lipoC3S2': 8.09, 'rot1': 1125, 'rot0': 1113, 'rot3': 513, 'rot2': 458, 'state': 'normal', 'yaw': -107.2, 'datetime': '2018-10-09 12:57:07.114804', 'mgs': 0, 'volt': 0.9229, 'depth': 1.92, 'time': 522, 'pitch': 1.41, 'roll': -1.05, 'pres': 189}
{'lipoC2': 7.43, 'lipoC3S1': 4.04, 'temp': 30.56, 'lipoC3S3': 12.22, 'lipoC3S2': 8.09, 'rot1': 1125, 'rot0': 1113, 'rot3': 513, 'rot2': 458, 'state': 'normal', 'yaw': -107.13, 'datetime': '2018-10-09 12:57:07.128738', 'mgs': 0, 'volt': 0.9229, 'depth': 1.92, 'time': 522, 'pitch': 1.33, 'roll': -1.14, 'pres': 189}
{'lipoC2': 7.44, 'lipoC3S1': 4.04, 'temp': 30.63, 'lipoC3S3': 12.22, 'lipoC3S2': 8.09, 'rot1': 1125, 'rot0': 1113, 'rot3': 513, 'rot2': 458, 'state': 'normal', 'yaw': -107.11, 'datetime': '2018-10-09 12:57:07.141437', 'mgs': 0, 'volt': 0.9229, 'depth': 1.92, 'time': 522, 'pitch': 1.11, 'roll': -1.17, 'pres': 189}
{'lipoC2': 7.44, 'lipoC3S1': 4.04, 'temp': 30.63, 'lipoC3S3': 12.22, 'lipoC3S2': 8.09, 'rot1': 1125, 'rot0': 1113, 'rot3': 513, 'rot2': 458, 'state': 'normal', 'yaw': -107.1, 'datetime': '2018-10-09 12:57:07.153054', 'mgs': 0, 'volt': 0.9229, 'depth': 1.92, 'time': 522, 'pitch': 0.93, 'roll': -1.17, 'pres': 189}
{'lipoC2': 7.44, 'lipoC3S1': 4.04, 'temp': 30.63, 'lipoC3S3': 12.22, 'lipoC3S2': 8.09, 'rot1': 1125, 'rot0': 1113, 'rot3': 513, 'rot2': 458, 'state': 'normal', 'yaw': -107.07, 'datetime': '2018-10-09 12:57:07.166773', 'mgs': 0, 'volt': 0.9229, 'depth': 1.92, 'time': 522, 'pitch': 0.96, 'roll': -1.09, 'pres': 189}
{'lipoC2': 7.44, 'lipoC3S1': 4.04, 'temp': 30.63, 'lipoC3S3': 12.22, 'lipoC3S2': 8.09, 'rot1': 1125, 'rot0': 1113, 'rot3': 513, 'rot2': 458, 'state': 'normal', 'yaw': -106.98, 'datetime': '2018-10-09 12:57:07.180508', 'mgs': 0, 'volt': 0.9229, 'depth': 1.92, 'time': 522, 'pitch': 1.15, 'roll': -1.03, 'pres': 189}
{'lipoC2': 7.43, 'lipoC3S1': 4.04, 'temp': 30.63, 'lipoC3S3': 12.22, 'lipoC3S2': 8.09, 'rot1': 1125, 'rot0': 1113, 'rot3': 513, 'rot2': 458, 'state': 'normal', 'yaw': -106.9, 'datetime': '2018-10-09 12:57:07.194231', 'mgs': 0, 'volt': 0.9229, 'depth': 1.92, 'time': 522, 'pitch': 1.36, 'roll': -1.03, 'pres': 189}
{'lipoC2': 7.44, 'lipoC3S1': 4.04, 'temp': 30.63, 'lipoC3S3': 12.22, 'lipoC3S2': 8.09, 'rot1': 1125, 'rot0': 1113, 'rot3': 513, 'rot2': 458, 'state': 'normal', 'yaw': -106.79, 'datetime': '2018-10-09 12:57:07.208013', 'mgs': 0, 'volt': 0.9229, 'depth': 1.92, 'time': 523, 'pitch': 1.44, 'roll': -1.18, 'pres': 189}
{'lipoC2': 7.43, 'lipoC3S1': 4.04, 'temp': 30.63, 'lipoC3S3': 12.22, 'lipoC3S2': 8.09, 'rot1': 1125, 'rot0': 1113, 'rot3': 513, 'rot2': 458, 'state': 'normal', 'yaw': -106.7, 'datetime': '2018-10-09 12:57:07.221707', 'mgs': 0, 'volt': 0.9229, 'depth': 1.92, 'time': 523, 'pitch': 1.35, 'roll': -1.35, 'pres': 189}
{'lipoC2': 7.43, 'lipoC3S1': 4.04, 'temp': 30.56, 'lipoC3S3': 12.22, 'lipoC3S2': 8.09, 'rot1': 1125, 'rot0': 1113, 'rot3': 513, 'rot2': 458, 'state': 'normal', 'yaw': -106.65, 'datetime': '2018-10-09 12:57:07.235857', 'mgs': 0, 'volt': 0.9229, 'depth': 1.92, 'time': 523, 'pitch': 1.21, 'roll': -1.49, 'pres': 189}
{'lipoC2': 7.44, 'lipoC3S1': 4.04, 'temp': 30.56, 'lipoC3S3': 12.22, 'lipoC3S2': 8.09, 'rot1': 1125, 'rot0': 1113, 'rot3': 513, 'rot2': 458, 'state': 'normal', 'yaw': -106.65, 'datetime': '2018-10-09 12:57:07.249323', 'mgs': 0, 'volt': 0.9229, 'depth': 1.92, 'time': 523, 'pitch': 1.03, 'roll': -1.49, 'pres': 189}
{'lipoC2': 7.44, 'lipoC3S1': 4.04, 'temp': 30.63, 'lipoC3S3': 12.22, 'lipoC3S2': 8.09, 'rot1': 1125, 'rot0': 1113, 'rot3': 513, 'rot2': 458, 'state': 'normal', 'yaw': -106.65, 'datetime': '2018-10-09 12:57:07.262944', 'mgs': 0, 'volt': 0.9229, 'depth': 1.92, 'time': 523, 'pitch': 0.86, 'roll': -1.41, 'pres': 189}
{'lipoC2': 7.44, 'lipoC3S1': 4.04, 'temp': 30.63, 'lipoC3S3': 12.22, 'lipoC3S2': 8.09, 'rot1': 1125, 'rot0': 1113, 'rot3': 513, 'rot2': 458, 'state': 'normal', 'yaw': -106.64, 'datetime': '2018-10-09 12:57:07.276687', 'mgs': 0, 'volt': 0.9229, 'depth': 1.92, 'time': 523, 'pitch': 0.52, 'roll': -1.23, 'pres': 189}
{'lipoC2': 7.44, 'lipoC3S1': 4.04, 'temp': 30.56, 'lipoC3S3': 12.22, 'lipoC3S2': 8.09, 'rot1': 1125, 'rot0': 1113, 'rot3': 513, 'rot2': 458, 'state': 'normal', 'yaw': -106.62, 'datetime': '2018-10-09 12:57:07.290365', 'mgs': 0, 'volt': 0.9229, 'depth': 1.92, 'time': 523, 'pitch': 0.07, 'roll': -1.05, 'pres': 189}
{'lipoC2': 7.44, 'lipoC3S1': 4.04, 'temp': 30.56, 'lipoC3S3': 12.22, 'lipoC3S2': 8.09, 'rot1': 1125, 'rot0': 1113, 'rot3': 513, 'rot2': 458, 'state': 'normal', 'yaw': -106.51, 'datetime': '2018-10-09 12:57:07.304046', 'mgs': 0, 'volt': 0.9229, 'depth': 1.92, 'time': 523, 'pitch': -0.33, 'roll': -0.95, 'pres': 189}
{'lipoC2': 7.44, 'lipoC3S1': 4.04, 'temp': 30.56, 'lipoC3S3': 12.22, 'lipoC3S2': 8.09, 'rot1': 1125, 'rot0': 1113, 'rot3': 513, 'rot2': 458, 'state': 'normal', 'yaw': -106.4, 'datetime': '2018-10-09 12:57:07.317784', 'mgs': 0, 'volt': 0.9229, 'depth': 1.92, 'time': 523, 'pitch': -0.29, 'roll': -0.98, 'pres': 189}
{'lipoC2': 7.44, 'lipoC3S1': 4.04, 'temp': 30.63, 'lipoC3S3': 12.22, 'lipoC3S2': 8.09, 'rot1': 1125, 'rot0': 1113, 'rot3': 513, 'rot2': 458, 'state': 'normal', 'yaw': -106.29, 'datetime': '2018-10-09 12:57:07.331502', 'mgs': 0, 'volt': 0.9229, 'depth': 1.92, 'time': 523, 'pitch': 0.31, 'roll': -1.13, 'pres': 189}
{'lipoC2': 7.44, 'lipoC3S1': 4.04, 'temp': 30.63, 'lipoC3S3': 12.22, 'lipoC3S2': 8.09, 'rot1': 1125, 'rot0': 1113, 'rot3': 513, 'rot2': 458, 'state': 'normal', 'yaw': -106.22, 'datetime': '2018-10-09 12:57:07.344988', 'mgs': 0, 'volt': 0.9229, 'depth': 1.92, 'time': 524, 'pitch': 1.12, 'roll': -1.23, 'pres': 189}
{'lipoC2': 7.44, 'lipoC3S1': 4.04, 'temp': 30.63, 'lipoC3S3': 12.22, 'lipoC3S2': 8.09, 'rot1': 1125, 'rot0': 1113, 'rot3': 513, 'rot2': 458, 'state': 'normal', 'yaw': -106.23, 'datetime': '2018-10-09 12:57:07.356994', 'mgs': 0, 'volt': 0.9229, 'depth': 1.92, 'time': 524, 'pitch': 1.9, 'roll': -1.2, 'pres': 189}
{'lipoC2': 7.44, 'lipoC3S1': 4.04, 'temp': 30.63, 'lipoC3S3': 12.22, 'lipoC3S2': 8.09, 'rot1': 1125, 'rot0': 1113, 'rot3': 513, 'rot2': 458, 'state': 'normal', 'yaw': -106.23, 'datetime': '2018-10-09 12:57:07.370641', 'mgs': 0, 'volt': 0.9229, 'depth': 1.92, 'time': 524, 'pitch': 2.15, 'roll': -1.06, 'pres': 189}
{'lipoC2': 7.44, 'lipoC3S1': 4.04, 'temp': 30.63, 'lipoC3S3': 12.22, 'lipoC3S2': 8.09, 'rot1': 1125, 'rot0': 1113, 'rot3': 513, 'rot2': 458, 'state': 'normal', 'yaw': -106.22, 'datetime': '2018-10-09 12:57:07.384359', 'mgs': 0, 'volt': 0.9229, 'depth': 1.92, 'time': 524, 'pitch': 1.82, 'roll': -0.88, 'pres': 189}
{'lipoC2': 7.44, 'lipoC3S1': 4.04, 'temp': 30.63, 'lipoC3S3': 12.22, 'lipoC3S2': 8.09, 'rot1': 1125, 'rot0': 1113, 'rot3': 513, 'rot2': 458, 'state': 'normal', 'yaw': -106.18, 'datetime': '2018-10-09 12:57:07.398128', 'mgs': 0, 'volt': 0.9229, 'depth': 1.92, 'time': 524, 'pitch': 1.14, 'roll': -0.75, 'pres': 189}
{'lipoC2': 7.44, 'lipoC3S1': 4.04, 'temp': 30.63, 'lipoC3S3': 12.22, 'lipoC3S2': 8.09, 'rot1': 1125, 'rot0': 1113, 'rot3': 513, 'rot2': 458, 'state': 'normal', 'yaw': -106.08, 'datetime': '2018-10-09 12:57:07.412048', 'mgs': 0, 'volt': 0.9229, 'depth': 1.92, 'time': 524, 'pitch': 0.31, 'roll': -0.68, 'pres': 189}
{'lipoC2': 7.44, 'lipoC3S1': 4.04, 'temp': 30.56, 'lipoC3S3': 12.22, 'lipoC3S2': 8.09, 'rot1': 1125, 'rot0': 1113, 'rot3': 513, 'rot2': 458, 'state': 'normal', 'yaw': -105.99, 'datetime': '2018-10-09 12:57:07.425780', 'mgs': 0, 'volt': 0.9229, 'depth': 1.92, 'time': 524, 'pitch': -0.24, 'roll': -0.69, 'pres': 189}
{'lipoC2': 7.44, 'lipoC3S1': 4.04, 'temp': 30.56, 'lipoC3S3': 12.22, 'lipoC3S2': 8.09, 'rot1': 1125, 'rot0': 1113, 'rot3': 513, 'rot2': 458, 'state': 'normal', 'yaw': -105.9, 'datetime': '2018-10-09 12:57:07.439504', 'mgs': 0, 'volt': 0.9229, 'depth': 1.92, 'time': 524, 'pitch': -0.51, 'roll': -0.71, 'pres': 189}
{'lipoC2': 7.44, 'lipoC3S1': 4.04, 'temp': 30.63, 'lipoC3S3': 12.22, 'lipoC3S2': 8.09, 'rot1': 1125, 'rot0': 1113, 'rot3': 513, 'rot2': 458, 'state': 'normal', 'yaw': -105.82, 'datetime': '2018-10-09 12:57:07.451981', 'mgs': 0, 'volt': 0.9229, 'depth': 1.92, 'time': 524, 'pitch': -0.47, 'roll': -0.71, 'pres': 189}
{'lipoC2': 7.44, 'lipoC3S1': 4.04, 'temp': 30.63, 'lipoC3S3': 12.22, 'lipoC3S2': 8.09, 'rot1': 1125, 'rot0': 1113, 'rot3': 513, 'rot2': 458, 'state': 'normal', 'yaw': -105.75, 'datetime': '2018-10-09 12:57:07.465886', 'mgs': 0, 'volt': 0.9229, 'depth': 1.92, 'time': 525, 'pitch': -0.23, 'roll': -0.72, 'pres': 189}
{'lipoC2': 7.44, 'lipoC3S1': 4.04, 'temp': 30.63, 'lipoC3S3': 12.22, 'lipoC3S2': 8.09, 'rot1': 1125, 'rot0': 1113, 'rot3': 513, 'rot2': 458, 'state': 'normal', 'yaw': -105.67, 'datetime': '2018-10-09 12:57:07.479634', 'mgs': 0, 'volt': 0.9229, 'depth': 1.92, 'time': 525, 'pitch': 0.06, 'roll': -0.7, 'pres': 189}
{'lipoC2': 7.44, 'lipoC3S1': 4.04, 'temp': 30.63, 'lipoC3S3': 12.22, 'lipoC3S2': 8.09, 'rot1': 1125, 'rot0': 1113, 'rot3': 513, 'rot2': 458, 'state': 'normal', 'yaw': -105.59, 'datetime': '2018-10-09 12:57:07.493344', 'mgs': 0, 'volt': 0.918, 'depth': 1.843, 'time': 525, 'pitch': 0.22, 'roll': -0.63, 'pres': 188}
{'lipoC2': 7.44, 'lipoC3S1': 4.04, 'temp': 30.63, 'lipoC3S3': 12.22, 'lipoC3S2': 8.09, 'rot1': 1125, 'rot0': 1113, 'rot3': 513, 'rot2': 458, 'state': 'normal', 'yaw': -105.49, 'datetime': '2018-10-09 12:57:07.507098', 'mgs': 0, 'volt': 0.918, 'depth': 1.843, 'time': 525, 'pitch': 0.25, 'roll': -0.6, 'pres': 188}
{'lipoC2': 7.44, 'lipoC3S1': 4.04, 'temp': 30.63, 'lipoC3S3': 12.22, 'lipoC3S2': 8.09, 'rot1': 1125, 'rot0': 1113, 'rot3': 513, 'rot2': 458, 'state': 'normal', 'yaw': -105.39, 'datetime': '2018-10-09 12:57:07.520823', 'mgs': 0, 'volt': 0.918, 'depth': 1.843, 'time': 525, 'pitch': 0.26, 'roll': -0.62, 'pres': 188}
{'lipoC2': 7.44, 'lipoC3S1': 4.04, 'temp': 30.63, 'lipoC3S3': 12.22, 'lipoC3S2': 8.09, 'rot1': 1125, 'rot0': 1113, 'rot3': 513, 'rot2': 458, 'state': 'normal', 'yaw': -105.24, 'datetime': '2018-10-09 12:57:07.534524', 'mgs': 0, 'volt': 0.918, 'depth': 1.843, 'time': 525, 'pitch': 0.44, 'roll': -0.77, 'pres': 188}
{'lipoC2': 7.44, 'lipoC3S1': 4.04, 'temp': 30.56, 'lipoC3S3': 12.22, 'lipoC3S2': 8.09, 'rot1': 1125, 'rot0': 1113, 'rot3': 513, 'rot2': 458, 'state': 'normal', 'yaw': -105.12, 'datetime': '2018-10-09 12:57:07.548612', 'mgs': 0, 'volt': 0.918, 'depth': 1.843, 'time': 525, 'pitch': 0.79, 'roll': -0.96, 'pres': 188}
{'lipoC2': 7.44, 'lipoC3S1': 4.04, 'temp': 30.56, 'lipoC3S3': 12.22, 'lipoC3S2': 8.09, 'rot1': 1125, 'rot0': 1113, 'rot3': 513, 'rot2': 458, 'state': 'normal', 'yaw': -105.02, 'datetime': '2018-10-09 12:57:07.561788', 'mgs': 0, 'volt': 0.918, 'depth': 1.843, 'time': 525, 'pitch': 1.28, 'roll': -1.11, 'pres': 188}
{'lipoC2': 7.44, 'lipoC3S1': 4.04, 'temp': 30.63, 'lipoC3S3': 12.22, 'lipoC3S2': 8.09, 'rot1': 1125, 'rot0': 1113, 'rot3': 513, 'rot2': 458, 'state': 'normal', 'yaw': -105.0, 'datetime': '2018-10-09 12:57:07.574659', 'mgs': 0, 'volt': 0.9229, 'depth': 1.92, 'time': 525, 'pitch': 1.6, 'roll': -1.14, 'pres': 189}
{'lipoC2': 7.44, 'lipoC3S1': 4.04, 'temp': 30.63, 'lipoC3S3': 12.22, 'lipoC3S2': 8.09, 'rot1': 1125, 'rot0': 1113, 'rot3': 513, 'rot2': 458, 'state': 'normal', 'yaw': -105.0, 'datetime': '2018-10-09 12:57:07.588560', 'mgs': 0, 'volt': 0.918, 'depth': 1.843, 'time': 525, 'pitch': 1.48, 'roll': -1.07, 'pres': 188}
{'lipoC2': 7.44, 'lipoC3S1': 4.04, 'temp': 30.63, 'lipoC3S3': 12.22, 'lipoC3S2': 8.09, 'rot1': 1125, 'rot0': 1113, 'rot3': 513, 'rot2': 458, 'state': 'normal', 'yaw': -104.98, 'datetime': '2018-10-09 12:57:07.602282', 'mgs': 0, 'volt': 0.918, 'depth': 1.843, 'time': 526, 'pitch': 0.72, 'roll': -0.86, 'pres': 188}
{'lipoC2': 7.44, 'lipoC3S1': 4.04, 'temp': 30.63, 'lipoC3S3': 12.22, 'lipoC3S2': 8.09, 'rot1': 1125, 'rot0': 1113, 'rot3': 513, 'rot2': 458, 'state': 'normal', 'yaw': -104.87, 'datetime': '2018-10-09 12:57:07.616019', 'mgs': 0, 'volt': 0.9229, 'depth': 1.92, 'time': 526, 'pitch': -0.16, 'roll': -0.68, 'pres': 189}
{'lipoC2': 7.44, 'lipoC3S1': 4.04, 'temp': 30.63, 'lipoC3S3': 12.22, 'lipoC3S2': 8.09, 'rot1': 1125, 'rot0': 1113, 'rot3': 513, 'rot2': 458, 'state': 'normal', 'yaw': -104.69, 'datetime': '2018-10-09 12:57:07.629760', 'mgs': 0, 'volt': 0.918, 'depth': 1.843, 'time': 526, 'pitch': -0.68, 'roll': -0.62, 'pres': 188}
{'lipoC2': 7.44, 'lipoC3S1': 4.04, 'temp': 30.63, 'lipoC3S3': 12.22, 'lipoC3S2': 8.09, 'rot1': 1125, 'rot0': 1113, 'rot3': 513, 'rot2': 458, 'state': 'normal', 'yaw': -104.51, 'datetime': '2018-10-09 12:57:07.643515', 'mgs': 0, 'volt': 0.918, 'depth': 1.843, 'time': 526, 'pitch': -0.36, 'roll': -0.72, 'pres': 188}
{'lipoC2': 7.44, 'lipoC3S1': 4.04, 'temp': 30.63, 'lipoC3S3': 12.22, 'lipoC3S2': 8.09, 'rot1': 1125, 'rot0': 1113, 'rot3': 513, 'rot2': 458, 'state': 'normal', 'yaw': -104.31, 'datetime': '2018-10-09 12:57:07.657495', 'mgs': 0, 'volt': 0.918, 'depth': 1.843, 'time': 526, 'pitch': 0.76, 'roll': -0.99, 'pres': 188}
{'lipoC2': 7.44, 'lipoC3S1': 4.04, 'temp': 30.63, 'lipoC3S3': 12.22, 'lipoC3S2': 8.09, 'rot1': 1125, 'rot0': 1113, 'rot3': 513, 'rot2': 458, 'state': 'normal', 'yaw': -104.18, 'datetime': '2018-10-09 12:57:07.671321', 'mgs': 0, 'volt': 0.9229, 'depth': 1.92, 'time': 526, 'pitch': 1.95, 'roll': -1.29, 'pres': 189}
{'lipoC2': 7.44, 'lipoC3S1': 4.04, 'temp': 30.63, 'lipoC3S3': 12.22, 'lipoC3S2': 8.09, 'rot1': 1125, 'rot0': 1113, 'rot3': 513, 'rot2': 458, 'state': 'normal', 'yaw': -104.09, 'datetime': '2018-10-09 12:57:07.681812', 'mgs': 0, 'volt': 0.918, 'depth': 1.843, 'time': 526, 'pitch': 2.74, 'roll': -1.47, 'pres': 188}
{'lipoC2': 7.44, 'lipoC3S1': 4.04, 'temp': 30.63, 'lipoC3S3': 12.22, 'lipoC3S2': 8.09, 'rot1': 1125, 'rot0': 1113, 'rot3': 513, 'rot2': 458, 'state': 'normal', 'yaw': -104.08, 'datetime': '2018-10-09 12:57:07.695544', 'mgs': 0, 'volt': 0.918, 'depth': 1.843, 'time': 526, 'pitch': 2.62, 'roll': -1.47, 'pres': 188}
{'lipoC2': 7.44, 'lipoC3S1': 4.04, 'temp': 30.63, 'lipoC3S3': 12.22, 'lipoC3S2': 8.09, 'rot1': 1125, 'rot0': 1113, 'rot3': 513, 'rot2': 458, 'state': 'normal', 'yaw': -103.99, 'datetime': '2018-10-09 12:57:07.709225', 'mgs': 0, 'volt': 0.918, 'depth': 1.843, 'time': 526, 'pitch': 1.78, 'roll': -1.36, 'pres': 188}
{'lipoC2': 7.44, 'lipoC3S1': 4.04, 'temp': 30.63, 'lipoC3S3': 12.22, 'lipoC3S2': 8.09, 'rot1': 1125, 'rot0': 1113, 'rot3': 513, 'rot2': 458, 'state': 'normal', 'yaw': -103.83, 'datetime': '2018-10-09 12:57:07.722955', 'mgs': 0, 'volt': 0.918, 'depth': 1.843, 'time': 527, 'pitch': 0.59, 'roll': -1.16, 'pres': 188}
{'lipoC2': 7.44, 'lipoC3S1': 4.04, 'temp': 30.63, 'lipoC3S3': 12.22, 'lipoC3S2': 8.09, 'rot1': 1125, 'rot0': 1113, 'rot3': 513, 'rot2': 458, 'state': 'normal', 'yaw': -103.67, 'datetime': '2018-10-09 12:57:07.736707', 'mgs': 0, 'volt': 0.918, 'depth': 1.843, 'time': 527, 'pitch': -0.17, 'roll': -0.95, 'pres': 188}
{'lipoC2': 7.44, 'lipoC3S1': 4.04, 'temp': 30.63, 'lipoC3S3': 12.22, 'lipoC3S2': 8.09, 'rot1': 1125, 'rot0': 1113, 'rot3': 513, 'rot2': 458, 'state': 'normal', 'yaw': -103.48, 'datetime': '2018-10-09 12:57:07.750467', 'mgs': 0, 'volt': 0.918, 'depth': 1.843, 'time': 527, 'pitch': -0.27, 'roll': -0.78, 'pres': 188}
{'lipoC2': 7.44, 'lipoC3S1': 4.04, 'temp': 30.63, 'lipoC3S3': 12.22, 'lipoC3S2': 8.09, 'rot1': 1125, 'rot0': 1113, 'rot3': 513, 'rot2': 458, 'state': 'normal', 'yaw': -103.33, 'datetime': '2018-10-09 12:57:07.763342', 'mgs': 0, 'volt': 0.918, 'depth': 1.843, 'time': 527, 'pitch': 0.21, 'roll': -0.72, 'pres': 188}
{'lipoC2': 7.44, 'lipoC3S1': 4.04, 'temp': 30.63, 'lipoC3S3': 12.22, 'lipoC3S2': 8.09, 'rot1': 1125, 'rot0': 1113, 'rot3': 513, 'rot2': 458, 'state': 'normal', 'yaw': -103.17, 'datetime': '2018-10-09 12:57:07.777434', 'mgs': 0, 'volt': 0.9131, 'depth': 1.767, 'time': 527, 'pitch': 1.0, 'roll': -0.74, 'pres': 187}
{'lipoC2': 7.44, 'lipoC3S1': 4.04, 'temp': 30.63, 'lipoC3S3': 12.22, 'lipoC3S2': 8.09, 'rot1': 1125, 'rot0': 1113, 'rot3': 513, 'rot2': 458, 'state': 'normal', 'yaw': -103.03, 'datetime': '2018-10-09 12:57:07.791179', 'mgs': 0, 'volt': 0.9131, 'depth': 1.767, 'time': 527, 'pitch': 1.57, 'roll': -0.83, 'pres': 187}
{'lipoC2': 7.44, 'lipoC3S1': 4.04, 'temp': 30.63, 'lipoC3S3': 12.22, 'lipoC3S2': 8.09, 'rot1': 1125, 'rot0': 1113, 'rot3': 513, 'rot2': 458, 'state': 'normal', 'yaw': -102.87, 'datetime': '2018-10-09 12:57:07.804940', 'mgs': 0, 'volt': 0.9131, 'depth': 1.767, 'time': 527, 'pitch': 1.71, 'roll': -0.95, 'pres': 187}
{'lipoC2': 7.44, 'lipoC3S1': 4.04, 'temp': 30.63, 'lipoC3S3': 12.22, 'lipoC3S2': 8.09, 'rot1': 1125, 'rot0': 1113, 'rot3': 513, 'rot2': 458, 'state': 'normal', 'yaw': -102.71, 'datetime': '2018-10-09 12:57:07.818621', 'mgs': 0, 'volt': 0.9131, 'depth': 1.767, 'time': 527, 'pitch': 1.41, 'roll': -1.0, 'pres': 187}
{'lipoC2': 7.44, 'lipoC3S1': 4.04, 'temp': 30.63, 'lipoC3S3': 12.22, 'lipoC3S2': 8.09, 'rot1': 1125, 'rot0': 1113, 'rot3': 513, 'rot2': 458, 'state': 'normal', 'yaw': -102.56, 'datetime': '2018-10-09 12:57:07.832336', 'mgs': 0, 'volt': 0.9131, 'depth': 1.767, 'time': 527, 'pitch': 0.91, 'roll': -0.95, 'pres': 187}
{'lipoC2': 7.44, 'lipoC3S1': 4.04, 'temp': 30.63, 'lipoC3S3': 12.22, 'lipoC3S2': 8.09, 'rot1': 1125, 'rot0': 1113, 'rot3': 513, 'rot2': 458, 'state': 'normal', 'yaw': -102.43, 'datetime': '2018-10-09 12:57:07.846112', 'mgs': 0, 'volt': 0.9131, 'depth': 1.767, 'time': 527, 'pitch': 0.49, 'roll': -0.83, 'pres': 187}
{'lipoC2': 7.44, 'lipoC3S1': 4.04, 'temp': 30.63, 'lipoC3S3': 12.22, 'lipoC3S2': 8.09, 'rot1': 1125, 'rot0': 1113, 'rot3': 513, 'rot2': 458, 'state': 'normal', 'yaw': -102.3, 'datetime': '2018-10-09 12:57:07.860036', 'mgs': 0, 'volt': 0.9131, 'depth': 1.767, 'time': 528, 'pitch': 0.19, 'roll': -0.65, 'pres': 187}
{'lipoC2': 7.44, 'lipoC3S1': 4.04, 'temp': 30.63, 'lipoC3S3': 12.22, 'lipoC3S2': 8.09, 'rot1': 1125, 'rot0': 1113, 'rot3': 513, 'rot2': 458, 'state': 'normal', 'yaw': -102.14, 'datetime': '2018-10-09 12:57:07.872264', 'mgs': 0, 'volt': 0.9131, 'depth': 1.767, 'time': 528, 'pitch': 0.08, 'roll': -0.47, 'pres': 187}
{'lipoC2': 7.44, 'lipoC3S1': 4.04, 'temp': 30.63, 'lipoC3S3': 12.22, 'lipoC3S2': 8.09, 'rot1': 1125, 'rot0': 1113, 'rot3': 513, 'rot2': 458, 'state': 'normal', 'yaw': -101.98, 'datetime': '2018-10-09 12:57:07.885815', 'mgs': 0, 'volt': 0.9131, 'depth': 1.767, 'time': 528, 'pitch': 0.14, 'roll': -0.42, 'pres': 187}
{'lipoC2': 7.44, 'lipoC3S1': 4.04, 'temp': 30.63, 'lipoC3S3': 12.22, 'lipoC3S2': 8.09, 'rot1': 1125, 'rot0': 1113, 'rot3': 513, 'rot2': 458, 'state': 'normal', 'yaw': -101.8, 'datetime': '2018-10-09 12:57:07.899554', 'mgs': 0, 'volt': 0.9131, 'depth': 1.767, 'time': 528, 'pitch': 0.39, 'roll': -0.52, 'pres': 187}
{'lipoC2': 7.44, 'lipoC3S1': 4.04, 'temp': 30.63, 'lipoC3S3': 12.22, 'lipoC3S2': 8.09, 'rot1': 1125, 'rot0': 1113, 'rot3': 513, 'rot2': 458, 'state': 'normal', 'yaw': -101.63, 'datetime': '2018-10-09 12:57:07.913314', 'mgs': 0, 'volt': 0.9131, 'depth': 1.767, 'time': 528, 'pitch': 0.76, 'roll': -0.76, 'pres': 187}
{'lipoC2': 7.44, 'lipoC3S1': 4.04, 'temp': 30.63, 'lipoC3S3': 12.22, 'lipoC3S2': 8.09, 'rot1': 1125, 'rot0': 1113, 'rot3': 513, 'rot2': 458, 'state': 'normal', 'yaw': -101.46, 'datetime': '2018-10-09 12:57:07.927028', 'mgs': 0, 'volt': 0.918, 'depth': 1.843, 'time': 528, 'pitch': 1.28, 'roll': -1.07, 'pres': 188}
{'lipoC2': 7.44, 'lipoC3S1': 4.04, 'temp': 30.63, 'lipoC3S3': 12.22, 'lipoC3S2': 8.09, 'rot1': 1125, 'rot0': 1113, 'rot3': 513, 'rot2': 458, 'state': 'normal', 'yaw': -101.32, 'datetime': '2018-10-09 12:57:07.940923', 'mgs': 0, 'volt': 0.9131, 'depth': 1.767, 'time': 528, 'pitch': 1.66, 'roll': -1.2, 'pres': 187}
{'lipoC2': 7.44, 'lipoC3S1': 4.04, 'temp': 30.56, 'lipoC3S3': 12.22, 'lipoC3S2': 8.09, 'rot1': 1125, 'rot0': 1113, 'rot3': 513, 'rot2': 458, 'state': 'normal', 'yaw': -101.18, 'datetime': '2018-10-09 12:57:07.954693', 'mgs': 0, 'volt': 0.9131, 'depth': 1.767, 'time': 528, 'pitch': 1.85, 'roll': -1.15, 'pres': 187}
{'lipoC2': 7.44, 'lipoC3S1': 4.04, 'temp': 30.56, 'lipoC3S3': 12.22, 'lipoC3S2': 8.09, 'rot1': 1125, 'rot0': 1113, 'rot3': 513, 'rot2': 458, 'state': 'normal', 'yaw': -101.04, 'datetime': '2018-10-09 12:57:07.968579', 'mgs': 0, 'volt': 0.918, 'depth': 1.843, 'time': 528, 'pitch': 1.79, 'roll': -1.05, 'pres': 188}
{'lipoC2': 7.43, 'lipoC3S1': 4.04, 'temp': 30.63, 'lipoC3S3': 12.22, 'lipoC3S2': 8.09, 'rot1': 1125, 'rot0': 1113, 'rot3': 513, 'rot2': 458, 'state': 'normal', 'yaw': -100.9, 'datetime': '2018-10-09 12:57:07.981632', 'mgs': 0, 'volt': 0.9131, 'depth': 1.767, 'time': 529, 'pitch': 1.48, 'roll': -0.9, 'pres': 187}
{'lipoC2': 7.43, 'lipoC3S1': 4.04, 'temp': 30.63, 'lipoC3S3': 12.22, 'lipoC3S2': 8.09, 'rot1': 1125, 'rot0': 1113, 'rot3': 513, 'rot2': 458, 'state': 'normal', 'yaw': -100.75, 'datetime': '2018-10-09 12:57:07.993334', 'mgs': 0, 'volt': 0.9131, 'depth': 1.767, 'time': 529, 'pitch': 1.1, 'roll': -0.84, 'pres': 187}
{'lipoC2': 7.44, 'lipoC3S1': 4.04, 'temp': 30.63, 'lipoC3S3': 12.22, 'lipoC3S2': 8.09, 'rot1': 1125, 'rot0': 1113, 'rot3': 513, 'rot2': 458, 'state': 'normal', 'yaw': -100.6, 'datetime': '2018-10-09 12:57:08.007030', 'mgs': 0, 'volt': 0.9131, 'depth': 1.767, 'time': 529, 'pitch': 0.79, 'roll': -0.87, 'pres': 187}
{'lipoC2': 7.44, 'lipoC3S1': 4.04, 'temp': 30.56, 'lipoC3S3': 12.22, 'lipoC3S2': 8.09, 'rot1': 1125, 'rot0': 1113, 'rot3': 513, 'rot2': 458, 'state': 'normal', 'yaw': -100.43, 'datetime': '2018-10-09 12:57:08.020741', 'mgs': 0, 'volt': 0.918, 'depth': 1.843, 'time': 529, 'pitch': 0.69, 'roll': -1.02, 'pres': 188}
{'lipoC2': 7.44, 'lipoC3S1': 4.04, 'temp': 30.56, 'lipoC3S3': 12.22, 'lipoC3S2': 8.09, 'rot1': 1125, 'rot0': 1113, 'rot3': 513, 'rot2': 458, 'state': 'normal', 'yaw': -100.27, 'datetime': '2018-10-09 12:57:08.034489', 'mgs': 0, 'volt': 0.918, 'depth': 1.843, 'time': 529, 'pitch': 0.8, 'roll': -1.14, 'pres': 188}
{'lipoC2': 7.44, 'lipoC3S1': 4.04, 'temp': 30.63, 'lipoC3S3': 12.22, 'lipoC3S2': 8.09, 'rot1': 1125, 'rot0': 1113, 'rot3': 513, 'rot2': 458, 'state': 'normal', 'yaw': -100.1, 'datetime': '2018-10-09 12:57:08.048269', 'mgs': 0, 'volt': 0.918, 'depth': 1.843, 'time': 529, 'pitch': 1.04, 'roll': -1.16, 'pres': 188}
{'lipoC2': 7.44, 'lipoC3S1': 4.04, 'temp': 30.63, 'lipoC3S3': 12.22, 'lipoC3S2': 8.09, 'rot1': 1125, 'rot0': 1113, 'rot3': 513, 'rot2': 458, 'state': 'normal', 'yaw': -99.95, 'datetime': '2018-10-09 12:57:08.061936', 'mgs': 0, 'volt': 0.918, 'depth': 1.843, 'time': 529, 'pitch': 1.24, 'roll': -1.07, 'pres': 188}
{'lipoC2': 7.44, 'lipoC3S1': 4.04, 'temp': 30.63, 'lipoC3S3': 12.22, 'lipoC3S2': 8.09, 'rot1': 1125, 'rot0': 1113, 'rot3': 513, 'rot2': 458, 'state': 'normal', 'yaw': -99.78, 'datetime': '2018-10-09 12:57:08.076649', 'mgs': 0, 'volt': 0.918, 'depth': 1.843, 'time': 529, 'pitch': 1.38, 'roll': -0.92, 'pres': 188}
{'lipoC2': 7.44, 'lipoC3S1': 4.04, 'temp': 30.63, 'lipoC3S3': 12.22, 'lipoC3S2': 8.09, 'rot1': 1125, 'rot0': 1113, 'rot3': 513, 'rot2': 458, 'state': 'normal', 'yaw': -99.62, 'datetime': '2018-10-09 12:57:08.089337', 'mgs': 0, 'volt': 0.9131, 'depth': 1.767, 'time': 529, 'pitch': 1.42, 'roll': -0.81, 'pres': 187}
{'lipoC2': 7.44, 'lipoC3S1': 4.04, 'temp': 30.63, 'lipoC3S3': 12.22, 'lipoC3S2': 8.09, 'rot1': 1125, 'rot0': 1113, 'rot3': 513, 'rot2': 458, 'state': 'normal', 'yaw': -99.45, 'datetime': '2018-10-09 12:57:08.103194', 'mgs': 0, 'volt': 0.918, 'depth': 1.843, 'time': 529, 'pitch': 1.42, 'roll': -0.77, 'pres': 188}
{'lipoC2': 7.44, 'lipoC3S1': 4.04, 'temp': 30.63, 'lipoC3S3': 12.22, 'lipoC3S2': 8.09, 'rot1': 1125, 'rot0': 1113, 'rot3': 513, 'rot2': 458, 'state': 'normal', 'yaw': -99.29, 'datetime': '2018-10-09 12:57:08.117060', 'mgs': 0, 'volt': 0.9131, 'depth': 1.767, 'time': 530, 'pitch': 1.42, 'roll': -0.77, 'pres': 187}
{'lipoC2': 7.44, 'lipoC3S1': 4.04, 'temp': 30.63, 'lipoC3S3': 12.22, 'lipoC3S2': 8.09, 'rot1': 1125, 'rot0': 1113, 'rot3': 513, 'rot2': 458, 'state': 'normal', 'yaw': -99.12, 'datetime': '2018-10-09 12:57:08.130752', 'mgs': 0, 'volt': 0.918, 'depth': 1.843, 'time': 530, 'pitch': 1.29, 'roll': -0.76, 'pres': 188}
{'lipoC2': 7.44, 'lipoC3S1': 4.04, 'temp': 30.63, 'lipoC3S3': 12.22, 'lipoC3S2': 8.09, 'rot1': 1125, 'rot0': 1113, 'rot3': 513, 'rot2': 458, 'state': 'normal', 'yaw': -98.98, 'datetime': '2018-10-09 12:57:08.144436', 'mgs': 0, 'volt': 0.918, 'depth': 1.843, 'time': 530, 'pitch': 0.98, 'roll': -0.76, 'pres': 188}
{'lipoC2': 7.44, 'lipoC3S1': 4.04, 'temp': 30.63, 'lipoC3S3': 12.22, 'lipoC3S2': 8.09, 'rot1': 1125, 'rot0': 1113, 'rot3': 513, 'rot2': 458, 'state': 'normal', 'yaw': -98.85, 'datetime': '2018-10-09 12:57:08.158125', 'mgs': 0, 'volt': 0.918, 'depth': 1.843, 'time': 530, 'pitch': 0.49, 'roll': -0.75, 'pres': 188}
{'lipoC2': 7.43, 'lipoC3S1': 4.04, 'temp': 30.63, 'lipoC3S3': 12.22, 'lipoC3S2': 8.09, 'rot1': 1125, 'rot0': 1113, 'rot3': 513, 'rot2': 458, 'state': 'normal', 'yaw': -98.68, 'datetime': '2018-10-09 12:57:08.171770', 'mgs': 0, 'volt': 0.918, 'depth': 1.843, 'time': 530, 'pitch': -0.1, 'roll': -0.76, 'pres': 188}
{'lipoC2': 7.44, 'lipoC3S1': 4.04, 'temp': 30.63, 'lipoC3S3': 12.22, 'lipoC3S2': 8.09, 'rot1': 1125, 'rot0': 1113, 'rot3': 513, 'rot2': 458, 'state': 'normal', 'yaw': -98.5, 'datetime': '2018-10-09 12:57:08.183591', 'mgs': 0, 'volt': 0.9229, 'depth': 1.92, 'time': 530, 'pitch': -0.43, 'roll': -0.75, 'pres': 189}
{'lipoC2': 7.44, 'lipoC3S1': 4.04, 'temp': 30.56, 'lipoC3S3': 12.22, 'lipoC3S2': 8.09, 'rot1': 1125, 'rot0': 1113, 'rot3': 513, 'rot2': 458, 'state': 'normal', 'yaw': -98.3, 'datetime': '2018-10-09 12:57:08.194831', 'mgs': 0, 'volt': 0.918, 'depth': 1.843, 'time': 530, 'pitch': -0.41, 'roll': -0.79, 'pres': 188}
{'lipoC2': 7.44, 'lipoC3S1': 4.04, 'temp': 30.56, 'lipoC3S3': 12.22, 'lipoC3S2': 8.09, 'rot1': 1125, 'rot0': 1113, 'rot3': 513, 'rot2': 458, 'state': 'normal', 'yaw': -98.12, 'datetime': '2018-10-09 12:57:08.208437', 'mgs': 0, 'volt': 0.918, 'depth': 1.843, 'time': 530, 'pitch': 0.0, 'roll': -0.89, 'pres': 188}
{'lipoC2': 7.44, 'lipoC3S1': 4.04, 'temp': 30.56, 'lipoC3S3': 12.22, 'lipoC3S2': 8.09, 'rot1': 1125, 'rot0': 1113, 'rot3': 513, 'rot2': 458, 'state': 'normal', 'yaw': -97.95, 'datetime': '2018-10-09 12:57:08.222079', 'mgs': 0, 'volt': 0.918, 'depth': 1.843, 'time': 530, 'pitch': 0.71, 'roll': -1.03, 'pres': 188}
{'lipoC2': 7.44, 'lipoC3S1': 4.04, 'temp': 30.63, 'lipoC3S3': 12.22, 'lipoC3S2': 8.09, 'rot1': 1125, 'rot0': 1113, 'rot3': 513, 'rot2': 458, 'state': 'normal', 'yaw': -97.81, 'datetime': '2018-10-09 12:57:08.235749', 'mgs': 0, 'volt': 0.918, 'depth': 1.843, 'time': 531, 'pitch': 1.29, 'roll': -1.12, 'pres': 188}
{'lipoC2': 7.44, 'lipoC3S1': 4.04, 'temp': 30.63, 'lipoC3S3': 12.22, 'lipoC3S2': 8.09, 'rot1': 1125, 'rot0': 1113, 'rot3': 513, 'rot2': 458, 'state': 'normal', 'yaw': -97.64, 'datetime': '2018-10-09 12:57:08.249427', 'mgs': 0, 'volt': 0.918, 'depth': 1.843, 'time': 531, 'pitch': 1.55, 'roll': -1.1, 'pres': 188}
{'lipoC2': 7.44, 'lipoC3S1': 4.04, 'temp': 30.63, 'lipoC3S3': 12.22, 'lipoC3S2': 8.09, 'rot1': 1125, 'rot0': 1113, 'rot3': 513, 'rot2': 458, 'state': 'normal', 'yaw': -97.48, 'datetime': '2018-10-09 12:57:08.263101', 'mgs': 0, 'volt': 0.918, 'depth': 1.843, 'time': 531, 'pitch': 1.49, 'roll': -1.07, 'pres': 188}
{'lipoC2': 7.44, 'lipoC3S1': 4.04, 'temp': 30.63, 'lipoC3S3': 12.22, 'lipoC3S2': 8.09, 'rot1': 1125, 'rot0': 1113, 'rot3': 513, 'rot2': 458, 'state': 'normal', 'yaw': -97.28, 'datetime': '2018-10-09 12:57:08.277057', 'mgs': 0, 'volt': 0.918, 'depth': 1.843, 'time': 531, 'pitch': 1.31, 'roll': -1.07, 'pres': 188}
{'lipoC2': 7.44, 'lipoC3S1': 4.04, 'temp': 30.63, 'lipoC3S3': 12.22, 'lipoC3S2': 8.09, 'rot1': 1125, 'rot0': 1113, 'rot3': 513, 'rot2': 458, 'state': 'normal', 'yaw': -97.11, 'datetime': '2018-10-09 12:57:08.290255', 'mgs': 0, 'volt': 0.918, 'depth': 1.843, 'time': 531, 'pitch': 1.05, 'roll': -1.07, 'pres': 188}
{'lipoC2': 7.44, 'lipoC3S1': 4.04, 'temp': 30.63, 'lipoC3S3': 12.22, 'lipoC3S2': 8.09, 'rot1': 1125, 'rot0': 1113, 'rot3': 513, 'rot2': 458, 'state': 'normal', 'yaw': -96.95, 'datetime': '2018-10-09 12:57:08.302835', 'mgs': 0, 'volt': 0.9229, 'depth': 1.92, 'time': 531, 'pitch': 0.68, 'roll': -1.08, 'pres': 189}
{'lipoC2': 7.44, 'lipoC3S1': 4.04, 'temp': 30.63, 'lipoC3S3': 12.22, 'lipoC3S2': 8.09, 'rot1': 1125, 'rot0': 1113, 'rot3': 513, 'rot2': 458, 'state': 'normal', 'yaw': -96.77, 'datetime': '2018-10-09 12:57:08.316437', 'mgs': 0, 'volt': 0.9229, 'depth': 1.92, 'time': 531, 'pitch': 0.11, 'roll': -1.07, 'pres': 189}
{'lipoC2': 7.44, 'lipoC3S1': 4.04, 'temp': 30.63, 'lipoC3S3': 12.22, 'lipoC3S2': 8.09, 'rot1': 1125, 'rot0': 1113, 'rot3': 513, 'rot2': 458, 'state': 'normal', 'yaw': -96.58, 'datetime': '2018-10-09 12:57:08.330055', 'mgs': 0, 'volt': 0.9229, 'depth': 1.92, 'time': 531, 'pitch': -0.3, 'roll': -1.07, 'pres': 189}
{'lipoC2': 7.44, 'lipoC3S1': 4.04, 'temp': 30.63, 'lipoC3S3': 12.22, 'lipoC3S2': 8.09, 'rot1': 1125, 'rot0': 1113, 'rot3': 513, 'rot2': 458, 'state': 'normal', 'yaw': -96.35, 'datetime': '2018-10-09 12:57:08.343885', 'mgs': 0, 'volt': 0.9229, 'depth': 1.92, 'time': 531, 'pitch': -0.33, 'roll': -1.07, 'pres': 189}
{'lipoC2': 7.44, 'lipoC3S1': 4.04, 'temp': 30.63, 'lipoC3S3': 12.22, 'lipoC3S2': 8.09, 'rot1': 1125, 'rot0': 1113, 'rot3': 513, 'rot2': 458, 'state': 'normal', 'yaw': -96.16, 'datetime': '2018-10-09 12:57:08.357578', 'mgs': 0, 'volt': 0.9229, 'depth': 1.92, 'time': 531, 'pitch': 0.15, 'roll': -1.07, 'pres': 189}
{'lipoC2': 7.44, 'lipoC3S1': 4.04, 'temp': 30.63, 'lipoC3S3': 12.22, 'lipoC3S2': 8.09, 'rot1': 1125, 'rot0': 1113, 'rot3': 513, 'rot2': 458, 'state': 'normal', 'yaw': -95.99, 'datetime': '2018-10-09 12:57:08.371219', 'mgs': 0, 'volt': 0.9229, 'depth': 1.92, 'time': 532, 'pitch': 1.01, 'roll': -1.04, 'pres': 189}
{'lipoC2': 7.44, 'lipoC3S1': 4.04, 'temp': 30.63, 'lipoC3S3': 12.22, 'lipoC3S2': 8.09, 'rot1': 1125, 'rot0': 1113, 'rot3': 513, 'rot2': 458, 'state': 'normal', 'yaw': -95.84, 'datetime': '2018-10-09 12:57:08.384910', 'mgs': 0, 'volt': 0.9229, 'depth': 1.92, 'time': 532, 'pitch': 1.7, 'roll': -1.0, 'pres': 189}
{'lipoC2': 7.44, 'lipoC3S1': 4.04, 'temp': 30.63, 'lipoC3S3': 12.22, 'lipoC3S2': 8.09, 'rot1': 1125, 'rot0': 1113, 'rot3': 513, 'rot2': 458, 'state': 'normal', 'yaw': -95.68, 'datetime': '2018-10-09 12:57:08.399181', 'mgs': 0, 'volt': 0.9229, 'depth': 1.92, 'time': 532, 'pitch': 1.95, 'roll': -0.87, 'pres': 189}
{'lipoC2': 7.44, 'lipoC3S1': 4.04, 'temp': 30.63, 'lipoC3S3': 12.22, 'lipoC3S2': 8.09, 'rot1': 1125, 'rot0': 1113, 'rot3': 513, 'rot2': 458, 'state': 'normal', 'yaw': -95.51, 'datetime': '2018-10-09 12:57:08.412861', 'mgs': 0, 'volt': 0.9229, 'depth': 1.92, 'time': 532, 'pitch': 1.59, 'roll': -0.78, 'pres': 189}
{'lipoC2': 7.44, 'lipoC3S1': 4.04, 'temp': 30.63, 'lipoC3S3': 12.22, 'lipoC3S2': 8.09, 'rot1': 1125, 'rot0': 1113, 'rot3': 513, 'rot2': 458, 'state': 'normal', 'yaw': -95.33, 'datetime': '2018-10-09 12:57:08.426550', 'mgs': 0, 'volt': 0.9229, 'depth': 1.92, 'time': 532, 'pitch': 0.86, 'roll': -0.77, 'pres': 189}
{'lipoC2': 7.44, 'lipoC3S1': 4.04, 'temp': 30.63, 'lipoC3S3': 12.22, 'lipoC3S2': 8.09, 'rot1': 1125, 'rot0': 1113, 'rot3': 513, 'rot2': 458, 'state': 'normal', 'yaw': -95.11, 'datetime': '2018-10-09 12:57:08.440170', 'mgs': 0, 'volt': 0.9229, 'depth': 1.92, 'time': 532, 'pitch': 0.1, 'roll': -0.77, 'pres': 189}
{'lipoC2': 7.44, 'lipoC3S1': 4.04, 'temp': 30.63, 'lipoC3S3': 12.22, 'lipoC3S2': 8.09, 'rot1': 1125, 'rot0': 1113, 'rot3': 513, 'rot2': 458, 'state': 'normal', 'yaw': -94.93, 'datetime': '2018-10-09 12:57:08.453707', 'mgs': 0, 'volt': 0.9277, 'depth': 1.996, 'time': 532, 'pitch': -0.23, 'roll': -0.78, 'pres': 190}
{'lipoC2': 7.44, 'lipoC3S1': 4.04, 'temp': 30.63, 'lipoC3S3': 12.22, 'lipoC3S2': 8.09, 'rot1': 1125, 'rot0': 1113, 'rot3': 513, 'rot2': 458, 'state': 'normal', 'yaw': -94.71, 'datetime': '2018-10-09 12:57:08.467537', 'mgs': 0, 'volt': 0.9229, 'depth': 1.92, 'time': 532, 'pitch': -0.1, 'roll': -0.85, 'pres': 189}
{'lipoC2': 7.44, 'lipoC3S1': 4.04, 'temp': 30.63, 'lipoC3S3': 12.22, 'lipoC3S2': 8.09, 'rot1': 1125, 'rot0': 1113, 'rot3': 513, 'rot2': 458, 'state': 'normal', 'yaw': -94.51, 'datetime': '2018-10-09 12:57:08.481380', 'mgs': 0, 'volt': 0.9229, 'depth': 1.92, 'time': 532, 'pitch': 0.28, 'roll': -0.88, 'pres': 189}
{'lipoC2': 7.44, 'lipoC3S1': 4.04, 'temp': 30.63, 'lipoC3S3': 12.22, 'lipoC3S2': 8.09, 'rot1': 1125, 'rot0': 1113, 'rot3': 513, 'rot2': 458, 'state': 'normal', 'yaw': -94.3, 'datetime': '2018-10-09 12:57:08.495259', 'mgs': 0, 'volt': 0.9229, 'depth': 1.92, 'time': 532, 'pitch': 0.64, 'roll': -0.9, 'pres': 189}
{'lipoC2': 7.43, 'lipoC3S1': 4.04, 'temp': 30.63, 'lipoC3S3': 12.22, 'lipoC3S2': 8.09, 'rot1': 1125, 'rot0': 1113, 'rot3': 513, 'rot2': 458, 'state': 'normal', 'yaw': -94.11, 'datetime': '2018-10-09 12:57:08.508806', 'mgs': 0, 'volt': 0.9229, 'depth': 1.92, 'time': 533, 'pitch': 0.7, 'roll': -0.95, 'pres': 189}
{'lipoC2': 7.44, 'lipoC3S1': 4.04, 'temp': 30.63, 'lipoC3S3': 12.22, 'lipoC3S2': 8.09, 'rot1': 1125, 'rot0': 1113, 'rot3': 513, 'rot2': 458, 'state': 'normal', 'yaw': -93.91, 'datetime': '2018-10-09 12:57:08.522152', 'mgs': 0, 'volt': 0.9229, 'depth': 1.92, 'time': 533, 'pitch': 0.49, 'roll': -0.99, 'pres': 189}
{'lipoC2': 7.44, 'lipoC3S1': 4.04, 'temp': 30.63, 'lipoC3S3': 12.22, 'lipoC3S2': 8.09, 'rot1': 1125, 'rot0': 1113, 'rot3': 513, 'rot2': 458, 'state': 'normal', 'yaw': -93.73, 'datetime': '2018-10-09 12:57:08.535871', 'mgs': 0, 'volt': 0.9277, 'depth': 1.996, 'time': 533, 'pitch': 0.26, 'roll': -0.99, 'pres': 190}
{'lipoC2': 7.44, 'lipoC3S1': 4.04, 'temp': 30.63, 'lipoC3S3': 12.22, 'lipoC3S2': 8.09, 'rot1': 1125, 'rot0': 1113, 'rot3': 513, 'rot2': 458, 'state': 'normal', 'yaw': -93.55, 'datetime': '2018-10-09 12:57:08.549527', 'mgs': 0, 'volt': 0.9229, 'depth': 1.92, 'time': 533, 'pitch': 0.21, 'roll': -0.99, 'pres': 189}
{'lipoC2': 7.44, 'lipoC3S1': 4.04, 'temp': 30.63, 'lipoC3S3': 12.22, 'lipoC3S2': 8.09, 'rot1': 1125, 'rot0': 1113, 'rot3': 513, 'rot2': 458, 'state': 'normal', 'yaw': -93.38, 'datetime': '2018-10-09 12:57:08.563205', 'mgs': 0, 'volt': 0.9229, 'depth': 1.92, 'time': 533, 'pitch': 0.4, 'roll': -0.98, 'pres': 189}
{'lipoC2': 7.44, 'lipoC3S1': 4.04, 'temp': 30.63, 'lipoC3S3': 12.22, 'lipoC3S2': 8.09, 'rot1': 1125, 'rot0': 1113, 'rot3': 513, 'rot2': 458, 'state': 'normal', 'yaw': -93.17, 'datetime': '2018-10-09 12:57:08.577047', 'mgs': 0, 'volt': 0.9229, 'depth': 1.92, 'time': 533, 'pitch': 0.74, 'roll': -1.0, 'pres': 189}
{'lipoC2': 7.44, 'lipoC3S1': 4.04, 'temp': 30.63, 'lipoC3S3': 12.22, 'lipoC3S2': 8.09, 'rot1': 1125, 'rot0': 1113, 'rot3': 513, 'rot2': 458, 'state': 'normal', 'yaw': -92.96, 'datetime': '2018-10-09 12:57:08.590803', 'mgs': 0, 'volt': 0.9229, 'depth': 1.92, 'time': 533, 'pitch': 1.05, 'roll': -1.0, 'pres': 189}
{'lipoC2': 7.44, 'lipoC3S1': 4.04, 'temp': 30.63, 'lipoC3S3': 12.22, 'lipoC3S2': 8.09, 'rot1': 1125, 'rot0': 1113, 'rot3': 513, 'rot2': 458, 'state': 'normal', 'yaw': -92.76, 'datetime': '2018-10-09 12:57:08.605462', 'mgs': 0, 'volt': 0.9229, 'depth': 1.92, 'time': 533, 'pitch': 1.14, 'roll': -1.06, 'pres': 189}
{'lipoC2': 7.44, 'lipoC3S1': 4.04, 'temp': 30.63, 'lipoC3S3': 12.22, 'lipoC3S2': 8.09, 'rot1': 1125, 'rot0': 1113, 'rot3': 513, 'rot2': 458, 'state': 'normal', 'yaw': -92.51, 'datetime': '2018-10-09 12:57:08.618247', 'mgs': 0, 'volt': 0.9229, 'depth': 1.92, 'time': 533, 'pitch': 0.91, 'roll': -1.17, 'pres': 189}
{'lipoC2': 7.44, 'lipoC3S1': 4.04, 'temp': 30.63, 'lipoC3S3': 12.22, 'lipoC3S2': 8.09, 'rot1': 1125, 'rot0': 1113, 'rot3': 513, 'rot2': 458, 'state': 'normal', 'yaw': -92.3, 'datetime': '2018-10-09 12:57:08.631871', 'mgs': 0, 'volt': 0.9229, 'depth': 1.92, 'time': 534, 'pitch': 0.6, 'roll': -1.28, 'pres': 189}
{'lipoC2': 7.44, 'lipoC3S1': 4.04, 'temp': 30.63, 'lipoC3S3': 12.22, 'lipoC3S2': 8.09, 'rot1': 1125, 'rot0': 1113, 'rot3': 513, 'rot2': 458, 'state': 'normal', 'yaw': -92.1, 'datetime': '2018-10-09 12:57:08.645742', 'mgs': 0, 'volt': 0.9229, 'depth': 1.92, 'time': 534, 'pitch': 0.43, 'roll': -1.35, 'pres': 189}
{'lipoC2': 7.44, 'lipoC3S1': 4.04, 'temp': 30.63, 'lipoC3S3': 12.22, 'lipoC3S2': 8.09, 'rot1': 1125, 'rot0': 1113, 'rot3': 513, 'rot2': 458, 'state': 'normal', 'yaw': -91.94, 'datetime': '2018-10-09 12:57:08.659444', 'mgs': 0, 'volt': 0.9229, 'depth': 1.92, 'time': 534, 'pitch': 0.52, 'roll': -1.33, 'pres': 189}
{'lipoC2': 7.44, 'lipoC3S1': 4.04, 'temp': 30.56, 'lipoC3S3': 12.22, 'lipoC3S2': 8.09, 'rot1': 1125, 'rot0': 1113, 'rot3': 513, 'rot2': 458, 'state': 'normal', 'yaw': -91.79, 'datetime': '2018-10-09 12:57:08.673137', 'mgs': 0, 'volt': 0.9229, 'depth': 1.92, 'time': 534, 'pitch': 0.84, 'roll': -1.21, 'pres': 189}
{'lipoC2': 7.44, 'lipoC3S1': 4.04, 'temp': 30.56, 'lipoC3S3': 12.22, 'lipoC3S2': 8.09, 'rot1': 1125, 'rot0': 1113, 'rot3': 513, 'rot2': 458, 'state': 'normal', 'yaw': -91.64, 'datetime': '2018-10-09 12:57:08.686852', 'mgs': 0, 'volt': 0.9229, 'depth': 1.92, 'time': 534, 'pitch': 1.11, 'roll': -1.03, 'pres': 189}
{'lipoC2': 7.44, 'lipoC3S1': 4.04, 'temp': 30.63, 'lipoC3S3': 12.22, 'lipoC3S2': 8.09, 'rot1': 1125, 'rot0': 1113, 'rot3': 513, 'rot2': 458, 'state': 'normal', 'yaw': -91.45, 'datetime': '2018-10-09 12:57:08.700815', 'mgs': 0, 'volt': 0.9229, 'depth': 1.92, 'time': 534, 'pitch': 1.17, 'roll': -0.84, 'pres': 189}
{'lipoC2': 7.44, 'lipoC3S1': 4.04, 'temp': 30.63, 'lipoC3S3': 12.22, 'lipoC3S2': 8.09, 'rot1': 1125, 'rot0': 1113, 'rot3': 513, 'rot2': 458, 'state': 'normal', 'yaw': -91.24, 'datetime': '2018-10-09 12:57:08.713735', 'mgs': 0, 'volt': 0.9229, 'depth': 1.92, 'time': 534, 'pitch': 0.97, 'roll': -0.75, 'pres': 189}
{'lipoC2': 7.44, 'lipoC3S1': 4.04, 'temp': 30.63, 'lipoC3S3': 12.22, 'lipoC3S2': 8.09, 'rot1': 1125, 'rot0': 1113, 'rot3': 513, 'rot2': 458, 'state': 'normal', 'yaw': -91.0, 'datetime': '2018-10-09 12:57:08.727846', 'mgs': 0, 'volt': 0.9229, 'depth': 1.92, 'time': 534, 'pitch': 0.69, 'roll': -0.76, 'pres': 189}
{'lipoC2': 7.44, 'lipoC3S1': 4.04, 'temp': 30.63, 'lipoC3S3': 12.22, 'lipoC3S2': 8.09, 'rot1': 1125, 'rot0': 1113, 'rot3': 513, 'rot2': 458, 'state': 'normal', 'yaw': -90.79, 'datetime': '2018-10-09 12:57:08.741570', 'mgs': 0, 'volt': 0.9229, 'depth': 1.92, 'time': 534, 'pitch': 0.61, 'roll': -0.82, 'pres': 189}
{'lipoC2': 7.44, 'lipoC3S1': 4.04, 'temp': 30.63, 'lipoC3S3': 12.22, 'lipoC3S2': 8.09, 'rot1': 1125, 'rot0': 1113, 'rot3': 513, 'rot2': 458, 'state': 'normal', 'yaw': -90.59, 'datetime': '2018-10-09 12:57:08.755268', 'mgs': 0, 'volt': 0.9229, 'depth': 1.92, 'time': 534, 'pitch': 0.78, 'roll': -0.91, 'pres': 189}
{'lipoC2': 7.44, 'lipoC3S1': 4.04, 'temp': 30.63, 'lipoC3S3': 12.22, 'lipoC3S2': 8.09, 'rot1': 1125, 'rot0': 1113, 'rot3': 513, 'rot2': 458, 'state': 'normal', 'yaw': -90.38, 'datetime': '2018-10-09 12:57:08.768976', 'mgs': 0, 'volt': 0.9229, 'depth': 1.92, 'time': 535, 'pitch': 1.04, 'roll': -0.96, 'pres': 189}
{'lipoC2': 7.44, 'lipoC3S1': 4.04, 'temp': 30.63, 'lipoC3S3': 12.22, 'lipoC3S2': 8.09, 'rot1': 1125, 'rot0': 1113, 'rot3': 513, 'rot2': 458, 'state': 'normal', 'yaw': -90.22, 'datetime': '2018-10-09 12:57:08.782679', 'mgs': 0, 'volt': 0.9229, 'depth': 1.92, 'time': 535, 'pitch': 1.14, 'roll': -0.93, 'pres': 189}
{'lipoC2': 7.44, 'lipoC3S1': 4.04, 'temp': 30.63, 'lipoC3S3': 12.22, 'lipoC3S2': 8.09, 'rot1': 1125, 'rot0': 1113, 'rot3': 513, 'rot2': 458, 'state': 'normal', 'yaw': -90.04, 'datetime': '2018-10-09 12:57:08.796346', 'mgs': 0, 'volt': 0.9229, 'depth': 1.92, 'time': 535, 'pitch': 0.94, 'roll': -0.91, 'pres': 189}
{'lipoC2': 7.44, 'lipoC3S1': 4.04, 'temp': 30.63, 'lipoC3S3': 12.22, 'lipoC3S2': 8.09, 'rot1': 1125, 'rot0': 1113, 'rot3': 513, 'rot2': 458, 'state': 'normal', 'yaw': -89.87, 'datetime': '2018-10-09 12:57:08.808678', 'mgs': 0, 'volt': 0.9229, 'depth': 1.92, 'time': 535, 'pitch': 0.51, 'roll': -0.88, 'pres': 189}
{'lipoC2': 7.44, 'lipoC3S1': 4.04, 'temp': 30.63, 'lipoC3S3': 12.22, 'lipoC3S2': 8.09, 'rot1': 1125, 'rot0': 1113, 'rot3': 513, 'rot2': 458, 'state': 'normal', 'yaw': -89.65, 'datetime': '2018-10-09 12:57:08.822189', 'mgs': 0, 'volt': 0.9229, 'depth': 1.92, 'time': 535, 'pitch': 0.04, 'roll': -0.89, 'pres': 189}
{'lipoC2': 7.44, 'lipoC3S1': 4.04, 'temp': 30.63, 'lipoC3S3': 12.22, 'lipoC3S2': 8.09, 'rot1': 1125, 'rot0': 1113, 'rot3': 513, 'rot2': 458, 'state': 'normal', 'yaw': -89.44, 'datetime': '2018-10-09 12:57:08.836022', 'mgs': 0, 'volt': 0.9229, 'depth': 1.92, 'time': 535, 'pitch': -0.09, 'roll': -0.98, 'pres': 189}
{'lipoC2': 7.44, 'lipoC3S1': 4.04, 'temp': 30.63, 'lipoC3S3': 12.22, 'lipoC3S2': 8.09, 'rot1': 1125, 'rot0': 1113, 'rot3': 513, 'rot2': 458, 'state': 'normal', 'yaw': -89.23, 'datetime': '2018-10-09 12:57:08.849668', 'mgs': 0, 'volt': 0.9229, 'depth': 1.92, 'time': 535, 'pitch': 0.28, 'roll': -1.1, 'pres': 189}
{'lipoC2': 7.44, 'lipoC3S1': 4.04, 'temp': 30.63, 'lipoC3S3': 12.22, 'lipoC3S2': 8.09, 'rot1': 1125, 'rot0': 1113, 'rot3': 513, 'rot2': 458, 'state': 'normal', 'yaw': -89.05, 'datetime': '2018-10-09 12:57:08.863345', 'mgs': 0, 'volt': 0.9229, 'depth': 1.92, 'time': 535, 'pitch': 0.94, 'roll': -1.15, 'pres': 189}
{'lipoC2': 7.44, 'lipoC3S1': 4.04, 'temp': 30.63, 'lipoC3S3': 12.22, 'lipoC3S2': 8.09, 'rot1': 1125, 'rot0': 1113, 'rot3': 513, 'rot2': 458, 'state': 'normal', 'yaw': -88.89, 'datetime': '2018-10-09 12:57:08.876999', 'mgs': 0, 'volt': 0.918, 'depth': 1.843, 'time': 535, 'pitch': 1.53, 'roll': -1.12, 'pres': 188}
{'lipoC2': 7.44, 'lipoC3S1': 4.04, 'temp': 30.63, 'lipoC3S3': 12.22, 'lipoC3S2': 8.09, 'rot1': 1125, 'rot0': 1113, 'rot3': 513, 'rot2': 458, 'state': 'normal', 'yaw': -88.72, 'datetime': '2018-10-09 12:57:08.890663', 'mgs': 0, 'volt': 0.9229, 'depth': 1.92, 'time': 536, 'pitch': 1.86, 'roll': -1.03, 'pres': 189}
{'lipoC2': 7.44, 'lipoC3S1': 4.04, 'temp': 30.63, 'lipoC3S3': 12.22, 'lipoC3S2': 8.09, 'rot1': 1125, 'rot0': 1113, 'rot3': 513, 'rot2': 458, 'state': 'normal', 'yaw': -88.54, 'datetime': '2018-10-09 12:57:08.904354', 'mgs': 0, 'volt': 0.9229, 'depth': 1.92, 'time': 536, 'pitch': 1.76, 'roll': -0.99, 'pres': 189}
{'lipoC2': 7.44, 'lipoC3S1': 4.04, 'temp': 30.63, 'lipoC3S3': 12.22, 'lipoC3S2': 8.09, 'rot1': 1125, 'rot0': 1113, 'rot3': 513, 'rot2': 458, 'state': 'normal', 'yaw': -88.34, 'datetime': '2018-10-09 12:57:08.917588', 'mgs': 0, 'volt': 0.918, 'depth': 1.843, 'time': 536, 'pitch': 1.2, 'roll': -1.0, 'pres': 188}
{'lipoC2': 7.44, 'lipoC3S1': 4.04, 'temp': 30.63, 'lipoC3S3': 12.22, 'lipoC3S2': 8.09, 'rot1': 1125, 'rot0': 1113, 'rot3': 513, 'rot2': 458, 'state': 'normal', 'yaw': -88.14, 'datetime': '2018-10-09 12:57:08.929442', 'mgs': 0, 'volt': 0.918, 'depth': 1.843, 'time': 536, 'pitch': 0.44, 'roll': -1.09, 'pres': 188}
{'lipoC2': 7.44, 'lipoC3S1': 4.04, 'temp': 30.63, 'lipoC3S3': 12.22, 'lipoC3S2': 8.09, 'rot1': 1125, 'rot0': 1113, 'rot3': 513, 'rot2': 458, 'state': 'normal', 'yaw': -87.91, 'datetime': '2018-10-09 12:57:08.943043', 'mgs': 0, 'volt': 0.918, 'depth': 1.843, 'time': 536, 'pitch': -0.4, 'roll': -1.24, 'pres': 188}
{'lipoC2': 7.43, 'lipoC3S1': 4.04, 'temp': 30.56, 'lipoC3S3': 12.22, 'lipoC3S2': 8.09, 'rot1': 1125, 'rot0': 1113, 'rot3': 513, 'rot2': 458, 'state': 'normal', 'yaw': -87.71, 'datetime': '2018-10-09 12:57:08.956817', 'mgs': 0, 'volt': 0.9229, 'depth': 1.92, 'time': 536, 'pitch': -0.85, 'roll': -1.29, 'pres': 189}
{'lipoC2': 7.43, 'lipoC3S1': 4.04, 'temp': 30.56, 'lipoC3S3': 12.22, 'lipoC3S2': 8.09, 'rot1': 1125, 'rot0': 1113, 'rot3': 513, 'rot2': 458, 'state': 'normal', 'yaw': -87.51, 'datetime': '2018-10-09 12:57:08.970531', 'mgs': 0, 'volt': 0.918, 'depth': 1.843, 'time': 536, 'pitch': -0.81, 'roll': -1.24, 'pres': 188}
{'lipoC2': 7.44, 'lipoC3S1': 4.04, 'temp': 30.63, 'lipoC3S3': 12.22, 'lipoC3S2': 8.09, 'rot1': 1125, 'rot0': 1113, 'rot3': 513, 'rot2': 458, 'state': 'normal', 'yaw': -87.35, 'datetime': '2018-10-09 12:57:08.984196', 'mgs': 0, 'volt': 0.9229, 'depth': 1.92, 'time': 536, 'pitch': -0.26, 'roll': -1.15, 'pres': 189}
{'lipoC2': 7.44, 'lipoC3S1': 4.04, 'temp': 30.63, 'lipoC3S3': 12.22, 'lipoC3S2': 8.09, 'rot1': 1125, 'rot0': 1113, 'rot3': 513, 'rot2': 458, 'state': 'normal', 'yaw': -87.19, 'datetime': '2018-10-09 12:57:08.998126', 'mgs': 0, 'volt': 0.918, 'depth': 1.843, 'time': 536, 'pitch': 0.79, 'roll': -1.06, 'pres': 188}
{'lipoC2': 7.44, 'lipoC3S1': 4.04, 'temp': 30.63, 'lipoC3S3': 12.22, 'lipoC3S2': 8.09, 'rot1': 1125, 'rot0': 1113, 'rot3': 513, 'rot2': 458, 'state': 'normal', 'yaw': -87.04, 'datetime': '2018-10-09 12:57:09.011927', 'mgs': 0, 'volt': 0.918, 'depth': 1.843, 'time': 536, 'pitch': 1.79, 'roll': -1.02, 'pres': 188}
{'lipoC2': 7.44, 'lipoC3S1': 4.04, 'temp': 30.63, 'lipoC3S3': 12.22, 'lipoC3S2': 8.09, 'rot1': 1125, 'rot0': 1113, 'rot3': 513, 'rot2': 458, 'state': 'normal', 'yaw': -86.88, 'datetime': '2018-10-09 12:57:09.023730', 'mgs': 0, 'volt': 0.918, 'depth': 1.843, 'time': 537, 'pitch': 2.47, 'roll': -1.03, 'pres': 188}
{'lipoC2': 7.44, 'lipoC3S1': 4.04, 'temp': 30.63, 'lipoC3S3': 12.22, 'lipoC3S2': 8.09, 'rot1': 1125, 'rot0': 1113, 'rot3': 513, 'rot2': 458, 'state': 'normal', 'yaw': -86.69, 'datetime': '2018-10-09 12:57:09.037402', 'mgs': 0, 'volt': 0.918, 'depth': 1.843, 'time': 537, 'pitch': 2.6, 'roll': -1.07, 'pres': 188}
{'lipoC2': 7.44, 'lipoC3S1': 4.04, 'temp': 30.63, 'lipoC3S3': 12.22, 'lipoC3S2': 8.09, 'rot1': 1125, 'rot0': 1113, 'rot3': 513, 'rot2': 458, 'state': 'normal', 'yaw': -86.5, 'datetime': '2018-10-09 12:57:09.051117', 'mgs': 0, 'volt': 0.918, 'depth': 1.843, 'time': 537, 'pitch': 2.19, 'roll': -1.05, 'pres': 188}
{'lipoC2': 7.44, 'lipoC3S1': 4.04, 'temp': 30.63, 'lipoC3S3': 12.22, 'lipoC3S2': 8.09, 'rot1': 1125, 'rot0': 1113, 'rot3': 513, 'rot2': 458, 'state': 'normal', 'yaw': -86.3, 'datetime': '2018-10-09 12:57:09.064795', 'mgs': 0, 'volt': 0.918, 'depth': 1.843, 'time': 537, 'pitch': 1.32, 'roll': -1.01, 'pres': 188}
{'lipoC2': 7.44, 'lipoC3S1': 4.04, 'temp': 30.56, 'lipoC3S3': 12.22, 'lipoC3S2': 8.09, 'rot1': 1125, 'rot0': 1113, 'rot3': 513, 'rot2': 458, 'state': 'normal', 'yaw': -86.11, 'datetime': '2018-10-09 12:57:09.078530', 'mgs': 0, 'volt': 0.918, 'depth': 1.843, 'time': 537, 'pitch': 0.44, 'roll': -0.94, 'pres': 188}
{'lipoC2': 7.44, 'lipoC3S1': 4.04, 'temp': 30.56, 'lipoC3S3': 12.22, 'lipoC3S2': 8.09, 'rot1': 1125, 'rot0': 1113, 'rot3': 513, 'rot2': 458, 'state': 'normal', 'yaw': -85.91, 'datetime': '2018-10-09 12:57:09.092215', 'mgs': 0, 'volt': 0.918, 'depth': 1.843, 'time': 537, 'pitch': -0.34, 'roll': -0.87, 'pres': 188}
{'lipoC2': 7.43, 'lipoC3S1': 4.04, 'temp': 30.63, 'lipoC3S3': 12.22, 'lipoC3S2': 8.09, 'rot1': 1125, 'rot0': 1113, 'rot3': 513, 'rot2': 458, 'state': 'normal', 'yaw': -85.72, 'datetime': '2018-10-09 12:57:09.104875', 'mgs': 0, 'volt': 0.918, 'depth': 1.843, 'time': 537, 'pitch': -0.71, 'roll': -0.88, 'pres': 188}
{'lipoC2': 7.44, 'lipoC3S1': 4.04, 'temp': 30.63, 'lipoC3S3': 12.22, 'lipoC3S2': 8.09, 'rot1': 1125, 'rot0': 1113, 'rot3': 513, 'rot2': 458, 'state': 'normal', 'yaw': -85.53, 'datetime': '2018-10-09 12:57:09.115722', 'mgs': 0, 'volt': 0.918, 'depth': 1.843, 'time': 537, 'pitch': -0.72, 'roll': -0.92, 'pres': 188}
{'lipoC2': 7.44, 'lipoC3S1': 4.04, 'temp': 30.63, 'lipoC3S3': 12.22, 'lipoC3S2': 8.09, 'rot1': 1125, 'rot0': 1113, 'rot3': 513, 'rot2': 458, 'state': 'normal', 'yaw': -85.35, 'datetime': '2018-10-09 12:57:09.126480', 'mgs': 0, 'volt': 0.918, 'depth': 1.843, 'time': 537, 'pitch': -0.41, 'roll': -0.98, 'pres': 188}
{'lipoC2': 7.44, 'lipoC3S1': 4.04, 'temp': 30.56, 'lipoC3S3': 12.22, 'lipoC3S2': 8.09, 'rot1': 1125, 'rot0': 1113, 'rot3': 513, 'rot2': 458, 'state': 'normal', 'yaw': -85.2, 'datetime': '2018-10-09 12:57:09.136942', 'mgs': 0, 'volt': 0.918, 'depth': 1.843, 'time': 538, 'pitch': 0.23, 'roll': -1.02, 'pres': 188}
{'lipoC2': 7.44, 'lipoC3S1': 4.04, 'temp': 30.56, 'lipoC3S3': 12.22, 'lipoC3S2': 8.09, 'rot1': 1125, 'rot0': 1113, 'rot3': 513, 'rot2': 458, 'state': 'normal', 'yaw': -85.03, 'datetime': '2018-10-09 12:57:09.147340', 'mgs': 0, 'volt': 0.918, 'depth': 1.843, 'time': 538, 'pitch': 1.07, 'roll': -1.01, 'pres': 188}
{'lipoC2': 7.44, 'lipoC3S1': 4.04, 'temp': 30.63, 'lipoC3S3': 12.22, 'lipoC3S2': 8.09, 'rot1': 1125, 'rot0': 1113, 'rot3': 513, 'rot2': 458, 'state': 'normal', 'yaw': -84.87, 'datetime': '2018-10-09 12:57:09.157917', 'mgs': 0, 'volt': 0.918, 'depth': 1.843, 'time': 538, 'pitch': 1.64, 'roll': -0.95, 'pres': 188}
{'lipoC2': 7.44, 'lipoC3S1': 4.04, 'temp': 30.63, 'lipoC3S3': 12.22, 'lipoC3S2': 8.09, 'rot1': 1125, 'rot0': 1113, 'rot3': 513, 'rot2': 458, 'state': 'normal', 'yaw': -84.69, 'datetime': '2018-10-09 12:57:09.168308', 'mgs': 0, 'volt': 0.918, 'depth': 1.843, 'time': 538, 'pitch': 1.82, 'roll': -0.89, 'pres': 188}
{'lipoC2': 7.44, 'lipoC3S1': 4.04, 'temp': 30.63, 'lipoC3S3': 12.22, 'lipoC3S2': 8.09, 'rot1': 1125, 'rot0': 1113, 'rot3': 513, 'rot2': 458, 'state': 'normal', 'yaw': -84.54, 'datetime': '2018-10-09 12:57:09.178688', 'mgs': 0, 'volt': 0.918, 'depth': 1.843, 'time': 538, 'pitch': 1.42, 'roll': -0.85, 'pres': 188}
{'lipoC2': 7.44, 'lipoC3S1': 4.04, 'temp': 30.63, 'lipoC3S3': 12.22, 'lipoC3S2': 8.09, 'rot1': 1125, 'rot0': 1113, 'rot3': 513, 'rot2': 458, 'state': 'normal', 'yaw': -84.36, 'datetime': '2018-10-09 12:57:09.189058', 'mgs': 0, 'volt': 0.918, 'depth': 1.843, 'time': 538, 'pitch': 0.56, 'roll': -0.84, 'pres': 188}
{'lipoC2': 7.44, 'lipoC3S1': 4.04, 'temp': 30.63, 'lipoC3S3': 12.22, 'lipoC3S2': 8.09, 'rot1': 1125, 'rot0': 1113, 'rot3': 513, 'rot2': 458, 'state': 'normal', 'yaw': -84.2, 'datetime': '2018-10-09 12:57:09.199409', 'mgs': 0, 'volt': 0.918, 'depth': 1.843, 'time': 538, 'pitch': -0.16, 'roll': -0.76, 'pres': 188}
{'lipoC2': 7.44, 'lipoC3S1': 4.04, 'temp': 30.63, 'lipoC3S3': 12.22, 'lipoC3S2': 8.09, 'rot1': 1125, 'rot0': 1113, 'rot3': 513, 'rot2': 458, 'state': 'normal', 'yaw': -84.03, 'datetime': '2018-10-09 12:57:09.209756', 'mgs': 0, 'volt': 0.918, 'depth': 1.843, 'time': 538, 'pitch': -0.39, 'roll': -0.68, 'pres': 188}
{'lipoC2': 7.44, 'lipoC3S1': 4.04, 'temp': 30.63, 'lipoC3S3': 12.22, 'lipoC3S2': 8.09, 'rot1': 1125, 'rot0': 1113, 'rot3': 513, 'rot2': 458, 'state': 'normal', 'yaw': -83.83, 'datetime': '2018-10-09 12:57:09.220104', 'mgs': 0, 'volt': 0.918, 'depth': 1.843, 'time': 538, 'pitch': -0.01, 'roll': -0.67, 'pres': 188}
{'lipoC2': 7.44, 'lipoC3S1': 4.04, 'temp': 30.63, 'lipoC3S3': 12.22, 'lipoC3S2': 8.09, 'rot1': 1125, 'rot0': 1113, 'rot3': 513, 'rot2': 458, 'state': 'normal', 'yaw': -83.66, 'datetime': '2018-10-09 12:57:09.230464', 'mgs': 0, 'volt': 0.918, 'depth': 1.843, 'time': 538, 'pitch': 0.61, 'roll': -0.68, 'pres': 188}
{'lipoC2': 7.44, 'lipoC3S1': 4.04, 'temp': 30.63, 'lipoC3S3': 12.22, 'lipoC3S2': 8.09, 'rot1': 1125, 'rot0': 1113, 'rot3': 513, 'rot2': 458, 'state': 'normal', 'yaw': -83.47, 'datetime': '2018-10-09 12:57:09.240835', 'mgs': 0, 'volt': 0.9131, 'depth': 1.767, 'time': 539, 'pitch': 1.16, 'roll': -0.75, 'pres': 187}
{'lipoC2': 7.44, 'lipoC3S1': 4.04, 'temp': 30.63, 'lipoC3S3': 12.22, 'lipoC3S2': 8.09, 'rot1': 1125, 'rot0': 1113, 'rot3': 513, 'rot2': 458, 'state': 'normal', 'yaw': -83.32, 'datetime': '2018-10-09 12:57:09.251238', 'mgs': 0, 'volt': 0.918, 'depth': 1.843, 'time': 539, 'pitch': 1.26, 'roll': -0.86, 'pres': 188}
{'lipoC2': 7.44, 'lipoC3S1': 4.04, 'temp': 30.63, 'lipoC3S3': 12.22, 'lipoC3S2': 8.09, 'rot1': 1125, 'rot0': 1113, 'rot3': 513, 'rot2': 458, 'state': 'normal', 'yaw': -83.13, 'datetime': '2018-10-09 12:57:09.261667', 'mgs': 0, 'volt': 0.918, 'depth': 1.843, 'time': 539, 'pitch': 1.09, 'roll': -0.95, 'pres': 188}
{'lipoC2': 7.44, 'lipoC3S1': 4.04, 'temp': 30.63, 'lipoC3S3': 12.22, 'lipoC3S2': 8.09, 'rot1': 1125, 'rot0': 1113, 'rot3': 513, 'rot2': 458, 'state': 'normal', 'yaw': -82.97, 'datetime': '2018-10-09 12:57:09.272069', 'mgs': 0, 'volt': 0.918, 'depth': 1.843, 'time': 539, 'pitch': 1.03, 'roll': -0.99, 'pres': 188}
{'lipoC2': 7.44, 'lipoC3S1': 4.04, 'temp': 30.63, 'lipoC3S3': 12.22, 'lipoC3S2': 8.09, 'rot1': 1125, 'rot0': 1113, 'rot3': 513, 'rot2': 458, 'state': 'normal', 'yaw': -82.79, 'datetime': '2018-10-09 12:57:09.282830', 'mgs': 0, 'volt': 0.918, 'depth': 1.843, 'time': 539, 'pitch': 1.29, 'roll': -0.95, 'pres': 188}
{'lipoC2': 7.44, 'lipoC3S1': 4.04, 'temp': 30.63, 'lipoC3S3': 12.22, 'lipoC3S2': 8.09, 'rot1': 1125, 'rot0': 1113, 'rot3': 513, 'rot2': 458, 'state': 'normal', 'yaw': -82.65, 'datetime': '2018-10-09 12:57:09.293449', 'mgs': 0, 'volt': 0.918, 'depth': 1.843, 'time': 539, 'pitch': 1.74, 'roll': -0.89, 'pres': 188}
{'lipoC2': 7.44, 'lipoC3S1': 4.04, 'temp': 30.63, 'lipoC3S3': 12.22, 'lipoC3S2': 8.09, 'rot1': 1125, 'rot0': 1113, 'rot3': 513, 'rot2': 458, 'state': 'normal', 'yaw': -82.53, 'datetime': '2018-10-09 12:57:09.303873', 'mgs': 0, 'volt': 0.918, 'depth': 1.843, 'time': 539, 'pitch': 2.0, 'roll': -0.8, 'pres': 188}
{'lipoC2': 7.44, 'lipoC3S1': 4.04, 'temp': 30.63, 'lipoC3S3': 12.22, 'lipoC3S2': 8.09, 'rot1': 1125, 'rot0': 1113, 'rot3': 513, 'rot2': 458, 'state': 'normal', 'yaw': -82.41, 'datetime': '2018-10-09 12:57:09.314305', 'mgs': 0, 'volt': 0.918, 'depth': 1.843, 'time': 539, 'pitch': 1.56, 'roll': -0.7, 'pres': 188}
{'lipoC2': 7.44, 'lipoC3S1': 4.04, 'temp': 30.56, 'lipoC3S3': 12.22, 'lipoC3S2': 8.09, 'rot1': 1125, 'rot0': 1113, 'rot3': 513, 'rot2': 458, 'state': 'normal', 'yaw': -82.26, 'datetime': '2018-10-09 12:57:09.324715', 'mgs': 0, 'volt': 0.918, 'depth': 1.843, 'time': 539, 'pitch': 0.55, 'roll': -0.64, 'pres': 188}
{'lipoC2': 7.44, 'lipoC3S1': 4.04, 'temp': 30.56, 'lipoC3S3': 12.22, 'lipoC3S2': 8.09, 'rot1': 1125, 'rot0': 1113, 'rot3': 513, 'rot2': 458, 'state': 'normal', 'yaw': -82.06, 'datetime': '2018-10-09 12:57:09.335182', 'mgs': 0, 'volt': 0.918, 'depth': 1.843, 'time': 539, 'pitch': -0.49, 'roll': -0.68, 'pres': 188}
{'lipoC2': 7.44, 'lipoC3S1': 4.04, 'temp': 30.56, 'lipoC3S3': 12.22, 'lipoC3S2': 8.09, 'rot1': 1125, 'rot0': 1113, 'rot3': 513, 'rot2': 458, 'state': 'normal', 'yaw': -81.87, 'datetime': '2018-10-09 12:57:09.347394', 'mgs': 0, 'volt': 0.918, 'depth': 1.843, 'time': 540, 'pitch': -0.83, 'roll': -0.73, 'pres': 188}
{'lipoC2': 7.44, 'lipoC3S1': 4.04, 'temp': 30.69, 'lipoC3S3': 12.22, 'lipoC3S2': 8.09, 'rot1': 1125, 'rot0': 1113, 'rot3': 513, 'rot2': 458, 'state': 'normal', 'yaw': -81.67, 'datetime': '2018-10-09 12:57:09.358642', 'mgs': 0, 'volt': 0.918, 'depth': 1.843, 'time': 540, 'pitch': -0.44, 'roll': -0.82, 'pres': 188}
