{'lipoC2': 7.78, 'lipoC3S1': 3.9, 'temp': 28.0, 'lipoC3S3': 11.81, 'lipoC3S2': 7.81, 'rot1': 229, 'rot0': 232, 'rot3': 125, 'rot2': 110, 'state': 'normal', 'yaw': -33.18, 'datetime': '2018-10-05 20:03:09.927908', 'mgs': 0, 'volt': 0.8398, 'depth': 0.623, 'time': 725, 'pitch': -18.2, 'roll': 0.24, 'pres': 172}
{'lipoC2': 7.78, 'lipoC3S1': 3.9, 'temp': 28.0, 'lipoC3S3': 11.81, 'lipoC3S2': 7.81, 'rot1': 229, 'rot0': 232, 'rot3': 125, 'rot2': 110, 'state': 'normal', 'yaw': -33.28, 'datetime': '2018-10-05 20:03:09.952041', 'mgs': 0, 'volt': 0.8398, 'depth': 0.623, 'time': 726, 'pitch': -18.2, 'roll': 0.36, 'pres': 172}
{'lipoC2': 7.78, 'lipoC3S1': 3.9, 'temp': 28.0, 'lipoC3S3': 11.81, 'lipoC3S2': 7.8, 'rot1': 229, 'rot0': 232, 'rot3': 125, 'rot2': 110, 'state': 'normal', 'yaw': -33.39, 'datetime': '2018-10-05 20:03:09.963844', 'mgs': 0, 'volt': 0.8398, 'depth': 0.623, 'time': 726, 'pitch': -18.28, 'roll': 0.53, 'pres': 172}
{'lipoC2': 7.78, 'lipoC3S1': 3.9, 'temp': 27.94, 'lipoC3S3': 11.81, 'lipoC3S2': 7.8, 'rot1': 229, 'rot0': 232, 'rot3': 125, 'rot2': 110, 'state': 'normal', 'yaw': -33.51, 'datetime': '2018-10-05 20:03:09.975484', 'mgs': 0, 'volt': 0.8398, 'depth': 0.623, 'time': 726, 'pitch': -18.36, 'roll': 0.71, 'pres': 172}
{'lipoC2': 7.78, 'lipoC3S1': 3.9, 'temp': 27.94, 'lipoC3S3': 11.81, 'lipoC3S2': 7.81, 'rot1': 229, 'rot0': 232, 'rot3': 125, 'rot2': 110, 'state': 'normal', 'yaw': -33.63, 'datetime': '2018-10-05 20:03:09.986589', 'mgs': 0, 'volt': 0.8398, 'depth': 0.623, 'time': 726, 'pitch': -18.35, 'roll': 0.85, 'pres': 172}
{'lipoC2': 7.78, 'lipoC3S1': 3.9, 'temp': 27.94, 'lipoC3S3': 11.81, 'lipoC3S2': 7.81, 'rot1': 229, 'rot0': 232, 'rot3': 125, 'rot2': 110, 'state': 'normal', 'yaw': -33.63, 'datetime': '2018-10-05 20:03:09.997327', 'mgs': 0, 'volt': 0.8398, 'depth': 0.623, 'time': 726, 'pitch': -18.32, 'roll': 0.79, 'pres': 172}
{'lipoC2': 7.78, 'lipoC3S1': 3.9, 'temp': 28.0, 'lipoC3S3': 11.81, 'lipoC3S2': 7.81, 'rot1': 229, 'rot0': 232, 'rot3': 125, 'rot2': 110, 'state': 'normal', 'yaw': -33.61, 'datetime': '2018-10-05 20:03:10.007978', 'mgs': 0, 'volt': 0.8398, 'depth': 0.623, 'time': 726, 'pitch': -18.28, 'roll': 0.67, 'pres': 172}
{'lipoC2': 7.78, 'lipoC3S1': 3.9, 'temp': 28.0, 'lipoC3S3': 11.81, 'lipoC3S2': 7.81, 'rot1': 229, 'rot0': 232, 'rot3': 125, 'rot2': 110, 'state': 'normal', 'yaw': -33.59, 'datetime': '2018-10-05 20:03:10.018349', 'mgs': 0, 'volt': 0.8398, 'depth': 0.623, 'time': 726, 'pitch': -18.25, 'roll': 0.49, 'pres': 172}
{'lipoC2': 7.78, 'lipoC3S1': 3.9, 'temp': 28.0, 'lipoC3S3': 11.8, 'lipoC3S2': 7.8, 'rot1': 229, 'rot0': 232, 'rot3': 125, 'rot2': 110, 'state': 'normal', 'yaw': -33.57, 'datetime': '2018-10-05 20:03:10.028668', 'mgs': 0, 'volt': 0.8398, 'depth': 0.623, 'time': 726, 'pitch': -18.35, 'roll': 0.32, 'pres': 172}
{'lipoC2': 7.78, 'lipoC3S1': 3.9, 'temp': 28.0, 'lipoC3S3': 11.81, 'lipoC3S2': 7.8, 'rot1': 229, 'rot0': 232, 'rot3': 125, 'rot2': 110, 'state': 'normal', 'yaw': -33.56, 'datetime': '2018-10-05 20:03:10.038835', 'mgs': 0, 'volt': 0.8398, 'depth': 0.623, 'time': 726, 'pitch': -18.48, 'roll': 0.24, 'pres': 172}
{'lipoC2': 7.77, 'lipoC3S1': 3.9, 'temp': 27.94, 'lipoC3S3': 11.81, 'lipoC3S2': 7.8, 'rot1': 229, 'rot0': 232, 'rot3': 125, 'rot2': 110, 'state': 'normal', 'yaw': -33.55, 'datetime': '2018-10-05 20:03:10.049140', 'mgs': 0, 'volt': 0.8398, 'depth': 0.623, 'time': 726, 'pitch': -18.53, 'roll': 0.21, 'pres': 172}
{'lipoC2': 7.77, 'lipoC3S1': 3.9, 'temp': 27.94, 'lipoC3S3': 11.81, 'lipoC3S2': 7.8, 'rot1': 229, 'rot0': 232, 'rot3': 125, 'rot2': 110, 'state': 'normal', 'yaw': -33.54, 'datetime': '2018-10-05 20:03:10.059401', 'mgs': 0, 'volt': 0.8398, 'depth': 0.623, 'time': 727, 'pitch': -18.49, 'roll': 0.25, 'pres': 172}
{'lipoC2': 7.77, 'lipoC3S1': 3.9, 'temp': 27.94, 'lipoC3S3': 11.8, 'lipoC3S2': 7.8, 'rot1': 229, 'rot0': 232, 'rot3': 125, 'rot2': 110, 'state': 'normal', 'yaw': -33.56, 'datetime': '2018-10-05 20:03:10.070670', 'mgs': 0, 'volt': 0.8398, 'depth': 0.623, 'time': 727, 'pitch': -18.35, 'roll': 0.36, 'pres': 172}
{'lipoC2': 7.77, 'lipoC3S1': 3.9, 'temp': 27.94, 'lipoC3S3': 11.81, 'lipoC3S2': 7.8, 'rot1': 229, 'rot0': 232, 'rot3': 125, 'rot2': 110, 'state': 'normal', 'yaw': -33.61, 'datetime': '2018-10-05 20:03:10.081783', 'mgs': 0, 'volt': 0.8398, 'depth': 0.623, 'time': 727, 'pitch': -18.18, 'roll': 0.44, 'pres': 172}
{'lipoC2': 7.77, 'lipoC3S1': 3.9, 'temp': 27.94, 'lipoC3S3': 11.8, 'lipoC3S2': 7.8, 'rot1': 229, 'rot0': 232, 'rot3': 125, 'rot2': 110, 'state': 'normal', 'yaw': -33.59, 'datetime': '2018-10-05 20:03:10.092264', 'mgs': 0, 'volt': 0.8398, 'depth': 0.623, 'time': 727, 'pitch': -18.09, 'roll': 0.4, 'pres': 172}
{'lipoC2': 7.77, 'lipoC3S1': 3.9, 'temp': 28.0, 'lipoC3S3': 11.81, 'lipoC3S2': 7.8, 'rot1': 229, 'rot0': 232, 'rot3': 125, 'rot2': 110, 'state': 'normal', 'yaw': -33.57, 'datetime': '2018-10-05 20:03:10.102610', 'mgs': 0, 'volt': 0.8398, 'depth': 0.623, 'time': 727, 'pitch': -18.12, 'roll': 0.35, 'pres': 172}
{'lipoC2': 7.77, 'lipoC3S1': 3.9, 'temp': 28.0, 'lipoC3S3': 11.81, 'lipoC3S2': 7.8, 'rot1': 229, 'rot0': 232, 'rot3': 125, 'rot2': 110, 'state': 'normal', 'yaw': -33.57, 'datetime': '2018-10-05 20:03:10.112902', 'mgs': 0, 'volt': 0.8398, 'depth': 0.623, 'time': 727, 'pitch': -18.22, 'roll': 0.31, 'pres': 172}
{'lipoC2': 7.77, 'lipoC3S1': 3.9, 'temp': 28.0, 'lipoC3S3': 11.81, 'lipoC3S2': 7.8, 'rot1': 229, 'rot0': 232, 'rot3': 125, 'rot2': 110, 'state': 'normal', 'yaw': -33.55, 'datetime': '2018-10-05 20:03:10.123029', 'mgs': 0, 'volt': 0.8398, 'depth': 0.623, 'time': 727, 'pitch': -18.35, 'roll': 0.28, 'pres': 172}
{'lipoC2': 7.77, 'lipoC3S1': 3.9, 'temp': 28.0, 'lipoC3S3': 11.8, 'lipoC3S2': 7.8, 'rot1': 229, 'rot0': 232, 'rot3': 125, 'rot2': 110, 'state': 'normal', 'yaw': -33.55, 'datetime': '2018-10-05 20:03:10.133318', 'mgs': 0, 'volt': 0.8398, 'depth': 0.623, 'time': 727, 'pitch': -18.39, 'roll': 0.25, 'pres': 172}
{'lipoC2': 7.77, 'lipoC3S1': 3.9, 'temp': 28.0, 'lipoC3S3': 11.8, 'lipoC3S2': 7.8, 'rot1': 229, 'rot0': 232, 'rot3': 125, 'rot2': 110, 'state': 'normal', 'yaw': -33.53, 'datetime': '2018-10-05 20:03:10.143585', 'mgs': 0, 'volt': 0.8398, 'depth': 0.623, 'time': 727, 'pitch': -18.34, 'roll': 0.25, 'pres': 172}
{'lipoC2': 7.77, 'lipoC3S1': 3.9, 'temp': 27.94, 'lipoC3S3': 11.8, 'lipoC3S2': 7.8, 'rot1': 229, 'rot0': 232, 'rot3': 125, 'rot2': 110, 'state': 'normal', 'yaw': -33.59, 'datetime': '2018-10-05 20:03:10.153867', 'mgs': 0, 'volt': 0.8398, 'depth': 0.623, 'time': 727, 'pitch': -18.22, 'roll': 0.26, 'pres': 172}
{'lipoC2': 7.77, 'lipoC3S1': 3.9, 'temp': 27.94, 'lipoC3S3': 11.81, 'lipoC3S2': 7.8, 'rot1': 229, 'rot0': 232, 'rot3': 125, 'rot2': 110, 'state': 'normal', 'yaw': -33.65, 'datetime': '2018-10-05 20:03:10.164029', 'mgs': 0, 'volt': 0.8398, 'depth': 0.623, 'time': 728, 'pitch': -18.12, 'roll': 0.25, 'pres': 172}
{'lipoC2': 7.77, 'lipoC3S1': 3.9, 'temp': 27.94, 'lipoC3S3': 11.8, 'lipoC3S2': 7.8, 'rot1': 229, 'rot0': 232, 'rot3': 125, 'rot2': 110, 'state': 'normal', 'yaw': -33.73, 'datetime': '2018-10-05 20:03:10.175244', 'mgs': 0, 'volt': 0.8398, 'depth': 0.623, 'time': 728, 'pitch': -18.12, 'roll': 0.24, 'pres': 172}
{'lipoC2': 7.77, 'lipoC3S1': 3.9, 'temp': 27.94, 'lipoC3S3': 11.81, 'lipoC3S2': 7.8, 'rot1': 229, 'rot0': 232, 'rot3': 125, 'rot2': 110, 'state': 'normal', 'yaw': -33.82, 'datetime': '2018-10-05 20:03:10.187393', 'mgs': 0, 'volt': 0.8398, 'depth': 0.623, 'time': 728, 'pitch': -18.23, 'roll': 0.26, 'pres': 172}
{'lipoC2': 7.77, 'lipoC3S1': 3.9, 'temp': 28.0, 'lipoC3S3': 11.81, 'lipoC3S2': 7.8, 'rot1': 229, 'rot0': 232, 'rot3': 125, 'rot2': 110, 'state': 'normal', 'yaw': -33.92, 'datetime': '2018-10-05 20:03:10.291802', 'mgs': 0, 'volt': 0.8398, 'depth': 0.623, 'time': 728, 'pitch': -18.36, 'roll': 0.3, 'pres': 172}
{'lipoC2': 7.77, 'lipoC3S1': 3.9, 'temp': 28.0, 'lipoC3S3': 11.81, 'lipoC3S2': 7.8, 'rot1': 229, 'rot0': 232, 'rot3': 125, 'rot2': 110, 'state': 'normal', 'yaw': -33.99, 'datetime': '2018-10-05 20:03:10.397390', 'mgs': 0, 'volt': 0.8398, 'depth': 0.623, 'time': 728, 'pitch': -18.36, 'roll': 0.32, 'pres': 172}
{'lipoC2': 7.77, 'lipoC3S1': 3.9, 'temp': 28.0, 'lipoC3S3': 11.81, 'lipoC3S2': 7.8, 'rot1': 229, 'rot0': 232, 'rot3': 125, 'rot2': 110, 'state': 'normal', 'yaw': -33.99, 'datetime': '2018-10-05 20:03:10.501747', 'mgs': 0, 'volt': 0.8398, 'depth': 0.623, 'time': 728, 'pitch': -18.36, 'roll': 0.32, 'pres': 172}
{'lipoC2': 7.77, 'lipoC3S1': 3.9, 'temp': 28.0, 'lipoC3S3': 11.8, 'lipoC3S2': 7.8, 'rot1': 229, 'rot0': 232, 'rot3': 125, 'rot2': 110, 'state': 'normal', 'yaw': -34.0, 'datetime': '2018-10-05 20:03:10.607399', 'mgs': 0, 'volt': 0.8398, 'depth': 0.623, 'time': 728, 'pitch': -18.29, 'roll': 0.32, 'pres': 172}
{'lipoC2': 7.77, 'lipoC3S1': 3.9, 'temp': 28.0, 'lipoC3S3': 11.81, 'lipoC3S2': 7.8, 'rot1': 229, 'rot0': 232, 'rot3': 125, 'rot2': 110, 'state': 'normal', 'yaw': -34.0, 'datetime': '2018-10-05 20:03:10.716072', 'mgs': 0, 'volt': 0.8398, 'depth': 0.623, 'time': 728, 'pitch': -18.24, 'roll': 0.33, 'pres': 172}
{'lipoC2': 7.77, 'lipoC3S1': 3.9, 'temp': 28.0, 'lipoC3S3': 11.81, 'lipoC3S2': 7.8, 'rot1': 229, 'rot0': 232, 'rot3': 125, 'rot2': 110, 'state': 'normal', 'yaw': -33.98, 'datetime': '2018-10-05 20:03:10.820335', 'mgs': 0, 'volt': 0.8398, 'depth': 0.623, 'time': 728, 'pitch': -18.25, 'roll': 0.29, 'pres': 172}
{'lipoC2': 7.77, 'lipoC3S1': 3.9, 'temp': 28.0, 'lipoC3S3': 11.8, 'lipoC3S2': 7.8, 'rot1': 229, 'rot0': 232, 'rot3': 125, 'rot2': 110, 'state': 'normal', 'yaw': -33.95, 'datetime': '2018-10-05 20:03:10.931300', 'mgs': 0, 'volt': 0.8398, 'depth': 0.623, 'time': 729, 'pitch': -18.25, 'roll': 0.22, 'pres': 172}
{'lipoC2': 7.77, 'lipoC3S1': 3.9, 'temp': 27.94, 'lipoC3S3': 11.8, 'lipoC3S2': 7.8, 'rot1': 229, 'rot0': 232, 'rot3': 125, 'rot2': 110, 'state': 'normal', 'yaw': -33.96, 'datetime': '2018-10-05 20:03:11.035782', 'mgs': 0, 'volt': 0.8398, 'depth': 0.623, 'time': 729, 'pitch': -18.32, 'roll': 0.22, 'pres': 172}
{'lipoC2': 7.77, 'lipoC3S1': 3.9, 'temp': 27.94, 'lipoC3S3': 11.81, 'lipoC3S2': 7.8, 'rot1': 229, 'rot0': 232, 'rot3': 125, 'rot2': 110, 'state': 'normal', 'yaw': -33.95, 'datetime': '2018-10-05 20:03:11.141183', 'mgs': 0, 'volt': 0.8398, 'depth': 0.623, 'time': 729, 'pitch': -18.33, 'roll': 0.25, 'pres': 172}
{'lipoC2': 7.77, 'lipoC3S1': 3.9, 'temp': 27.94, 'lipoC3S3': 11.8, 'lipoC3S2': 7.8, 'rot1': 229, 'rot0': 232, 'rot3': 125, 'rot2': 110, 'state': 'normal', 'yaw': -33.95, 'datetime': '2018-10-05 20:03:11.245427', 'mgs': 0, 'volt': 0.8398, 'depth': 0.623, 'time': 729, 'pitch': -18.33, 'roll': 0.38, 'pres': 172}
{'lipoC2': 7.77, 'lipoC3S1': 3.9, 'temp': 27.94, 'lipoC3S3': 11.81, 'lipoC3S2': 7.8, 'rot1': 229, 'rot0': 232, 'rot3': 125, 'rot2': 110, 'state': 'normal', 'yaw': -34.03, 'datetime': '2018-10-05 20:03:11.350742', 'mgs': 0, 'volt': 0.8398, 'depth': 0.623, 'time': 729, 'pitch': -18.31, 'roll': 0.52, 'pres': 172}
{'lipoC2': 7.77, 'lipoC3S1': 3.9, 'temp': 27.94, 'lipoC3S3': 11.8, 'lipoC3S2': 7.8, 'rot1': 229, 'rot0': 232, 'rot3': 125, 'rot2': 110, 'state': 'normal', 'yaw': -34.1, 'datetime': '2018-10-05 20:03:11.454842', 'mgs': 0, 'volt': 0.8398, 'depth': 0.623, 'time': 729, 'pitch': -18.22, 'roll': 0.6, 'pres': 172}
{'lipoC2': 7.77, 'lipoC3S1': 3.9, 'temp': 27.94, 'lipoC3S3': 11.8, 'lipoC3S2': 7.8, 'rot1': 229, 'rot0': 232, 'rot3': 125, 'rot2': 110, 'state': 'normal', 'yaw': -34.18, 'datetime': '2018-10-05 20:03:11.560444', 'mgs': 0, 'volt': 0.8398, 'depth': 0.623, 'time': 729, 'pitch': -18.17, 'roll': 0.57, 'pres': 172}
{'lipoC2': 7.77, 'lipoC3S1': 3.9, 'temp': 27.94, 'lipoC3S3': 11.8, 'lipoC3S2': 7.8, 'rot1': 229, 'rot0': 232, 'rot3': 125, 'rot2': 110, 'state': 'normal', 'yaw': -34.27, 'datetime': '2018-10-05 20:03:11.664783', 'mgs': 0, 'volt': 0.8447, 'depth': 0.699, 'time': 729, 'pitch': -18.19, 'roll': 0.54, 'pres': 173}
{'lipoC2': 7.77, 'lipoC3S1': 3.9, 'temp': 27.94, 'lipoC3S3': 11.81, 'lipoC3S2': 7.8, 'rot1': 229, 'rot0': 232, 'rot3': 125, 'rot2': 110, 'state': 'normal', 'yaw': -34.36, 'datetime': '2018-10-05 20:03:11.770556', 'mgs': 0, 'volt': 0.8398, 'depth': 0.623, 'time': 729, 'pitch': -18.31, 'roll': 0.53, 'pres': 172}
{'lipoC2': 7.77, 'lipoC3S1': 3.9, 'temp': 27.94, 'lipoC3S3': 11.8, 'lipoC3S2': 7.8, 'rot1': 229, 'rot0': 232, 'rot3': 125, 'rot2': 110, 'state': 'normal', 'yaw': -34.44, 'datetime': '2018-10-05 20:03:11.874850', 'mgs': 0, 'volt': 0.8398, 'depth': 0.623, 'time': 729, 'pitch': -18.39, 'roll': 0.51, 'pres': 172}
{'lipoC2': 7.77, 'lipoC3S1': 3.9, 'temp': 28.0, 'lipoC3S3': 11.8, 'lipoC3S2': 7.8, 'rot1': 229, 'rot0': 232, 'rot3': 125, 'rot2': 110, 'state': 'normal', 'yaw': -34.49, 'datetime': '2018-10-05 20:03:11.979286', 'mgs': 0, 'volt': 0.8398, 'depth': 0.623, 'time': 730, 'pitch': -18.4, 'roll': 0.48, 'pres': 172}
{'lipoC2': 7.78, 'lipoC3S1': 3.9, 'temp': 28.0, 'lipoC3S3': 11.8, 'lipoC3S2': 7.8, 'rot1': 229, 'rot0': 232, 'rot3': 125, 'rot2': 110, 'state': 'normal', 'yaw': -34.48, 'datetime': '2018-10-05 20:03:12.084198', 'mgs': 0, 'volt': 0.8398, 'depth': 0.623, 'time': 730, 'pitch': -18.4, 'roll': 0.43, 'pres': 172}
{'lipoC2': 7.77, 'lipoC3S1': 3.9, 'temp': 28.0, 'lipoC3S3': 11.8, 'lipoC3S2': 7.8, 'rot1': 229, 'rot0': 232, 'rot3': 125, 'rot2': 110, 'state': 'normal', 'yaw': -34.45, 'datetime': '2018-10-05 20:03:12.188891', 'mgs': 0, 'volt': 0.8398, 'depth': 0.623, 'time': 730, 'pitch': -18.31, 'roll': 0.38, 'pres': 172}
{'lipoC2': 7.77, 'lipoC3S1': 3.9, 'temp': 27.94, 'lipoC3S3': 11.81, 'lipoC3S2': 7.8, 'rot1': 229, 'rot0': 232, 'rot3': 125, 'rot2': 110, 'state': 'normal', 'yaw': -34.44, 'datetime': '2018-10-05 20:03:12.293995', 'mgs': 0, 'volt': 0.835, 'depth': 0.546, 'time': 730, 'pitch': -18.2, 'roll': 0.32, 'pres': 171}
{'lipoC2': 7.77, 'lipoC3S1': 3.9, 'temp': 27.94, 'lipoC3S3': 11.8, 'lipoC3S2': 7.8, 'rot1': 229, 'rot0': 232, 'rot3': 125, 'rot2': 110, 'state': 'normal', 'yaw': -34.42, 'datetime': '2018-10-05 20:03:12.398330', 'mgs': 0, 'volt': 0.8398, 'depth': 0.623, 'time': 730, 'pitch': -18.11, 'roll': 0.26, 'pres': 172}
{'lipoC2': 7.77, 'lipoC3S1': 3.9, 'temp': 27.94, 'lipoC3S3': 11.81, 'lipoC3S2': 7.8, 'rot1': 229, 'rot0': 232, 'rot3': 125, 'rot2': 110, 'state': 'normal', 'yaw': -34.4, 'datetime': '2018-10-05 20:03:12.504132', 'mgs': 0, 'volt': 0.8398, 'depth': 0.623, 'time': 730, 'pitch': -18.08, 'roll': 0.21, 'pres': 172}
{'lipoC2': 7.77, 'lipoC3S1': 3.9, 'temp': 27.94, 'lipoC3S3': 11.8, 'lipoC3S2': 7.8, 'rot1': 229, 'rot0': 232, 'rot3': 125, 'rot2': 110, 'state': 'normal', 'yaw': -34.4, 'datetime': '2018-10-05 20:03:12.608425', 'mgs': 0, 'volt': 0.8398, 'depth': 0.623, 'time': 730, 'pitch': -18.07, 'roll': 0.22, 'pres': 172}
{'lipoC2': 7.77, 'lipoC3S1': 3.9, 'temp': 28.0, 'lipoC3S3': 11.8, 'lipoC3S2': 7.8, 'rot1': 229, 'rot0': 232, 'rot3': 125, 'rot2': 110, 'state': 'normal', 'yaw': -34.4, 'datetime': '2018-10-05 20:03:12.713944', 'mgs': 0, 'volt': 0.8398, 'depth': 0.623, 'time': 730, 'pitch': -18.16, 'roll': 0.3, 'pres': 172}
{'lipoC2': 7.77, 'lipoC3S1': 3.9, 'temp': 28.0, 'lipoC3S3': 11.8, 'lipoC3S2': 7.8, 'rot1': 229, 'rot0': 232, 'rot3': 125, 'rot2': 110, 'state': 'normal', 'yaw': -34.41, 'datetime': '2018-10-05 20:03:12.820847', 'mgs': 0, 'volt': 0.8398, 'depth': 0.623, 'time': 730, 'pitch': -18.28, 'roll': 0.42, 'pres': 172}
{'lipoC2': 7.77, 'lipoC3S1': 3.9, 'temp': 28.0, 'lipoC3S3': 11.8, 'lipoC3S2': 7.8, 'rot1': 229, 'rot0': 232, 'rot3': 125, 'rot2': 110, 'state': 'normal', 'yaw': -34.41, 'datetime': '2018-10-05 20:03:12.923931', 'mgs': 0, 'volt': 0.8398, 'depth': 0.623, 'time': 731, 'pitch': -18.33, 'roll': 0.54, 'pres': 172}
{'lipoC2': 7.77, 'lipoC3S1': 3.9, 'temp': 27.94, 'lipoC3S3': 11.8, 'lipoC3S2': 7.8, 'rot1': 229, 'rot0': 232, 'rot3': 125, 'rot2': 110, 'state': 'normal', 'yaw': -34.41, 'datetime': '2018-10-05 20:03:13.028172', 'mgs': 0, 'volt': 0.8398, 'depth': 0.623, 'time': 731, 'pitch': -18.33, 'roll': 0.6, 'pres': 172}
{'lipoC2': 7.77, 'lipoC3S1': 3.9, 'temp': 27.94, 'lipoC3S3': 11.8, 'lipoC3S2': 7.8, 'rot1': 229, 'rot0': 232, 'rot3': 125, 'rot2': 110, 'state': 'normal', 'yaw': -34.41, 'datetime': '2018-10-05 20:03:13.132484', 'mgs': 0, 'volt': 0.8398, 'depth': 0.623, 'time': 731, 'pitch': -18.32, 'roll': 0.58, 'pres': 172}
{'lipoC2': 7.77, 'lipoC3S1': 3.9, 'temp': 27.94, 'lipoC3S3': 11.8, 'lipoC3S2': 7.8, 'rot1': 229, 'rot0': 232, 'rot3': 125, 'rot2': 110, 'state': 'normal', 'yaw': -34.39, 'datetime': '2018-10-05 20:03:13.237204', 'mgs': 0, 'volt': 0.8398, 'depth': 0.623, 'time': 731, 'pitch': -18.3, 'roll': 0.52, 'pres': 172}
{'lipoC2': 7.77, 'lipoC3S1': 3.9, 'temp': 27.94, 'lipoC3S3': 11.81, 'lipoC3S2': 7.8, 'rot1': 229, 'rot0': 232, 'rot3': 125, 'rot2': 110, 'state': 'normal', 'yaw': -34.38, 'datetime': '2018-10-05 20:03:13.341465', 'mgs': 0, 'volt': 0.8398, 'depth': 0.623, 'time': 731, 'pitch': -18.29, 'roll': 0.47, 'pres': 172}
{'lipoC2': 7.77, 'lipoC3S1': 3.9, 'temp': 27.94, 'lipoC3S3': 11.8, 'lipoC3S2': 7.8, 'rot1': 229, 'rot0': 232, 'rot3': 125, 'rot2': 110, 'state': 'normal', 'yaw': -34.36, 'datetime': '2018-10-05 20:03:13.447240', 'mgs': 0, 'volt': 0.8398, 'depth': 0.623, 'time': 731, 'pitch': -18.29, 'roll': 0.44, 'pres': 172}
{'lipoC2': 7.77, 'lipoC3S1': 3.9, 'temp': 27.94, 'lipoC3S3': 11.81, 'lipoC3S2': 7.8, 'rot1': 229, 'rot0': 232, 'rot3': 125, 'rot2': 110, 'state': 'normal', 'yaw': -34.35, 'datetime': '2018-10-05 20:03:13.551361', 'mgs': 0, 'volt': 0.8398, 'depth': 0.623, 'time': 731, 'pitch': -18.28, 'roll': 0.39, 'pres': 172}
{'lipoC2': 7.77, 'lipoC3S1': 3.9, 'temp': 27.94, 'lipoC3S3': 11.8, 'lipoC3S2': 7.8, 'rot1': 229, 'rot0': 232, 'rot3': 125, 'rot2': 110, 'state': 'normal', 'yaw': -34.36, 'datetime': '2018-10-05 20:03:13.656841', 'mgs': 0, 'volt': 0.8398, 'depth': 0.623, 'time': 731, 'pitch': -18.28, 'roll': 0.37, 'pres': 172}
{'lipoC2': 7.77, 'lipoC3S1': 3.9, 'temp': 27.94, 'lipoC3S3': 11.8, 'lipoC3S2': 7.8, 'rot1': 229, 'rot0': 232, 'rot3': 125, 'rot2': 110, 'state': 'normal', 'yaw': -34.44, 'datetime': '2018-10-05 20:03:13.761238', 'mgs': 0, 'volt': 0.8398, 'depth': 0.623, 'time': 731, 'pitch': -18.29, 'roll': 0.35, 'pres': 172}
{'lipoC2': 7.77, 'lipoC3S1': 3.9, 'temp': 27.94, 'lipoC3S3': 11.8, 'lipoC3S2': 7.8, 'rot1': 229, 'rot0': 232, 'rot3': 125, 'rot2': 110, 'state': 'normal', 'yaw': -34.43, 'datetime': '2018-10-05 20:03:13.866785', 'mgs': 0, 'volt': 0.8398, 'depth': 0.623, 'time': 731, 'pitch': -18.28, 'roll': 0.33, 'pres': 172}
{'lipoC2': 7.77, 'lipoC3S1': 3.9, 'temp': 27.88, 'lipoC3S3': 11.8, 'lipoC3S2': 7.8, 'rot1': 229, 'rot0': 232, 'rot3': 125, 'rot2': 110, 'state': 'normal', 'yaw': -34.43, 'datetime': '2018-10-05 20:03:13.971114', 'mgs': 0, 'volt': 0.8398, 'depth': 0.623, 'time': 732, 'pitch': -18.27, 'roll': 0.29, 'pres': 172}
{'lipoC2': 7.77, 'lipoC3S1': 3.9, 'temp': 27.88, 'lipoC3S3': 11.81, 'lipoC3S2': 7.8, 'rot1': 229, 'rot0': 232, 'rot3': 125, 'rot2': 110, 'state': 'normal', 'yaw': -34.42, 'datetime': '2018-10-05 20:03:14.076715', 'mgs': 0, 'volt': 0.8398, 'depth': 0.623, 'time': 732, 'pitch': -18.26, 'roll': 0.32, 'pres': 172}
{'lipoC2': 7.77, 'lipoC3S1': 3.9, 'temp': 27.94, 'lipoC3S3': 11.8, 'lipoC3S2': 7.8, 'rot1': 229, 'rot0': 232, 'rot3': 125, 'rot2': 110, 'state': 'normal', 'yaw': -34.41, 'datetime': '2018-10-05 20:03:14.181035', 'mgs': 0, 'volt': 0.8398, 'depth': 0.623, 'time': 732, 'pitch': -18.22, 'roll': 0.36, 'pres': 172}
{'lipoC2': 7.77, 'lipoC3S1': 3.9, 'temp': 27.94, 'lipoC3S3': 11.8, 'lipoC3S2': 7.8, 'rot1': 229, 'rot0': 232, 'rot3': 125, 'rot2': 110, 'state': 'normal', 'yaw': -34.41, 'datetime': '2018-10-05 20:03:14.285410', 'mgs': 0, 'volt': 0.8398, 'depth': 0.623, 'time': 732, 'pitch': -18.17, 'roll': 0.36, 'pres': 172}
{'lipoC2': 7.77, 'lipoC3S1': 3.9, 'temp': 27.94, 'lipoC3S3': 11.8, 'lipoC3S2': 7.8, 'rot1': 229, 'rot0': 232, 'rot3': 125, 'rot2': 110, 'state': 'normal', 'yaw': -34.41, 'datetime': '2018-10-05 20:03:14.390166', 'mgs': 0, 'volt': 0.8398, 'depth': 0.623, 'time': 732, 'pitch': -18.16, 'roll': 0.33, 'pres': 172}
{'lipoC2': 7.77, 'lipoC3S1': 3.9, 'temp': 27.94, 'lipoC3S3': 11.81, 'lipoC3S2': 7.8, 'rot1': 229, 'rot0': 232, 'rot3': 125, 'rot2': 110, 'state': 'normal', 'yaw': -34.42, 'datetime': '2018-10-05 20:03:14.494229', 'mgs': 0, 'volt': 0.8398, 'depth': 0.623, 'time': 732, 'pitch': -18.16, 'roll': 0.25, 'pres': 172}
{'lipoC2': 7.77, 'lipoC3S1': 3.9, 'temp': 27.94, 'lipoC3S3': 11.8, 'lipoC3S2': 7.8, 'rot1': 229, 'rot0': 232, 'rot3': 125, 'rot2': 110, 'state': 'normal', 'yaw': -34.41, 'datetime': '2018-10-05 20:03:14.599684', 'mgs': 0, 'volt': 0.8398, 'depth': 0.623, 'time': 732, 'pitch': -18.16, 'roll': 0.15, 'pres': 172}
{'lipoC2': 7.77, 'lipoC3S1': 3.9, 'temp': 27.94, 'lipoC3S3': 11.81, 'lipoC3S2': 7.8, 'rot1': 229, 'rot0': 232, 'rot3': 125, 'rot2': 110, 'state': 'normal', 'yaw': -34.41, 'datetime': '2018-10-05 20:03:14.703994', 'mgs': 0, 'volt': 0.8398, 'depth': 0.623, 'time': 732, 'pitch': -18.16, 'roll': 0.11, 'pres': 172}
{'lipoC2': 7.77, 'lipoC3S1': 3.9, 'temp': 27.94, 'lipoC3S3': 11.8, 'lipoC3S2': 7.8, 'rot1': 229, 'rot0': 232, 'rot3': 125, 'rot2': 110, 'state': 'normal', 'yaw': -34.41, 'datetime': '2018-10-05 20:03:14.809712', 'mgs': 0, 'volt': 0.8398, 'depth': 0.623, 'time': 732, 'pitch': -18.16, 'roll': 0.11, 'pres': 172}
{'lipoC2': 7.77, 'lipoC3S1': 3.9, 'temp': 27.94, 'lipoC3S3': 11.8, 'lipoC3S2': 7.8, 'rot1': 229, 'rot0': 232, 'rot3': 125, 'rot2': 110, 'state': 'normal', 'yaw': -34.41, 'datetime': '2018-10-05 20:03:14.914137', 'mgs': 0, 'volt': 0.8398, 'depth': 0.623, 'time': 733, 'pitch': -18.16, 'roll': 0.11, 'pres': 172}
{'lipoC2': 7.77, 'lipoC3S1': 3.9, 'temp': 27.94, 'lipoC3S3': 11.81, 'lipoC3S2': 7.8, 'rot1': 229, 'rot0': 232, 'rot3': 125, 'rot2': 110, 'state': 'normal', 'yaw': -34.41, 'datetime': '2018-10-05 20:03:15.019790', 'mgs': 0, 'volt': 0.8398, 'depth': 0.623, 'time': 733, 'pitch': -18.16, 'roll': 0.11, 'pres': 172}
{'lipoC2': 7.77, 'lipoC3S1': 3.9, 'temp': 27.94, 'lipoC3S3': 11.8, 'lipoC3S2': 7.8, 'rot1': 229, 'rot0': 232, 'rot3': 125, 'rot2': 110, 'state': 'normal', 'yaw': -34.4, 'datetime': '2018-10-05 20:03:15.123946', 'mgs': 0, 'volt': 0.8398, 'depth': 0.623, 'time': 733, 'pitch': -18.14, 'roll': 0.12, 'pres': 172}
{'lipoC2': 7.77, 'lipoC3S1': 3.9, 'temp': 27.94, 'lipoC3S3': 11.8, 'lipoC3S2': 7.8, 'rot1': 229, 'rot0': 232, 'rot3': 125, 'rot2': 110, 'state': 'normal', 'yaw': -34.4, 'datetime': '2018-10-05 20:03:15.229686', 'mgs': 0, 'volt': 0.8398, 'depth': 0.623, 'time': 733, 'pitch': -18.06, 'roll': 0.12, 'pres': 172}
{'lipoC2': 7.77, 'lipoC3S1': 3.9, 'temp': 27.94, 'lipoC3S3': 11.8, 'lipoC3S2': 7.8, 'rot1': 229, 'rot0': 232, 'rot3': 125, 'rot2': 110, 'state': 'normal', 'yaw': -34.41, 'datetime': '2018-10-05 20:03:15.333945', 'mgs': 0, 'volt': 0.8398, 'depth': 0.623, 'time': 733, 'pitch': -18.03, 'roll': 0.12, 'pres': 172}
{'lipoC2': 7.77, 'lipoC3S1': 3.9, 'temp': 27.94, 'lipoC3S3': 11.8, 'lipoC3S2': 7.8, 'rot1': 229, 'rot0': 232, 'rot3': 125, 'rot2': 110, 'state': 'normal', 'yaw': -34.45, 'datetime': '2018-10-05 20:03:15.438388', 'mgs': 0, 'volt': 0.8398, 'depth': 0.623, 'time': 733, 'pitch': -18.03, 'roll': 0.13, 'pres': 172}
{'lipoC2': 7.77, 'lipoC3S1': 3.9, 'temp': 27.94, 'lipoC3S3': 11.8, 'lipoC3S2': 7.8, 'rot1': 229, 'rot0': 232, 'rot3': 125, 'rot2': 110, 'state': 'normal', 'yaw': -34.46, 'datetime': '2018-10-05 20:03:15.542867', 'mgs': 0, 'volt': 0.8398, 'depth': 0.623, 'time': 733, 'pitch': -18.05, 'roll': 0.13, 'pres': 172}
{'lipoC2': 7.77, 'lipoC3S1': 3.9, 'temp': 27.94, 'lipoC3S3': 11.8, 'lipoC3S2': 7.8, 'rot1': 229, 'rot0': 232, 'rot3': 125, 'rot2': 110, 'state': 'normal', 'yaw': -34.46, 'datetime': '2018-10-05 20:03:15.647325', 'mgs': 0, 'volt': 0.8398, 'depth': 0.623, 'time': 733, 'pitch': -18.14, 'roll': 0.14, 'pres': 172}
{'lipoC2': 7.77, 'lipoC3S1': 3.9, 'temp': 27.94, 'lipoC3S3': 11.8, 'lipoC3S2': 7.8, 'rot1': 229, 'rot0': 232, 'rot3': 125, 'rot2': 110, 'state': 'normal', 'yaw': -34.46, 'datetime': '2018-10-05 20:03:15.752612', 'mgs': 0, 'volt': 0.8398, 'depth': 0.623, 'time': 733, 'pitch': -18.21, 'roll': 0.13, 'pres': 172}
{'lipoC2': 7.77, 'lipoC3S1': 3.9, 'temp': 27.94, 'lipoC3S3': 11.81, 'lipoC3S2': 7.8, 'rot1': 229, 'rot0': 232, 'rot3': 125, 'rot2': 110, 'state': 'normal', 'yaw': -34.47, 'datetime': '2018-10-05 20:03:15.850534', 'mgs': 0, 'volt': 0.8398, 'depth': 0.623, 'time': 733, 'pitch': -18.23, 'roll': 0.12, 'pres': 172}
{'lipoC2': 7.77, 'lipoC3S1': 3.9, 'temp': 27.94, 'lipoC3S3': 11.8, 'lipoC3S2': 7.8, 'rot1': 229, 'rot0': 232, 'rot3': 125, 'rot2': 110, 'state': 'normal', 'yaw': -34.46, 'datetime': '2018-10-05 20:03:15.962999', 'mgs': 0, 'volt': 0.8398, 'depth': 0.623, 'time': 734, 'pitch': -18.23, 'roll': 0.03, 'pres': 172}
{'lipoC2': 7.77, 'lipoC3S1': 3.9, 'temp': 27.94, 'lipoC3S3': 11.81, 'lipoC3S2': 7.8, 'rot1': 229, 'rot0': 232, 'rot3': 125, 'rot2': 110, 'state': 'normal', 'yaw': -34.39, 'datetime': '2018-10-05 20:03:16.060487', 'mgs': 0, 'volt': 0.8398, 'depth': 0.623, 'time': 734, 'pitch': -18.23, 'roll': -0.1, 'pres': 172}
{'lipoC2': 7.77, 'lipoC3S1': 3.9, 'temp': 27.94, 'lipoC3S3': 11.8, 'lipoC3S2': 7.8, 'rot1': 229, 'rot0': 232, 'rot3': 125, 'rot2': 110, 'state': 'normal', 'yaw': -34.39, 'datetime': '2018-10-05 20:03:16.165914', 'mgs': 0, 'volt': 0.8398, 'depth': 0.623, 'time': 734, 'pitch': -18.22, 'roll': -0.18, 'pres': 172}
{'lipoC2': 7.77, 'lipoC3S1': 3.9, 'temp': 27.94, 'lipoC3S3': 11.8, 'lipoC3S2': 7.8, 'rot1': 229, 'rot0': 232, 'rot3': 125, 'rot2': 110, 'state': 'normal', 'yaw': -34.39, 'datetime': '2018-10-05 20:03:16.270411', 'mgs': 0, 'volt': 0.8398, 'depth': 0.623, 'time': 734, 'pitch': -18.22, 'roll': -0.18, 'pres': 172}
{'lipoC2': 7.77, 'lipoC3S1': 3.9, 'temp': 27.94, 'lipoC3S3': 11.8, 'lipoC3S2': 7.8, 'rot1': 229, 'rot0': 232, 'rot3': 125, 'rot2': 110, 'state': 'normal', 'yaw': -34.37, 'datetime': '2018-10-05 20:03:16.375773', 'mgs': 0, 'volt': 0.8398, 'depth': 0.623, 'time': 734, 'pitch': -18.22, 'roll': -0.18, 'pres': 172}
{'lipoC2': 7.77, 'lipoC3S1': 3.9, 'temp': 27.94, 'lipoC3S3': 11.8, 'lipoC3S2': 7.8, 'rot1': 229, 'rot0': 232, 'rot3': 125, 'rot2': 110, 'state': 'normal', 'yaw': -34.37, 'datetime': '2018-10-05 20:03:16.480247', 'mgs': 0, 'volt': 0.8398, 'depth': 0.623, 'time': 734, 'pitch': -18.22, 'roll': -0.18, 'pres': 172}
{'lipoC2': 7.77, 'lipoC3S1': 3.9, 'temp': 28.0, 'lipoC3S3': 11.8, 'lipoC3S2': 7.8, 'rot1': 229, 'rot0': 232, 'rot3': 125, 'rot2': 110, 'state': 'normal', 'yaw': -34.37, 'datetime': '2018-10-05 20:03:16.584534', 'mgs': 0, 'volt': 0.8398, 'depth': 0.623, 'time': 734, 'pitch': -18.22, 'roll': -0.18, 'pres': 172}
{'lipoC2': 7.77, 'lipoC3S1': 3.9, 'temp': 28.0, 'lipoC3S3': 11.81, 'lipoC3S2': 7.8, 'rot1': 229, 'rot0': 232, 'rot3': 125, 'rot2': 110, 'state': 'normal', 'yaw': -34.37, 'datetime': '2018-10-05 20:03:16.689033', 'mgs': 0, 'volt': 0.8398, 'depth': 0.623, 'time': 734, 'pitch': -18.22, 'roll': -0.18, 'pres': 172}
{'lipoC2': 7.77, 'lipoC3S1': 3.9, 'temp': 28.0, 'lipoC3S3': 11.8, 'lipoC3S2': 7.8, 'rot1': 229, 'rot0': 232, 'rot3': 125, 'rot2': 110, 'state': 'normal', 'yaw': -34.36, 'datetime': '2018-10-05 20:03:16.793480', 'mgs': 0, 'volt': 0.8398, 'depth': 0.623, 'time': 734, 'pitch': -18.22, 'roll': -0.19, 'pres': 172}
{'lipoC2': 7.77, 'lipoC3S1': 3.9, 'temp': 27.94, 'lipoC3S3': 11.8, 'lipoC3S2': 7.8, 'rot1': 229, 'rot0': 232, 'rot3': 125, 'rot2': 110, 'state': 'normal', 'yaw': -34.36, 'datetime': '2018-10-05 20:03:16.898853', 'mgs': 0, 'volt': 0.8398, 'depth': 0.623, 'time': 735, 'pitch': -18.22, 'roll': -0.19, 'pres': 172}
{'lipoC2': 7.77, 'lipoC3S1': 3.9, 'temp': 27.94, 'lipoC3S3': 11.8, 'lipoC3S2': 7.8, 'rot1': 229, 'rot0': 232, 'rot3': 125, 'rot2': 110, 'state': 'normal', 'yaw': -34.36, 'datetime': '2018-10-05 20:03:17.003155', 'mgs': 0, 'volt': 0.8398, 'depth': 0.623, 'time': 735, 'pitch': -18.22, 'roll': -0.19, 'pres': 172}
{'lipoC2': 7.77, 'lipoC3S1': 3.9, 'temp': 27.94, 'lipoC3S3': 11.8, 'lipoC3S2': 7.8, 'rot1': 229, 'rot0': 232, 'rot3': 125, 'rot2': 110, 'state': 'normal', 'yaw': -34.36, 'datetime': '2018-10-05 20:03:17.108803', 'mgs': 0, 'volt': 0.8398, 'depth': 0.623, 'time': 735, 'pitch': -18.22, 'roll': -0.18, 'pres': 172}
{'lipoC2': 7.77, 'lipoC3S1': 3.9, 'temp': 27.94, 'lipoC3S3': 11.8, 'lipoC3S2': 7.8, 'rot1': 229, 'rot0': 232, 'rot3': 125, 'rot2': 110, 'state': 'normal', 'yaw': -34.36, 'datetime': '2018-10-05 20:03:17.213327', 'mgs': 0, 'volt': 0.8398, 'depth': 0.623, 'time': 735, 'pitch': -18.17, 'roll': -0.19, 'pres': 172}
{'lipoC2': 7.77, 'lipoC3S1': 3.9, 'temp': 28.0, 'lipoC3S3': 11.8, 'lipoC3S2': 7.8, 'rot1': 229, 'rot0': 232, 'rot3': 125, 'rot2': 110, 'state': 'normal', 'yaw': -34.36, 'datetime': '2018-10-05 20:03:17.319178', 'mgs': 0, 'volt': 0.8398, 'depth': 0.623, 'time': 735, 'pitch': -18.17, 'roll': -0.18, 'pres': 172}
{'lipoC2': 7.77, 'lipoC3S1': 3.9, 'temp': 28.0, 'lipoC3S3': 11.8, 'lipoC3S2': 7.8, 'rot1': 229, 'rot0': 232, 'rot3': 125, 'rot2': 110, 'state': 'normal', 'yaw': -34.36, 'datetime': '2018-10-05 20:03:17.423079', 'mgs': 0, 'volt': 0.8398, 'depth': 0.623, 'time': 735, 'pitch': -18.17, 'roll': -0.18, 'pres': 172}
{'lipoC2': 7.77, 'lipoC3S1': 3.9, 'temp': 28.0, 'lipoC3S3': 11.8, 'lipoC3S2': 7.8, 'rot1': 229, 'rot0': 232, 'rot3': 125, 'rot2': 110, 'state': 'normal', 'yaw': -34.36, 'datetime': '2018-10-05 20:03:17.528598', 'mgs': 0, 'volt': 0.8398, 'depth': 0.623, 'time': 735, 'pitch': -18.19, 'roll': -0.19, 'pres': 172}
{'lipoC2': 7.77, 'lipoC3S1': 3.9, 'temp': 27.94, 'lipoC3S3': 11.8, 'lipoC3S2': 7.8, 'rot1': 229, 'rot0': 232, 'rot3': 125, 'rot2': 110, 'state': 'normal', 'yaw': -34.41, 'datetime': '2018-10-05 20:03:17.632958', 'mgs': 0, 'volt': 0.8398, 'depth': 0.623, 'time': 735, 'pitch': -18.29, 'roll': -0.17, 'pres': 172}
{'lipoC2': 7.77, 'lipoC3S1': 3.9, 'temp': 27.94, 'lipoC3S3': 11.8, 'lipoC3S2': 7.8, 'rot1': 229, 'rot0': 232, 'rot3': 125, 'rot2': 110, 'state': 'normal', 'yaw': -34.45, 'datetime': '2018-10-05 20:03:17.737318', 'mgs': 0, 'volt': 0.8398, 'depth': 0.623, 'time': 735, 'pitch': -18.33, 'roll': -0.08, 'pres': 172}
{'lipoC2': 7.77, 'lipoC3S1': 3.9, 'temp': 27.94, 'lipoC3S3': 11.8, 'lipoC3S2': 7.8, 'rot1': 229, 'rot0': 232, 'rot3': 125, 'rot2': 110, 'state': 'normal', 'yaw': -34.45, 'datetime': '2018-10-05 20:03:17.841901', 'mgs': 0, 'volt': 0.8398, 'depth': 0.623, 'time': 735, 'pitch': -18.33, 'roll': 0.01, 'pres': 172}
{'lipoC2': 7.77, 'lipoC3S1': 3.9, 'temp': 27.94, 'lipoC3S3': 11.8, 'lipoC3S2': 7.8, 'rot1': 229, 'rot0': 232, 'rot3': 125, 'rot2': 110, 'state': 'normal', 'yaw': -34.45, 'datetime': '2018-10-05 20:03:17.946345', 'mgs': 0, 'volt': 0.8398, 'depth': 0.623, 'time': 736, 'pitch': -18.3, 'roll': 0.02, 'pres': 172}
{'lipoC2': 7.77, 'lipoC3S1': 3.9, 'temp': 27.94, 'lipoC3S3': 11.81, 'lipoC3S2': 7.8, 'rot1': 229, 'rot0': 232, 'rot3': 125, 'rot2': 110, 'state': 'normal', 'yaw': -34.4, 'datetime': '2018-10-05 20:03:18.051710', 'mgs': 0, 'volt': 0.8398, 'depth': 0.623, 'time': 736, 'pitch': -18.21, 'roll': -0.03, 'pres': 172}
{'lipoC2': 7.77, 'lipoC3S1': 3.9, 'temp': 27.94, 'lipoC3S3': 11.8, 'lipoC3S2': 7.8, 'rot1': 229, 'rot0': 232, 'rot3': 125, 'rot2': 110, 'state': 'normal', 'yaw': -34.27, 'datetime': '2018-10-05 20:03:18.156599', 'mgs': 0, 'volt': 0.8398, 'depth': 0.623, 'time': 736, 'pitch': -18.2, 'roll': -0.23, 'pres': 172}
{'lipoC2': 7.77, 'lipoC3S1': 3.9, 'temp': 27.94, 'lipoC3S3': 11.81, 'lipoC3S2': 7.8, 'rot1': 229, 'rot0': 232, 'rot3': 125, 'rot2': 110, 'state': 'normal', 'yaw': -34.12, 'datetime': '2018-10-05 20:03:18.260955', 'mgs': 0, 'volt': 0.8398, 'depth': 0.623, 'time': 736, 'pitch': -18.2, 'roll': -0.45, 'pres': 172}
{'lipoC2': 7.77, 'lipoC3S1': 3.9, 'temp': 27.94, 'lipoC3S3': 11.81, 'lipoC3S2': 7.8, 'rot1': 229, 'rot0': 232, 'rot3': 125, 'rot2': 110, 'state': 'normal', 'yaw': -33.99, 'datetime': '2018-10-05 20:03:18.365185', 'mgs': 0, 'volt': 0.8398, 'depth': 0.623, 'time': 736, 'pitch': -18.23, 'roll': -0.61, 'pres': 172}
{'lipoC2': 7.77, 'lipoC3S1': 3.9, 'temp': 27.94, 'lipoC3S3': 11.8, 'lipoC3S2': 7.8, 'rot1': 229, 'rot0': 232, 'rot3': 125, 'rot2': 110, 'state': 'normal', 'yaw': -33.92, 'datetime': '2018-10-05 20:03:18.470915', 'mgs': 0, 'volt': 0.8398, 'depth': 0.623, 'time': 736, 'pitch': -18.26, 'roll': -0.63, 'pres': 172}
{'lipoC2': 7.77, 'lipoC3S1': 3.9, 'temp': 27.94, 'lipoC3S3': 11.81, 'lipoC3S2': 7.8, 'rot1': 229, 'rot0': 232, 'rot3': 125, 'rot2': 110, 'state': 'normal', 'yaw': -33.91, 'datetime': '2018-10-05 20:03:18.575125', 'mgs': 0, 'volt': 0.8398, 'depth': 0.623, 'time': 736, 'pitch': -18.26, 'roll': -0.5, 'pres': 172}
{'lipoC2': 7.77, 'lipoC3S1': 3.9, 'temp': 27.94, 'lipoC3S3': 11.8, 'lipoC3S2': 7.8, 'rot1': 229, 'rot0': 232, 'rot3': 125, 'rot2': 110, 'state': 'normal', 'yaw': -33.94, 'datetime': '2018-10-05 20:03:18.680873', 'mgs': 0, 'volt': 0.8398, 'depth': 0.623, 'time': 736, 'pitch': -18.26, 'roll': -0.27, 'pres': 172}
{'lipoC2': 7.77, 'lipoC3S1': 3.9, 'temp': 27.94, 'lipoC3S3': 11.8, 'lipoC3S2': 7.8, 'rot1': 229, 'rot0': 232, 'rot3': 125, 'rot2': 110, 'state': 'normal', 'yaw': -34.03, 'datetime': '2018-10-05 20:03:18.785183', 'mgs': 0, 'volt': 0.8398, 'depth': 0.623, 'time': 736, 'pitch': -18.26, 'roll': 0.01, 'pres': 172}
{'lipoC2': 7.77, 'lipoC3S1': 3.9, 'temp': 27.94, 'lipoC3S3': 11.8, 'lipoC3S2': 7.8, 'rot1': 229, 'rot0': 232, 'rot3': 125, 'rot2': 110, 'state': 'normal', 'yaw': -34.09, 'datetime': '2018-10-05 20:03:18.889688', 'mgs': 0, 'volt': 0.8398, 'depth': 0.623, 'time': 736, 'pitch': -18.26, 'roll': 0.23, 'pres': 172}
{'lipoC2': 7.77, 'lipoC3S1': 3.9, 'temp': 27.94, 'lipoC3S3': 11.81, 'lipoC3S2': 7.8, 'rot1': 229, 'rot0': 232, 'rot3': 125, 'rot2': 110, 'state': 'normal', 'yaw': -34.09, 'datetime': '2018-10-05 20:03:18.994397', 'mgs': 0, 'volt': 0.8398, 'depth': 0.623, 'time': 737, 'pitch': -18.26, 'roll': 0.32, 'pres': 172}
{'lipoC2': 7.77, 'lipoC3S1': 3.9, 'temp': 27.94, 'lipoC3S3': 11.8, 'lipoC3S2': 7.8, 'rot1': 229, 'rot0': 232, 'rot3': 125, 'rot2': 110, 'state': 'normal', 'yaw': -34.09, 'datetime': '2018-10-05 20:03:19.101440', 'mgs': 0, 'volt': 0.8398, 'depth': 0.623, 'time': 737, 'pitch': -18.26, 'roll': 0.31, 'pres': 172}
{'lipoC2': 7.77, 'lipoC3S1': 3.9, 'temp': 27.94, 'lipoC3S3': 11.8, 'lipoC3S2': 7.8, 'rot1': 229, 'rot0': 232, 'rot3': 125, 'rot2': 110, 'state': 'normal', 'yaw': -34.09, 'datetime': '2018-10-05 20:03:19.203156', 'mgs': 0, 'volt': 0.8398, 'depth': 0.623, 'time': 737, 'pitch': -18.27, 'roll': 0.22, 'pres': 172}
{'lipoC2': 7.77, 'lipoC3S1': 3.9, 'temp': 28.0, 'lipoC3S3': 11.8, 'lipoC3S2': 7.8, 'rot1': 229, 'rot0': 232, 'rot3': 125, 'rot2': 110, 'state': 'normal', 'yaw': -33.97, 'datetime': '2018-10-05 20:03:19.307403', 'mgs': 0, 'volt': 0.8398, 'depth': 0.623, 'time': 737, 'pitch': -18.26, 'roll': 0.03, 'pres': 172}
{'lipoC2': 7.77, 'lipoC3S1': 3.9, 'temp': 28.0, 'lipoC3S3': 11.8, 'lipoC3S2': 7.8, 'rot1': 229, 'rot0': 232, 'rot3': 125, 'rot2': 110, 'state': 'normal', 'yaw': -33.67, 'datetime': '2018-10-05 20:03:19.411857', 'mgs': 0, 'volt': 0.8398, 'depth': 0.623, 'time': 737, 'pitch': -18.28, 'roll': -0.21, 'pres': 172}
{'lipoC2': 7.77, 'lipoC3S1': 3.9, 'temp': 28.0, 'lipoC3S3': 11.8, 'lipoC3S2': 7.81, 'rot1': 229, 'rot0': 232, 'rot3': 125, 'rot2': 110, 'state': 'normal', 'yaw': -33.43, 'datetime': '2018-10-05 20:03:19.516313', 'mgs': 0, 'volt': 0.8398, 'depth': 0.623, 'time': 737, 'pitch': -18.71, 'roll': -0.33, 'pres': 172}
{'lipoC2': 7.77, 'lipoC3S1': 3.9, 'temp': 28.0, 'lipoC3S3': 11.81, 'lipoC3S2': 7.8, 'rot1': 229, 'rot0': 232, 'rot3': 125, 'rot2': 110, 'state': 'normal', 'yaw': -33.1, 'datetime': '2018-10-05 20:03:19.620550', 'mgs': 0, 'volt': 0.8301, 'depth': 0.47, 'time': 737, 'pitch': -19.31, 'roll': -0.56, 'pres': 170}
{'lipoC2': 7.77, 'lipoC3S1': 3.9, 'temp': 27.94, 'lipoC3S3': 11.8, 'lipoC3S2': 7.8, 'rot1': 229, 'rot0': 232, 'rot3': 125, 'rot2': 110, 'state': 'normal', 'yaw': -33.24, 'datetime': '2018-10-05 20:03:19.725980', 'mgs': 0, 'volt': 0.835, 'depth': 0.546, 'time': 737, 'pitch': -20.88, 'roll': -0.49, 'pres': 171}
{'lipoC2': 7.77, 'lipoC3S1': 3.9, 'temp': 27.94, 'lipoC3S3': 11.81, 'lipoC3S2': 7.8, 'rot1': 229, 'rot0': 232, 'rot3': 125, 'rot2': 110, 'state': 'normal', 'yaw': -33.01, 'datetime': '2018-10-05 20:03:19.830366', 'mgs': 0, 'volt': 0.835, 'depth': 0.546, 'time': 737, 'pitch': -23.39, 'roll': -0.51, 'pres': 171}
{'lipoC2': 7.77, 'lipoC3S1': 3.9, 'temp': 27.94, 'lipoC3S3': 11.8, 'lipoC3S2': 7.8, 'rot1': 229, 'rot0': 232, 'rot3': 125, 'rot2': 110, 'state': 'normal', 'yaw': -32.06, 'datetime': '2018-10-05 20:03:19.935866', 'mgs': 0, 'volt': 0.835, 'depth': 0.546, 'time': 738, 'pitch': -24.71, 'roll': -1.12, 'pres': 171}
{'lipoC2': 7.77, 'lipoC3S1': 3.9, 'temp': 27.94, 'lipoC3S3': 11.81, 'lipoC3S2': 7.8, 'rot1': 229, 'rot0': 232, 'rot3': 125, 'rot2': 110, 'state': 'normal', 'yaw': -31.41, 'datetime': '2018-10-05 20:03:20.040261', 'mgs': 0, 'volt': 0.835, 'depth': 0.546, 'time': 738, 'pitch': -24.17, 'roll': -1.4, 'pres': 171}
{'lipoC2': 7.77, 'lipoC3S1': 3.9, 'temp': 27.94, 'lipoC3S3': 11.8, 'lipoC3S2': 7.8, 'rot1': 229, 'rot0': 232, 'rot3': 125, 'rot2': 110, 'state': 'normal', 'yaw': -31.12, 'datetime': '2018-10-05 20:03:20.144399', 'mgs': 0, 'volt': 0.8301, 'depth': 0.47, 'time': 738, 'pitch': -22.5, 'roll': -1.23, 'pres': 170}
{'lipoC2': 7.77, 'lipoC3S1': 3.9, 'temp': 27.94, 'lipoC3S3': 11.8, 'lipoC3S2': 7.8, 'rot1': 229, 'rot0': 232, 'rot3': 125, 'rot2': 110, 'state': 'normal', 'yaw': -30.64, 'datetime': '2018-10-05 20:03:20.248822', 'mgs': 0, 'volt': 0.8301, 'depth': 0.47, 'time': 738, 'pitch': -21.9, 'roll': -1.08, 'pres': 170}
{'lipoC2': 7.77, 'lipoC3S1': 3.9, 'temp': 27.94, 'lipoC3S3': 11.8, 'lipoC3S2': 7.8, 'rot1': 229, 'rot0': 232, 'rot3': 125, 'rot2': 110, 'state': 'normal', 'yaw': -29.75, 'datetime': '2018-10-05 20:03:20.353329', 'mgs': 0, 'volt': 0.835, 'depth': 0.546, 'time': 738, 'pitch': -22.4, 'roll': -1.2, 'pres': 171}
{'lipoC2': 7.77, 'lipoC3S1': 3.9, 'temp': 28.0, 'lipoC3S3': 11.8, 'lipoC3S2': 7.8, 'rot1': 229, 'rot0': 232, 'rot3': 125, 'rot2': 110, 'state': 'normal', 'yaw': -28.72, 'datetime': '2018-10-05 20:03:20.457712', 'mgs': 0, 'volt': 0.835, 'depth': 0.546, 'time': 738, 'pitch': -22.87, 'roll': -1.28, 'pres': 171}
{'lipoC2': 7.77, 'lipoC3S1': 3.9, 'temp': 28.0, 'lipoC3S3': 11.81, 'lipoC3S2': 7.8, 'rot1': 229, 'rot0': 232, 'rot3': 125, 'rot2': 110, 'state': 'normal', 'yaw': -27.48, 'datetime': '2018-10-05 20:03:20.561951', 'mgs': 0, 'volt': 0.835, 'depth': 0.546, 'time': 738, 'pitch': -23.14, 'roll': -1.41, 'pres': 171}
{'lipoC2': 7.77, 'lipoC3S1': 3.9, 'temp': 28.0, 'lipoC3S3': 11.81, 'lipoC3S2': 7.8, 'rot1': 229, 'rot0': 232, 'rot3': 125, 'rot2': 110, 'state': 'normal', 'yaw': -26.2, 'datetime': '2018-10-05 20:03:20.666512', 'mgs': 0, 'volt': 0.8301, 'depth': 0.47, 'time': 738, 'pitch': -23.11, 'roll': -1.7, 'pres': 170}
{'lipoC2': 7.77, 'lipoC3S1': 3.9, 'temp': 27.94, 'lipoC3S3': 11.81, 'lipoC3S2': 7.8, 'rot1': 229, 'rot0': 232, 'rot3': 125, 'rot2': 110, 'state': 'normal', 'yaw': -25.04, 'datetime': '2018-10-05 20:03:20.770607', 'mgs': 0, 'volt': 0.8301, 'depth': 0.47, 'time': 738, 'pitch': -22.99, 'roll': -1.81, 'pres': 170}
{'lipoC2': 7.77, 'lipoC3S1': 3.9, 'temp': 27.94, 'lipoC3S3': 11.8, 'lipoC3S2': 7.8, 'rot1': 229, 'rot0': 232, 'rot3': 125, 'rot2': 110, 'state': 'normal', 'yaw': -23.84, 'datetime': '2018-10-05 20:03:20.875563', 'mgs': 0, 'volt': 0.8301, 'depth': 0.47, 'time': 738, 'pitch': -23.09, 'roll': -2.05, 'pres': 170}
{'lipoC2': 7.77, 'lipoC3S1': 3.9, 'temp': 27.94, 'lipoC3S3': 11.8, 'lipoC3S2': 7.8, 'rot1': 229, 'rot0': 232, 'rot3': 125, 'rot2': 110, 'state': 'normal', 'yaw': -22.58, 'datetime': '2018-10-05 20:03:20.980966', 'mgs': 0, 'volt': 0.8252, 'depth': 0.394, 'time': 739, 'pitch': -23.61, 'roll': -2.21, 'pres': 169}
{'lipoC2': 7.77, 'lipoC3S1': 3.9, 'temp': 27.94, 'lipoC3S3': 11.8, 'lipoC3S2': 7.8, 'rot1': 229, 'rot0': 232, 'rot3': 125, 'rot2': 110, 'state': 'normal', 'yaw': -21.5, 'datetime': '2018-10-05 20:03:21.084580', 'mgs': 0, 'volt': 0.8301, 'depth': 0.47, 'time': 739, 'pitch': -23.79, 'roll': -2.25, 'pres': 170}
{'lipoC2': 7.77, 'lipoC3S1': 3.9, 'temp': 27.94, 'lipoC3S3': 11.81, 'lipoC3S2': 7.8, 'rot1': 229, 'rot0': 232, 'rot3': 125, 'rot2': 110, 'state': 'normal', 'yaw': -20.5, 'datetime': '2018-10-05 20:03:21.191762', 'mgs': 0, 'volt': 0.8252, 'depth': 0.394, 'time': 739, 'pitch': -23.38, 'roll': -2.24, 'pres': 169}
{'lipoC2': 7.77, 'lipoC3S1': 3.9, 'temp': 27.94, 'lipoC3S3': 11.8, 'lipoC3S2': 7.8, 'rot1': 229, 'rot0': 232, 'rot3': 125, 'rot2': 110, 'state': 'normal', 'yaw': -19.53, 'datetime': '2018-10-05 20:03:21.295336', 'mgs': 0, 'volt': 0.8252, 'depth': 0.394, 'time': 739, 'pitch': -22.78, 'roll': -2.16, 'pres': 169}
{'lipoC2': 7.77, 'lipoC3S1': 3.9, 'temp': 27.94, 'lipoC3S3': 11.8, 'lipoC3S2': 7.8, 'rot1': 229, 'rot0': 232, 'rot3': 125, 'rot2': 110, 'state': 'normal', 'yaw': -18.98, 'datetime': '2018-10-05 20:03:21.398580', 'mgs': 0, 'volt': 0.8252, 'depth': 0.394, 'time': 739, 'pitch': -22.38, 'roll': -1.81, 'pres': 169}
{'lipoC2': 7.77, 'lipoC3S1': 3.9, 'temp': 27.94, 'lipoC3S3': 11.81, 'lipoC3S2': 7.8, 'rot1': 229, 'rot0': 232, 'rot3': 125, 'rot2': 110, 'state': 'normal', 'yaw': -18.49, 'datetime': '2018-10-05 20:03:21.502951', 'mgs': 0, 'volt': 0.8252, 'depth': 0.394, 'time': 739, 'pitch': -22.07, 'roll': -1.27, 'pres': 169}
{'lipoC2': 7.77, 'lipoC3S1': 3.9, 'temp': 27.94, 'lipoC3S3': 11.8, 'lipoC3S2': 7.8, 'rot1': 229, 'rot0': 232, 'rot3': 125, 'rot2': 110, 'state': 'normal', 'yaw': -18.32, 'datetime': '2018-10-05 20:03:21.607289', 'mgs': 0, 'volt': 0.8252, 'depth': 0.394, 'time': 739, 'pitch': -22.0, 'roll': -0.53, 'pres': 169}
{'lipoC2': 7.77, 'lipoC3S1': 3.9, 'temp': 27.94, 'lipoC3S3': 11.8, 'lipoC3S2': 7.8, 'rot1': 229, 'rot0': 232, 'rot3': 125, 'rot2': 110, 'state': 'normal', 'yaw': -18.44, 'datetime': '2018-10-05 20:03:21.711774', 'mgs': 0, 'volt': 0.8252, 'depth': 0.394, 'time': 739, 'pitch': -22.26, 'roll': 0.41, 'pres': 169}
{'lipoC2': 7.77, 'lipoC3S1': 3.9, 'temp': 27.94, 'lipoC3S3': 11.8, 'lipoC3S2': 7.8, 'rot1': 229, 'rot0': 232, 'rot3': 125, 'rot2': 110, 'state': 'normal', 'yaw': -18.44, 'datetime': '2018-10-05 20:03:21.816538', 'mgs': 0, 'volt': 0.8252, 'depth': 0.394, 'time': 739, 'pitch': -22.3, 'roll': 1.12, 'pres': 169}
{'lipoC2': 7.77, 'lipoC3S1': 3.9, 'temp': 27.94, 'lipoC3S3': 11.8, 'lipoC3S2': 7.8, 'rot1': 229, 'rot0': 232, 'rot3': 125, 'rot2': 110, 'state': 'normal', 'yaw': -18.41, 'datetime': '2018-10-05 20:03:21.920940', 'mgs': 0, 'volt': 0.8252, 'depth': 0.394, 'time': 740, 'pitch': -21.83, 'roll': 1.48, 'pres': 169}
{'lipoC2': 7.77, 'lipoC3S1': 3.9, 'temp': 27.94, 'lipoC3S3': 11.81, 'lipoC3S2': 7.8, 'rot1': 229, 'rot0': 232, 'rot3': 125, 'rot2': 110, 'state': 'normal', 'yaw': -18.01, 'datetime': '2018-10-05 20:03:22.025206', 'mgs': 0, 'volt': 0.8203, 'depth': 0.317, 'time': 740, 'pitch': -20.85, 'roll': 1.34, 'pres': 168}
{'lipoC2': 7.77, 'lipoC3S1': 3.9, 'temp': 27.94, 'lipoC3S3': 11.81, 'lipoC3S2': 7.8, 'rot1': 229, 'rot0': 232, 'rot3': 125, 'rot2': 110, 'state': 'normal', 'yaw': -17.34, 'datetime': '2018-10-05 20:03:22.130925', 'mgs': 0, 'volt': 0.8252, 'depth': 0.394, 'time': 740, 'pitch': -19.94, 'roll': 0.8, 'pres': 169}
{'lipoC2': 7.77, 'lipoC3S1': 3.9, 'temp': 27.94, 'lipoC3S3': 11.8, 'lipoC3S2': 7.8, 'rot1': 229, 'rot0': 232, 'rot3': 125, 'rot2': 110, 'state': 'normal', 'yaw': -16.41, 'datetime': '2018-10-05 20:03:22.235183', 'mgs': 0, 'volt': 0.8203, 'depth': 0.317, 'time': 740, 'pitch': -18.82, 'roll': -0.04, 'pres': 168}
{'lipoC2': 7.77, 'lipoC3S1': 3.9, 'temp': 27.94, 'lipoC3S3': 11.81, 'lipoC3S2': 7.8, 'rot1': 229, 'rot0': 232, 'rot3': 125, 'rot2': 110, 'state': 'normal', 'yaw': -15.59, 'datetime': '2018-10-05 20:03:22.340776', 'mgs': 0, 'volt': 0.8154, 'depth': 0.241, 'time': 740, 'pitch': -17.75, 'roll': -0.75, 'pres': 167}
{'lipoC2': 7.77, 'lipoC3S1': 3.9, 'temp': 27.94, 'lipoC3S3': 11.8, 'lipoC3S2': 7.8, 'rot1': 229, 'rot0': 232, 'rot3': 125, 'rot2': 110, 'state': 'normal', 'yaw': -14.93, 'datetime': '2018-10-05 20:03:22.444967', 'mgs': 0, 'volt': 0.8154, 'depth': 0.241, 'time': 740, 'pitch': -16.97, 'roll': -1.25, 'pres': 167}
{'lipoC2': 7.77, 'lipoC3S1': 3.9, 'temp': 27.94, 'lipoC3S3': 11.81, 'lipoC3S2': 7.8, 'rot1': 229, 'rot0': 232, 'rot3': 125, 'rot2': 110, 'state': 'normal', 'yaw': -14.44, 'datetime': '2018-10-05 20:03:22.549373', 'mgs': 0, 'volt': 0.8203, 'depth': 0.317, 'time': 740, 'pitch': -16.34, 'roll': -1.56, 'pres': 168}
{'lipoC2': 7.77, 'lipoC3S1': 3.9, 'temp': 27.94, 'lipoC3S3': 11.8, 'lipoC3S2': 7.8, 'rot1': 229, 'rot0': 232, 'rot3': 125, 'rot2': 110, 'state': 'normal', 'yaw': -13.7, 'datetime': '2018-10-05 20:03:22.653898', 'mgs': 0, 'volt': 0.8203, 'depth': 0.317, 'time': 740, 'pitch': -14.9, 'roll': -2.07, 'pres': 168}
{'lipoC2': 7.77, 'lipoC3S1': 3.9, 'temp': 27.94, 'lipoC3S3': 11.8, 'lipoC3S2': 7.8, 'rot1': 229, 'rot0': 232, 'rot3': 125, 'rot2': 110, 'state': 'normal', 'yaw': -12.64, 'datetime': '2018-10-05 20:03:22.758203', 'mgs': 0, 'volt': 0.8105, 'depth': 0.165, 'time': 740, 'pitch': -13.49, 'roll': -2.84, 'pres': 166}
{'lipoC2': 7.77, 'lipoC3S1': 3.9, 'temp': 27.94, 'lipoC3S3': 11.8, 'lipoC3S2': 7.8, 'rot1': 229, 'rot0': 232, 'rot3': 125, 'rot2': 110, 'state': 'normal', 'yaw': -12.12, 'datetime': '2018-10-05 20:03:22.862410', 'mgs': 0, 'volt': 0.8154, 'depth': 0.241, 'time': 740, 'pitch': -13.55, 'roll': -3.21, 'pres': 167}
{'lipoC2': 7.77, 'lipoC3S1': 3.9, 'temp': 27.94, 'lipoC3S3': 11.8, 'lipoC3S2': 7.8, 'rot1': 229, 'rot0': 232, 'rot3': 125, 'rot2': 110, 'state': 'normal', 'yaw': -12.23, 'datetime': '2018-10-05 20:03:22.966680', 'mgs': 0, 'volt': 0.8203, 'depth': 0.317, 'time': 741, 'pitch': -14.12, 'roll': -2.94, 'pres': 168}
{'lipoC2': 7.77, 'lipoC3S1': 3.9, 'temp': 27.94, 'lipoC3S3': 11.81, 'lipoC3S2': 7.8, 'rot1': 229, 'rot0': 232, 'rot3': 125, 'rot2': 110, 'state': 'normal', 'yaw': -12.39, 'datetime': '2018-10-05 20:03:23.070832', 'mgs': 0, 'volt': 0.8154, 'depth': 0.241, 'time': 741, 'pitch': -13.71, 'roll': -2.58, 'pres': 167}
{'lipoC2': 7.77, 'lipoC3S1': 3.9, 'temp': 27.94, 'lipoC3S3': 11.81, 'lipoC3S2': 7.8, 'rot1': 229, 'rot0': 232, 'rot3': 125, 'rot2': 110, 'state': 'normal', 'yaw': -12.42, 'datetime': '2018-10-05 20:03:23.175340', 'mgs': 0, 'volt': 0.8154, 'depth': 0.241, 'time': 741, 'pitch': -13.05, 'roll': -2.36, 'pres': 167}
{'lipoC2': 7.77, 'lipoC3S1': 3.9, 'temp': 27.94, 'lipoC3S3': 11.8, 'lipoC3S2': 7.8, 'rot1': 229, 'rot0': 232, 'rot3': 125, 'rot2': 110, 'state': 'normal', 'yaw': -12.42, 'datetime': '2018-10-05 20:03:23.282160', 'mgs': 0, 'volt': 0.8154, 'depth': 0.241, 'time': 741, 'pitch': -13.03, 'roll': -2.27, 'pres': 167}
{'lipoC2': 7.77, 'lipoC3S1': 3.9, 'temp': 27.94, 'lipoC3S3': 11.8, 'lipoC3S2': 7.8, 'rot1': 229, 'rot0': 232, 'rot3': 125, 'rot2': 110, 'state': 'normal', 'yaw': -12.42, 'datetime': '2018-10-05 20:03:23.385195', 'mgs': 0, 'volt': 0.8203, 'depth': 0.317, 'time': 741, 'pitch': -13.29, 'roll': -2.27, 'pres': 168}
{'lipoC2': 7.77, 'lipoC3S1': 3.9, 'temp': 27.94, 'lipoC3S3': 11.81, 'lipoC3S2': 7.8, 'rot1': 229, 'rot0': 232, 'rot3': 125, 'rot2': 110, 'state': 'normal', 'yaw': -12.69, 'datetime': '2018-10-05 20:03:23.489240', 'mgs': 0, 'volt': 0.8203, 'depth': 0.317, 'time': 741, 'pitch': -13.41, 'roll': -2.15, 'pres': 168}
{'lipoC2': 7.77, 'lipoC3S1': 3.9, 'temp': 27.94, 'lipoC3S3': 11.8, 'lipoC3S2': 7.8, 'rot1': 229, 'rot0': 232, 'rot3': 125, 'rot2': 110, 'state': 'normal', 'yaw': -12.98, 'datetime': '2018-10-05 20:03:23.594783', 'mgs': 0, 'volt': 0.8203, 'depth': 0.317, 'time': 741, 'pitch': -13.36, 'roll': -2.05, 'pres': 168}
{'lipoC2': 7.77, 'lipoC3S1': 3.9, 'temp': 27.94, 'lipoC3S3': 11.81, 'lipoC3S2': 7.8, 'rot1': 229, 'rot0': 232, 'rot3': 125, 'rot2': 110, 'state': 'normal', 'yaw': -13.34, 'datetime': '2018-10-05 20:03:23.698999', 'mgs': 0, 'volt': 0.8203, 'depth': 0.317, 'time': 741, 'pitch': -13.48, 'roll': -1.93, 'pres': 168}
{'lipoC2': 7.77, 'lipoC3S1': 3.9, 'temp': 27.94, 'lipoC3S3': 11.8, 'lipoC3S2': 7.8, 'rot1': 229, 'rot0': 232, 'rot3': 125, 'rot2': 110, 'state': 'normal', 'yaw': -13.82, 'datetime': '2018-10-05 20:03:23.803228', 'mgs': 0, 'volt': 0.8203, 'depth': 0.317, 'time': 741, 'pitch': -13.9, 'roll': -1.68, 'pres': 168}
{'lipoC2': 7.77, 'lipoC3S1': 3.9, 'temp': 27.94, 'lipoC3S3': 11.81, 'lipoC3S2': 7.8, 'rot1': 229, 'rot0': 232, 'rot3': 125, 'rot2': 110, 'state': 'normal', 'yaw': -14.36, 'datetime': '2018-10-05 20:03:23.907692', 'mgs': 0, 'volt': 0.8203, 'depth': 0.317, 'time': 741, 'pitch': -14.35, 'roll': -1.36, 'pres': 168}
{'lipoC2': 7.77, 'lipoC3S1': 3.9, 'temp': 27.94, 'lipoC3S3': 11.81, 'lipoC3S2': 7.8, 'rot1': 229, 'rot0': 232, 'rot3': 125, 'rot2': 110, 'state': 'normal', 'yaw': -14.71, 'datetime': '2018-10-05 20:03:24.011826', 'mgs': 0, 'volt': 0.8203, 'depth': 0.317, 'time': 742, 'pitch': -14.72, 'roll': -1.18, 'pres': 168}
{'lipoC2': 7.77, 'lipoC3S1': 3.9, 'temp': 27.94, 'lipoC3S3': 11.8, 'lipoC3S2': 7.8, 'rot1': 229, 'rot0': 232, 'rot3': 125, 'rot2': 110, 'state': 'normal', 'yaw': -14.85, 'datetime': '2018-10-05 20:03:24.116196', 'mgs': 0, 'volt': 0.8252, 'depth': 0.394, 'time': 742, 'pitch': -15.11, 'roll': -1.15, 'pres': 169}
{'lipoC2': 7.77, 'lipoC3S1': 3.9, 'temp': 27.94, 'lipoC3S3': 11.8, 'lipoC3S2': 7.8, 'rot1': 229, 'rot0': 232, 'rot3': 125, 'rot2': 110, 'state': 'normal', 'yaw': -14.83, 'datetime': '2018-10-05 20:03:24.220429', 'mgs': 0, 'volt': 0.8252, 'depth': 0.394, 'time': 742, 'pitch': -15.46, 'roll': -1.26, 'pres': 169}
{'lipoC2': 7.77, 'lipoC3S1': 3.9, 'temp': 27.94, 'lipoC3S3': 11.8, 'lipoC3S2': 7.8, 'rot1': 229, 'rot0': 232, 'rot3': 125, 'rot2': 110, 'state': 'normal', 'yaw': -14.83, 'datetime': '2018-10-05 20:03:24.325642', 'mgs': 0, 'volt': 0.8252, 'depth': 0.394, 'time': 742, 'pitch': -15.74, 'roll': -1.35, 'pres': 169}
{'lipoC2': 7.77, 'lipoC3S1': 3.9, 'temp': 27.94, 'lipoC3S3': 11.81, 'lipoC3S2': 7.8, 'rot1': 229, 'rot0': 232, 'rot3': 125, 'rot2': 110, 'state': 'normal', 'yaw': -14.84, 'datetime': '2018-10-05 20:03:24.429947', 'mgs': 0, 'volt': 0.8252, 'depth': 0.394, 'time': 742, 'pitch': -16.14, 'roll': -1.39, 'pres': 169}
{'lipoC2': 7.77, 'lipoC3S1': 3.9, 'temp': 27.94, 'lipoC3S3': 11.8, 'lipoC3S2': 7.8, 'rot1': 229, 'rot0': 232, 'rot3': 125, 'rot2': 110, 'state': 'normal', 'yaw': -14.96, 'datetime': '2018-10-05 20:03:24.534924', 'mgs': 0, 'volt': 0.8252, 'depth': 0.394, 'time': 742, 'pitch': -16.7, 'roll': -1.32, 'pres': 169}
{'lipoC2': 7.77, 'lipoC3S1': 3.9, 'temp': 27.94, 'lipoC3S3': 11.8, 'lipoC3S2': 7.8, 'rot1': 229, 'rot0': 232, 'rot3': 125, 'rot2': 110, 'state': 'normal', 'yaw': -15.08, 'datetime': '2018-10-05 20:03:24.639184', 'mgs': 0, 'volt': 0.8301, 'depth': 0.47, 'time': 742, 'pitch': -17.22, 'roll': -1.17, 'pres': 170}
{'lipoC2': 7.77, 'lipoC3S1': 3.9, 'temp': 27.94, 'lipoC3S3': 11.8, 'lipoC3S2': 7.8, 'rot1': 229, 'rot0': 232, 'rot3': 125, 'rot2': 110, 'state': 'normal', 'yaw': -15.09, 'datetime': '2018-10-05 20:03:24.743539', 'mgs': 0, 'volt': 0.8301, 'depth': 0.47, 'time': 742, 'pitch': -17.43, 'roll': -1.04, 'pres': 170}
{'lipoC2': 7.77, 'lipoC3S1': 3.9, 'temp': 27.94, 'lipoC3S3': 11.8, 'lipoC3S2': 7.8, 'rot1': 229, 'rot0': 232, 'rot3': 125, 'rot2': 110, 'state': 'normal', 'yaw': -15.14, 'datetime': '2018-10-05 20:03:24.849279', 'mgs': 0, 'volt': 0.8301, 'depth': 0.47, 'time': 742, 'pitch': -17.76, 'roll': -0.99, 'pres': 170}
{'lipoC2': 7.77, 'lipoC3S1': 3.9, 'temp': 27.94, 'lipoC3S3': 11.8, 'lipoC3S2': 7.8, 'rot1': 229, 'rot0': 232, 'rot3': 125, 'rot2': 110, 'state': 'normal', 'yaw': -15.3, 'datetime': '2018-10-05 20:03:24.953478', 'mgs': 0, 'volt': 0.835, 'depth': 0.546, 'time': 743, 'pitch': -18.35, 'roll': -0.92, 'pres': 171}
{'lipoC2': 7.77, 'lipoC3S1': 3.9, 'temp': 27.94, 'lipoC3S3': 11.8, 'lipoC3S2': 7.8, 'rot1': 229, 'rot0': 232, 'rot3': 125, 'rot2': 110, 'state': 'normal', 'yaw': -15.35, 'datetime': '2018-10-05 20:03:25.057821', 'mgs': 0, 'volt': 0.835, 'depth': 0.546, 'time': 743, 'pitch': -18.76, 'roll': -0.91, 'pres': 171}
{'lipoC2': 7.77, 'lipoC3S1': 3.9, 'temp': 27.94, 'lipoC3S3': 11.81, 'lipoC3S2': 7.8, 'rot1': 229, 'rot0': 232, 'rot3': 125, 'rot2': 110, 'state': 'normal', 'yaw': -15.46, 'datetime': '2018-10-05 20:03:25.162118', 'mgs': 0, 'volt': 0.835, 'depth': 0.546, 'time': 743, 'pitch': -18.99, 'roll': -0.85, 'pres': 171}
{'lipoC2': 7.77, 'lipoC3S1': 3.9, 'temp': 27.94, 'lipoC3S3': 11.8, 'lipoC3S2': 7.8, 'rot1': 229, 'rot0': 232, 'rot3': 125, 'rot2': 110, 'state': 'normal', 'yaw': -15.65, 'datetime': '2018-10-05 20:03:25.266397', 'mgs': 0, 'volt': 0.8398, 'depth': 0.623, 'time': 743, 'pitch': -19.29, 'roll': -0.65, 'pres': 172}
{'lipoC2': 7.77, 'lipoC3S1': 3.9, 'temp': 27.94, 'lipoC3S3': 11.8, 'lipoC3S2': 7.8, 'rot1': 229, 'rot0': 232, 'rot3': 125, 'rot2': 110, 'state': 'normal', 'yaw': -15.83, 'datetime': '2018-10-05 20:03:25.371019', 'mgs': 0, 'volt': 0.8398, 'depth': 0.623, 'time': 743, 'pitch': -19.63, 'roll': -0.42, 'pres': 172}
{'lipoC2': 7.77, 'lipoC3S1': 3.9, 'temp': 27.94, 'lipoC3S3': 11.8, 'lipoC3S2': 7.8, 'rot1': 229, 'rot0': 232, 'rot3': 125, 'rot2': 110, 'state': 'normal', 'yaw': -15.83, 'datetime': '2018-10-05 20:03:25.475258', 'mgs': 0, 'volt': 0.8398, 'depth': 0.623, 'time': 743, 'pitch': -19.71, 'roll': -0.39, 'pres': 172}
{'lipoC2': 7.77, 'lipoC3S1': 3.9, 'temp': 27.94, 'lipoC3S3': 11.8, 'lipoC3S2': 7.8, 'rot1': 229, 'rot0': 232, 'rot3': 125, 'rot2': 110, 'state': 'normal', 'yaw': -15.8, 'datetime': '2018-10-05 20:03:25.580732', 'mgs': 0, 'volt': 0.8398, 'depth': 0.623, 'time': 743, 'pitch': -19.63, 'roll': -0.39, 'pres': 172}
{'lipoC2': 7.77, 'lipoC3S1': 3.9, 'temp': 27.94, 'lipoC3S3': 11.8, 'lipoC3S2': 7.8, 'rot1': 229, 'rot0': 232, 'rot3': 125, 'rot2': 110, 'state': 'normal', 'yaw': -15.68, 'datetime': '2018-10-05 20:03:25.685203', 'mgs': 0, 'volt': 0.8398, 'depth': 0.623, 'time': 743, 'pitch': -19.51, 'roll': -0.41, 'pres': 172}
{'lipoC2': 7.77, 'lipoC3S1': 3.9, 'temp': 28.0, 'lipoC3S3': 11.81, 'lipoC3S2': 7.8, 'rot1': 229, 'rot0': 232, 'rot3': 125, 'rot2': 110, 'state': 'normal', 'yaw': -15.58, 'datetime': '2018-10-05 20:03:25.790685', 'mgs': 0, 'volt': 0.8398, 'depth': 0.623, 'time': 743, 'pitch': -19.55, 'roll': -0.31, 'pres': 172}
{'lipoC2': 7.77, 'lipoC3S1': 3.9, 'temp': 28.0, 'lipoC3S3': 11.8, 'lipoC3S2': 7.8, 'rot1': 229, 'rot0': 232, 'rot3': 125, 'rot2': 110, 'state': 'normal', 'yaw': -15.53, 'datetime': '2018-10-05 20:03:25.894929', 'mgs': 0, 'volt': 0.8398, 'depth': 0.623, 'time': 743, 'pitch': -19.72, 'roll': -0.06, 'pres': 172}
{'lipoC2': 7.77, 'lipoC3S1': 3.9, 'temp': 28.0, 'lipoC3S3': 11.8, 'lipoC3S2': 7.8, 'rot1': 229, 'rot0': 232, 'rot3': 125, 'rot2': 110, 'state': 'normal', 'yaw': -15.72, 'datetime': '2018-10-05 20:03:26.000591', 'mgs': 0, 'volt': 0.8398, 'depth': 0.623, 'time': 744, 'pitch': -20.04, 'roll': 0.39, 'pres': 172}
{'lipoC2': 7.77, 'lipoC3S1': 3.9, 'temp': 27.94, 'lipoC3S3': 11.8, 'lipoC3S2': 7.8, 'rot1': 229, 'rot0': 232, 'rot3': 125, 'rot2': 110, 'state': 'normal', 'yaw': -15.99, 'datetime': '2018-10-05 20:03:26.104913', 'mgs': 0, 'volt': 0.8447, 'depth': 0.699, 'time': 744, 'pitch': -20.14, 'roll': 0.91, 'pres': 173}
{'lipoC2': 7.77, 'lipoC3S1': 3.9, 'temp': 27.94, 'lipoC3S3': 11.8, 'lipoC3S2': 7.8, 'rot1': 229, 'rot0': 232, 'rot3': 125, 'rot2': 110, 'state': 'normal', 'yaw': -16.2, 'datetime': '2018-10-05 20:03:26.209218', 'mgs': 0, 'volt': 0.8447, 'depth': 0.699, 'time': 744, 'pitch': -19.9, 'roll': 1.24, 'pres': 173}
{'lipoC2': 7.77, 'lipoC3S1': 3.9, 'temp': 27.94, 'lipoC3S3': 11.8, 'lipoC3S2': 7.8, 'rot1': 229, 'rot0': 232, 'rot3': 125, 'rot2': 110, 'state': 'normal', 'yaw': -16.52, 'datetime': '2018-10-05 20:03:26.313911', 'mgs': 0, 'volt': 0.8398, 'depth': 0.623, 'time': 744, 'pitch': -19.68, 'roll': 1.44, 'pres': 172}
{'lipoC2': 7.77, 'lipoC3S1': 3.9, 'temp': 27.94, 'lipoC3S3': 11.8, 'lipoC3S2': 7.8, 'rot1': 229, 'rot0': 232, 'rot3': 125, 'rot2': 110, 'state': 'normal', 'yaw': -16.79, 'datetime': '2018-10-05 20:03:26.417907', 'mgs': 0, 'volt': 0.8398, 'depth': 0.623, 'time': 744, 'pitch': -19.46, 'roll': 1.43, 'pres': 172}
{'lipoC2': 7.77, 'lipoC3S1': 3.9, 'temp': 27.94, 'lipoC3S3': 11.8, 'lipoC3S2': 7.8, 'rot1': 229, 'rot0': 232, 'rot3': 125, 'rot2': 110, 'state': 'normal', 'yaw': -16.91, 'datetime': '2018-10-05 20:03:26.522247', 'mgs': 0, 'volt': 0.8398, 'depth': 0.623, 'time': 744, 'pitch': -19.18, 'roll': 1.13, 'pres': 172}
{'lipoC2': 7.77, 'lipoC3S1': 3.9, 'temp': 27.94, 'lipoC3S3': 11.8, 'lipoC3S2': 7.8, 'rot1': 229, 'rot0': 232, 'rot3': 125, 'rot2': 110, 'state': 'normal', 'yaw': -17.35, 'datetime': '2018-10-05 20:03:26.626635', 'mgs': 0, 'volt': 0.8398, 'depth': 0.623, 'time': 744, 'pitch': -18.74, 'roll': 0.94, 'pres': 172}
{'lipoC2': 7.77, 'lipoC3S1': 3.9, 'temp': 27.94, 'lipoC3S3': 11.8, 'lipoC3S2': 7.8, 'rot1': 229, 'rot0': 232, 'rot3': 125, 'rot2': 110, 'state': 'normal', 'yaw': -18.2, 'datetime': '2018-10-05 20:03:26.731042', 'mgs': 0, 'volt': 0.835, 'depth': 0.546, 'time': 744, 'pitch': -18.41, 'roll': 1.0, 'pres': 171}
{'lipoC2': 7.77, 'lipoC3S1': 3.9, 'temp': 27.94, 'lipoC3S3': 11.81, 'lipoC3S2': 7.8, 'rot1': 229, 'rot0': 232, 'rot3': 125, 'rot2': 110, 'state': 'normal', 'yaw': -19.29, 'datetime': '2018-10-05 20:03:26.835076', 'mgs': 0, 'volt': 0.835, 'depth': 0.546, 'time': 744, 'pitch': -18.1, 'roll': 1.07, 'pres': 171}
{'lipoC2': 7.77, 'lipoC3S1': 3.9, 'temp': 27.94, 'lipoC3S3': 11.8, 'lipoC3S2': 7.8, 'rot1': 229, 'rot0': 232, 'rot3': 125, 'rot2': 110, 'state': 'normal', 'yaw': -20.02, 'datetime': '2018-10-05 20:03:26.939608', 'mgs': 0, 'volt': 0.835, 'depth': 0.546, 'time': 745, 'pitch': -17.91, 'roll': 0.88, 'pres': 171}
{'lipoC2': 7.77, 'lipoC3S1': 3.9, 'temp': 27.94, 'lipoC3S3': 11.8, 'lipoC3S2': 7.8, 'rot1': 229, 'rot0': 232, 'rot3': 125, 'rot2': 110, 'state': 'normal', 'yaw': -20.3, 'datetime': '2018-10-05 20:03:27.044642', 'mgs': 0, 'volt': 0.835, 'depth': 0.546, 'time': 745, 'pitch': -17.49, 'roll': 0.41, 'pres': 171}
{'lipoC2': 7.77, 'lipoC3S1': 3.9, 'temp': 27.94, 'lipoC3S3': 11.8, 'lipoC3S2': 7.8, 'rot1': 229, 'rot0': 232, 'rot3': 125, 'rot2': 110, 'state': 'normal', 'yaw': -20.1, 'datetime': '2018-10-05 20:03:27.149194', 'mgs': 0, 'volt': 0.8301, 'depth': 0.47, 'time': 745, 'pitch': -16.75, 'roll': -0.35, 'pres': 170}
{'lipoC2': 7.77, 'lipoC3S1': 3.9, 'temp': 27.94, 'lipoC3S3': 11.81, 'lipoC3S2': 7.8, 'rot1': 229, 'rot0': 232, 'rot3': 125, 'rot2': 110, 'state': 'normal', 'yaw': -19.27, 'datetime': '2018-10-05 20:03:27.254697', 'mgs': 0, 'volt': 0.8301, 'depth': 0.47, 'time': 745, 'pitch': -16.93, 'roll': -1.41, 'pres': 170}
{'lipoC2': 7.77, 'lipoC3S1': 3.9, 'temp': 27.94, 'lipoC3S3': 11.8, 'lipoC3S2': 7.8, 'rot1': 229, 'rot0': 232, 'rot3': 125, 'rot2': 110, 'state': 'normal', 'yaw': -17.88, 'datetime': '2018-10-05 20:03:27.359126', 'mgs': 0, 'volt': 0.8252, 'depth': 0.394, 'time': 745, 'pitch': -18.15, 'roll': -2.65, 'pres': 169}
{'lipoC2': 7.77, 'lipoC3S1': 3.9, 'temp': 27.94, 'lipoC3S3': 11.81, 'lipoC3S2': 7.8, 'rot1': 229, 'rot0': 232, 'rot3': 125, 'rot2': 110, 'state': 'normal', 'yaw': -16.51, 'datetime': '2018-10-05 20:03:27.463358', 'mgs': 0, 'volt': 0.8301, 'depth': 0.47, 'time': 745, 'pitch': -18.96, 'roll': -3.38, 'pres': 170}
{'lipoC2': 7.77, 'lipoC3S1': 3.9, 'temp': 27.94, 'lipoC3S3': 11.81, 'lipoC3S2': 7.8, 'rot1': 229, 'rot0': 232, 'rot3': 125, 'rot2': 110, 'state': 'normal', 'yaw': -15.29, 'datetime': '2018-10-05 20:03:27.567836', 'mgs': 0, 'volt': 0.8252, 'depth': 0.394, 'time': 745, 'pitch': -18.95, 'roll': -3.36, 'pres': 169}
{'lipoC2': 7.77, 'lipoC3S1': 3.9, 'temp': 27.94, 'lipoC3S3': 11.8, 'lipoC3S2': 7.8, 'rot1': 229, 'rot0': 232, 'rot3': 125, 'rot2': 110, 'state': 'normal', 'yaw': -14.48, 'datetime': '2018-10-05 20:03:27.671957', 'mgs': 0, 'volt': 0.8252, 'depth': 0.394, 'time': 745, 'pitch': -18.4, 'roll': -2.7, 'pres': 169}
{'lipoC2': 7.77, 'lipoC3S1': 3.9, 'temp': 27.94, 'lipoC3S3': 11.8, 'lipoC3S2': 7.8, 'rot1': 229, 'rot0': 232, 'rot3': 125, 'rot2': 110, 'state': 'normal', 'yaw': -14.02, 'datetime': '2018-10-05 20:03:27.776541', 'mgs': 0, 'volt': 0.8252, 'depth': 0.394, 'time': 745, 'pitch': -17.97, 'roll': -1.67, 'pres': 169}
