{'lipoC2': 7.82, 'lipoC3S1': 3.91, 'temp': 28.56, 'lipoC3S3': 11.83, 'lipoC3S2': 7.82, 'rot1': 294, 'rot0': 287, 'rot3': 213, 'rot2': 175, 'state': 'normal', 'yaw': 5.1, 'datetime': '2018-10-05 19:48:36.867548', 'mgs': 0, 'volt': 0.8252, 'depth': 0.394, 'time': 69, 'pitch': -16.88, 'roll': -1.62, 'pres': 169}
{'lipoC2': 7.82, 'lipoC3S1': 3.91, 'temp': 28.56, 'lipoC3S3': 11.83, 'lipoC3S2': 7.82, 'rot1': 294, 'rot0': 287, 'rot3': 213, 'rot2': 175, 'state': 'normal', 'yaw': 4.97, 'datetime': '2018-10-05 19:48:36.891933', 'mgs': 0, 'volt': 0.8252, 'depth': 0.394, 'time': 70, 'pitch': -16.6, 'roll': -1.54, 'pres': 169}
{'lipoC2': 7.82, 'lipoC3S1': 3.91, 'temp': 28.56, 'lipoC3S3': 11.83, 'lipoC3S2': 7.82, 'rot1': 294, 'rot0': 287, 'rot3': 213, 'rot2': 175, 'state': 'normal', 'yaw': 4.92, 'datetime': '2018-10-05 19:48:36.915709', 'mgs': 0, 'volt': 0.8252, 'depth': 0.394, 'time': 70, 'pitch': -16.37, 'roll': -1.47, 'pres': 169}
{'lipoC2': 7.82, 'lipoC3S1': 3.91, 'temp': 28.56, 'lipoC3S3': 11.83, 'lipoC3S2': 7.82, 'rot1': 294, 'rot0': 287, 'rot3': 213, 'rot2': 175, 'state': 'normal', 'yaw': 4.94, 'datetime': '2018-10-05 19:48:36.938828', 'mgs': 0, 'volt': 0.8252, 'depth': 0.394, 'time': 70, 'pitch': -16.38, 'roll': -1.48, 'pres': 169}
{'lipoC2': 7.82, 'lipoC3S1': 3.91, 'temp': 28.56, 'lipoC3S3': 11.83, 'lipoC3S2': 7.82, 'rot1': 294, 'rot0': 287, 'rot3': 213, 'rot2': 175, 'state': 'normal', 'yaw': 5.18, 'datetime': '2018-10-05 19:48:36.968653', 'mgs': 0, 'volt': 0.8252, 'depth': 0.394, 'time': 70, 'pitch': -16.74, 'roll': -1.59, 'pres': 169}
{'lipoC2': 7.82, 'lipoC3S1': 3.91, 'temp': 28.56, 'lipoC3S3': 11.83, 'lipoC3S2': 7.82, 'rot1': 294, 'rot0': 287, 'rot3': 213, 'rot2': 175, 'state': 'normal', 'yaw': 5.74, 'datetime': '2018-10-05 19:48:36.979691', 'mgs': 0, 'volt': 0.8203, 'depth': 0.317, 'time': 70, 'pitch': -17.22, 'roll': -1.95, 'pres': 168}
{'lipoC2': 7.82, 'lipoC3S1': 3.91, 'temp': 28.56, 'lipoC3S3': 11.83, 'lipoC3S2': 7.82, 'rot1': 294, 'rot0': 287, 'rot3': 213, 'rot2': 175, 'state': 'normal', 'yaw': 6.09, 'datetime': '2018-10-05 19:48:36.991502', 'mgs': 0, 'volt': 0.8203, 'depth': 0.317, 'time': 70, 'pitch': -17.3, 'roll': -2.1, 'pres': 168}
{'lipoC2': 7.82, 'lipoC3S1': 3.91, 'temp': 28.56, 'lipoC3S3': 11.83, 'lipoC3S2': 7.82, 'rot1': 294, 'rot0': 287, 'rot3': 213, 'rot2': 175, 'state': 'normal', 'yaw': 5.95, 'datetime': '2018-10-05 19:48:37.001309', 'mgs': 0, 'volt': 0.8203, 'depth': 0.317, 'time': 70, 'pitch': -17.21, 'roll': -1.74, 'pres': 168}
{'lipoC2': 7.82, 'lipoC3S1': 3.91, 'temp': 28.56, 'lipoC3S3': 11.83, 'lipoC3S2': 7.81, 'rot1': 294, 'rot0': 287, 'rot3': 213, 'rot2': 175, 'state': 'normal', 'yaw': 5.55, 'datetime': '2018-10-05 19:48:37.011023', 'mgs': 0, 'volt': 0.8154, 'depth': 0.241, 'time': 70, 'pitch': -17.21, 'roll': -1.18, 'pres': 167}
{'lipoC2': 7.82, 'lipoC3S1': 3.91, 'temp': 28.56, 'lipoC3S3': 11.81, 'lipoC3S2': 7.81, 'rot1': 294, 'rot0': 287, 'rot3': 213, 'rot2': 175, 'state': 'normal', 'yaw': 5.33, 'datetime': '2018-10-05 19:48:37.020799', 'mgs': 0, 'volt': 0.8203, 'depth': 0.317, 'time': 70, 'pitch': -17.22, 'roll': -0.71, 'pres': 168}
{'lipoC2': 7.82, 'lipoC3S1': 3.91, 'temp': 28.56, 'lipoC3S3': 11.81, 'lipoC3S2': 7.82, 'rot1': 294, 'rot0': 287, 'rot3': 213, 'rot2': 175, 'state': 'normal', 'yaw': 5.41, 'datetime': '2018-10-05 19:48:37.030609', 'mgs': 0, 'volt': 0.8203, 'depth': 0.317, 'time': 70, 'pitch': -17.31, 'roll': -0.54, 'pres': 168}
{'lipoC2': 7.82, 'lipoC3S1': 3.91, 'temp': 28.56, 'lipoC3S3': 11.81, 'lipoC3S2': 7.82, 'rot1': 294, 'rot0': 287, 'rot3': 213, 'rot2': 175, 'state': 'normal', 'yaw': 5.66, 'datetime': '2018-10-05 19:48:37.040418', 'mgs': 0, 'volt': 0.8154, 'depth': 0.241, 'time': 71, 'pitch': -17.47, 'roll': -0.54, 'pres': 167}
{'lipoC2': 7.82, 'lipoC3S1': 3.91, 'temp': 28.56, 'lipoC3S3': 11.81, 'lipoC3S2': 7.82, 'rot1': 294, 'rot0': 287, 'rot3': 213, 'rot2': 175, 'state': 'normal', 'yaw': 5.94, 'datetime': '2018-10-05 19:48:37.050240', 'mgs': 0, 'volt': 0.8154, 'depth': 0.241, 'time': 71, 'pitch': -17.55, 'roll': -0.61, 'pres': 167}
{'lipoC2': 7.82, 'lipoC3S1': 3.91, 'temp': 28.56, 'lipoC3S3': 11.81, 'lipoC3S2': 7.82, 'rot1': 294, 'rot0': 287, 'rot3': 213, 'rot2': 175, 'state': 'normal', 'yaw': 6.19, 'datetime': '2018-10-05 19:48:37.060070', 'mgs': 0, 'volt': 0.8154, 'depth': 0.241, 'time': 71, 'pitch': -17.48, 'roll': -0.62, 'pres': 167}
{'lipoC2': 7.82, 'lipoC3S1': 3.91, 'temp': 28.56, 'lipoC3S3': 11.81, 'lipoC3S2': 7.82, 'rot1': 294, 'rot0': 287, 'rot3': 213, 'rot2': 175, 'state': 'normal', 'yaw': 6.45, 'datetime': '2018-10-05 19:48:37.070054', 'mgs': 0, 'volt': 0.8203, 'depth': 0.317, 'time': 71, 'pitch': -17.15, 'roll': -0.66, 'pres': 168}
{'lipoC2': 7.82, 'lipoC3S1': 3.91, 'temp': 28.56, 'lipoC3S3': 11.81, 'lipoC3S2': 7.82, 'rot1': 294, 'rot0': 287, 'rot3': 213, 'rot2': 175, 'state': 'normal', 'yaw': 6.67, 'datetime': '2018-10-05 19:48:37.079889', 'mgs': 0, 'volt': 0.8154, 'depth': 0.241, 'time': 71, 'pitch': -16.78, 'roll': -0.71, 'pres': 167}
{'lipoC2': 7.82, 'lipoC3S1': 3.91, 'temp': 28.56, 'lipoC3S3': 11.81, 'lipoC3S2': 7.81, 'rot1': 294, 'rot0': 287, 'rot3': 213, 'rot2': 175, 'state': 'normal', 'yaw': 6.85, 'datetime': '2018-10-05 19:48:37.091521', 'mgs': 0, 'volt': 0.8154, 'depth': 0.241, 'time': 71, 'pitch': -16.72, 'roll': -0.76, 'pres': 167}
{'lipoC2': 7.82, 'lipoC3S1': 3.91, 'temp': 28.56, 'lipoC3S3': 11.81, 'lipoC3S2': 7.82, 'rot1': 294, 'rot0': 287, 'rot3': 213, 'rot2': 175, 'state': 'normal', 'yaw': 6.98, 'datetime': '2018-10-05 19:48:37.101377', 'mgs': 0, 'volt': 0.8203, 'depth': 0.317, 'time': 71, 'pitch': -17.02, 'roll': -0.8, 'pres': 168}
{'lipoC2': 7.82, 'lipoC3S1': 3.91, 'temp': 28.56, 'lipoC3S3': 11.81, 'lipoC3S2': 7.82, 'rot1': 294, 'rot0': 287, 'rot3': 213, 'rot2': 175, 'state': 'normal', 'yaw': 7.01, 'datetime': '2018-10-05 19:48:37.111109', 'mgs': 0, 'volt': 0.8203, 'depth': 0.317, 'time': 71, 'pitch': -17.32, 'roll': -0.84, 'pres': 168}
{'lipoC2': 7.82, 'lipoC3S1': 3.91, 'temp': 28.56, 'lipoC3S3': 11.81, 'lipoC3S2': 7.82, 'rot1': 294, 'rot0': 287, 'rot3': 213, 'rot2': 175, 'state': 'normal', 'yaw': 7.0, 'datetime': '2018-10-05 19:48:37.120806', 'mgs': 0, 'volt': 0.8203, 'depth': 0.317, 'time': 71, 'pitch': -17.34, 'roll': -0.93, 'pres': 168}
{'lipoC2': 7.82, 'lipoC3S1': 3.91, 'temp': 28.56, 'lipoC3S3': 11.81, 'lipoC3S2': 7.81, 'rot1': 294, 'rot0': 287, 'rot3': 213, 'rot2': 175, 'state': 'normal', 'yaw': 7.01, 'datetime': '2018-10-05 19:48:37.130522', 'mgs': 0, 'volt': 0.8203, 'depth': 0.317, 'time': 72, 'pitch': -17.13, 'roll': -1.02, 'pres': 168}
{'lipoC2': 7.82, 'lipoC3S1': 3.91, 'temp': 28.5, 'lipoC3S3': 11.81, 'lipoC3S2': 7.82, 'rot1': 294, 'rot0': 287, 'rot3': 213, 'rot2': 175, 'state': 'normal', 'yaw': 6.98, 'datetime': '2018-10-05 19:48:37.207838', 'mgs': 0, 'volt': 0.8203, 'depth': 0.317, 'time': 72, 'pitch': -16.97, 'roll': -1.12, 'pres': 168}
{'lipoC2': 7.82, 'lipoC3S1': 3.91, 'temp': 28.5, 'lipoC3S3': 11.81, 'lipoC3S2': 7.82, 'rot1': 294, 'rot0': 287, 'rot3': 213, 'rot2': 175, 'state': 'normal', 'yaw': 6.91, 'datetime': '2018-10-05 19:48:37.312032', 'mgs': 0, 'volt': 0.8203, 'depth': 0.317, 'time': 72, 'pitch': -16.97, 'roll': -1.23, 'pres': 168}
{'lipoC2': 7.82, 'lipoC3S1': 3.91, 'temp': 28.56, 'lipoC3S3': 11.81, 'lipoC3S2': 7.82, 'rot1': 294, 'rot0': 287, 'rot3': 213, 'rot2': 175, 'state': 'normal', 'yaw': 6.82, 'datetime': '2018-10-05 19:48:37.416262', 'mgs': 0, 'volt': 0.8203, 'depth': 0.317, 'time': 72, 'pitch': -17.07, 'roll': -1.32, 'pres': 168}
{'lipoC2': 7.82, 'lipoC3S1': 3.91, 'temp': 28.56, 'lipoC3S3': 11.81, 'lipoC3S2': 7.81, 'rot1': 294, 'rot0': 287, 'rot3': 213, 'rot2': 175, 'state': 'normal', 'yaw': 6.68, 'datetime': '2018-10-05 19:48:37.520466', 'mgs': 0, 'volt': 0.8154, 'depth': 0.241, 'time': 72, 'pitch': -17.15, 'roll': -1.43, 'pres': 167}
{'lipoC2': 7.82, 'lipoC3S1': 3.91, 'temp': 28.56, 'lipoC3S3': 11.83, 'lipoC3S2': 7.82, 'rot1': 294, 'rot0': 287, 'rot3': 213, 'rot2': 175, 'state': 'normal', 'yaw': 6.57, 'datetime': '2018-10-05 19:48:37.624676', 'mgs': 0, 'volt': 0.8203, 'depth': 0.317, 'time': 72, 'pitch': -17.16, 'roll': -1.55, 'pres': 168}
{'lipoC2': 7.82, 'lipoC3S1': 3.91, 'temp': 28.56, 'lipoC3S3': 11.81, 'lipoC3S2': 7.82, 'rot1': 294, 'rot0': 287, 'rot3': 213, 'rot2': 175, 'state': 'normal', 'yaw': 6.55, 'datetime': '2018-10-05 19:48:37.735541', 'mgs': 0, 'volt': 0.8203, 'depth': 0.317, 'time': 72, 'pitch': -17.16, 'roll': -1.75, 'pres': 168}
{'lipoC2': 7.82, 'lipoC3S1': 3.91, 'temp': 28.56, 'lipoC3S3': 11.81, 'lipoC3S2': 7.81, 'rot1': 294, 'rot0': 287, 'rot3': 213, 'rot2': 175, 'state': 'normal', 'yaw': 6.55, 'datetime': '2018-10-05 19:48:37.839729', 'mgs': 0, 'volt': 0.8203, 'depth': 0.317, 'time': 72, 'pitch': -17.24, 'roll': -1.97, 'pres': 168}
{'lipoC2': 7.82, 'lipoC3S1': 3.91, 'temp': 28.56, 'lipoC3S3': 11.81, 'lipoC3S2': 7.81, 'rot1': 294, 'rot0': 287, 'rot3': 213, 'rot2': 175, 'state': 'normal', 'yaw': 6.56, 'datetime': '2018-10-05 19:48:37.944294', 'mgs': 0, 'volt': 0.8154, 'depth': 0.241, 'time': 72, 'pitch': -17.34, 'roll': -2.24, 'pres': 167}
{'lipoC2': 7.82, 'lipoC3S1': 3.91, 'temp': 28.56, 'lipoC3S3': 11.83, 'lipoC3S2': 7.82, 'rot1': 294, 'rot0': 287, 'rot3': 213, 'rot2': 175, 'state': 'normal', 'yaw': 6.57, 'datetime': '2018-10-05 19:48:38.048406', 'mgs': 0, 'volt': 0.8154, 'depth': 0.241, 'time': 72, 'pitch': -17.33, 'roll': -2.44, 'pres': 167}
{'lipoC2': 7.82, 'lipoC3S1': 3.91, 'temp': 28.56, 'lipoC3S3': 11.81, 'lipoC3S2': 7.82, 'rot1': 294, 'rot0': 287, 'rot3': 213, 'rot2': 175, 'state': 'normal', 'yaw': 6.57, 'datetime': '2018-10-05 19:48:38.153875', 'mgs': 0, 'volt': 0.8154, 'depth': 0.241, 'time': 73, 'pitch': -17.31, 'roll': -2.57, 'pres': 167}
{'lipoC2': 7.82, 'lipoC3S1': 3.91, 'temp': 28.56, 'lipoC3S3': 11.83, 'lipoC3S2': 7.81, 'rot1': 294, 'rot0': 287, 'rot3': 213, 'rot2': 175, 'state': 'normal', 'yaw': 6.57, 'datetime': '2018-10-05 19:48:38.257975', 'mgs': 0, 'volt': 0.8154, 'depth': 0.241, 'time': 73, 'pitch': -17.32, 'roll': -2.6, 'pres': 167}
{'lipoC2': 7.82, 'lipoC3S1': 3.91, 'temp': 28.56, 'lipoC3S3': 11.83, 'lipoC3S2': 7.82, 'rot1': 294, 'rot0': 287, 'rot3': 213, 'rot2': 175, 'state': 'normal', 'yaw': 6.57, 'datetime': '2018-10-05 19:48:38.363547', 'mgs': 0, 'volt': 0.8154, 'depth': 0.241, 'time': 73, 'pitch': -17.42, 'roll': -2.6, 'pres': 167}
{'lipoC2': 7.82, 'lipoC3S1': 3.91, 'temp': 28.56, 'lipoC3S3': 11.81, 'lipoC3S2': 7.81, 'rot1': 294, 'rot0': 287, 'rot3': 213, 'rot2': 175, 'state': 'normal', 'yaw': 6.6, 'datetime': '2018-10-05 19:48:38.466317', 'mgs': 0, 'volt': 0.8154, 'depth': 0.241, 'time': 73, 'pitch': -17.45, 'roll': -2.59, 'pres': 167}
{'lipoC2': 7.82, 'lipoC3S1': 3.91, 'temp': 28.56, 'lipoC3S3': 11.81, 'lipoC3S2': 7.81, 'rot1': 294, 'rot0': 287, 'rot3': 213, 'rot2': 175, 'state': 'normal', 'yaw': 6.6, 'datetime': '2018-10-05 19:48:38.566026', 'mgs': 0, 'volt': 0.8154, 'depth': 0.241, 'time': 73, 'pitch': -17.45, 'roll': -2.48, 'pres': 167}
{'lipoC2': 7.82, 'lipoC3S1': 3.91, 'temp': 28.56, 'lipoC3S3': 11.81, 'lipoC3S2': 7.81, 'rot1': 294, 'rot0': 287, 'rot3': 213, 'rot2': 175, 'state': 'normal', 'yaw': 6.6, 'datetime': '2018-10-05 19:48:38.670239', 'mgs': 0, 'volt': 0.8154, 'depth': 0.241, 'time': 73, 'pitch': -17.45, 'roll': -2.33, 'pres': 167}
{'lipoC2': 7.82, 'lipoC3S1': 3.91, 'temp': 28.56, 'lipoC3S3': 11.83, 'lipoC3S2': 7.82, 'rot1': 294, 'rot0': 287, 'rot3': 213, 'rot2': 175, 'state': 'normal', 'yaw': 6.6, 'datetime': '2018-10-05 19:48:38.774456', 'mgs': 0, 'volt': 0.8154, 'depth': 0.241, 'time': 73, 'pitch': -17.44, 'roll': -2.14, 'pres': 167}
{'lipoC2': 7.82, 'lipoC3S1': 3.91, 'temp': 28.56, 'lipoC3S3': 11.81, 'lipoC3S2': 7.81, 'rot1': 294, 'rot0': 287, 'rot3': 213, 'rot2': 175, 'state': 'normal', 'yaw': 6.63, 'datetime': '2018-10-05 19:48:38.878690', 'mgs': 0, 'volt': 0.8154, 'depth': 0.241, 'time': 73, 'pitch': -17.43, 'roll': -1.97, 'pres': 167}
{'lipoC2': 7.82, 'lipoC3S1': 3.91, 'temp': 28.56, 'lipoC3S3': 11.83, 'lipoC3S2': 7.81, 'rot1': 294, 'rot0': 287, 'rot3': 213, 'rot2': 175, 'state': 'normal', 'yaw': 6.64, 'datetime': '2018-10-05 19:48:38.982886', 'mgs': 0, 'volt': 0.8154, 'depth': 0.241, 'time': 73, 'pitch': -17.45, 'roll': -1.79, 'pres': 167}
{'lipoC2': 7.82, 'lipoC3S1': 3.91, 'temp': 28.56, 'lipoC3S3': 11.83, 'lipoC3S2': 7.82, 'rot1': 294, 'rot0': 287, 'rot3': 213, 'rot2': 175, 'state': 'normal', 'yaw': 6.69, 'datetime': '2018-10-05 19:48:39.088369', 'mgs': 0, 'volt': 0.8154, 'depth': 0.241, 'time': 74, 'pitch': -17.53, 'roll': -1.66, 'pres': 167}
{'lipoC2': 7.82, 'lipoC3S1': 3.91, 'temp': 28.56, 'lipoC3S3': 11.81, 'lipoC3S2': 7.82, 'rot1': 294, 'rot0': 287, 'rot3': 213, 'rot2': 175, 'state': 'normal', 'yaw': 6.75, 'datetime': '2018-10-05 19:48:39.192554', 'mgs': 0, 'volt': 0.8203, 'depth': 0.317, 'time': 74, 'pitch': -17.64, 'roll': -1.53, 'pres': 168}
{'lipoC2': 7.82, 'lipoC3S1': 3.91, 'temp': 28.56, 'lipoC3S3': 11.81, 'lipoC3S2': 7.82, 'rot1': 294, 'rot0': 287, 'rot3': 213, 'rot2': 175, 'state': 'normal', 'yaw': 6.71, 'datetime': '2018-10-05 19:48:39.297000', 'mgs': 0, 'volt': 0.8203, 'depth': 0.317, 'time': 74, 'pitch': -17.74, 'roll': -1.38, 'pres': 168}
{'lipoC2': 7.82, 'lipoC3S1': 3.91, 'temp': 28.56, 'lipoC3S3': 11.83, 'lipoC3S2': 7.82, 'rot1': 294, 'rot0': 287, 'rot3': 213, 'rot2': 175, 'state': 'normal', 'yaw': 6.58, 'datetime': '2018-10-05 19:48:39.401778', 'mgs': 0, 'volt': 0.8154, 'depth': 0.241, 'time': 74, 'pitch': -17.8, 'roll': -1.23, 'pres': 167}
{'lipoC2': 7.82, 'lipoC3S1': 3.91, 'temp': 28.56, 'lipoC3S3': 11.83, 'lipoC3S2': 7.82, 'rot1': 294, 'rot0': 287, 'rot3': 213, 'rot2': 175, 'state': 'normal', 'yaw': 6.47, 'datetime': '2018-10-05 19:48:39.505946', 'mgs': 0, 'volt': 0.8154, 'depth': 0.241, 'time': 74, 'pitch': -17.8, 'roll': -1.18, 'pres': 167}
{'lipoC2': 7.82, 'lipoC3S1': 3.91, 'temp': 28.56, 'lipoC3S3': 11.83, 'lipoC3S2': 7.81, 'rot1': 294, 'rot0': 287, 'rot3': 213, 'rot2': 175, 'state': 'normal', 'yaw': 6.39, 'datetime': '2018-10-05 19:48:39.611779', 'mgs': 0, 'volt': 0.8154, 'depth': 0.241, 'time': 74, 'pitch': -17.81, 'roll': -1.25, 'pres': 167}
{'lipoC2': 7.82, 'lipoC3S1': 3.91, 'temp': 28.56, 'lipoC3S3': 11.81, 'lipoC3S2': 7.82, 'rot1': 294, 'rot0': 287, 'rot3': 213, 'rot2': 175, 'state': 'normal', 'yaw': 6.3, 'datetime': '2018-10-05 19:48:39.715915', 'mgs': 0, 'volt': 0.8154, 'depth': 0.241, 'time': 74, 'pitch': -17.86, 'roll': -1.41, 'pres': 167}
{'lipoC2': 7.82, 'lipoC3S1': 3.91, 'temp': 28.56, 'lipoC3S3': 11.81, 'lipoC3S2': 7.81, 'rot1': 294, 'rot0': 287, 'rot3': 213, 'rot2': 175, 'state': 'normal', 'yaw': 6.2, 'datetime': '2018-10-05 19:48:39.820048', 'mgs': 0, 'volt': 0.8154, 'depth': 0.241, 'time': 74, 'pitch': -17.9, 'roll': -1.64, 'pres': 167}
{'lipoC2': 7.82, 'lipoC3S1': 3.91, 'temp': 28.56, 'lipoC3S3': 11.81, 'lipoC3S2': 7.82, 'rot1': 294, 'rot0': 287, 'rot3': 213, 'rot2': 175, 'state': 'normal', 'yaw': 5.95, 'datetime': '2018-10-05 19:48:39.924285', 'mgs': 0, 'volt': 0.8154, 'depth': 0.241, 'time': 74, 'pitch': -17.89, 'roll': -1.84, 'pres': 167}
{'lipoC2': 7.82, 'lipoC3S1': 3.91, 'temp': 28.56, 'lipoC3S3': 11.83, 'lipoC3S2': 7.81, 'rot1': 294, 'rot0': 287, 'rot3': 213, 'rot2': 175, 'state': 'normal', 'yaw': 5.69, 'datetime': '2018-10-05 19:48:40.030321', 'mgs': 0, 'volt': 0.8154, 'depth': 0.241, 'time': 74, 'pitch': -17.86, 'roll': -2.03, 'pres': 167}
{'lipoC2': 7.82, 'lipoC3S1': 3.91, 'temp': 28.5, 'lipoC3S3': 11.81, 'lipoC3S2': 7.82, 'rot1': 294, 'rot0': 287, 'rot3': 213, 'rot2': 175, 'state': 'normal', 'yaw': 5.51, 'datetime': '2018-10-05 19:48:40.132221', 'mgs': 0, 'volt': 0.8154, 'depth': 0.241, 'time': 75, 'pitch': -17.88, 'roll': -2.28, 'pres': 167}
{'lipoC2': 7.82, 'lipoC3S1': 3.91, 'temp': 28.5, 'lipoC3S3': 11.83, 'lipoC3S2': 7.81, 'rot1': 294, 'rot0': 287, 'rot3': 213, 'rot2': 175, 'state': 'normal', 'yaw': 5.31, 'datetime': '2018-10-05 19:48:40.239507', 'mgs': 0, 'volt': 0.8154, 'depth': 0.241, 'time': 75, 'pitch': -17.98, 'roll': -2.56, 'pres': 167}
{'lipoC2': 7.82, 'lipoC3S1': 3.91, 'temp': 28.5, 'lipoC3S3': 11.83, 'lipoC3S2': 7.81, 'rot1': 294, 'rot0': 287, 'rot3': 213, 'rot2': 175, 'state': 'normal', 'yaw': 5.03, 'datetime': '2018-10-05 19:48:40.341830', 'mgs': 0, 'volt': 0.8154, 'depth': 0.241, 'time': 75, 'pitch': -18.0, 'roll': -2.74, 'pres': 167}
{'lipoC2': 7.82, 'lipoC3S1': 3.91, 'temp': 28.5, 'lipoC3S3': 11.83, 'lipoC3S2': 7.82, 'rot1': 294, 'rot0': 287, 'rot3': 213, 'rot2': 175, 'state': 'normal', 'yaw': 4.76, 'datetime': '2018-10-05 19:48:40.449332', 'mgs': 0, 'volt': 0.8154, 'depth': 0.241, 'time': 75, 'pitch': -17.98, 'roll': -2.94, 'pres': 167}
{'lipoC2': 7.82, 'lipoC3S1': 3.91, 'temp': 28.5, 'lipoC3S3': 11.81, 'lipoC3S2': 7.82, 'rot1': 294, 'rot0': 287, 'rot3': 213, 'rot2': 175, 'state': 'normal', 'yaw': 4.56, 'datetime': '2018-10-05 19:48:40.551571', 'mgs': 0, 'volt': 0.8154, 'depth': 0.241, 'time': 75, 'pitch': -17.82, 'roll': -3.11, 'pres': 167}
{'lipoC2': 7.82, 'lipoC3S1': 3.91, 'temp': 28.56, 'lipoC3S3': 11.81, 'lipoC3S2': 7.82, 'rot1': 294, 'rot0': 287, 'rot3': 213, 'rot2': 175, 'state': 'normal', 'yaw': 4.35, 'datetime': '2018-10-05 19:48:40.659213', 'mgs': 0, 'volt': 0.8154, 'depth': 0.241, 'time': 75, 'pitch': -17.64, 'roll': -3.24, 'pres': 167}
{'lipoC2': 7.82, 'lipoC3S1': 3.91, 'temp': 28.56, 'lipoC3S3': 11.83, 'lipoC3S2': 7.82, 'rot1': 294, 'rot0': 287, 'rot3': 213, 'rot2': 175, 'state': 'normal', 'yaw': 4.17, 'datetime': '2018-10-05 19:48:40.763635', 'mgs': 0, 'volt': 0.8154, 'depth': 0.241, 'time': 75, 'pitch': -17.61, 'roll': -3.26, 'pres': 167}
{'lipoC2': 7.82, 'lipoC3S1': 3.91, 'temp': 28.56, 'lipoC3S3': 11.83, 'lipoC3S2': 7.81, 'rot1': 294, 'rot0': 287, 'rot3': 213, 'rot2': 175, 'state': 'normal', 'yaw': 3.96, 'datetime': '2018-10-05 19:48:40.869066', 'mgs': 0, 'volt': 0.8154, 'depth': 0.241, 'time': 75, 'pitch': -17.63, 'roll': -3.2, 'pres': 167}
{'lipoC2': 7.82, 'lipoC3S1': 3.91, 'temp': 28.56, 'lipoC3S3': 11.83, 'lipoC3S2': 7.82, 'rot1': 294, 'rot0': 287, 'rot3': 213, 'rot2': 175, 'state': 'normal', 'yaw': 3.75, 'datetime': '2018-10-05 19:48:40.969682', 'mgs': 0, 'volt': 0.8154, 'depth': 0.241, 'time': 75, 'pitch': -17.64, 'roll': -3.06, 'pres': 167}
{'lipoC2': 7.82, 'lipoC3S1': 3.91, 'temp': 28.56, 'lipoC3S3': 11.81, 'lipoC3S2': 7.82, 'rot1': 294, 'rot0': 287, 'rot3': 213, 'rot2': 175, 'state': 'normal', 'yaw': 3.56, 'datetime': '2018-10-05 19:48:41.074090', 'mgs': 0, 'volt': 0.8154, 'depth': 0.241, 'time': 76, 'pitch': -17.72, 'roll': -2.89, 'pres': 167}
{'lipoC2': 7.82, 'lipoC3S1': 3.91, 'temp': 28.56, 'lipoC3S3': 11.81, 'lipoC3S2': 7.82, 'rot1': 294, 'rot0': 287, 'rot3': 213, 'rot2': 175, 'state': 'normal', 'yaw': 3.58, 'datetime': '2018-10-05 19:48:41.178271', 'mgs': 0, 'volt': 0.8154, 'depth': 0.241, 'time': 76, 'pitch': -18.01, 'roll': -2.86, 'pres': 167}
{'lipoC2': 7.82, 'lipoC3S1': 3.91, 'temp': 28.56, 'lipoC3S3': 11.83, 'lipoC3S2': 7.82, 'rot1': 294, 'rot0': 287, 'rot3': 213, 'rot2': 175, 'state': 'normal', 'yaw': 3.79, 'datetime': '2018-10-05 19:48:41.282472', 'mgs': 0, 'volt': 0.8154, 'depth': 0.241, 'time': 76, 'pitch': -18.02, 'roll': -2.88, 'pres': 167}
{'lipoC2': 7.82, 'lipoC3S1': 3.91, 'temp': 28.5, 'lipoC3S3': 11.81, 'lipoC3S2': 7.82, 'rot1': 294, 'rot0': 287, 'rot3': 213, 'rot2': 175, 'state': 'normal', 'yaw': 3.79, 'datetime': '2018-10-05 19:48:41.386708', 'mgs': 0, 'volt': 0.8154, 'depth': 0.241, 'time': 76, 'pitch': -17.71, 'roll': -2.62, 'pres': 167}
{'lipoC2': 7.81, 'lipoC3S1': 3.91, 'temp': 28.5, 'lipoC3S3': 11.81, 'lipoC3S2': 7.82, 'rot1': 294, 'rot0': 287, 'rot3': 213, 'rot2': 175, 'state': 'normal', 'yaw': 3.83, 'datetime': '2018-10-05 19:48:41.490882', 'mgs': 0, 'volt': 0.8154, 'depth': 0.241, 'time': 76, 'pitch': -17.42, 'roll': -2.33, 'pres': 167}
{'lipoC2': 7.82, 'lipoC3S1': 3.91, 'temp': 28.56, 'lipoC3S3': 11.81, 'lipoC3S2': 7.82, 'rot1': 294, 'rot0': 287, 'rot3': 213, 'rot2': 175, 'state': 'normal', 'yaw': 4.08, 'datetime': '2018-10-05 19:48:41.596500', 'mgs': 0, 'volt': 0.8154, 'depth': 0.241, 'time': 76, 'pitch': -17.45, 'roll': -2.15, 'pres': 167}
{'lipoC2': 7.82, 'lipoC3S1': 3.91, 'temp': 28.56, 'lipoC3S3': 11.83, 'lipoC3S2': 7.82, 'rot1': 294, 'rot0': 287, 'rot3': 213, 'rot2': 175, 'state': 'normal', 'yaw': 4.17, 'datetime': '2018-10-05 19:48:41.700662', 'mgs': 0, 'volt': 0.8154, 'depth': 0.241, 'time': 76, 'pitch': -17.94, 'roll': -1.78, 'pres': 167}
{'lipoC2': 7.82, 'lipoC3S1': 3.91, 'temp': 28.56, 'lipoC3S3': 11.83, 'lipoC3S2': 7.82, 'rot1': 294, 'rot0': 287, 'rot3': 213, 'rot2': 175, 'state': 'normal', 'yaw': 3.91, 'datetime': '2018-10-05 19:48:41.806191', 'mgs': 0, 'volt': 0.8154, 'depth': 0.241, 'time': 76, 'pitch': -18.42, 'roll': -1.09, 'pres': 167}
{'lipoC2': 7.82, 'lipoC3S1': 3.91, 'temp': 28.56, 'lipoC3S3': 11.83, 'lipoC3S2': 7.82, 'rot1': 294, 'rot0': 287, 'rot3': 213, 'rot2': 175, 'state': 'normal', 'yaw': 3.78, 'datetime': '2018-10-05 19:48:41.910340', 'mgs': 0, 'volt': 0.8154, 'depth': 0.241, 'time': 76, 'pitch': -18.4, 'roll': -0.44, 'pres': 167}
{'lipoC2': 7.82, 'lipoC3S1': 3.91, 'temp': 28.56, 'lipoC3S3': 11.83, 'lipoC3S2': 7.82, 'rot1': 294, 'rot0': 287, 'rot3': 213, 'rot2': 175, 'state': 'normal', 'yaw': 3.93, 'datetime': '2018-10-05 19:48:42.015862', 'mgs': 0, 'volt': 0.8154, 'depth': 0.241, 'time': 76, 'pitch': -18.15, 'roll': -0.16, 'pres': 167}
{'lipoC2': 7.82, 'lipoC3S1': 3.91, 'temp': 28.56, 'lipoC3S3': 11.83, 'lipoC3S2': 7.82, 'rot1': 294, 'rot0': 287, 'rot3': 213, 'rot2': 175, 'state': 'normal', 'yaw': 4.07, 'datetime': '2018-10-05 19:48:42.120108', 'mgs': 0, 'volt': 0.8154, 'depth': 0.241, 'time': 77, 'pitch': -17.93, 'roll': 0.04, 'pres': 167}
{'lipoC2': 7.82, 'lipoC3S1': 3.91, 'temp': 28.56, 'lipoC3S3': 11.83, 'lipoC3S2': 7.81, 'rot1': 294, 'rot0': 287, 'rot3': 213, 'rot2': 175, 'state': 'normal', 'yaw': 4.04, 'datetime': '2018-10-05 19:48:42.224278', 'mgs': 0, 'volt': 0.8154, 'depth': 0.241, 'time': 77, 'pitch': -17.83, 'roll': 0.13, 'pres': 167}
{'lipoC2': 7.82, 'lipoC3S1': 3.91, 'temp': 28.56, 'lipoC3S3': 11.83, 'lipoC3S2': 7.82, 'rot1': 294, 'rot0': 287, 'rot3': 213, 'rot2': 175, 'state': 'normal', 'yaw': 3.92, 'datetime': '2018-10-05 19:48:42.328598', 'mgs': 0, 'volt': 0.8154, 'depth': 0.241, 'time': 77, 'pitch': -18.03, 'roll': 0.15, 'pres': 167}
{'lipoC2': 7.82, 'lipoC3S1': 3.91, 'temp': 28.56, 'lipoC3S3': 11.83, 'lipoC3S2': 7.82, 'rot1': 294, 'rot0': 287, 'rot3': 213, 'rot2': 175, 'state': 'normal', 'yaw': 3.87, 'datetime': '2018-10-05 19:48:42.432859', 'mgs': 0, 'volt': 0.8154, 'depth': 0.241, 'time': 77, 'pitch': -18.33, 'roll': -0.06, 'pres': 167}
{'lipoC2': 7.82, 'lipoC3S1': 3.91, 'temp': 28.5, 'lipoC3S3': 11.81, 'lipoC3S2': 7.82, 'rot1': 294, 'rot0': 287, 'rot3': 213, 'rot2': 175, 'state': 'normal', 'yaw': 3.96, 'datetime': '2018-10-05 19:48:42.537060', 'mgs': 0, 'volt': 0.8154, 'depth': 0.241, 'time': 77, 'pitch': -18.45, 'roll': -0.43, 'pres': 167}
{'lipoC2': 7.82, 'lipoC3S1': 3.91, 'temp': 28.5, 'lipoC3S3': 11.83, 'lipoC3S2': 7.82, 'rot1': 294, 'rot0': 287, 'rot3': 213, 'rot2': 175, 'state': 'normal', 'yaw': 4.01, 'datetime': '2018-10-05 19:48:42.641178', 'mgs': 0, 'volt': 0.8154, 'depth': 0.241, 'time': 77, 'pitch': -18.56, 'roll': -0.78, 'pres': 167}
{'lipoC2': 7.82, 'lipoC3S1': 3.91, 'temp': 28.56, 'lipoC3S3': 11.83, 'lipoC3S2': 7.82, 'rot1': 294, 'rot0': 287, 'rot3': 213, 'rot2': 175, 'state': 'normal', 'yaw': 4.12, 'datetime': '2018-10-05 19:48:42.745378', 'mgs': 0, 'volt': 0.8154, 'depth': 0.241, 'time': 77, 'pitch': -18.7, 'roll': -1.08, 'pres': 167}
{'lipoC2': 7.82, 'lipoC3S1': 3.91, 'temp': 28.56, 'lipoC3S3': 11.83, 'lipoC3S2': 7.82, 'rot1': 294, 'rot0': 287, 'rot3': 213, 'rot2': 175, 'state': 'normal', 'yaw': 4.34, 'datetime': '2018-10-05 19:48:42.850203', 'mgs': 0, 'volt': 0.8154, 'depth': 0.241, 'time': 77, 'pitch': -18.8, 'roll': -1.35, 'pres': 167}
{'lipoC2': 7.82, 'lipoC3S1': 3.91, 'temp': 28.56, 'lipoC3S3': 11.83, 'lipoC3S2': 7.82, 'rot1': 294, 'rot0': 287, 'rot3': 213, 'rot2': 175, 'state': 'normal', 'yaw': 4.58, 'datetime': '2018-10-05 19:48:42.954419', 'mgs': 0, 'volt': 0.8154, 'depth': 0.241, 'time': 77, 'pitch': -18.62, 'roll': -1.51, 'pres': 167}
{'lipoC2': 7.82, 'lipoC3S1': 3.91, 'temp': 28.56, 'lipoC3S3': 11.83, 'lipoC3S2': 7.82, 'rot1': 294, 'rot0': 287, 'rot3': 213, 'rot2': 175, 'state': 'normal', 'yaw': 4.78, 'datetime': '2018-10-05 19:48:43.059986', 'mgs': 0, 'volt': 0.8154, 'depth': 0.241, 'time': 77, 'pitch': -18.3, 'roll': -1.52, 'pres': 167}
{'lipoC2': 7.82, 'lipoC3S1': 3.91, 'temp': 28.56, 'lipoC3S3': 11.81, 'lipoC3S2': 7.82, 'rot1': 294, 'rot0': 287, 'rot3': 213, 'rot2': 175, 'state': 'normal', 'yaw': 5.02, 'datetime': '2018-10-05 19:48:43.164183', 'mgs': 0, 'volt': 0.8154, 'depth': 0.241, 'time': 78, 'pitch': -17.83, 'roll': -1.45, 'pres': 167}
{'lipoC2': 7.82, 'lipoC3S1': 3.91, 'temp': 28.5, 'lipoC3S3': 11.81, 'lipoC3S2': 7.82, 'rot1': 294, 'rot0': 287, 'rot3': 213, 'rot2': 175, 'state': 'normal', 'yaw': 5.31, 'datetime': '2018-10-05 19:48:43.269674', 'mgs': 0, 'volt': 0.8154, 'depth': 0.241, 'time': 78, 'pitch': -17.56, 'roll': -1.43, 'pres': 167}
{'lipoC2': 7.82, 'lipoC3S1': 3.91, 'temp': 28.5, 'lipoC3S3': 11.83, 'lipoC3S2': 7.82, 'rot1': 294, 'rot0': 287, 'rot3': 213, 'rot2': 175, 'state': 'normal', 'yaw': 5.67, 'datetime': '2018-10-05 19:48:43.373904', 'mgs': 0, 'volt': 0.8105, 'depth': 0.165, 'time': 78, 'pitch': -17.58, 'roll': -1.48, 'pres': 166}
{'lipoC2': 7.82, 'lipoC3S1': 3.91, 'temp': 28.56, 'lipoC3S3': 11.81, 'lipoC3S2': 7.82, 'rot1': 294, 'rot0': 287, 'rot3': 213, 'rot2': 175, 'state': 'normal', 'yaw': 5.92, 'datetime': '2018-10-05 19:48:43.478122', 'mgs': 0, 'volt': 0.8154, 'depth': 0.241, 'time': 78, 'pitch': -17.72, 'roll': -1.53, 'pres': 167}
{'lipoC2': 7.82, 'lipoC3S1': 3.91, 'temp': 28.56, 'lipoC3S3': 11.83, 'lipoC3S2': 7.82, 'rot1': 294, 'rot0': 287, 'rot3': 213, 'rot2': 175, 'state': 'normal', 'yaw': 6.12, 'datetime': '2018-10-05 19:48:43.582331', 'mgs': 0, 'volt': 0.8105, 'depth': 0.165, 'time': 78, 'pitch': -17.91, 'roll': -1.58, 'pres': 166}
{'lipoC2': 7.82, 'lipoC3S1': 3.91, 'temp': 28.56, 'lipoC3S3': 11.83, 'lipoC3S2': 7.82, 'rot1': 294, 'rot0': 287, 'rot3': 213, 'rot2': 175, 'state': 'normal', 'yaw': 6.31, 'datetime': '2018-10-05 19:48:43.686564', 'mgs': 0, 'volt': 0.8105, 'depth': 0.165, 'time': 78, 'pitch': -17.98, 'roll': -1.65, 'pres': 166}
{'lipoC2': 7.82, 'lipoC3S1': 3.91, 'temp': 28.5, 'lipoC3S3': 11.83, 'lipoC3S2': 7.82, 'rot1': 294, 'rot0': 287, 'rot3': 213, 'rot2': 175, 'state': 'normal', 'yaw': 6.46, 'datetime': '2018-10-05 19:48:43.790742', 'mgs': 0, 'volt': 0.8105, 'depth': 0.165, 'time': 78, 'pitch': -17.89, 'roll': -1.83, 'pres': 166}
{'lipoC2': 7.82, 'lipoC3S1': 3.91, 'temp': 28.5, 'lipoC3S3': 11.83, 'lipoC3S2': 7.82, 'rot1': 294, 'rot0': 287, 'rot3': 213, 'rot2': 175, 'state': 'normal', 'yaw': 6.58, 'datetime': '2018-10-05 19:48:43.895197', 'mgs': 0, 'volt': 0.8105, 'depth': 0.165, 'time': 78, 'pitch': -17.68, 'roll': -2.1, 'pres': 166}
{'lipoC2': 7.82, 'lipoC3S1': 3.91, 'temp': 28.5, 'lipoC3S3': 11.83, 'lipoC3S2': 7.82, 'rot1': 294, 'rot0': 287, 'rot3': 213, 'rot2': 175, 'state': 'normal', 'yaw': 6.67, 'datetime': '2018-10-05 19:48:44.001903', 'mgs': 0, 'volt': 0.8105, 'depth': 0.165, 'time': 78, 'pitch': -17.47, 'roll': -2.45, 'pres': 166}
{'lipoC2': 7.82, 'lipoC3S1': 3.91, 'temp': 28.5, 'lipoC3S3': 11.83, 'lipoC3S2': 7.82, 'rot1': 294, 'rot0': 287, 'rot3': 213, 'rot2': 175, 'state': 'normal', 'yaw': 6.76, 'datetime': '2018-10-05 19:48:44.109505', 'mgs': 0, 'volt': 0.8105, 'depth': 0.165, 'time': 79, 'pitch': -17.31, 'roll': -2.86, 'pres': 166}
{'lipoC2': 7.82, 'lipoC3S1': 3.91, 'temp': 28.56, 'lipoC3S3': 11.81, 'lipoC3S2': 7.82, 'rot1': 294, 'rot0': 287, 'rot3': 213, 'rot2': 175, 'state': 'normal', 'yaw': 6.77, 'datetime': '2018-10-05 19:48:44.213709', 'mgs': 0, 'volt': 0.8105, 'depth': 0.165, 'time': 79, 'pitch': -17.3, 'roll': -3.18, 'pres': 166}
{'lipoC2': 7.82, 'lipoC3S1': 3.91, 'temp': 28.56, 'lipoC3S3': 11.83, 'lipoC3S2': 7.82, 'rot1': 294, 'rot0': 287, 'rot3': 213, 'rot2': 175, 'state': 'normal', 'yaw': 6.77, 'datetime': '2018-10-05 19:48:44.319109', 'mgs': 0, 'volt': 0.8105, 'depth': 0.165, 'time': 79, 'pitch': -17.39, 'roll': -3.44, 'pres': 166}
{'lipoC2': 7.82, 'lipoC3S1': 3.91, 'temp': 28.56, 'lipoC3S3': 11.83, 'lipoC3S2': 7.82, 'rot1': 294, 'rot0': 287, 'rot3': 213, 'rot2': 175, 'state': 'normal', 'yaw': 6.78, 'datetime': '2018-10-05 19:48:44.423449', 'mgs': 0, 'volt': 0.8154, 'depth': 0.241, 'time': 79, 'pitch': -17.46, 'roll': -3.58, 'pres': 167}
{'lipoC2': 7.82, 'lipoC3S1': 3.91, 'temp': 28.56, 'lipoC3S3': 11.83, 'lipoC3S2': 7.82, 'rot1': 294, 'rot0': 287, 'rot3': 213, 'rot2': 175, 'state': 'normal', 'yaw': 6.75, 'datetime': '2018-10-05 19:48:44.529216', 'mgs': 0, 'volt': 0.8154, 'depth': 0.241, 'time': 79, 'pitch': -17.23, 'roll': -3.53, 'pres': 167}
{'lipoC2': 7.82, 'lipoC3S1': 3.91, 'temp': 28.56, 'lipoC3S3': 11.83, 'lipoC3S2': 7.82, 'rot1': 294, 'rot0': 287, 'rot3': 213, 'rot2': 175, 'state': 'normal', 'yaw': 6.64, 'datetime': '2018-10-05 19:48:44.631721', 'mgs': 0, 'volt': 0.8154, 'depth': 0.241, 'time': 79, 'pitch': -16.63, 'roll': -3.25, 'pres': 167}
{'lipoC2': 7.82, 'lipoC3S1': 3.91, 'temp': 28.56, 'lipoC3S3': 11.83, 'lipoC3S2': 7.81, 'rot1': 294, 'rot0': 287, 'rot3': 213, 'rot2': 175, 'state': 'normal', 'yaw': 6.59, 'datetime': '2018-10-05 19:48:44.737361', 'mgs': 0, 'volt': 0.8154, 'depth': 0.241, 'time': 79, 'pitch': -15.86, 'roll': -2.87, 'pres': 167}
{'lipoC2': 7.82, 'lipoC3S1': 3.91, 'temp': 28.56, 'lipoC3S3': 11.81, 'lipoC3S2': 7.82, 'rot1': 294, 'rot0': 287, 'rot3': 213, 'rot2': 175, 'state': 'normal', 'yaw': 6.53, 'datetime': '2018-10-05 19:48:44.841545', 'mgs': 0, 'volt': 0.8203, 'depth': 0.317, 'time': 79, 'pitch': -14.72, 'roll': -2.32, 'pres': 168}
{'lipoC2': 7.82, 'lipoC3S1': 3.91, 'temp': 28.56, 'lipoC3S3': 11.83, 'lipoC3S2': 7.82, 'rot1': 294, 'rot0': 287, 'rot3': 213, 'rot2': 175, 'state': 'normal', 'yaw': 6.34, 'datetime': '2018-10-05 19:48:44.945959', 'mgs': 0, 'volt': 0.8252, 'depth': 0.394, 'time': 79, 'pitch': -13.39, 'roll': -1.6, 'pres': 169}
{'lipoC2': 7.82, 'lipoC3S1': 3.91, 'temp': 28.56, 'lipoC3S3': 11.83, 'lipoC3S2': 7.82, 'rot1': 294, 'rot0': 287, 'rot3': 213, 'rot2': 175, 'state': 'normal', 'yaw': 6.24, 'datetime': '2018-10-05 19:48:45.049886', 'mgs': 0, 'volt': 0.8252, 'depth': 0.394, 'time': 79, 'pitch': -12.24, 'roll': -0.78, 'pres': 169}
{'lipoC2': 7.82, 'lipoC3S1': 3.91, 'temp': 28.56, 'lipoC3S3': 11.83, 'lipoC3S2': 7.82, 'rot1': 294, 'rot0': 287, 'rot3': 213, 'rot2': 175, 'state': 'normal', 'yaw': 6.43, 'datetime': '2018-10-05 19:48:45.153963', 'mgs': 0, 'volt': 0.8252, 'depth': 0.394, 'time': 80, 'pitch': -12.08, 'roll': -0.24, 'pres': 169}
{'lipoC2': 7.82, 'lipoC3S1': 3.91, 'temp': 28.56, 'lipoC3S3': 11.83, 'lipoC3S2': 7.82, 'rot1': 294, 'rot0': 287, 'rot3': 213, 'rot2': 175, 'state': 'normal', 'yaw': 6.61, 'datetime': '2018-10-05 19:48:45.258015', 'mgs': 0, 'volt': 0.8252, 'depth': 0.394, 'time': 80, 'pitch': -12.58, 'roll': -0.01, 'pres': 169}
{'lipoC2': 7.82, 'lipoC3S1': 3.91, 'temp': 28.56, 'lipoC3S3': 11.83, 'lipoC3S2': 7.82, 'rot1': 294, 'rot0': 287, 'rot3': 213, 'rot2': 175, 'state': 'normal', 'yaw': 6.67, 'datetime': '2018-10-05 19:48:45.362526', 'mgs': 0, 'volt': 0.8252, 'depth': 0.394, 'time': 80, 'pitch': -13.16, 'roll': 0.04, 'pres': 169}
{'lipoC2': 7.82, 'lipoC3S1': 3.91, 'temp': 28.5, 'lipoC3S3': 11.83, 'lipoC3S2': 7.82, 'rot1': 294, 'rot0': 287, 'rot3': 213, 'rot2': 175, 'state': 'normal', 'yaw': 6.63, 'datetime': '2018-10-05 19:48:45.466712', 'mgs': 0, 'volt': 0.8252, 'depth': 0.394, 'time': 80, 'pitch': -13.32, 'roll': -0.01, 'pres': 169}
{'lipoC2': 7.82, 'lipoC3S1': 3.91, 'temp': 28.5, 'lipoC3S3': 11.83, 'lipoC3S2': 7.82, 'rot1': 294, 'rot0': 287, 'rot3': 213, 'rot2': 175, 'state': 'normal', 'yaw': 6.46, 'datetime': '2018-10-05 19:48:45.572105', 'mgs': 0, 'volt': 0.8252, 'depth': 0.394, 'time': 80, 'pitch': -13.13, 'roll': -0.12, 'pres': 169}
{'lipoC2': 7.82, 'lipoC3S1': 3.91, 'temp': 28.56, 'lipoC3S3': 11.81, 'lipoC3S2': 7.82, 'rot1': 294, 'rot0': 287, 'rot3': 213, 'rot2': 175, 'state': 'normal', 'yaw': 6.21, 'datetime': '2018-10-05 19:48:45.676284', 'mgs': 0, 'volt': 0.8203, 'depth': 0.317, 'time': 80, 'pitch': -12.66, 'roll': -0.28, 'pres': 168}
{'lipoC2': 7.82, 'lipoC3S1': 3.91, 'temp': 28.56, 'lipoC3S3': 11.83, 'lipoC3S2': 7.82, 'rot1': 294, 'rot0': 287, 'rot3': 213, 'rot2': 175, 'state': 'normal', 'yaw': 5.93, 'datetime': '2018-10-05 19:48:45.781627', 'mgs': 0, 'volt': 0.8203, 'depth': 0.317, 'time': 80, 'pitch': -12.19, 'roll': -0.41, 'pres': 168}
{'lipoC2': 7.82, 'lipoC3S1': 3.91, 'temp': 28.56, 'lipoC3S3': 11.83, 'lipoC3S2': 7.82, 'rot1': 294, 'rot0': 287, 'rot3': 213, 'rot2': 175, 'state': 'normal', 'yaw': 5.69, 'datetime': '2018-10-05 19:48:45.885741', 'mgs': 0, 'volt': 0.8154, 'depth': 0.241, 'time': 80, 'pitch': -11.81, 'roll': -0.63, 'pres': 167}
{'lipoC2': 7.82, 'lipoC3S1': 3.91, 'temp': 28.5, 'lipoC3S3': 11.83, 'lipoC3S2': 7.82, 'rot1': 294, 'rot0': 287, 'rot3': 213, 'rot2': 175, 'state': 'normal', 'yaw': 5.59, 'datetime': '2018-10-05 19:48:45.989838', 'mgs': 0, 'volt': 0.8154, 'depth': 0.241, 'time': 80, 'pitch': -11.59, 'roll': -0.87, 'pres': 167}
{'lipoC2': 7.82, 'lipoC3S1': 3.91, 'temp': 28.5, 'lipoC3S3': 11.83, 'lipoC3S2': 7.82, 'rot1': 294, 'rot0': 287, 'rot3': 213, 'rot2': 175, 'state': 'normal', 'yaw': 5.59, 'datetime': '2018-10-05 19:48:46.094155', 'mgs': 0, 'volt': 0.8154, 'depth': 0.241, 'time': 81, 'pitch': -11.37, 'roll': -1.09, 'pres': 167}
{'lipoC2': 7.82, 'lipoC3S1': 3.91, 'temp': 28.56, 'lipoC3S3': 11.83, 'lipoC3S2': 7.82, 'rot1': 294, 'rot0': 287, 'rot3': 213, 'rot2': 175, 'state': 'normal', 'yaw': 5.66, 'datetime': '2018-10-05 19:48:46.198222', 'mgs': 0, 'volt': 0.8105, 'depth': 0.165, 'time': 81, 'pitch': -11.04, 'roll': -1.24, 'pres': 166}
{'lipoC2': 7.82, 'lipoC3S1': 3.91, 'temp': 28.56, 'lipoC3S3': 11.83, 'lipoC3S2': 7.82, 'rot1': 294, 'rot0': 287, 'rot3': 213, 'rot2': 175, 'state': 'normal', 'yaw': 5.56, 'datetime': '2018-10-05 19:48:46.302358', 'mgs': 0, 'volt': 0.8105, 'depth': 0.165, 'time': 81, 'pitch': -10.8, 'roll': -1.17, 'pres': 166}
{'lipoC2': 7.82, 'lipoC3S1': 3.91, 'temp': 28.56, 'lipoC3S3': 11.83, 'lipoC3S2': 7.82, 'rot1': 294, 'rot0': 287, 'rot3': 213, 'rot2': 175, 'state': 'normal', 'yaw': 5.42, 'datetime': '2018-10-05 19:48:46.406469', 'mgs': 0, 'volt': 0.8105, 'depth': 0.165, 'time': 81, 'pitch': -10.65, 'roll': -1.01, 'pres': 166}
{'lipoC2': 7.82, 'lipoC3S1': 3.91, 'temp': 28.56, 'lipoC3S3': 11.83, 'lipoC3S2': 7.82, 'rot1': 294, 'rot0': 287, 'rot3': 213, 'rot2': 175, 'state': 'normal', 'yaw': 5.44, 'datetime': '2018-10-05 19:48:46.510554', 'mgs': 0, 'volt': 0.8105, 'depth': 0.165, 'time': 81, 'pitch': -10.49, 'roll': -1.01, 'pres': 166}
{'lipoC2': 7.82, 'lipoC3S1': 3.91, 'temp': 28.56, 'lipoC3S3': 11.83, 'lipoC3S2': 7.82, 'rot1': 294, 'rot0': 287, 'rot3': 213, 'rot2': 175, 'state': 'normal', 'yaw': 5.57, 'datetime': '2018-10-05 19:48:46.615340', 'mgs': 0, 'volt': 0.8057, 'depth': 0.089, 'time': 81, 'pitch': -10.17, 'roll': -1.14, 'pres': 165}
{'lipoC2': 7.82, 'lipoC3S1': 3.91, 'temp': 28.5, 'lipoC3S3': 11.83, 'lipoC3S2': 7.82, 'rot1': 294, 'rot0': 287, 'rot3': 213, 'rot2': 175, 'state': 'normal', 'yaw': 5.59, 'datetime': '2018-10-05 19:48:46.719519', 'mgs': 0, 'volt': 0.8105, 'depth': 0.165, 'time': 81, 'pitch': -9.72, 'roll': -1.27, 'pres': 166}
{'lipoC2': 7.82, 'lipoC3S1': 3.91, 'temp': 28.5, 'lipoC3S3': 11.83, 'lipoC3S2': 7.82, 'rot1': 294, 'rot0': 287, 'rot3': 213, 'rot2': 175, 'state': 'normal', 'yaw': 5.49, 'datetime': '2018-10-05 19:48:46.824757', 'mgs': 0, 'volt': 0.8105, 'depth': 0.165, 'time': 81, 'pitch': -9.36, 'roll': -1.34, 'pres': 166}
{'lipoC2': 7.82, 'lipoC3S1': 3.91, 'temp': 28.56, 'lipoC3S3': 11.83, 'lipoC3S2': 7.82, 'rot1': 294, 'rot0': 287, 'rot3': 213, 'rot2': 175, 'state': 'normal', 'yaw': 5.46, 'datetime': '2018-10-05 19:48:46.927243', 'mgs': 0, 'volt': 0.8057, 'depth': 0.089, 'time': 81, 'pitch': -9.06, 'roll': -1.48, 'pres': 165}
{'lipoC2': 7.82, 'lipoC3S1': 3.91, 'temp': 28.56, 'lipoC3S3': 11.83, 'lipoC3S2': 7.82, 'rot1': 294, 'rot0': 287, 'rot3': 213, 'rot2': 175, 'state': 'normal', 'yaw': 5.52, 'datetime': '2018-10-05 19:48:47.028464', 'mgs': 0, 'volt': 0.8057, 'depth': 0.089, 'time': 81, 'pitch': -8.89, 'roll': -1.69, 'pres': 165}
{'lipoC2': 7.82, 'lipoC3S1': 3.91, 'temp': 28.56, 'lipoC3S3': 11.83, 'lipoC3S2': 7.82, 'rot1': 294, 'rot0': 287, 'rot3': 213, 'rot2': 175, 'state': 'normal', 'yaw': 5.65, 'datetime': '2018-10-05 19:48:47.132595', 'mgs': 0, 'volt': 0.8057, 'depth': 0.089, 'time': 82, 'pitch': -8.69, 'roll': -1.92, 'pres': 165}
{'lipoC2': 7.82, 'lipoC3S1': 3.91, 'temp': 28.56, 'lipoC3S3': 11.83, 'lipoC3S2': 7.82, 'rot1': 294, 'rot0': 287, 'rot3': 213, 'rot2': 175, 'state': 'normal', 'yaw': 5.76, 'datetime': '2018-10-05 19:48:47.236766', 'mgs': 0, 'volt': 0.8057, 'depth': 0.089, 'time': 82, 'pitch': -8.47, 'roll': -1.99, 'pres': 165}
{'lipoC2': 7.82, 'lipoC3S1': 3.91, 'temp': 28.56, 'lipoC3S3': 11.83, 'lipoC3S2': 7.82, 'rot1': 294, 'rot0': 287, 'rot3': 213, 'rot2': 175, 'state': 'normal', 'yaw': 5.86, 'datetime': '2018-10-05 19:48:47.341382', 'mgs': 0, 'volt': 0.8057, 'depth': 0.089, 'time': 82, 'pitch': -8.3, 'roll': -2.01, 'pres': 165}
{'lipoC2': 7.82, 'lipoC3S1': 3.91, 'temp': 28.56, 'lipoC3S3': 11.83, 'lipoC3S2': 7.82, 'rot1': 294, 'rot0': 287, 'rot3': 213, 'rot2': 175, 'state': 'normal', 'yaw': 5.99, 'datetime': '2018-10-05 19:48:47.445549', 'mgs': 0, 'volt': 0.8008, 'depth': 0.012, 'time': 82, 'pitch': -8.25, 'roll': -2.03, 'pres': 164}
{'lipoC2': 7.82, 'lipoC3S1': 3.91, 'temp': 28.56, 'lipoC3S3': 11.83, 'lipoC3S2': 7.82, 'rot1': 294, 'rot0': 287, 'rot3': 213, 'rot2': 175, 'state': 'normal', 'yaw': 6.15, 'datetime': '2018-10-05 19:48:47.549629', 'mgs': 1, 'volt': 0.8008, 'depth': 0.012, 'time': 82, 'pitch': -8.22, 'roll': -2.13, 'pres': 164}
{'lipoC2': 7.82, 'lipoC3S1': 3.91, 'temp': 28.56, 'lipoC3S3': 11.83, 'lipoC3S2': 7.82, 'rot1': 0, 'rot0': 0, 'rot3': 0, 'rot2': 0, 'state': 'normal', 'yaw': 0.0, 'datetime': '2018-10-05 19:48:53.581890', 'mgs': 0, 'volt': 0.8057, 'depth': 0.089, 'time': 1, 'pitch': -8.33, 'roll': -2.66, 'pres': 165}
{'lipoC2': 7.82, 'lipoC3S1': 3.91, 'temp': 28.56, 'lipoC3S3': 11.83, 'lipoC3S2': 7.82, 'rot1': 0, 'rot0': 0, 'rot3': 0, 'rot2': 0, 'state': 'normal', 'yaw': -0.08, 'datetime': '2018-10-05 19:48:56.624046', 'mgs': 0, 'volt': 0.8105, 'depth': 0.165, 'time': 1, 'pitch': -8.59, 'roll': -2.69, 'pres': 166}
{'lipoC2': 7.82, 'lipoC3S1': 3.91, 'temp': 28.56, 'lipoC3S3': 11.83, 'lipoC3S2': 7.82, 'rot1': 0, 'rot0': 0, 'rot3': 0, 'rot2': 0, 'state': 'normal', 'yaw': -0.17, 'datetime': '2018-10-05 19:48:56.659919', 'mgs': 0, 'volt': 0.8105, 'depth': 0.165, 'time': 1, 'pitch': -8.82, 'roll': -2.73, 'pres': 166}
{'lipoC2': 7.82, 'lipoC3S1': 3.91, 'temp': 28.56, 'lipoC3S3': 11.83, 'lipoC3S2': 7.82, 'rot1': 0, 'rot0': 0, 'rot3': 0, 'rot2': 0, 'state': 'normal', 'yaw': -0.32, 'datetime': '2018-10-05 19:48:56.675106', 'mgs': 0, 'volt': 0.8105, 'depth': 0.165, 'time': 1, 'pitch': -9.06, 'roll': -2.67, 'pres': 166}
{'lipoC2': 7.82, 'lipoC3S1': 3.91, 'temp': 28.56, 'lipoC3S3': 11.83, 'lipoC3S2': 7.82, 'rot1': 0, 'rot0': 0, 'rot3': 0, 'rot2': 0, 'state': 'normal', 'yaw': -0.54, 'datetime': '2018-10-05 19:48:56.690964', 'mgs': 0, 'volt': 0.8105, 'depth': 0.165, 'time': 1, 'pitch': -9.27, 'roll': -2.44, 'pres': 166}
{'lipoC2': 7.82, 'lipoC3S1': 3.91, 'temp': 28.56, 'lipoC3S3': 11.83, 'lipoC3S2': 7.82, 'rot1': 0, 'rot0': 0, 'rot3': 0, 'rot2': 0, 'state': 'normal', 'yaw': -0.77, 'datetime': '2018-10-05 19:48:56.706882', 'mgs': 0, 'volt': 0.8105, 'depth': 0.165, 'time': 1, 'pitch': -9.36, 'roll': -2.12, 'pres': 166}
{'lipoC2': 7.82, 'lipoC3S1': 3.91, 'temp': 28.56, 'lipoC3S3': 11.83, 'lipoC3S2': 7.82, 'rot1': 0, 'rot0': 0, 'rot3': 0, 'rot2': 0, 'state': 'normal', 'yaw': -0.98, 'datetime': '2018-10-05 19:48:56.716761', 'mgs': 0, 'volt': 0.8105, 'depth': 0.165, 'time': 1, 'pitch': -9.37, 'roll': -1.73, 'pres': 166}
{'lipoC2': 7.82, 'lipoC3S1': 3.91, 'temp': 28.56, 'lipoC3S3': 11.83, 'lipoC3S2': 7.82, 'rot1': 0, 'rot0': 0, 'rot3': 0, 'rot2': 0, 'state': 'normal', 'yaw': -1.06, 'datetime': '2018-10-05 19:48:56.732589', 'mgs': 0, 'volt': 0.8057, 'depth': 0.089, 'time': 1, 'pitch': -9.46, 'roll': -1.4, 'pres': 165}
{'lipoC2': 7.82, 'lipoC3S1': 3.91, 'temp': 28.56, 'lipoC3S3': 11.83, 'lipoC3S2': 7.82, 'rot1': 0, 'rot0': 0, 'rot3': 0, 'rot2': 0, 'state': 'normal', 'yaw': -0.99, 'datetime': '2018-10-05 19:48:56.748449', 'mgs': 0, 'volt': 0.8057, 'depth': 0.089, 'time': 2, 'pitch': -9.66, 'roll': -1.28, 'pres': 165}
{'lipoC2': 7.82, 'lipoC3S1': 3.91, 'temp': 28.56, 'lipoC3S3': 11.83, 'lipoC3S2': 7.82, 'rot1': 0, 'rot0': 0, 'rot3': 0, 'rot2': 0, 'state': 'normal', 'yaw': -0.85, 'datetime': '2018-10-05 19:48:56.758332', 'mgs': 0, 'volt': 0.8057, 'depth': 0.089, 'time': 2, 'pitch': -9.94, 'roll': -1.31, 'pres': 165}
{'lipoC2': 7.82, 'lipoC3S1': 3.91, 'temp': 28.56, 'lipoC3S3': 11.83, 'lipoC3S2': 7.82, 'rot1': 0, 'rot0': 0, 'rot3': 0, 'rot2': 0, 'state': 'normal', 'yaw': -0.67, 'datetime': '2018-10-05 19:48:56.774121', 'mgs': 0, 'volt': 0.8057, 'depth': 0.089, 'time': 2, 'pitch': -10.24, 'roll': -1.36, 'pres': 165}
{'lipoC2': 7.82, 'lipoC3S1': 3.91, 'temp': 28.56, 'lipoC3S3': 11.83, 'lipoC3S2': 7.82, 'rot1': 0, 'rot0': 0, 'rot3': 0, 'rot2': 0, 'state': 'normal', 'yaw': -0.45, 'datetime': '2018-10-05 19:48:56.790141', 'mgs': 0, 'volt': 0.8057, 'depth': 0.089, 'time': 2, 'pitch': -10.52, 'roll': -1.43, 'pres': 165}
{'lipoC2': 7.82, 'lipoC3S1': 3.91, 'temp': 28.56, 'lipoC3S3': 11.83, 'lipoC3S2': 7.82, 'rot1': 0, 'rot0': 0, 'rot3': 0, 'rot2': 0, 'state': 'normal', 'yaw': -0.24, 'datetime': '2018-10-05 19:48:56.800152', 'mgs': 0, 'volt': 0.8057, 'depth': 0.089, 'time': 2, 'pitch': -10.68, 'roll': -1.47, 'pres': 165}
{'lipoC2': 7.82, 'lipoC3S1': 3.91, 'temp': 28.56, 'lipoC3S3': 11.83, 'lipoC3S2': 7.82, 'rot1': 0, 'rot0': 0, 'rot3': 0, 'rot2': 0, 'state': 'normal', 'yaw': -0.04, 'datetime': '2018-10-05 19:48:56.815948', 'mgs': 0, 'volt': 0.8057, 'depth': 0.089, 'time': 2, 'pitch': -10.7, 'roll': -1.5, 'pres': 165}
{'lipoC2': 7.82, 'lipoC3S1': 3.91, 'temp': 28.56, 'lipoC3S3': 11.83, 'lipoC3S2': 7.82, 'rot1': 0, 'rot0': 0, 'rot3': 0, 'rot2': 0, 'state': 'normal', 'yaw': 0.14, 'datetime': '2018-10-05 19:48:56.831833', 'mgs': 0, 'volt': 0.8057, 'depth': 0.089, 'time': 2, 'pitch': -10.64, 'roll': -1.54, 'pres': 165}
{'lipoC2': 7.82, 'lipoC3S1': 3.91, 'temp': 28.56, 'lipoC3S3': 11.83, 'lipoC3S2': 7.82, 'rot1': 0, 'rot0': 0, 'rot3': 0, 'rot2': 0, 'state': 'normal', 'yaw': 0.13, 'datetime': '2018-10-05 19:48:56.841718', 'mgs': 0, 'volt': 0.8057, 'depth': 0.089, 'time': 2, 'pitch': -10.57, 'roll': -1.43, 'pres': 165}
{'lipoC2': 7.82, 'lipoC3S1': 3.91, 'temp': 28.56, 'lipoC3S3': 11.83, 'lipoC3S2': 7.82, 'rot1': 0, 'rot0': 0, 'rot3': 0, 'rot2': 0, 'state': 'normal', 'yaw': -0.02, 'datetime': '2018-10-05 19:48:56.857551', 'mgs': 0, 'volt': 0.8057, 'depth': 0.089, 'time': 2, 'pitch': -10.63, 'roll': -1.22, 'pres': 165}
{'lipoC2': 7.82, 'lipoC3S1': 3.91, 'temp': 28.56, 'lipoC3S3': 11.83, 'lipoC3S2': 7.82, 'rot1': 0, 'rot0': 0, 'rot3': 0, 'rot2': 0, 'state': 'normal', 'yaw': -0.2, 'datetime': '2018-10-05 19:48:56.873445', 'mgs': 0, 'volt': 0.8057, 'depth': 0.089, 'time': 3, 'pitch': -10.79, 'roll': -0.93, 'pres': 165}
{'lipoC2': 7.82, 'lipoC3S1': 3.91, 'temp': 28.56, 'lipoC3S3': 11.83, 'lipoC3S2': 7.82, 'rot1': 0, 'rot0': 0, 'rot3': 0, 'rot2': 0, 'state': 'normal', 'yaw': -0.39, 'datetime': '2018-10-05 19:48:56.883354', 'mgs': 0, 'volt': 0.8057, 'depth': 0.089, 'time': 3, 'pitch': -10.86, 'roll': -0.54, 'pres': 165}
{'lipoC2': 7.82, 'lipoC3S1': 3.91, 'temp': 28.56, 'lipoC3S3': 11.83, 'lipoC3S2': 7.82, 'rot1': 0, 'rot0': 0, 'rot3': 0, 'rot2': 0, 'state': 'normal', 'yaw': -0.61, 'datetime': '2018-10-05 19:48:56.899198', 'mgs': 0, 'volt': 0.8057, 'depth': 0.089, 'time': 3, 'pitch': -10.86, 'roll': -0.11, 'pres': 165}
{'lipoC2': 7.82, 'lipoC3S1': 3.91, 'temp': 28.56, 'lipoC3S3': 11.83, 'lipoC3S2': 7.82, 'rot1': 0, 'rot0': 0, 'rot3': 0, 'rot2': 0, 'state': 'normal', 'yaw': -0.78, 'datetime': '2018-10-05 19:48:56.915096', 'mgs': 0, 'volt': 0.8057, 'depth': 0.089, 'time': 3, 'pitch': -10.78, 'roll': 0.2, 'pres': 165}
{'lipoC2': 7.82, 'lipoC3S1': 3.91, 'temp': 28.56, 'lipoC3S3': 11.83, 'lipoC3S2': 7.82, 'rot1': 0, 'rot0': 0, 'rot3': 0, 'rot2': 0, 'state': 'normal', 'yaw': -0.88, 'datetime': '2018-10-05 19:48:56.925016', 'mgs': 0, 'volt': 0.8105, 'depth': 0.165, 'time': 3, 'pitch': -10.63, 'roll': 0.36, 'pres': 166}
{'lipoC2': 7.82, 'lipoC3S1': 3.91, 'temp': 28.56, 'lipoC3S3': 11.83, 'lipoC3S2': 7.82, 'rot1': 0, 'rot0': 0, 'rot3': 0, 'rot2': 0, 'state': 'normal', 'yaw': -0.96, 'datetime': '2018-10-05 19:48:56.940828', 'mgs': 0, 'volt': 0.8105, 'depth': 0.165, 'time': 3, 'pitch': -10.46, 'roll': 0.41, 'pres': 166}
{'lipoC2': 7.82, 'lipoC3S1': 3.91, 'temp': 28.56, 'lipoC3S3': 11.83, 'lipoC3S2': 7.82, 'rot1': 0, 'rot0': 0, 'rot3': 0, 'rot2': 0, 'state': 'normal', 'yaw': -1.05, 'datetime': '2018-10-05 19:48:56.956674', 'mgs': 0, 'volt': 0.8105, 'depth': 0.165, 'time': 3, 'pitch': -10.31, 'roll': 0.42, 'pres': 166}
{'lipoC2': 7.82, 'lipoC3S1': 3.91, 'temp': 28.56, 'lipoC3S3': 11.83, 'lipoC3S2': 7.82, 'rot1': 0, 'rot0': 0, 'rot3': 0, 'rot2': 0, 'state': 'normal', 'yaw': -1.07, 'datetime': '2018-10-05 19:48:56.966563', 'mgs': 0, 'volt': 0.8105, 'depth': 0.165, 'time': 3, 'pitch': -10.36, 'roll': 0.41, 'pres': 166}
{'lipoC2': 7.82, 'lipoC3S1': 3.91, 'temp': 28.56, 'lipoC3S3': 11.83, 'lipoC3S2': 7.82, 'rot1': 0, 'rot0': 0, 'rot3': 0, 'rot2': 0, 'state': 'normal', 'yaw': -1.07, 'datetime': '2018-10-05 19:48:56.982555', 'mgs': 0, 'volt': 0.8154, 'depth': 0.241, 'time': 3, 'pitch': -10.56, 'roll': 0.33, 'pres': 167}
{'lipoC2': 7.82, 'lipoC3S1': 3.91, 'temp': 28.56, 'lipoC3S3': 11.83, 'lipoC3S2': 7.82, 'rot1': 0, 'rot0': 0, 'rot3': 0, 'rot2': 0, 'state': 'normal', 'yaw': -1.05, 'datetime': '2018-10-05 19:48:56.998492', 'mgs': 0, 'volt': 0.8154, 'depth': 0.241, 'time': 3, 'pitch': -10.92, 'roll': 0.22, 'pres': 167}
{'lipoC2': 7.82, 'lipoC3S1': 3.91, 'temp': 28.56, 'lipoC3S3': 11.83, 'lipoC3S2': 7.82, 'rot1': 0, 'rot0': 0, 'rot3': 0, 'rot2': 0, 'state': 'normal', 'yaw': -1.0, 'datetime': '2018-10-05 19:48:57.008432', 'mgs': 0, 'volt': 0.8105, 'depth': 0.165, 'time': 4, 'pitch': -11.35, 'roll': 0.08, 'pres': 166}
{'lipoC2': 7.82, 'lipoC3S1': 3.91, 'temp': 28.56, 'lipoC3S3': 11.83, 'lipoC3S2': 7.82, 'rot1': 0, 'rot0': 0, 'rot3': 0, 'rot2': 0, 'state': 'normal', 'yaw': -0.95, 'datetime': '2018-10-05 19:48:57.024256', 'mgs': 0, 'volt': 0.8105, 'depth': 0.165, 'time': 4, 'pitch': -11.82, 'roll': -0.06, 'pres': 166}
{'lipoC2': 7.82, 'lipoC3S1': 3.91, 'temp': 28.56, 'lipoC3S3': 11.83, 'lipoC3S2': 7.82, 'rot1': 0, 'rot0': 0, 'rot3': 0, 'rot2': 0, 'state': 'normal', 'yaw': -0.9, 'datetime': '2018-10-05 19:48:57.040146', 'mgs': 0, 'volt': 0.8105, 'depth': 0.165, 'time': 4, 'pitch': -12.3, 'roll': -0.17, 'pres': 166}
{'lipoC2': 7.82, 'lipoC3S1': 3.91, 'temp': 28.56, 'lipoC3S3': 11.83, 'lipoC3S2': 7.82, 'rot1': 0, 'rot0': 0, 'rot3': 0, 'rot2': 0, 'state': 'normal', 'yaw': -0.82, 'datetime': '2018-10-05 19:48:57.050063', 'mgs': 0, 'volt': 0.8105, 'depth': 0.165, 'time': 4, 'pitch': -12.64, 'roll': -0.26, 'pres': 166}
{'lipoC2': 7.82, 'lipoC3S1': 3.91, 'temp': 28.56, 'lipoC3S3': 11.83, 'lipoC3S2': 7.82, 'rot1': 0, 'rot0': 0, 'rot3': 0, 'rot2': 0, 'state': 'normal', 'yaw': -0.69, 'datetime': '2018-10-05 19:48:57.066123', 'mgs': 0, 'volt': 0.8105, 'depth': 0.165, 'time': 4, 'pitch': -12.87, 'roll': -0.38, 'pres': 166}
{'lipoC2': 7.82, 'lipoC3S1': 3.91, 'temp': 28.56, 'lipoC3S3': 11.83, 'lipoC3S2': 7.82, 'rot1': 0, 'rot0': 0, 'rot3': 0, 'rot2': 0, 'state': 'normal', 'yaw': -0.53, 'datetime': '2018-10-05 19:48:57.082177', 'mgs': 0, 'volt': 0.8105, 'depth': 0.165, 'time': 4, 'pitch': -13.0, 'roll': -0.5, 'pres': 166}
{'lipoC2': 7.82, 'lipoC3S1': 3.91, 'temp': 28.56, 'lipoC3S3': 11.83, 'lipoC3S2': 7.82, 'rot1': 0, 'rot0': 0, 'rot3': 0, 'rot2': 0, 'state': 'normal', 'yaw': -0.43, 'datetime': '2018-10-05 19:48:57.092502', 'mgs': 0, 'volt': 0.8105, 'depth': 0.165, 'time': 4, 'pitch': -13.0, 'roll': -0.54, 'pres': 166}
{'lipoC2': 7.82, 'lipoC3S1': 3.91, 'temp': 28.56, 'lipoC3S3': 11.83, 'lipoC3S2': 7.82, 'rot1': 0, 'rot0': 0, 'rot3': 0, 'rot2': 0, 'state': 'normal', 'yaw': -0.44, 'datetime': '2018-10-05 19:48:57.108446', 'mgs': 0, 'volt': 0.8105, 'depth': 0.165, 'time': 4, 'pitch': -12.94, 'roll': -0.54, 'pres': 166}
{'lipoC2': 7.82, 'lipoC3S1': 3.91, 'temp': 28.56, 'lipoC3S3': 11.83, 'lipoC3S2': 7.82, 'rot1': 0, 'rot0': 0, 'rot3': 0, 'rot2': 0, 'state': 'normal', 'yaw': -0.44, 'datetime': '2018-10-05 19:48:57.124318', 'mgs': 0, 'volt': 0.8154, 'depth': 0.241, 'time': 4, 'pitch': -12.8, 'roll': -0.54, 'pres': 167}
{'lipoC2': 7.82, 'lipoC3S1': 3.91, 'temp': 28.56, 'lipoC3S3': 11.83, 'lipoC3S2': 7.82, 'rot1': 0, 'rot0': 0, 'rot3': 0, 'rot2': 0, 'state': 'normal', 'yaw': -0.51, 'datetime': '2018-10-05 19:48:57.134251', 'mgs': 0, 'volt': 0.8105, 'depth': 0.165, 'time': 4, 'pitch': -12.66, 'roll': -0.47, 'pres': 166}
{'lipoC2': 7.82, 'lipoC3S1': 3.91, 'temp': 28.56, 'lipoC3S3': 11.83, 'lipoC3S2': 7.82, 'rot1': 0, 'rot0': 0, 'rot3': 0, 'rot2': 0, 'state': 'normal', 'yaw': -0.68, 'datetime': '2018-10-05 19:48:57.150127', 'mgs': 0, 'volt': 0.8105, 'depth': 0.165, 'time': 5, 'pitch': -12.5, 'roll': -0.32, 'pres': 166}
{'lipoC2': 7.82, 'lipoC3S1': 3.91, 'temp': 28.56, 'lipoC3S3': 11.83, 'lipoC3S2': 7.82, 'rot1': 0, 'rot0': 0, 'rot3': 0, 'rot2': 0, 'state': 'normal', 'yaw': -0.89, 'datetime': '2018-10-05 19:48:57.166119', 'mgs': 0, 'volt': 0.8105, 'depth': 0.165, 'time': 5, 'pitch': -12.3, 'roll': -0.1, 'pres': 166}
{'lipoC2': 7.82, 'lipoC3S1': 3.91, 'temp': 28.56, 'lipoC3S3': 11.83, 'lipoC3S2': 7.82, 'rot1': 0, 'rot0': 0, 'rot3': 0, 'rot2': 0, 'state': 'normal', 'yaw': -1.05, 'datetime': '2018-10-05 19:48:57.176302', 'mgs': 0, 'volt': 0.8105, 'depth': 0.165, 'time': 5, 'pitch': -12.05, 'roll': 0.07, 'pres': 166}
{'lipoC2': 7.82, 'lipoC3S1': 3.91, 'temp': 28.56, 'lipoC3S3': 11.83, 'lipoC3S2': 7.82, 'rot1': 0, 'rot0': 0, 'rot3': 0, 'rot2': 0, 'state': 'normal', 'yaw': -1.12, 'datetime': '2018-10-05 19:48:57.192265', 'mgs': 0, 'volt': 0.8105, 'depth': 0.165, 'time': 5, 'pitch': -11.72, 'roll': 0.16, 'pres': 166}
{'lipoC2': 7.82, 'lipoC3S1': 3.91, 'temp': 28.56, 'lipoC3S3': 11.83, 'lipoC3S2': 7.82, 'rot1': 0, 'rot0': 0, 'rot3': 0, 'rot2': 0, 'state': 'normal', 'yaw': -1.12, 'datetime': '2018-10-05 19:48:57.208211', 'mgs': 0, 'volt': 0.8105, 'depth': 0.165, 'time': 5, 'pitch': -11.31, 'roll': 0.16, 'pres': 166}
{'lipoC2': 7.82, 'lipoC3S1': 3.91, 'temp': 28.56, 'lipoC3S3': 11.83, 'lipoC3S2': 7.82, 'rot1': 0, 'rot0': 0, 'rot3': 0, 'rot2': 0, 'state': 'normal', 'yaw': -1.09, 'datetime': '2018-10-05 19:48:57.218156', 'mgs': 0, 'volt': 0.8105, 'depth': 0.165, 'time': 5, 'pitch': -10.94, 'roll': 0.15, 'pres': 166}
{'lipoC2': 7.82, 'lipoC3S1': 3.91, 'temp': 28.56, 'lipoC3S3': 11.83, 'lipoC3S2': 7.82, 'rot1': 0, 'rot0': 0, 'rot3': 0, 'rot2': 0, 'state': 'normal', 'yaw': -1.01, 'datetime': '2018-10-05 19:48:57.233999', 'mgs': 0, 'volt': 0.8105, 'depth': 0.165, 'time': 5, 'pitch': -10.62, 'roll': 0.12, 'pres': 166}
{'lipoC2': 7.82, 'lipoC3S1': 3.91, 'temp': 28.63, 'lipoC3S3': 11.83, 'lipoC3S2': 7.82, 'rot1': 0, 'rot0': 0, 'rot3': 0, 'rot2': 0, 'state': 'normal', 'yaw': -0.98, 'datetime': '2018-10-05 19:48:57.249875', 'mgs': 0, 'volt': 0.8105, 'depth': 0.165, 'time': 5, 'pitch': -10.39, 'roll': 0.12, 'pres': 166}
{'lipoC2': 7.82, 'lipoC3S1': 3.91, 'temp': 28.63, 'lipoC3S3': 11.83, 'lipoC3S2': 7.82, 'rot1': 0, 'rot0': 0, 'rot3': 0, 'rot2': 0, 'state': 'normal', 'yaw': -0.98, 'datetime': '2018-10-05 19:48:57.259799', 'mgs': 0, 'volt': 0.8105, 'depth': 0.165, 'time': 5, 'pitch': -10.26, 'roll': 0.11, 'pres': 166}
{'lipoC2': 7.82, 'lipoC3S1': 3.85, 'temp': 28.63, 'lipoC3S3': 11.71, 'lipoC3S2': 7.72, 'rot1': 0, 'rot0': 0, 'rot3': 0, 'rot2': 0, 'state': 'normal', 'yaw': -0.98, 'datetime': '2018-10-05 19:48:57.275655', 'mgs': 0, 'volt': 0.8057, 'depth': 0.089, 'time': 6, 'pitch': -10.16, 'roll': 0.12, 'pres': 165}
{'lipoC2': 7.82, 'lipoC3S1': 3.86, 'temp': 28.56, 'lipoC3S3': 11.76, 'lipoC3S2': 7.75, 'rot1': 0, 'rot0': 0, 'rot3': 1, 'rot2': 1, 'state': 'normal', 'yaw': -1.07, 'datetime': '2018-10-05 19:48:57.291598', 'mgs': 0, 'volt': 0.8203, 'depth': 0.317, 'time': 6, 'pitch': -9.8, 'roll': 0.3, 'pres': 168}
{'lipoC2': 7.81, 'lipoC3S1': 3.87, 'temp': 28.56, 'lipoC3S3': 11.77, 'lipoC3S2': 7.76, 'rot1': 0, 'rot0': 0, 'rot3': 2, 'rot2': 2, 'state': 'normal', 'yaw': -1.19, 'datetime': '2018-10-05 19:48:57.301526', 'mgs': 0, 'volt': 0.8154, 'depth': 0.241, 'time': 6, 'pitch': -9.22, 'roll': 0.7, 'pres': 167}
{'lipoC2': 7.82, 'lipoC3S1': 3.87, 'temp': 28.56, 'lipoC3S3': 11.76, 'lipoC3S2': 7.75, 'rot1': 0, 'rot0': 0, 'rot3': 3, 'rot2': 2, 'state': 'normal', 'yaw': -1.31, 'datetime': '2018-10-05 19:48:57.317373', 'mgs': 0, 'volt': 0.7813, 'depth': -0.293, 'time': 6, 'pitch': -8.52, 'roll': 1.23, 'pres': 160}
{'lipoC2': 7.82, 'lipoC3S1': 3.87, 'temp': 28.56, 'lipoC3S3': 11.75, 'lipoC3S2': 7.74, 'rot1': 0, 'rot0': 0, 'rot3': 4, 'rot2': 3, 'state': 'normal', 'yaw': -1.41, 'datetime': '2018-10-05 19:48:57.333220', 'mgs': 0, 'volt': 0.8105, 'depth': 0.165, 'time': 6, 'pitch': -7.74, 'roll': 1.84, 'pres': 166}
{'lipoC2': 7.82, 'lipoC3S1': 3.87, 'temp': 28.56, 'lipoC3S3': 11.77, 'lipoC3S2': 7.76, 'rot1': 0, 'rot0': 0, 'rot3': 5, 'rot2': 4, 'state': 'normal', 'yaw': -1.47, 'datetime': '2018-10-05 19:48:57.343113', 'mgs': 0, 'volt': 0.8105, 'depth': 0.165, 'time': 6, 'pitch': -7.05, 'roll': 2.31, 'pres': 166}
{'lipoC2': 7.81, 'lipoC3S1': 3.88, 'temp': 28.56, 'lipoC3S3': 11.76, 'lipoC3S2': 7.78, 'rot1': 0, 'rot0': 0, 'rot3': 6, 'rot2': 5, 'state': 'normal', 'yaw': -1.49, 'datetime': '2018-10-05 19:48:57.359080', 'mgs': 0, 'volt': 0.8154, 'depth': 0.241, 'time': 6, 'pitch': -6.47, 'roll': 2.5, 'pres': 167}
{'lipoC2': 7.81, 'lipoC3S1': 3.89, 'temp': 28.56, 'lipoC3S3': 11.73, 'lipoC3S2': 7.78, 'rot1': 0, 'rot0': 0, 'rot3': 7, 'rot2': 5, 'state': 'normal', 'yaw': -1.46, 'datetime': '2018-10-05 19:48:57.374955', 'mgs': 0, 'volt': 0.8008, 'depth': 0.012, 'time': 6, 'pitch': -5.99, 'roll': 2.43, 'pres': 164}
{'lipoC2': 7.81, 'lipoC3S1': 3.9, 'temp': 28.56, 'lipoC3S3': 11.72, 'lipoC3S2': 7.74, 'rot1': 0, 'rot0': 0, 'rot3': 8, 'rot2': 6, 'state': 'normal', 'yaw': -1.39, 'datetime': '2018-10-05 19:48:57.384885', 'mgs': 0, 'volt': 0.8008, 'depth': 0.012, 'time': 6, 'pitch': -5.71, 'roll': 2.21, 'pres': 164}
{'lipoC2': 7.82, 'lipoC3S1': 3.89, 'temp': 28.56, 'lipoC3S3': 11.75, 'lipoC3S2': 7.74, 'rot1': 0, 'rot0': 0, 'rot3': 9, 'rot2': 7, 'state': 'normal', 'yaw': -1.23, 'datetime': '2018-10-05 19:48:57.400886', 'mgs': 0, 'volt': 0.7959, 'depth': -0.064, 'time': 6, 'pitch': -5.63, 'roll': 1.92, 'pres': 163}
{'lipoC2': 7.82, 'lipoC3S1': 3.9, 'temp': 28.56, 'lipoC3S3': 11.76, 'lipoC3S2': 7.76, 'rot1': 0, 'rot0': 0, 'rot3': 11, 'rot2': 8, 'state': 'normal', 'yaw': -1.0, 'datetime': '2018-10-05 19:48:57.416933', 'mgs': 0, 'volt': 0.8008, 'depth': 0.012, 'time': 7, 'pitch': -5.71, 'roll': 1.74, 'pres': 164}
{'lipoC2': 7.81, 'lipoC3S1': 3.9, 'temp': 28.56, 'lipoC3S3': 11.72, 'lipoC3S2': 7.79, 'rot1': 0, 'rot0': 0, 'rot3': 12, 'rot2': 9, 'state': 'normal', 'yaw': -0.76, 'datetime': '2018-10-05 19:48:57.426929', 'mgs': 0, 'volt': 0.8008, 'depth': 0.012, 'time': 7, 'pitch': -5.88, 'roll': 1.76, 'pres': 164}
{'lipoC2': 7.81, 'lipoC3S1': 3.9, 'temp': 28.56, 'lipoC3S3': 11.76, 'lipoC3S2': 7.78, 'rot1': 0, 'rot0': 0, 'rot3': 13, 'rot2': 9, 'state': 'normal', 'yaw': -0.52, 'datetime': '2018-10-05 19:48:57.442807', 'mgs': 0, 'volt': 0.7959, 'depth': -0.064, 'time': 7, 'pitch': -5.98, 'roll': 1.91, 'pres': 163}
{'lipoC2': 7.82, 'lipoC3S1': 3.87, 'temp': 28.5, 'lipoC3S3': 11.77, 'lipoC3S2': 7.76, 'rot1': 0, 'rot0': 0, 'rot3': 14, 'rot2': 10, 'state': 'normal', 'yaw': -0.29, 'datetime': '2018-10-05 19:48:57.458745', 'mgs': 0, 'volt': 0.8008, 'depth': 0.012, 'time': 7, 'pitch': -5.99, 'roll': 2.1, 'pres': 164}
{'lipoC2': 7.82, 'lipoC3S1': 3.88, 'temp': 28.5, 'lipoC3S3': 11.75, 'lipoC3S2': 7.75, 'rot1': 0, 'rot0': 0, 'rot3': 15, 'rot2': 11, 'state': 'normal', 'yaw': -0.06, 'datetime': '2018-10-05 19:48:57.468780', 'mgs': 0, 'volt': 0.791, 'depth': -0.14, 'time': 7, 'pitch': -6.0, 'roll': 2.22, 'pres': 162}
{'lipoC2': 7.82, 'lipoC3S1': 3.88, 'temp': 28.56, 'lipoC3S3': 11.79, 'lipoC3S2': 7.77, 'rot1': 0, 'rot0': 0, 'rot3': 17, 'rot2': 12, 'state': 'normal', 'yaw': 0.18, 'datetime': '2018-10-05 19:48:57.484751', 'mgs': 0, 'volt': 0.8008, 'depth': 0.012, 'time': 7, 'pitch': -6.01, 'roll': 2.2, 'pres': 164}
{'lipoC2': 7.82, 'lipoC3S1': 3.88, 'temp': 28.56, 'lipoC3S3': 11.76, 'lipoC3S2': 7.76, 'rot1': 0, 'rot0': 0, 'rot3': 18, 'rot2': 13, 'state': 'normal', 'yaw': 0.47, 'datetime': '2018-10-05 19:48:57.500722', 'mgs': 0, 'volt': 0.7959, 'depth': -0.064, 'time': 7, 'pitch': -6.02, 'roll': 2.11, 'pres': 163}
{'lipoC2': 7.82, 'lipoC3S1': 3.9, 'temp': 28.56, 'lipoC3S3': 11.75, 'lipoC3S2': 7.76, 'rot1': 0, 'rot0': 0, 'rot3': 19, 'rot2': 14, 'state': 'normal', 'yaw': 0.76, 'datetime': '2018-10-05 19:48:57.510727', 'mgs': 0, 'volt': 0.7959, 'depth': -0.064, 'time': 7, 'pitch': -6.03, 'roll': 1.99, 'pres': 163}
{'lipoC2': 7.82, 'lipoC3S1': 3.89, 'temp': 28.56, 'lipoC3S3': 11.73, 'lipoC3S2': 7.78, 'rot1': 0, 'rot0': 0, 'rot3': 20, 'rot2': 14, 'state': 'normal', 'yaw': 1.01, 'datetime': '2018-10-05 19:48:57.526640', 'mgs': 0, 'volt': 0.8008, 'depth': 0.012, 'time': 7, 'pitch': -6.03, 'roll': 1.96, 'pres': 164}
{'lipoC2': 7.81, 'lipoC3S1': 3.88, 'temp': 28.56, 'lipoC3S3': 11.79, 'lipoC3S2': 7.78, 'rot1': 0, 'rot0': 0, 'rot3': 21, 'rot2': 15, 'state': 'normal', 'yaw': 1.25, 'datetime': '2018-10-05 19:48:57.542728', 'mgs': 0, 'volt': 0.8008, 'depth': 0.012, 'time': 7, 'pitch': -5.99, 'roll': 1.98, 'pres': 164}
{'lipoC2': 7.82, 'lipoC3S1': 3.88, 'temp': 28.56, 'lipoC3S3': 11.76, 'lipoC3S2': 7.76, 'rot1': 0, 'rot0': 0, 'rot3': 23, 'rot2': 16, 'state': 'normal', 'yaw': 1.45, 'datetime': '2018-10-05 19:48:57.552749', 'mgs': 0, 'volt': 0.7861, 'depth': -0.217, 'time': 8, 'pitch': -5.93, 'roll': 2.07, 'pres': 161}
{'lipoC2': 7.81, 'lipoC3S1': 3.89, 'temp': 28.56, 'lipoC3S3': 11.73, 'lipoC3S2': 7.78, 'rot1': 0, 'rot0': 0, 'rot3': 24, 'rot2': 17, 'state': 'normal', 'yaw': 1.67, 'datetime': '2018-10-05 19:48:57.568622', 'mgs': 0, 'volt': 0.8008, 'depth': 0.012, 'time': 8, 'pitch': -5.85, 'roll': 2.11, 'pres': 164}
{'lipoC2': 7.82, 'lipoC3S1': 3.88, 'temp': 28.56, 'lipoC3S3': 11.77, 'lipoC3S2': 7.77, 'rot1': 0, 'rot0': 0, 'rot3': 25, 'rot2': 18, 'state': 'normal', 'yaw': 1.84, 'datetime': '2018-10-05 19:48:57.584130', 'mgs': 0, 'volt': 0.7959, 'depth': -0.064, 'time': 8, 'pitch': -5.85, 'roll': 2.08, 'pres': 163}
{'lipoC2': 7.82, 'lipoC3S1': 3.87, 'temp': 28.56, 'lipoC3S3': 11.75, 'lipoC3S2': 7.75, 'rot1': 0, 'rot0': 0, 'rot3': 26, 'rot2': 19, 'state': 'normal', 'yaw': 1.97, 'datetime': '2018-10-05 19:48:57.593639', 'mgs': 0, 'volt': 0.791, 'depth': -0.14, 'time': 8, 'pitch': -5.89, 'roll': 1.93, 'pres': 162}
{'lipoC2': 7.81, 'lipoC3S1': 3.89, 'temp': 28.56, 'lipoC3S3': 11.73, 'lipoC3S2': 7.77, 'rot1': 0, 'rot0': 0, 'rot3': 27, 'rot2': 20, 'state': 'normal', 'yaw': 2.1, 'datetime': '2018-10-05 19:48:57.609102', 'mgs': 0, 'volt': 0.7959, 'depth': -0.064, 'time': 8, 'pitch': -6.0, 'roll': 1.69, 'pres': 163}
{'lipoC2': 7.82, 'lipoC3S1': 3.88, 'temp': 28.56, 'lipoC3S3': 11.79, 'lipoC3S2': 7.76, 'rot1': 0, 'rot0': 0, 'rot3': 28, 'rot2': 20, 'state': 'normal', 'yaw': 2.21, 'datetime': '2018-10-05 19:48:57.624511', 'mgs': 0, 'volt': 0.8008, 'depth': 0.012, 'time': 8, 'pitch': -6.06, 'roll': 1.44, 'pres': 164}
{'lipoC2': 7.81, 'lipoC3S1': 3.89, 'temp': 28.56, 'lipoC3S3': 11.73, 'lipoC3S2': 7.8, 'rot1': 0, 'rot0': 0, 'rot3': 30, 'rot2': 21, 'state': 'normal', 'yaw': 2.28, 'datetime': '2018-10-05 19:48:57.633955', 'mgs': 0, 'volt': 0.8008, 'depth': 0.012, 'time': 8, 'pitch': -6.07, 'roll': 1.23, 'pres': 164}
