{'lipoC2': 7.42, 'lipoC3S1': 3.79, 'temp': 29.81, 'lipoC3S3': 11.44, 'lipoC3S2': 7.59, 'rot1': 0, 'rot0': 0, 'rot3': 0, 'rot2': 0, 'state': 'normal', 'yaw': 0.04, 'datetime': '2018-10-10 01:32:50.695886', 'mgs': 0, 'volt': 0.8545, 'depth': 0.851, 'time': 1, 'pitch': 3.55, 'roll': -3.67, 'pres': 175}
{'lipoC2': 7.42, 'lipoC3S1': 3.79, 'temp': 29.81, 'lipoC3S3': 11.44, 'lipoC3S2': 7.58, 'rot1': 0, 'rot0': 0, 'rot3': 0, 'rot2': 0, 'state': 'normal', 'yaw': 0.21, 'datetime': '2018-10-10 01:32:50.725996', 'mgs': 0, 'volt': 0.8545, 'depth': 0.851, 'time': 1, 'pitch': 3.51, 'roll': -3.66, 'pres': 175}
{'lipoC2': 7.42, 'lipoC3S1': 3.79, 'temp': 29.81, 'lipoC3S3': 11.44, 'lipoC3S2': 7.58, 'rot1': 0, 'rot0': 0, 'rot3': 0, 'rot2': 0, 'state': 'normal', 'yaw': 0.36, 'datetime': '2018-10-10 01:32:50.748233', 'mgs': 0, 'volt': 0.8496, 'depth': 0.775, 'time': 1, 'pitch': 3.22, 'roll': -3.66, 'pres': 174}
{'lipoC2': 7.42, 'lipoC3S1': 3.79, 'temp': 29.81, 'lipoC3S3': 11.44, 'lipoC3S2': 7.59, 'rot1': 0, 'rot0': 0, 'rot3': 0, 'rot2': 0, 'state': 'normal', 'yaw': 0.4, 'datetime': '2018-10-10 01:32:50.767396', 'mgs': 0, 'volt': 0.8496, 'depth': 0.775, 'time': 1, 'pitch': 2.75, 'roll': -3.74, 'pres': 174}
{'lipoC2': 7.42, 'lipoC3S1': 3.79, 'temp': 29.75, 'lipoC3S3': 11.44, 'lipoC3S2': 7.59, 'rot1': 0, 'rot0': 0, 'rot3': 0, 'rot2': 0, 'state': 'normal', 'yaw': 0.48, 'datetime': '2018-10-10 01:32:50.777083', 'mgs': 0, 'volt': 0.8496, 'depth': 0.775, 'time': 1, 'pitch': 2.01, 'roll': -3.94, 'pres': 174}
{'lipoC2': 7.42, 'lipoC3S1': 3.79, 'temp': 29.75, 'lipoC3S3': 11.44, 'lipoC3S2': 7.59, 'rot1': 0, 'rot0': 0, 'rot3': 0, 'rot2': 0, 'state': 'normal', 'yaw': 0.83, 'datetime': '2018-10-10 01:32:50.787643', 'mgs': 0, 'volt': 0.8496, 'depth': 0.775, 'time': 1, 'pitch': 1.07, 'roll': -4.22, 'pres': 174}
{'lipoC2': 7.42, 'lipoC3S1': 3.79, 'temp': 29.81, 'lipoC3S3': 11.44, 'lipoC3S2': 7.58, 'rot1': 0, 'rot0': 0, 'rot3': 0, 'rot2': 0, 'state': 'normal', 'yaw': 1.4, 'datetime': '2018-10-10 01:32:50.797252', 'mgs': 0, 'volt': 0.8496, 'depth': 0.775, 'time': 1, 'pitch': 0.52, 'roll': -4.38, 'pres': 174}
{'lipoC2': 7.42, 'lipoC3S1': 3.79, 'temp': 29.81, 'lipoC3S3': 11.44, 'lipoC3S2': 7.58, 'rot1': 0, 'rot0': 0, 'rot3': 0, 'rot2': 0, 'state': 'normal', 'yaw': 1.92, 'datetime': '2018-10-10 01:32:50.806838', 'mgs': 0, 'volt': 0.8496, 'depth': 0.775, 'time': 2, 'pitch': 0.48, 'roll': -4.42, 'pres': 174}
{'lipoC2': 7.42, 'lipoC3S1': 3.79, 'temp': 29.81, 'lipoC3S3': 11.44, 'lipoC3S2': 7.58, 'rot1': 0, 'rot0': 0, 'rot3': 0, 'rot2': 0, 'state': 'normal', 'yaw': 2.2, 'datetime': '2018-10-10 01:32:50.816447', 'mgs': 0, 'volt': 0.8447, 'depth': 0.699, 'time': 2, 'pitch': 1.14, 'roll': -4.35, 'pres': 173}
{'lipoC2': 7.42, 'lipoC3S1': 3.79, 'temp': 29.81, 'lipoC3S3': 11.44, 'lipoC3S2': 7.59, 'rot1': 0, 'rot0': 0, 'rot3': 0, 'rot2': 0, 'state': 'normal', 'yaw': 2.11, 'datetime': '2018-10-10 01:32:50.826032', 'mgs': 0, 'volt': 0.8447, 'depth': 0.699, 'time': 2, 'pitch': 1.99, 'roll': -4.12, 'pres': 173}
{'lipoC2': 7.42, 'lipoC3S1': 3.79, 'temp': 29.81, 'lipoC3S3': 11.44, 'lipoC3S2': 7.58, 'rot1': 0, 'rot0': 0, 'rot3': 0, 'rot2': 0, 'state': 'normal', 'yaw': 1.73, 'datetime': '2018-10-10 01:32:50.835631', 'mgs': 0, 'volt': 0.8447, 'depth': 0.699, 'time': 2, 'pitch': 2.54, 'roll': -3.85, 'pres': 173}
{'lipoC2': 7.42, 'lipoC3S1': 3.79, 'temp': 29.81, 'lipoC3S3': 11.44, 'lipoC3S2': 7.58, 'rot1': 0, 'rot0': 0, 'rot3': 0, 'rot2': 0, 'state': 'normal', 'yaw': 1.49, 'datetime': '2018-10-10 01:32:50.845226', 'mgs': 0, 'volt': 0.8447, 'depth': 0.699, 'time': 2, 'pitch': 2.27, 'roll': -3.63, 'pres': 173}
{'lipoC2': 7.42, 'lipoC3S1': 3.79, 'temp': 29.81, 'lipoC3S3': 11.44, 'lipoC3S2': 7.58, 'rot1': 0, 'rot0': 0, 'rot3': 0, 'rot2': 0, 'state': 'normal', 'yaw': 1.58, 'datetime': '2018-10-10 01:32:50.854841', 'mgs': 0, 'volt': 0.8447, 'depth': 0.699, 'time': 2, 'pitch': 1.48, 'roll': -3.57, 'pres': 173}
{'lipoC2': 7.42, 'lipoC3S1': 3.79, 'temp': 29.75, 'lipoC3S3': 11.44, 'lipoC3S2': 7.58, 'rot1': 0, 'rot0': 0, 'rot3': 0, 'rot2': 0, 'state': 'normal', 'yaw': 1.81, 'datetime': '2018-10-10 01:32:50.864433', 'mgs': 0, 'volt': 0.8447, 'depth': 0.699, 'time': 2, 'pitch': 0.59, 'roll': -3.58, 'pres': 173}
{'lipoC2': 7.42, 'lipoC3S1': 3.79, 'temp': 29.75, 'lipoC3S3': 11.44, 'lipoC3S2': 7.59, 'rot1': 0, 'rot0': 0, 'rot3': 0, 'rot2': 0, 'state': 'normal', 'yaw': 1.88, 'datetime': '2018-10-10 01:32:50.874239', 'mgs': 0, 'volt': 0.8447, 'depth': 0.699, 'time': 2, 'pitch': -0.23, 'roll': -3.71, 'pres': 173}
{'lipoC2': 7.42, 'lipoC3S1': 3.79, 'temp': 29.81, 'lipoC3S3': 11.44, 'lipoC3S2': 7.59, 'rot1': 0, 'rot0': 0, 'rot3': 0, 'rot2': 0, 'state': 'normal', 'yaw': 1.74, 'datetime': '2018-10-10 01:32:50.883830', 'mgs': 0, 'volt': 0.8398, 'depth': 0.623, 'time': 2, 'pitch': -0.66, 'roll': -3.82, 'pres': 172}
{'lipoC2': 7.42, 'lipoC3S1': 3.79, 'temp': 29.81, 'lipoC3S3': 11.44, 'lipoC3S2': 7.59, 'rot1': 0, 'rot0': 0, 'rot3': 0, 'rot2': 0, 'state': 'normal', 'yaw': 1.56, 'datetime': '2018-10-10 01:32:50.893391', 'mgs': 0, 'volt': 0.8447, 'depth': 0.699, 'time': 3, 'pitch': -0.63, 'roll': -3.81, 'pres': 173}
{'lipoC2': 7.42, 'lipoC3S1': 3.79, 'temp': 29.81, 'lipoC3S3': 11.44, 'lipoC3S2': 7.59, 'rot1': 0, 'rot0': 0, 'rot3': 0, 'rot2': 0, 'state': 'normal', 'yaw': 1.47, 'datetime': '2018-10-10 01:32:50.902959', 'mgs': 0, 'volt': 0.8447, 'depth': 0.699, 'time': 3, 'pitch': -0.28, 'roll': -3.66, 'pres': 173}
{'lipoC2': 7.42, 'lipoC3S1': 3.79, 'temp': 29.81, 'lipoC3S3': 11.44, 'lipoC3S2': 7.59, 'rot1': 0, 'rot0': 0, 'rot3': 0, 'rot2': 0, 'state': 'normal', 'yaw': 1.62, 'datetime': '2018-10-10 01:32:50.912497', 'mgs': 0, 'volt': 0.8398, 'depth': 0.623, 'time': 3, 'pitch': -0.13, 'roll': -3.46, 'pres': 172}
{'lipoC2': 7.42, 'lipoC3S1': 3.79, 'temp': 29.81, 'lipoC3S3': 11.44, 'lipoC3S2': 7.59, 'rot1': 0, 'rot0': 0, 'rot3': 0, 'rot2': 0, 'state': 'normal', 'yaw': 1.85, 'datetime': '2018-10-10 01:32:50.922005', 'mgs': 0, 'volt': 0.8447, 'depth': 0.699, 'time': 3, 'pitch': -0.27, 'roll': -3.27, 'pres': 173}
{'lipoC2': 7.42, 'lipoC3S1': 3.79, 'temp': 29.75, 'lipoC3S3': 11.44, 'lipoC3S2': 7.59, 'rot1': 0, 'rot0': 0, 'rot3': 0, 'rot2': 0, 'state': 'normal', 'yaw': 1.84, 'datetime': '2018-10-10 01:32:50.990368', 'mgs': 0, 'volt': 0.8398, 'depth': 0.623, 'time': 3, 'pitch': -0.4, 'roll': -3.09, 'pres': 172}
{'lipoC2': 7.42, 'lipoC3S1': 3.79, 'temp': 29.75, 'lipoC3S3': 11.44, 'lipoC3S2': 7.59, 'rot1': 0, 'rot0': 0, 'rot3': 0, 'rot2': 0, 'state': 'normal', 'yaw': 1.54, 'datetime': '2018-10-10 01:32:51.093583', 'mgs': 0, 'volt': 0.8447, 'depth': 0.699, 'time': 3, 'pitch': -0.45, 'roll': -2.89, 'pres': 173}
{'lipoC2': 7.42, 'lipoC3S1': 3.79, 'temp': 29.81, 'lipoC3S3': 11.44, 'lipoC3S2': 7.58, 'rot1': 0, 'rot0': 0, 'rot3': 0, 'rot2': 0, 'state': 'normal', 'yaw': 1.23, 'datetime': '2018-10-10 01:32:51.196835', 'mgs': 0, 'volt': 0.8398, 'depth': 0.623, 'time': 3, 'pitch': -0.22, 'roll': -2.64, 'pres': 172}
{'lipoC2': 7.42, 'lipoC3S1': 3.79, 'temp': 29.81, 'lipoC3S3': 11.44, 'lipoC3S2': 7.58, 'rot1': 0, 'rot0': 0, 'rot3': 0, 'rot2': 0, 'state': 'normal', 'yaw': 1.15, 'datetime': '2018-10-10 01:32:51.300278', 'mgs': 0, 'volt': 0.8447, 'depth': 0.699, 'time': 3, 'pitch': 0.3, 'roll': -2.33, 'pres': 173}
{'lipoC2': 7.42, 'lipoC3S1': 3.79, 'temp': 29.81, 'lipoC3S3': 11.44, 'lipoC3S2': 7.58, 'rot1': 0, 'rot0': 0, 'rot3': 0, 'rot2': 0, 'state': 'normal', 'yaw': 1.13, 'datetime': '2018-10-10 01:32:51.403463', 'mgs': 0, 'volt': 0.8398, 'depth': 0.623, 'time': 3, 'pitch': 0.72, 'roll': -1.94, 'pres': 172}
{'lipoC2': 7.42, 'lipoC3S1': 3.79, 'temp': 29.75, 'lipoC3S3': 11.44, 'lipoC3S2': 7.59, 'rot1': 0, 'rot0': 0, 'rot3': 0, 'rot2': 0, 'state': 'normal', 'yaw': 1.21, 'datetime': '2018-10-10 01:32:51.507534', 'mgs': 0, 'volt': 0.8447, 'depth': 0.699, 'time': 3, 'pitch': 0.4, 'roll': -1.8, 'pres': 173}
{'lipoC2': 7.42, 'lipoC3S1': 3.79, 'temp': 29.75, 'lipoC3S3': 11.44, 'lipoC3S2': 7.59, 'rot1': 0, 'rot0': 0, 'rot3': 0, 'rot2': 0, 'state': 'normal', 'yaw': 1.25, 'datetime': '2018-10-10 01:32:51.611874', 'mgs': 0, 'volt': 0.8447, 'depth': 0.699, 'time': 4, 'pitch': -0.17, 'roll': -1.88, 'pres': 173}
{'lipoC2': 7.42, 'lipoC3S1': 3.79, 'temp': 29.75, 'lipoC3S3': 11.44, 'lipoC3S2': 7.59, 'rot1': 0, 'rot0': 0, 'rot3': 0, 'rot2': 0, 'state': 'normal', 'yaw': 1.09, 'datetime': '2018-10-10 01:32:51.714987', 'mgs': 0, 'volt': 0.8447, 'depth': 0.699, 'time': 4, 'pitch': -0.41, 'roll': -2.11, 'pres': 173}
{'lipoC2': 7.42, 'lipoC3S1': 3.79, 'temp': 29.75, 'lipoC3S3': 11.44, 'lipoC3S2': 7.58, 'rot1': 0, 'rot0': 0, 'rot3': 0, 'rot2': 0, 'state': 'normal', 'yaw': 0.67, 'datetime': '2018-10-10 01:32:51.819027', 'mgs': 0, 'volt': 0.8447, 'depth': 0.699, 'time': 4, 'pitch': -0.42, 'roll': -2.17, 'pres': 173}
{'lipoC2': 7.42, 'lipoC3S1': 3.79, 'temp': 29.75, 'lipoC3S3': 11.44, 'lipoC3S2': 7.59, 'rot1': 0, 'rot0': 0, 'rot3': 0, 'rot2': 0, 'state': 'normal', 'yaw': 0.23, 'datetime': '2018-10-10 01:32:51.922861', 'mgs': 0, 'volt': 0.8447, 'depth': 0.699, 'time': 4, 'pitch': -0.46, 'roll': -2.0, 'pres': 173}
{'lipoC2': 7.42, 'lipoC3S1': 3.79, 'temp': 29.75, 'lipoC3S3': 11.44, 'lipoC3S2': 7.58, 'rot1': 0, 'rot0': 0, 'rot3': 0, 'rot2': 0, 'state': 'normal', 'yaw': 0.09, 'datetime': '2018-10-10 01:32:52.026038', 'mgs': 0, 'volt': 0.8496, 'depth': 0.775, 'time': 4, 'pitch': -0.12, 'roll': -1.73, 'pres': 174}
{'lipoC2': 7.42, 'lipoC3S1': 3.79, 'temp': 29.75, 'lipoC3S3': 11.44, 'lipoC3S2': 7.59, 'rot1': 0, 'rot0': 0, 'rot3': 0, 'rot2': 0, 'state': 'normal', 'yaw': 0.33, 'datetime': '2018-10-10 01:32:52.130536', 'mgs': 0, 'volt': 0.8496, 'depth': 0.775, 'time': 4, 'pitch': 0.62, 'roll': -1.57, 'pres': 174}
{'lipoC2': 7.42, 'lipoC3S1': 3.79, 'temp': 29.75, 'lipoC3S3': 11.44, 'lipoC3S2': 7.59, 'rot1': 0, 'rot0': 0, 'rot3': 0, 'rot2': 0, 'state': 'normal', 'yaw': 0.77, 'datetime': '2018-10-10 01:32:52.234215', 'mgs': 0, 'volt': 0.8496, 'depth': 0.775, 'time': 4, 'pitch': 1.24, 'roll': -1.57, 'pres': 174}
{'lipoC2': 7.42, 'lipoC3S1': 3.79, 'temp': 29.75, 'lipoC3S3': 11.44, 'lipoC3S2': 7.58, 'rot1': 0, 'rot0': 0, 'rot3': 0, 'rot2': 0, 'state': 'normal', 'yaw': 0.97, 'datetime': '2018-10-10 01:32:52.337408', 'mgs': 0, 'volt': 0.8496, 'depth': 0.775, 'time': 4, 'pitch': 1.29, 'roll': -1.85, 'pres': 174}
{'lipoC2': 7.42, 'lipoC3S1': 3.79, 'temp': 29.75, 'lipoC3S3': 11.44, 'lipoC3S2': 7.58, 'rot1': 0, 'rot0': 0, 'rot3': 0, 'rot2': 0, 'state': 'normal', 'yaw': 0.99, 'datetime': '2018-10-10 01:32:52.440666', 'mgs': 0, 'volt': 0.8496, 'depth': 0.775, 'time': 4, 'pitch': 1.15, 'roll': -2.41, 'pres': 174}
{'lipoC2': 7.42, 'lipoC3S1': 3.79, 'temp': 29.75, 'lipoC3S3': 11.44, 'lipoC3S2': 7.58, 'rot1': 0, 'rot0': 0, 'rot3': 0, 'rot2': 0, 'state': 'normal', 'yaw': 0.96, 'datetime': '2018-10-10 01:32:52.545080', 'mgs': 0, 'volt': 0.8496, 'depth': 0.775, 'time': 4, 'pitch': 0.84, 'roll': -3.07, 'pres': 174}
{'lipoC2': 7.42, 'lipoC3S1': 3.79, 'temp': 29.75, 'lipoC3S3': 11.44, 'lipoC3S2': 7.59, 'rot1': 0, 'rot0': 0, 'rot3': 0, 'rot2': 0, 'state': 'normal', 'yaw': 0.98, 'datetime': '2018-10-10 01:32:52.647229', 'mgs': 0, 'volt': 0.8496, 'depth': 0.775, 'time': 5, 'pitch': 0.32, 'roll': -3.39, 'pres': 174}
{'lipoC2': 7.42, 'lipoC3S1': 3.79, 'temp': 29.75, 'lipoC3S3': 11.44, 'lipoC3S2': 7.59, 'rot1': 0, 'rot0': 0, 'rot3': 0, 'rot2': 0, 'state': 'normal', 'yaw': 0.99, 'datetime': '2018-10-10 01:32:52.750450', 'mgs': 0, 'volt': 0.8496, 'depth': 0.775, 'time': 5, 'pitch': 0.29, 'roll': -3.15, 'pres': 174}
{'lipoC2': 7.42, 'lipoC3S1': 3.79, 'temp': 29.75, 'lipoC3S3': 11.44, 'lipoC3S2': 7.58, 'rot1': 0, 'rot0': 0, 'rot3': 0, 'rot2': 0, 'state': 'normal', 'yaw': 1.14, 'datetime': '2018-10-10 01:32:52.853649', 'mgs': 0, 'volt': 0.8496, 'depth': 0.775, 'time': 5, 'pitch': 0.7, 'roll': -2.71, 'pres': 174}
{'lipoC2': 7.42, 'lipoC3S1': 3.79, 'temp': 29.75, 'lipoC3S3': 11.44, 'lipoC3S2': 7.59, 'rot1': 0, 'rot0': 0, 'rot3': 0, 'rot2': 0, 'state': 'normal', 'yaw': 1.82, 'datetime': '2018-10-10 01:32:52.956881', 'mgs': 0, 'volt': 0.8496, 'depth': 0.775, 'time': 5, 'pitch': 0.8, 'roll': -2.53, 'pres': 174}
{'lipoC2': 7.42, 'lipoC3S1': 3.79, 'temp': 29.75, 'lipoC3S3': 11.44, 'lipoC3S2': 7.58, 'rot1': 0, 'rot0': 0, 'rot3': 0, 'rot2': 0, 'state': 'normal', 'yaw': 2.56, 'datetime': '2018-10-10 01:32:53.060156', 'mgs': 0, 'volt': 0.8496, 'depth': 0.775, 'time': 5, 'pitch': 0.86, 'roll': -2.7, 'pres': 174}
{'lipoC2': 7.42, 'lipoC3S1': 3.79, 'temp': 29.75, 'lipoC3S3': 11.44, 'lipoC3S2': 7.58, 'rot1': 0, 'rot0': 0, 'rot3': 0, 'rot2': 0, 'state': 'normal', 'yaw': 2.9, 'datetime': '2018-10-10 01:32:53.164664', 'mgs': 0, 'volt': 0.8447, 'depth': 0.699, 'time': 5, 'pitch': 0.98, 'roll': -2.89, 'pres': 173}
{'lipoC2': 7.42, 'lipoC3S1': 3.79, 'temp': 29.75, 'lipoC3S3': 11.44, 'lipoC3S2': 7.59, 'rot1': 0, 'rot0': 0, 'rot3': 0, 'rot2': 0, 'state': 'normal', 'yaw': 2.89, 'datetime': '2018-10-10 01:32:53.267881', 'mgs': 0, 'volt': 0.8447, 'depth': 0.699, 'time': 5, 'pitch': 0.62, 'roll': -2.92, 'pres': 173}
{'lipoC2': 7.42, 'lipoC3S1': 3.79, 'temp': 29.75, 'lipoC3S3': 11.44, 'lipoC3S2': 7.59, 'rot1': 0, 'rot0': 0, 'rot3': 0, 'rot2': 0, 'state': 'normal', 'yaw': 2.82, 'datetime': '2018-10-10 01:32:53.375544', 'mgs': 0, 'volt': 0.8447, 'depth': 0.699, 'time': 5, 'pitch': -0.08, 'roll': -2.66, 'pres': 173}
{'lipoC2': 7.42, 'lipoC3S1': 3.79, 'temp': 29.75, 'lipoC3S3': 11.44, 'lipoC3S2': 7.59, 'rot1': 0, 'rot0': 0, 'rot3': 0, 'rot2': 0, 'state': 'normal', 'yaw': 2.99, 'datetime': '2018-10-10 01:32:53.479464', 'mgs': 0, 'volt': 0.8447, 'depth': 0.699, 'time': 5, 'pitch': -0.71, 'roll': -2.37, 'pres': 173}
{'lipoC2': 7.42, 'lipoC3S1': 3.79, 'temp': 29.75, 'lipoC3S3': 11.44, 'lipoC3S2': 7.58, 'rot1': 0, 'rot0': 0, 'rot3': 0, 'rot2': 0, 'state': 'normal', 'yaw': 3.56, 'datetime': '2018-10-10 01:32:53.582550', 'mgs': 0, 'volt': 0.8447, 'depth': 0.699, 'time': 6, 'pitch': -0.97, 'roll': -2.4, 'pres': 173}
{'lipoC2': 7.42, 'lipoC3S1': 3.79, 'temp': 29.75, 'lipoC3S3': 11.44, 'lipoC3S2': 7.58, 'rot1': 0, 'rot0': 0, 'rot3': 0, 'rot2': 0, 'state': 'normal', 'yaw': 4.08, 'datetime': '2018-10-10 01:32:53.687347', 'mgs': 0, 'volt': 0.8447, 'depth': 0.699, 'time': 6, 'pitch': -0.81, 'roll': -2.74, 'pres': 173}
{'lipoC2': 7.42, 'lipoC3S1': 3.79, 'temp': 29.75, 'lipoC3S3': 11.44, 'lipoC3S2': 7.58, 'rot1': 0, 'rot0': 0, 'rot3': 0, 'rot2': 0, 'state': 'normal', 'yaw': 4.28, 'datetime': '2018-10-10 01:32:53.790905', 'mgs': 0, 'volt': 0.8447, 'depth': 0.699, 'time': 6, 'pitch': -0.6, 'roll': -3.16, 'pres': 173}
{'lipoC2': 7.42, 'lipoC3S1': 3.79, 'temp': 29.75, 'lipoC3S3': 11.44, 'lipoC3S2': 7.59, 'rot1': 0, 'rot0': 0, 'rot3': 0, 'rot2': 0, 'state': 'normal', 'yaw': 3.79, 'datetime': '2018-10-10 01:32:53.894223', 'mgs': 0, 'volt': 0.8398, 'depth': 0.623, 'time': 6, 'pitch': -0.67, 'roll': -3.42, 'pres': 172}
{'lipoC2': 7.42, 'lipoC3S1': 3.79, 'temp': 29.75, 'lipoC3S3': 11.44, 'lipoC3S2': 7.58, 'rot1': 0, 'rot0': 0, 'rot3': 0, 'rot2': 0, 'state': 'normal', 'yaw': 2.92, 'datetime': '2018-10-10 01:32:53.997642', 'mgs': 0, 'volt': 0.835, 'depth': 0.546, 'time': 6, 'pitch': -0.76, 'roll': -3.34, 'pres': 171}
{'lipoC2': 7.42, 'lipoC3S1': 3.79, 'temp': 29.75, 'lipoC3S3': 11.44, 'lipoC3S2': 7.59, 'rot1': 0, 'rot0': 0, 'rot3': 0, 'rot2': 0, 'state': 'normal', 'yaw': 2.41, 'datetime': '2018-10-10 01:32:54.100845', 'mgs': 0, 'volt': 0.835, 'depth': 0.546, 'time': 6, 'pitch': -1.03, 'roll': -3.15, 'pres': 171}
{'lipoC2': 7.42, 'lipoC3S1': 3.79, 'temp': 29.75, 'lipoC3S3': 11.44, 'lipoC3S2': 7.59, 'rot1': 0, 'rot0': 0, 'rot3': 0, 'rot2': 0, 'state': 'normal', 'yaw': 2.3, 'datetime': '2018-10-10 01:32:54.204183', 'mgs': 0, 'volt': 0.835, 'depth': 0.546, 'time': 6, 'pitch': -1.63, 'roll': -3.07, 'pres': 171}
{'lipoC2': 7.42, 'lipoC3S1': 3.79, 'temp': 29.75, 'lipoC3S3': 11.44, 'lipoC3S2': 7.58, 'rot1': 0, 'rot0': 0, 'rot3': 0, 'rot2': 0, 'state': 'normal', 'yaw': 2.57, 'datetime': '2018-10-10 01:32:54.307566', 'mgs': 0, 'volt': 0.835, 'depth': 0.546, 'time': 6, 'pitch': -2.19, 'roll': -3.26, 'pres': 171}
{'lipoC2': 7.42, 'lipoC3S1': 3.79, 'temp': 29.75, 'lipoC3S3': 11.44, 'lipoC3S2': 7.58, 'rot1': 0, 'rot0': 0, 'rot3': 0, 'rot2': 0, 'state': 'normal', 'yaw': 2.93, 'datetime': '2018-10-10 01:32:54.410471', 'mgs': 0, 'volt': 0.835, 'depth': 0.546, 'time': 6, 'pitch': -2.5, 'roll': -3.6, 'pres': 171}
{'lipoC2': 7.42, 'lipoC3S1': 3.79, 'temp': 29.75, 'lipoC3S3': 11.44, 'lipoC3S2': 7.59, 'rot1': 0, 'rot0': 0, 'rot3': 0, 'rot2': 0, 'state': 'normal', 'yaw': 3.05, 'datetime': '2018-10-10 01:32:54.514127', 'mgs': 0, 'volt': 0.835, 'depth': 0.546, 'time': 6, 'pitch': -2.46, 'roll': -3.92, 'pres': 171}
{'lipoC2': 7.42, 'lipoC3S1': 3.79, 'temp': 29.81, 'lipoC3S3': 11.44, 'lipoC3S2': 7.59, 'rot1': 0, 'rot0': 0, 'rot3': 0, 'rot2': 0, 'state': 'normal', 'yaw': 2.78, 'datetime': '2018-10-10 01:32:54.616992', 'mgs': 0, 'volt': 0.835, 'depth': 0.546, 'time': 7, 'pitch': -2.34, 'roll': -4.1, 'pres': 171}
{'lipoC2': 7.42, 'lipoC3S1': 3.79, 'temp': 29.81, 'lipoC3S3': 11.44, 'lipoC3S2': 7.58, 'rot1': 0, 'rot0': 0, 'rot3': 0, 'rot2': 0, 'state': 'normal', 'yaw': 2.4, 'datetime': '2018-10-10 01:32:54.721646', 'mgs': 0, 'volt': 0.835, 'depth': 0.546, 'time': 7, 'pitch': -2.33, 'roll': -4.22, 'pres': 171}
{'lipoC2': 7.42, 'lipoC3S1': 3.79, 'temp': 29.81, 'lipoC3S3': 11.44, 'lipoC3S2': 7.58, 'rot1': 0, 'rot0': 0, 'rot3': 0, 'rot2': 0, 'state': 'normal', 'yaw': 2.07, 'datetime': '2018-10-10 01:32:54.824910', 'mgs': 0, 'volt': 0.835, 'depth': 0.546, 'time': 7, 'pitch': -2.39, 'roll': -4.46, 'pres': 171}
{'lipoC2': 7.42, 'lipoC3S1': 3.79, 'temp': 29.75, 'lipoC3S3': 11.44, 'lipoC3S2': 7.58, 'rot1': 0, 'rot0': 0, 'rot3': 0, 'rot2': 0, 'state': 'normal', 'yaw': 1.87, 'datetime': '2018-10-10 01:32:54.927969', 'mgs': 0, 'volt': 0.835, 'depth': 0.546, 'time': 7, 'pitch': -2.43, 'roll': -4.77, 'pres': 171}
{'lipoC2': 7.42, 'lipoC3S1': 3.79, 'temp': 29.75, 'lipoC3S3': 11.44, 'lipoC3S2': 7.59, 'rot1': 0, 'rot0': 0, 'rot3': 0, 'rot2': 0, 'state': 'normal', 'yaw': 1.87, 'datetime': '2018-10-10 01:32:55.032372', 'mgs': 0, 'volt': 0.8301, 'depth': 0.47, 'time': 7, 'pitch': -2.36, 'roll': -5.11, 'pres': 170}
{'lipoC2': 7.42, 'lipoC3S1': 3.79, 'temp': 29.75, 'lipoC3S3': 11.44, 'lipoC3S2': 7.59, 'rot1': 0, 'rot0': 0, 'rot3': 0, 'rot2': 0, 'state': 'normal', 'yaw': 1.98, 'datetime': '2018-10-10 01:32:55.135736', 'mgs': 0, 'volt': 0.8301, 'depth': 0.47, 'time': 7, 'pitch': -2.24, 'roll': -5.34, 'pres': 170}
{'lipoC2': 7.42, 'lipoC3S1': 3.79, 'temp': 29.75, 'lipoC3S3': 11.44, 'lipoC3S2': 7.58, 'rot1': 0, 'rot0': 0, 'rot3': 0, 'rot2': 0, 'state': 'normal', 'yaw': 2.09, 'datetime': '2018-10-10 01:32:55.239624', 'mgs': 0, 'volt': 0.8301, 'depth': 0.47, 'time': 7, 'pitch': -2.11, 'roll': -5.27, 'pres': 170}
{'lipoC2': 7.42, 'lipoC3S1': 3.79, 'temp': 29.75, 'lipoC3S3': 11.44, 'lipoC3S2': 7.58, 'rot1': 0, 'rot0': 0, 'rot3': 0, 'rot2': 0, 'state': 'normal', 'yaw': 2.2, 'datetime': '2018-10-10 01:32:55.344156', 'mgs': 0, 'volt': 0.8301, 'depth': 0.47, 'time': 7, 'pitch': -1.89, 'roll': -4.92, 'pres': 170}
{'lipoC2': 7.42, 'lipoC3S1': 3.79, 'temp': 29.75, 'lipoC3S3': 11.44, 'lipoC3S2': 7.59, 'rot1': 0, 'rot0': 0, 'rot3': 0, 'rot2': 0, 'state': 'normal', 'yaw': 2.2, 'datetime': '2018-10-10 01:32:55.447261', 'mgs': 0, 'volt': 0.835, 'depth': 0.546, 'time': 7, 'pitch': -1.64, 'roll': -4.45, 'pres': 171}
{'lipoC2': 7.42, 'lipoC3S1': 3.79, 'temp': 29.75, 'lipoC3S3': 11.44, 'lipoC3S2': 7.58, 'rot1': 0, 'rot0': 0, 'rot3': 0, 'rot2': 0, 'state': 'normal', 'yaw': 2.17, 'datetime': '2018-10-10 01:32:55.550419', 'mgs': 0, 'volt': 0.835, 'depth': 0.546, 'time': 7, 'pitch': -1.57, 'roll': -4.19, 'pres': 171}
{'lipoC2': 7.42, 'lipoC3S1': 3.79, 'temp': 29.75, 'lipoC3S3': 11.44, 'lipoC3S2': 7.59, 'rot1': 0, 'rot0': 0, 'rot3': 0, 'rot2': 0, 'state': 'normal', 'yaw': 2.16, 'datetime': '2018-10-10 01:32:55.654621', 'mgs': 0, 'volt': 0.835, 'depth': 0.546, 'time': 8, 'pitch': -1.57, 'roll': -4.19, 'pres': 171}
{'lipoC2': 7.42, 'lipoC3S1': 3.79, 'temp': 29.75, 'lipoC3S3': 11.44, 'lipoC3S2': 7.59, 'rot1': 0, 'rot0': 0, 'rot3': 0, 'rot2': 0, 'state': 'normal', 'yaw': 2.32, 'datetime': '2018-10-10 01:32:55.758026', 'mgs': 0, 'volt': 0.8301, 'depth': 0.47, 'time': 8, 'pitch': -1.65, 'roll': -4.43, 'pres': 170}
{'lipoC2': 7.42, 'lipoC3S1': 3.79, 'temp': 29.75, 'lipoC3S3': 11.44, 'lipoC3S2': 7.59, 'rot1': 0, 'rot0': 0, 'rot3': 0, 'rot2': 0, 'state': 'normal', 'yaw': 2.61, 'datetime': '2018-10-10 01:32:55.860986', 'mgs': 0, 'volt': 0.835, 'depth': 0.546, 'time': 8, 'pitch': -1.85, 'roll': -4.8, 'pres': 171}
{'lipoC2': 7.42, 'lipoC3S1': 3.79, 'temp': 29.75, 'lipoC3S3': 11.44, 'lipoC3S2': 7.58, 'rot1': 0, 'rot0': 0, 'rot3': 0, 'rot2': 0, 'state': 'normal', 'yaw': 2.82, 'datetime': '2018-10-10 01:32:55.964353', 'mgs': 0, 'volt': 0.835, 'depth': 0.546, 'time': 8, 'pitch': -1.94, 'roll': -5.2, 'pres': 171}
{'lipoC2': 7.42, 'lipoC3S1': 3.79, 'temp': 29.75, 'lipoC3S3': 11.44, 'lipoC3S2': 7.58, 'rot1': 0, 'rot0': 0, 'rot3': 0, 'rot2': 0, 'state': 'normal', 'yaw': 2.79, 'datetime': '2018-10-10 01:32:56.067541', 'mgs': 0, 'volt': 0.835, 'depth': 0.546, 'time': 8, 'pitch': -1.83, 'roll': -5.52, 'pres': 171}
{'lipoC2': 7.42, 'lipoC3S1': 3.79, 'temp': 29.75, 'lipoC3S3': 11.44, 'lipoC3S2': 7.58, 'rot1': 0, 'rot0': 0, 'rot3': 0, 'rot2': 0, 'state': 'normal', 'yaw': 2.56, 'datetime': '2018-10-10 01:32:56.170742', 'mgs': 0, 'volt': 0.835, 'depth': 0.546, 'time': 8, 'pitch': -1.53, 'roll': -5.47, 'pres': 171}
{'lipoC2': 7.42, 'lipoC3S1': 3.79, 'temp': 29.75, 'lipoC3S3': 11.44, 'lipoC3S2': 7.58, 'rot1': 0, 'rot0': 0, 'rot3': 0, 'rot2': 0, 'state': 'normal', 'yaw': 2.3, 'datetime': '2018-10-10 01:32:56.275326', 'mgs': 1, 'volt': 0.835, 'depth': 0.546, 'time': 8, 'pitch': -1.19, 'roll': -5.09, 'pres': 171}
{'lipoC2': 7.42, 'lipoC3S1': 3.79, 'temp': 29.81, 'lipoC3S3': 11.44, 'lipoC3S2': 7.59, 'rot1': 0, 'rot0': 0, 'rot3': 0, 'rot2': 0, 'state': 'normal', 'yaw': 0.0, 'datetime': '2018-10-10 01:33:00.806235', 'mgs': 1, 'volt': 0.8447, 'depth': 0.699, 'time': 1, 'pitch': -1.65, 'roll': -3.68, 'pres': 173}
{'lipoC2': 7.42, 'lipoC3S1': 3.79, 'temp': 29.81, 'lipoC3S3': 11.44, 'lipoC3S2': 7.58, 'rot1': 0, 'rot0': 0, 'rot3': 0, 'rot2': 0, 'state': 'normal', 'yaw': -0.18, 'datetime': '2018-10-10 01:33:03.859671', 'mgs': 1, 'volt': 0.8398, 'depth': 0.623, 'time': 1, 'pitch': -1.36, 'roll': -3.62, 'pres': 172}
{'lipoC2': 7.42, 'lipoC3S1': 3.79, 'temp': 29.75, 'lipoC3S3': 11.44, 'lipoC3S2': 7.58, 'rot1': 0, 'rot0': 0, 'rot3': 0, 'rot2': 0, 'state': 'normal', 'yaw': -0.01, 'datetime': '2018-10-10 01:33:03.890064', 'mgs': 1, 'volt': 0.8447, 'depth': 0.699, 'time': 1, 'pitch': -0.98, 'roll': -3.35, 'pres': 173}
{'lipoC2': 7.42, 'lipoC3S1': 3.79, 'temp': 29.75, 'lipoC3S3': 11.44, 'lipoC3S2': 7.58, 'rot1': 0, 'rot0': 0, 'rot3': 0, 'rot2': 0, 'state': 'normal', 'yaw': 0.43, 'datetime': '2018-10-10 01:33:03.914920', 'mgs': 1, 'volt': 0.8398, 'depth': 0.623, 'time': 1, 'pitch': -0.78, 'roll': -3.09, 'pres': 172}
{'lipoC2': 7.42, 'lipoC3S1': 3.79, 'temp': 29.75, 'lipoC3S3': 11.44, 'lipoC3S2': 7.58, 'rot1': 0, 'rot0': 0, 'rot3': 0, 'rot2': 0, 'state': 'normal', 'yaw': 0.72, 'datetime': '2018-10-10 01:33:03.932727', 'mgs': 1, 'volt': 0.8398, 'depth': 0.623, 'time': 1, 'pitch': -0.88, 'roll': -2.99, 'pres': 172}
{'lipoC2': 7.42, 'lipoC3S1': 3.79, 'temp': 29.75, 'lipoC3S3': 11.44, 'lipoC3S2': 7.59, 'rot1': 0, 'rot0': 0, 'rot3': 0, 'rot2': 0, 'state': 'normal', 'yaw': 0.51, 'datetime': '2018-10-10 01:33:03.949082', 'mgs': 1, 'volt': 0.8398, 'depth': 0.623, 'time': 1, 'pitch': -1.17, 'roll': -3.1, 'pres': 172}
{'lipoC2': 7.42, 'lipoC3S1': 3.79, 'temp': 29.75, 'lipoC3S3': 11.44, 'lipoC3S2': 7.58, 'rot1': 0, 'rot0': 0, 'rot3': 0, 'rot2': 0, 'state': 'normal', 'yaw': -0.03, 'datetime': '2018-10-10 01:33:03.959325', 'mgs': 1, 'volt': 0.8398, 'depth': 0.623, 'time': 1, 'pitch': -1.58, 'roll': -3.33, 'pres': 172}
{'lipoC2': 7.42, 'lipoC3S1': 3.79, 'temp': 29.75, 'lipoC3S3': 11.44, 'lipoC3S2': 7.59, 'rot1': 0, 'rot0': 0, 'rot3': 0, 'rot2': 0, 'state': 'normal', 'yaw': -0.65, 'datetime': '2018-10-10 01:33:03.975561', 'mgs': 1, 'volt': 0.8447, 'depth': 0.699, 'time': 1, 'pitch': -1.95, 'roll': -3.45, 'pres': 173}
{'lipoC2': 7.42, 'lipoC3S1': 3.79, 'temp': 29.75, 'lipoC3S3': 11.44, 'lipoC3S2': 7.59, 'rot1': 0, 'rot0': 0, 'rot3': 0, 'rot2': 0, 'state': 'normal', 'yaw': -1.22, 'datetime': '2018-10-10 01:33:03.991796', 'mgs': 1, 'volt': 0.8398, 'depth': 0.623, 'time': 2, 'pitch': -2.14, 'roll': -3.29, 'pres': 172}
{'lipoC2': 7.42, 'lipoC3S1': 3.79, 'temp': 29.81, 'lipoC3S3': 11.44, 'lipoC3S2': 7.59, 'rot1': 0, 'rot0': 0, 'rot3': 0, 'rot2': 0, 'state': 'normal', 'yaw': -1.38, 'datetime': '2018-10-10 01:33:04.002145', 'mgs': 1, 'volt': 0.8398, 'depth': 0.623, 'time': 2, 'pitch': -2.49, 'roll': -2.86, 'pres': 172}
{'lipoC2': 7.42, 'lipoC3S1': 3.79, 'temp': 29.81, 'lipoC3S3': 11.44, 'lipoC3S2': 7.59, 'rot1': 0, 'rot0': 0, 'rot3': 0, 'rot2': 0, 'state': 'normal', 'yaw': -1.33, 'datetime': '2018-10-10 01:33:04.018925', 'mgs': 0, 'volt': 0.8398, 'depth': 0.623, 'time': 2, 'pitch': -2.46, 'roll': -2.66, 'pres': 172}
{'lipoC2': 7.42, 'lipoC3S1': 3.79, 'temp': 29.81, 'lipoC3S3': 11.44, 'lipoC3S2': 7.59, 'rot1': 0, 'rot0': 0, 'rot3': 0, 'rot2': 0, 'state': 'normal', 'yaw': -1.23, 'datetime': '2018-10-10 01:33:04.036044', 'mgs': 0, 'volt': 0.8398, 'depth': 0.623, 'time': 2, 'pitch': -2.58, 'roll': -2.66, 'pres': 172}
{'lipoC2': 7.42, 'lipoC3S1': 3.79, 'temp': 29.75, 'lipoC3S3': 11.44, 'lipoC3S2': 7.58, 'rot1': 0, 'rot0': 0, 'rot3': 0, 'rot2': 0, 'state': 'normal', 'yaw': -1.34, 'datetime': '2018-10-10 01:33:04.046896', 'mgs': 0, 'volt': 0.8398, 'depth': 0.623, 'time': 2, 'pitch': -2.66, 'roll': -2.61, 'pres': 172}
{'lipoC2': 7.42, 'lipoC3S1': 3.79, 'temp': 29.75, 'lipoC3S3': 11.44, 'lipoC3S2': 7.59, 'rot1': 0, 'rot0': 0, 'rot3': 0, 'rot2': 0, 'state': 'normal', 'yaw': -1.58, 'datetime': '2018-10-10 01:33:04.062984', 'mgs': 0, 'volt': 0.8398, 'depth': 0.623, 'time': 2, 'pitch': -2.65, 'roll': -2.51, 'pres': 172}
{'lipoC2': 7.42, 'lipoC3S1': 3.79, 'temp': 29.75, 'lipoC3S3': 11.44, 'lipoC3S2': 7.59, 'rot1': 0, 'rot0': 0, 'rot3': 0, 'rot2': 0, 'state': 'normal', 'yaw': -1.82, 'datetime': '2018-10-10 01:33:04.079088', 'mgs': 0, 'volt': 0.835, 'depth': 0.546, 'time': 2, 'pitch': -2.85, 'roll': -2.4, 'pres': 171}
{'lipoC2': 7.42, 'lipoC3S1': 3.79, 'temp': 29.75, 'lipoC3S3': 11.44, 'lipoC3S2': 7.58, 'rot1': 0, 'rot0': 0, 'rot3': 0, 'rot2': 0, 'state': 'normal', 'yaw': -1.93, 'datetime': '2018-10-10 01:33:04.089355', 'mgs': 0, 'volt': 0.835, 'depth': 0.546, 'time': 2, 'pitch': -3.26, 'roll': -2.22, 'pres': 171}
{'lipoC2': 7.42, 'lipoC3S1': 3.79, 'temp': 29.75, 'lipoC3S3': 11.44, 'lipoC3S2': 7.58, 'rot1': 0, 'rot0': 0, 'rot3': 0, 'rot2': 0, 'state': 'normal', 'yaw': -1.83, 'datetime': '2018-10-10 01:33:04.105569', 'mgs': 0, 'volt': 0.8398, 'depth': 0.623, 'time': 2, 'pitch': -3.46, 'roll': -1.98, 'pres': 172}
{'lipoC2': 7.42, 'lipoC3S1': 3.79, 'temp': 29.75, 'lipoC3S3': 11.44, 'lipoC3S2': 7.59, 'rot1': 0, 'rot0': 0, 'rot3': 0, 'rot2': 0, 'state': 'normal', 'yaw': -1.59, 'datetime': '2018-10-10 01:33:04.121791', 'mgs': 0, 'volt': 0.835, 'depth': 0.546, 'time': 3, 'pitch': -3.17, 'roll': -1.74, 'pres': 171}
{'lipoC2': 7.42, 'lipoC3S1': 3.79, 'temp': 29.75, 'lipoC3S3': 11.44, 'lipoC3S2': 7.59, 'rot1': 0, 'rot0': 0, 'rot3': 0, 'rot2': 0, 'state': 'normal', 'yaw': -1.22, 'datetime': '2018-10-10 01:33:04.132531', 'mgs': 0, 'volt': 0.835, 'depth': 0.546, 'time': 3, 'pitch': -2.69, 'roll': -1.55, 'pres': 171}
{'lipoC2': 7.42, 'lipoC3S1': 3.79, 'temp': 29.75, 'lipoC3S3': 11.44, 'lipoC3S2': 7.59, 'rot1': 0, 'rot0': 0, 'rot3': 0, 'rot2': 0, 'state': 'normal', 'yaw': -0.95, 'datetime': '2018-10-10 01:33:04.149435', 'mgs': 0, 'volt': 0.835, 'depth': 0.546, 'time': 3, 'pitch': -2.58, 'roll': -1.51, 'pres': 171}
{'lipoC2': 7.42, 'lipoC3S1': 3.79, 'temp': 29.75, 'lipoC3S3': 11.44, 'lipoC3S2': 7.59, 'rot1': 0, 'rot0': 0, 'rot3': 0, 'rot2': 0, 'state': 'normal', 'yaw': -0.84, 'datetime': '2018-10-10 01:33:04.165714', 'mgs': 0, 'volt': 0.835, 'depth': 0.546, 'time': 3, 'pitch': -2.85, 'roll': -1.59, 'pres': 171}
{'lipoC2': 7.42, 'lipoC3S1': 3.79, 'temp': 29.75, 'lipoC3S3': 11.44, 'lipoC3S2': 7.59, 'rot1': 0, 'rot0': 0, 'rot3': 0, 'rot2': 0, 'state': 'normal', 'yaw': -0.94, 'datetime': '2018-10-10 01:33:04.175997', 'mgs': 0, 'volt': 0.835, 'depth': 0.546, 'time': 3, 'pitch': -3.2, 'roll': -1.69, 'pres': 171}
{'lipoC2': 7.42, 'lipoC3S1': 3.79, 'temp': 29.75, 'lipoC3S3': 11.44, 'lipoC3S2': 7.59, 'rot1': 0, 'rot0': 0, 'rot3': 0, 'rot2': 0, 'state': 'normal', 'yaw': -1.02, 'datetime': '2018-10-10 01:33:04.192268', 'mgs': 0, 'volt': 0.835, 'depth': 0.546, 'time': 3, 'pitch': -3.44, 'roll': -1.69, 'pres': 171}
{'lipoC2': 7.42, 'lipoC3S1': 3.79, 'temp': 29.75, 'lipoC3S3': 11.44, 'lipoC3S2': 7.58, 'rot1': 0, 'rot0': 0, 'rot3': 0, 'rot2': 0, 'state': 'normal', 'yaw': -0.84, 'datetime': '2018-10-10 01:33:04.208378', 'mgs': 0, 'volt': 0.835, 'depth': 0.546, 'time': 3, 'pitch': -3.88, 'roll': -1.7, 'pres': 171}
{'lipoC2': 7.42, 'lipoC3S1': 3.79, 'temp': 29.75, 'lipoC3S3': 11.44, 'lipoC3S2': 7.59, 'rot1': 0, 'rot0': 0, 'rot3': 0, 'rot2': 0, 'state': 'normal', 'yaw': -0.67, 'datetime': '2018-10-10 01:33:04.219031', 'mgs': 0, 'volt': 0.835, 'depth': 0.546, 'time': 3, 'pitch': -4.3, 'roll': -1.71, 'pres': 171}
{'lipoC2': 7.42, 'lipoC3S1': 3.79, 'temp': 29.75, 'lipoC3S3': 11.44, 'lipoC3S2': 7.59, 'rot1': 0, 'rot0': 0, 'rot3': 0, 'rot2': 0, 'state': 'normal', 'yaw': -0.8, 'datetime': '2018-10-10 01:33:04.235771', 'mgs': 0, 'volt': 0.835, 'depth': 0.546, 'time': 3, 'pitch': -4.54, 'roll': -1.7, 'pres': 171}
{'lipoC2': 7.42, 'lipoC3S1': 3.8, 'temp': 29.75, 'lipoC3S3': 11.44, 'lipoC3S2': 7.59, 'rot1': 0, 'rot0': 0, 'rot3': 0, 'rot2': 0, 'state': 'normal', 'yaw': -1.25, 'datetime': '2018-10-10 01:33:04.252864', 'mgs': 0, 'volt': 0.835, 'depth': 0.546, 'time': 3, 'pitch': -4.61, 'roll': -1.49, 'pres': 171}
{'lipoC2': 7.42, 'lipoC3S1': 3.79, 'temp': 29.75, 'lipoC3S3': 11.44, 'lipoC3S2': 7.59, 'rot1': 0, 'rot0': 0, 'rot3': 0, 'rot2': 0, 'state': 'normal', 'yaw': -1.81, 'datetime': '2018-10-10 01:33:04.263120', 'mgs': 0, 'volt': 0.835, 'depth': 0.546, 'time': 4, 'pitch': -4.69, 'roll': -1.13, 'pres': 171}
{'lipoC2': 7.42, 'lipoC3S1': 3.79, 'temp': 29.75, 'lipoC3S3': 11.44, 'lipoC3S2': 7.59, 'rot1': 0, 'rot0': 0, 'rot3': 0, 'rot2': 0, 'state': 'normal', 'yaw': -2.38, 'datetime': '2018-10-10 01:33:04.279432', 'mgs': 0, 'volt': 0.835, 'depth': 0.546, 'time': 4, 'pitch': -4.82, 'roll': -0.78, 'pres': 171}
{'lipoC2': 7.42, 'lipoC3S1': 3.79, 'temp': 29.75, 'lipoC3S3': 11.44, 'lipoC3S2': 7.59, 'rot1': 0, 'rot0': 0, 'rot3': 0, 'rot2': 0, 'state': 'normal', 'yaw': -2.61, 'datetime': '2018-10-10 01:33:04.295533', 'mgs': 0, 'volt': 0.835, 'depth': 0.546, 'time': 4, 'pitch': -4.93, 'roll': -0.73, 'pres': 171}
{'lipoC2': 7.42, 'lipoC3S1': 3.79, 'temp': 29.75, 'lipoC3S3': 11.44, 'lipoC3S2': 7.59, 'rot1': 0, 'rot0': 0, 'rot3': 0, 'rot2': 0, 'state': 'normal', 'yaw': -2.57, 'datetime': '2018-10-10 01:33:04.305916', 'mgs': 0, 'volt': 0.835, 'depth': 0.546, 'time': 4, 'pitch': -4.79, 'roll': -1.0, 'pres': 171}
{'lipoC2': 7.42, 'lipoC3S1': 3.79, 'temp': 29.75, 'lipoC3S3': 11.43, 'lipoC3S2': 7.58, 'rot1': 0, 'rot0': 0, 'rot3': 0, 'rot2': 0, 'state': 'normal', 'yaw': -2.48, 'datetime': '2018-10-10 01:33:04.322060', 'mgs': 0, 'volt': 0.835, 'depth': 0.546, 'time': 4, 'pitch': -4.43, 'roll': -1.39, 'pres': 171}
{'lipoC2': 7.42, 'lipoC3S1': 3.73, 'temp': 29.75, 'lipoC3S3': 11.36, 'lipoC3S2': 7.51, 'rot1': 0, 'rot0': 0, 'rot3': 0, 'rot2': 1, 'state': 'normal', 'yaw': -2.5, 'datetime': '2018-10-10 01:33:04.338677', 'mgs': 0, 'volt': 0.8545, 'depth': 0.851, 'time': 4, 'pitch': -3.97, 'roll': -1.69, 'pres': 175}
{'lipoC2': 7.41, 'lipoC3S1': 3.77, 'temp': 29.75, 'lipoC3S3': 11.35, 'lipoC3S2': 7.53, 'rot1': 0, 'rot0': 0, 'rot3': 1, 'rot2': 1, 'state': 'normal', 'yaw': -2.67, 'datetime': '2018-10-10 01:33:04.349725', 'mgs': 0, 'volt': 0.8447, 'depth': 0.699, 'time': 4, 'pitch': -3.34, 'roll': -1.79, 'pres': 173}
{'lipoC2': 7.42, 'lipoC3S1': 3.76, 'temp': 29.75, 'lipoC3S3': 11.36, 'lipoC3S2': 7.52, 'rot1': 0, 'rot0': 0, 'rot3': 3, 'rot2': 2, 'state': 'normal', 'yaw': -2.95, 'datetime': '2018-10-10 01:33:04.366071', 'mgs': 0, 'volt': 0.8398, 'depth': 0.623, 'time': 4, 'pitch': -2.72, 'roll': -1.61, 'pres': 172}
{'lipoC2': 7.41, 'lipoC3S1': 3.77, 'temp': 29.75, 'lipoC3S3': 11.35, 'lipoC3S2': 7.52, 'rot1': 0, 'rot0': 0, 'rot3': 4, 'rot2': 3, 'state': 'normal', 'yaw': -3.08, 'datetime': '2018-10-10 01:33:04.382235', 'mgs': 0, 'volt': 0.8398, 'depth': 0.623, 'time': 4, 'pitch': -2.07, 'roll': -1.13, 'pres': 172}
{'lipoC2': 7.42, 'lipoC3S1': 3.76, 'temp': 29.75, 'lipoC3S3': 11.39, 'lipoC3S2': 7.55, 'rot1': 0, 'rot0': 0, 'rot3': 5, 'rot2': 4, 'state': 'normal', 'yaw': -2.93, 'datetime': '2018-10-10 01:33:04.392640', 'mgs': 0, 'volt': 0.8545, 'depth': 0.851, 'time': 4, 'pitch': -1.81, 'roll': -0.66, 'pres': 175}
{'lipoC2': 7.41, 'lipoC3S1': 3.77, 'temp': 29.75, 'lipoC3S3': 11.35, 'lipoC3S2': 7.56, 'rot1': 0, 'rot0': 0, 'rot3': 6, 'rot2': 5, 'state': 'normal', 'yaw': -2.52, 'datetime': '2018-10-10 01:33:04.409028', 'mgs': 0, 'volt': 0.8496, 'depth': 0.775, 'time': 5, 'pitch': -2.15, 'roll': -0.38, 'pres': 174}
{'lipoC2': 7.42, 'lipoC3S1': 3.76, 'temp': 29.75, 'lipoC3S3': 11.39, 'lipoC3S2': 7.53, 'rot1': 0, 'rot0': 0, 'rot3': 7, 'rot2': 6, 'state': 'normal', 'yaw': -2.11, 'datetime': '2018-10-10 01:33:04.425313', 'mgs': 0, 'volt': 0.8545, 'depth': 0.851, 'time': 5, 'pitch': -2.8, 'roll': -0.4, 'pres': 175}
{'lipoC2': 7.42, 'lipoC3S1': 3.76, 'temp': 29.75, 'lipoC3S3': 11.35, 'lipoC3S2': 7.55, 'rot1': 0, 'rot0': 0, 'rot3': 8, 'rot2': 7, 'state': 'normal', 'yaw': -1.93, 'datetime': '2018-10-10 01:33:04.435593', 'mgs': 0, 'volt': 0.8545, 'depth': 0.851, 'time': 5, 'pitch': -3.65, 'roll': -0.65, 'pres': 175}
{'lipoC2': 7.41, 'lipoC3S1': 3.74, 'temp': 29.75, 'lipoC3S3': 11.36, 'lipoC3S2': 7.52, 'rot1': 0, 'rot0': 0, 'rot3': 10, 'rot2': 7, 'state': 'normal', 'yaw': -2.11, 'datetime': '2018-10-10 01:33:04.452789', 'mgs': 0, 'volt': 0.8447, 'depth': 0.699, 'time': 5, 'pitch': -4.4, 'roll': -0.87, 'pres': 173}
{'lipoC2': 7.42, 'lipoC3S1': 3.75, 'temp': 29.75, 'lipoC3S3': 11.39, 'lipoC3S2': 7.54, 'rot1': 0, 'rot0': 0, 'rot3': 12, 'rot2': 8, 'state': 'normal', 'yaw': -2.5, 'datetime': '2018-10-10 01:33:04.469141', 'mgs': 0, 'volt': 0.8594, 'depth': 0.928, 'time': 5, 'pitch': -5.11, 'roll': -0.93, 'pres': 176}
{'lipoC2': 7.42, 'lipoC3S1': 3.75, 'temp': 29.75, 'lipoC3S3': 11.39, 'lipoC3S2': 7.55, 'rot1': 0, 'rot0': 0, 'rot3': 13, 'rot2': 10, 'state': 'normal', 'yaw': -3.03, 'datetime': '2018-10-10 01:33:04.479482', 'mgs': 0, 'volt': 0.8643, 'depth': 1.004, 'time': 5, 'pitch': -5.63, 'roll': -0.87, 'pres': 177}
{'lipoC2': 7.42, 'lipoC3S1': 3.75, 'temp': 29.75, 'lipoC3S3': 11.39, 'lipoC3S2': 7.55, 'rot1': 0, 'rot0': 0, 'rot3': 14, 'rot2': 11, 'state': 'normal', 'yaw': -3.46, 'datetime': '2018-10-10 01:33:04.495739', 'mgs': 0, 'volt': 0.8594, 'depth': 0.928, 'time': 5, 'pitch': -5.5, 'roll': -0.94, 'pres': 176}
{'lipoC2': 7.41, 'lipoC3S1': 3.75, 'temp': 29.75, 'lipoC3S3': 11.38, 'lipoC3S2': 7.55, 'rot1': 0, 'rot0': 0, 'rot3': 15, 'rot2': 12, 'state': 'normal', 'yaw': -3.58, 'datetime': '2018-10-10 01:33:04.512084', 'mgs': 0, 'volt': 0.8643, 'depth': 1.004, 'time': 5, 'pitch': -4.82, 'roll': -1.2, 'pres': 177}
{'lipoC2': 7.42, 'lipoC3S1': 3.75, 'temp': 29.81, 'lipoC3S3': 11.38, 'lipoC3S2': 7.54, 'rot1': 0, 'rot0': 0, 'rot3': 16, 'rot2': 13, 'state': 'normal', 'yaw': -3.61, 'datetime': '2018-10-10 01:33:04.522454', 'mgs': 0, 'volt': 0.8691, 'depth': 1.08, 'time': 5, 'pitch': -3.99, 'roll': -1.31, 'pres': 178}
{'lipoC2': 7.41, 'lipoC3S1': 3.76, 'temp': 29.81, 'lipoC3S3': 11.39, 'lipoC3S2': 7.54, 'rot1': 0, 'rot0': 0, 'rot3': 17, 'rot2': 13, 'state': 'normal', 'yaw': -3.46, 'datetime': '2018-10-10 01:33:04.538740', 'mgs': 0, 'volt': 0.8594, 'depth': 0.928, 'time': 5, 'pitch': -2.93, 'roll': -1.11, 'pres': 176}
{'lipoC2': 7.42, 'lipoC3S1': 3.76, 'temp': 29.75, 'lipoC3S3': 11.34, 'lipoC3S2': 7.51, 'rot1': 0, 'rot0': 0, 'rot3': 18, 'rot2': 14, 'state': 'normal', 'yaw': -3.18, 'datetime': '2018-10-10 01:33:04.555729', 'mgs': 0, 'volt': 0.8545, 'depth': 0.851, 'time': 6, 'pitch': -2.05, 'roll': -0.64, 'pres': 175}
{'lipoC2': 7.42, 'lipoC3S1': 3.74, 'temp': 29.75, 'lipoC3S3': 11.36, 'lipoC3S2': 7.52, 'rot1': 0, 'rot0': 0, 'rot3': 19, 'rot2': 15, 'state': 'normal', 'yaw': -2.83, 'datetime': '2018-10-10 01:33:04.566743', 'mgs': 0, 'volt': 0.8545, 'depth': 0.851, 'time': 6, 'pitch': -1.67, 'roll': -0.1, 'pres': 175}
{'lipoC2': 7.42, 'lipoC3S1': 3.74, 'temp': 29.75, 'lipoC3S3': 11.38, 'lipoC3S2': 7.53, 'rot1': 0, 'rot0': 0, 'rot3': 21, 'rot2': 17, 'state': 'normal', 'yaw': -2.46, 'datetime': '2018-10-10 01:33:04.582955', 'mgs': 0, 'volt': 0.874, 'depth': 1.157, 'time': 6, 'pitch': -1.85, 'roll': 0.19, 'pres': 179}
{'lipoC2': 7.41, 'lipoC3S1': 3.76, 'temp': 29.75, 'lipoC3S3': 11.35, 'lipoC3S2': 7.53, 'rot1': 0, 'rot0': 0, 'rot3': 22, 'rot2': 18, 'state': 'normal', 'yaw': -2.17, 'datetime': '2018-10-10 01:33:04.599145', 'mgs': 0, 'volt': 0.8594, 'depth': 0.928, 'time': 6, 'pitch': -2.22, 'roll': -0.02, 'pres': 176}
{'lipoC2': 7.41, 'lipoC3S1': 3.75, 'temp': 29.75, 'lipoC3S3': 11.38, 'lipoC3S2': 7.55, 'rot1': 0, 'rot0': 0, 'rot3': 23, 'rot2': 18, 'state': 'normal', 'yaw': -1.84, 'datetime': '2018-10-10 01:33:04.609709', 'mgs': 0, 'volt': 0.8691, 'depth': 1.08, 'time': 6, 'pitch': -2.24, 'roll': -0.61, 'pres': 178}
{'lipoC2': 7.41, 'lipoC3S1': 3.75, 'temp': 29.75, 'lipoC3S3': 11.32, 'lipoC3S2': 7.54, 'rot1': 0, 'rot0': 0, 'rot3': 24, 'rot2': 19, 'state': 'normal', 'yaw': -1.57, 'datetime': '2018-10-10 01:33:04.625609', 'mgs': 0, 'volt': 0.874, 'depth': 1.157, 'time': 6, 'pitch': -1.75, 'roll': -1.15, 'pres': 179}
{'lipoC2': 7.41, 'lipoC3S1': 3.76, 'temp': 29.75, 'lipoC3S3': 11.35, 'lipoC3S2': 7.55, 'rot1': 0, 'rot0': 0, 'rot3': 26, 'rot2': 20, 'state': 'normal', 'yaw': -1.35, 'datetime': '2018-10-10 01:33:04.641197', 'mgs': 0, 'volt': 0.8643, 'depth': 1.004, 'time': 6, 'pitch': -1.11, 'roll': -1.42, 'pres': 177}
{'lipoC2': 7.41, 'lipoC3S1': 3.76, 'temp': 29.75, 'lipoC3S3': 11.31, 'lipoC3S2': 7.55, 'rot1': 0, 'rot0': 0, 'rot3': 27, 'rot2': 21, 'state': 'normal', 'yaw': -1.24, 'datetime': '2018-10-10 01:33:04.651688', 'mgs': 0, 'volt': 0.874, 'depth': 1.157, 'time': 6, 'pitch': -0.75, 'roll': -1.26, 'pres': 179}
{'lipoC2': 7.41, 'lipoC3S1': 3.76, 'temp': 29.75, 'lipoC3S3': 11.32, 'lipoC3S2': 7.54, 'rot1': 0, 'rot0': 0, 'rot3': 28, 'rot2': 22, 'state': 'normal', 'yaw': -1.22, 'datetime': '2018-10-10 01:33:04.668302', 'mgs': 0, 'volt': 0.8691, 'depth': 1.08, 'time': 6, 'pitch': -0.76, 'roll': -0.75, 'pres': 178}
{'lipoC2': 7.41, 'lipoC3S1': 3.76, 'temp': 29.81, 'lipoC3S3': 11.32, 'lipoC3S2': 7.5, 'rot1': 0, 'rot0': 0, 'rot3': 30, 'rot2': 22, 'state': 'normal', 'yaw': -1.33, 'datetime': '2018-10-10 01:33:04.686509', 'mgs': 0, 'volt': 0.8691, 'depth': 1.08, 'time': 7, 'pitch': -1.06, 'roll': -0.25, 'pres': 178}
{'lipoC2': 7.41, 'lipoC3S1': 3.76, 'temp': 29.81, 'lipoC3S3': 11.34, 'lipoC3S2': 7.5, 'rot1': 0, 'rot0': 0, 'rot3': 31, 'rot2': 23, 'state': 'normal', 'yaw': -1.56, 'datetime': '2018-10-10 01:33:04.696316', 'mgs': 0, 'volt': 0.8594, 'depth': 0.928, 'time': 7, 'pitch': -1.49, 'roll': 0.04, 'pres': 176}
{'lipoC2': 7.41, 'lipoC3S1': 3.76, 'temp': 29.81, 'lipoC3S3': 11.36, 'lipoC3S2': 7.52, 'rot1': 0, 'rot0': 0, 'rot3': 33, 'rot2': 24, 'state': 'normal', 'yaw': -1.81, 'datetime': '2018-10-10 01:33:04.711989', 'mgs': 0, 'volt': 0.8643, 'depth': 1.004, 'time': 7, 'pitch': -1.59, 'roll': 0.24, 'pres': 177}
{'lipoC2': 7.42, 'lipoC3S1': 3.74, 'temp': 29.75, 'lipoC3S3': 11.35, 'lipoC3S2': 7.52, 'rot1': 0, 'rot0': 0, 'rot3': 34, 'rot2': 25, 'state': 'normal', 'yaw': -1.98, 'datetime': '2018-10-10 01:33:04.727612', 'mgs': 0, 'volt': 0.8594, 'depth': 0.928, 'time': 7, 'pitch': -1.24, 'roll': 0.57, 'pres': 176}
{'lipoC2': 7.41, 'lipoC3S1': 3.76, 'temp': 29.75, 'lipoC3S3': 11.32, 'lipoC3S2': 7.5, 'rot1': 0, 'rot0': 0, 'rot3': 36, 'rot2': 26, 'state': 'normal', 'yaw': -2.02, 'datetime': '2018-10-10 01:33:04.737366', 'mgs': 0, 'volt': 0.8691, 'depth': 1.08, 'time': 7, 'pitch': -0.78, 'roll': 1.04, 'pres': 178}
{'lipoC2': 7.42, 'lipoC3S1': 3.78, 'temp': 29.75, 'lipoC3S3': 11.43, 'lipoC3S2': 7.58, 'rot1': 0, 'rot0': 0, 'rot3': 37, 'rot2': 26, 'state': 'normal', 'yaw': -1.87, 'datetime': '2018-10-10 01:33:04.753453', 'mgs': 0, 'volt': 0.8594, 'depth': 0.928, 'time': 7, 'pitch': -0.58, 'roll': 1.5, 'pres': 176}
{'lipoC2': 7.41, 'lipoC3S1': 3.72, 'temp': 29.75, 'lipoC3S3': 11.34, 'lipoC3S2': 7.53, 'rot1': 0, 'rot0': 0, 'rot3': 37, 'rot2': 26, 'state': 'normal', 'yaw': -1.61, 'datetime': '2018-10-10 01:33:04.770004', 'mgs': 0, 'volt': 0.9766, 'depth': 2.759, 'time': 7, 'pitch': -0.92, 'roll': 1.53, 'pres': 200}
{'lipoC2': 7.41, 'lipoC3S1': 3.63, 'temp': 29.75, 'lipoC3S3': 11.35, 'lipoC3S2': 7.44, 'rot1': 1, 'rot0': 2, 'rot3': 37, 'rot2': 26, 'state': 'normal', 'yaw': -1.5, 'datetime': '2018-10-10 01:33:04.780031', 'mgs': 0, 'volt': 0.8643, 'depth': 1.004, 'time': 7, 'pitch': -0.9, 'roll': 1.17, 'pres': 177}
{'lipoC2': 7.42, 'lipoC3S1': 3.69, 'temp': 29.75, 'lipoC3S3': 11.35, 'lipoC3S2': 7.45, 'rot1': 3, 'rot0': 3, 'rot3': 37, 'rot2': 26, 'state': 'normal', 'yaw': -1.66, 'datetime': '2018-10-10 01:33:04.795904', 'mgs': 0, 'volt': 0.8643, 'depth': 1.004, 'time': 7, 'pitch': 0.04, 'roll': 0.39, 'pres': 177}
{'lipoC2': 7.42, 'lipoC3S1': 3.64, 'temp': 29.75, 'lipoC3S3': 11.35, 'lipoC3S2': 7.46, 'rot1': 4, 'rot0': 4, 'rot3': 37, 'rot2': 26, 'state': 'normal', 'yaw': -2.05, 'datetime': '2018-10-10 01:33:04.811627', 'mgs': 0, 'volt': 0.8643, 'depth': 1.004, 'time': 7, 'pitch': 1.4, 'roll': -0.36, 'pres': 177}
{'lipoC2': 7.42, 'lipoC3S1': 3.68, 'temp': 29.69, 'lipoC3S3': 11.34, 'lipoC3S2': 7.53, 'rot1': 5, 'rot0': 6, 'rot3': 37, 'rot2': 26, 'state': 'normal', 'yaw': -2.57, 'datetime': '2018-10-10 01:33:04.821322', 'mgs': 0, 'volt': 0.8691, 'depth': 1.08, 'time': 8, 'pitch': 2.58, 'roll': -0.81, 'pres': 178}
{'lipoC2': 7.42, 'lipoC3S1': 3.7, 'temp': 29.69, 'lipoC3S3': 11.34, 'lipoC3S2': 7.53, 'rot1': 6, 'rot0': 7, 'rot3': 37, 'rot2': 26, 'state': 'normal', 'yaw': -3.22, 'datetime': '2018-10-10 01:33:04.837040', 'mgs': 0, 'volt': 0.9717, 'depth': 2.682, 'time': 8, 'pitch': 3.07, 'roll': -0.9, 'pres': 199}
{'lipoC2': 7.41, 'lipoC3S1': 3.72, 'temp': 29.69, 'lipoC3S3': 11.34, 'lipoC3S2': 7.53, 'rot1': 8, 'rot0': 9, 'rot3': 37, 'rot2': 26, 'state': 'normal', 'yaw': -3.89, 'datetime': '2018-10-10 01:33:04.852925', 'mgs': 0, 'volt': 0.9619, 'depth': 2.53, 'time': 8, 'pitch': 2.94, 'roll': -0.82, 'pres': 197}
{'lipoC2': 7.42, 'lipoC3S1': 3.65, 'temp': 29.69, 'lipoC3S3': 11.34, 'lipoC3S2': 7.49, 'rot1': 9, 'rot0': 10, 'rot3': 37, 'rot2': 26, 'state': 'normal', 'yaw': -4.72, 'datetime': '2018-10-10 01:33:04.863753', 'mgs': 0, 'volt': 0.874, 'depth': 1.157, 'time': 8, 'pitch': 2.84, 'roll': -1.01, 'pres': 179}
{'lipoC2': 7.41, 'lipoC3S1': 3.7, 'temp': 29.81, 'lipoC3S3': 11.34, 'lipoC3S2': 7.44, 'rot1': 10, 'rot0': 12, 'rot3': 37, 'rot2': 26, 'state': 'normal', 'yaw': -5.77, 'datetime': '2018-10-10 01:33:04.879952', 'mgs': 0, 'volt': 0.874, 'depth': 1.157, 'time': 8, 'pitch': 3.29, 'roll': -1.73, 'pres': 179}
{'lipoC2': 7.41, 'lipoC3S1': 3.76, 'temp': 29.81, 'lipoC3S3': 11.27, 'lipoC3S2': 7.53, 'rot1': 11, 'rot0': 13, 'rot3': 37, 'rot2': 26, 'state': 'normal', 'yaw': -6.75, 'datetime': '2018-10-10 01:33:04.977962', 'mgs': 0, 'volt': 0.874, 'depth': 1.157, 'time': 8, 'pitch': 4.1, 'roll': -2.46, 'pres': 179}
{'lipoC2': 7.42, 'lipoC3S1': 3.72, 'temp': 29.81, 'lipoC3S3': 11.38, 'lipoC3S2': 7.55, 'rot1': 12, 'rot0': 13, 'rot3': 37, 'rot2': 26, 'state': 'normal', 'yaw': -7.26, 'datetime': '2018-10-10 01:33:05.081745', 'mgs': 0, 'volt': 0.9229, 'depth': 1.92, 'time': 8, 'pitch': 4.52, 'roll': -2.87, 'pres': 189}
{'lipoC2': 7.42, 'lipoC3S1': 3.69, 'temp': 29.75, 'lipoC3S3': 11.31, 'lipoC3S2': 7.42, 'rot1': 14, 'rot0': 14, 'rot3': 37, 'rot2': 26, 'state': 'normal', 'yaw': -7.11, 'datetime': '2018-10-10 01:33:05.185270', 'mgs': 0, 'volt': 0.874, 'depth': 1.157, 'time': 8, 'pitch': 4.11, 'roll': -2.82, 'pres': 179}
{'lipoC2': 7.41, 'lipoC3S1': 3.75, 'temp': 29.75, 'lipoC3S3': 11.32, 'lipoC3S2': 7.53, 'rot1': 15, 'rot0': 15, 'rot3': 37, 'rot2': 27, 'state': 'normal', 'yaw': -6.44, 'datetime': '2018-10-10 01:33:05.289084', 'mgs': 0, 'volt': 0.9277, 'depth': 1.996, 'time': 8, 'pitch': 3.43, 'roll': -2.54, 'pres': 190}
{'lipoC2': 7.4, 'lipoC3S1': 3.75, 'temp': 29.69, 'lipoC3S3': 11.32, 'lipoC3S2': 7.52, 'rot1': 16, 'rot0': 16, 'rot3': 39, 'rot2': 27, 'state': 'normal', 'yaw': -5.58, 'datetime': '2018-10-10 01:33:05.397049', 'mgs': 0, 'volt': 0.9277, 'depth': 1.996, 'time': 8, 'pitch': 3.02, 'roll': -2.64, 'pres': 190}
{'lipoC2': 7.42, 'lipoC3S1': 3.66, 'temp': 29.69, 'lipoC3S3': 11.34, 'lipoC3S2': 7.53, 'rot1': 17, 'rot0': 17, 'rot3': 42, 'rot2': 28, 'state': 'normal', 'yaw': -4.53, 'datetime': '2018-10-10 01:33:05.500969', 'mgs': 0, 'volt': 0.8984, 'depth': 1.538, 'time': 9, 'pitch': 3.29, 'roll': -3.4, 'pres': 184}
{'lipoC2': 7.39, 'lipoC3S1': 3.74, 'temp': 29.75, 'lipoC3S3': 11.27, 'lipoC3S2': 7.5, 'rot1': 18, 'rot0': 18, 'rot3': 42, 'rot2': 29, 'state': 'normal', 'yaw': -3.45, 'datetime': '2018-10-10 01:33:05.605591', 'mgs': 0, 'volt': 0.9131, 'depth': 1.767, 'time': 9, 'pitch': 4.09, 'roll': -4.11, 'pres': 187}
{'lipoC2': 7.42, 'lipoC3S1': 3.67, 'temp': 29.75, 'lipoC3S3': 11.3, 'lipoC3S2': 7.51, 'rot1': 20, 'rot0': 19, 'rot3': 43, 'rot2': 29, 'state': 'normal', 'yaw': -2.65, 'datetime': '2018-10-10 01:33:05.709283', 'mgs': 0, 'volt': 0.9326, 'depth': 2.072, 'time': 9, 'pitch': 5.16, 'roll': -4.22, 'pres': 191}
{'lipoC2': 7.39, 'lipoC3S1': 3.74, 'temp': 29.75, 'lipoC3S3': 11.22, 'lipoC3S2': 7.5, 'rot1': 21, 'rot0': 20, 'rot3': 43, 'rot2': 30, 'state': 'normal', 'yaw': -2.31, 'datetime': '2018-10-10 01:33:05.813177', 'mgs': 0, 'volt': 0.918, 'depth': 1.843, 'time': 9, 'pitch': 5.73, 'roll': -3.82, 'pres': 188}
{'lipoC2': 7.42, 'lipoC3S1': 3.72, 'temp': 29.81, 'lipoC3S3': 11.21, 'lipoC3S2': 7.29, 'rot1': 22, 'rot0': 22, 'rot3': 44, 'rot2': 30, 'state': 'normal', 'yaw': -2.28, 'datetime': '2018-10-10 01:33:05.918032', 'mgs': 0, 'volt': 0.874, 'depth': 1.157, 'time': 9, 'pitch': 5.72, 'roll': -3.47, 'pres': 179}
{'lipoC2': 7.4, 'lipoC3S1': 3.74, 'temp': 29.81, 'lipoC3S3': 11.23, 'lipoC3S2': 7.49, 'rot1': 23, 'rot0': 23, 'rot3': 45, 'rot2': 31, 'state': 'normal', 'yaw': -2.58, 'datetime': '2018-10-10 01:33:06.021731', 'mgs': 0, 'volt': 0.8936, 'depth': 1.462, 'time': 9, 'pitch': 5.3, 'roll': -3.54, 'pres': 183}
{'lipoC2': 7.42, 'lipoC3S1': 3.69, 'temp': 29.81, 'lipoC3S3': 11.29, 'lipoC3S2': 7.51, 'rot1': 25, 'rot0': 25, 'rot3': 45, 'rot2': 32, 'state': 'normal', 'yaw': -3.01, 'datetime': '2018-10-10 01:33:06.125098', 'mgs': 0, 'volt': 0.9814, 'depth': 2.835, 'time': 9, 'pitch': 4.85, 'roll': -3.9, 'pres': 201}
{'lipoC2': 7.41, 'lipoC3S1': 3.73, 'temp': 29.81, 'lipoC3S3': 11.09, 'lipoC3S2': 7.43, 'rot1': 26, 'rot0': 26, 'rot3': 46, 'rot2': 32, 'state': 'normal', 'yaw': -3.49, 'datetime': '2018-10-10 01:33:06.229205', 'mgs': 0, 'volt': 0.8691, 'depth': 1.08, 'time': 9, 'pitch': 4.76, 'roll': -4.1, 'pres': 178}
{'lipoC2': 7.41, 'lipoC3S1': 3.74, 'temp': 29.81, 'lipoC3S3': 11.27, 'lipoC3S2': 7.5, 'rot1': 27, 'rot0': 28, 'rot3': 47, 'rot2': 33, 'state': 'normal', 'yaw': -4.05, 'datetime': '2018-10-10 01:33:06.332710', 'mgs': 0, 'volt': 0.9277, 'depth': 1.996, 'time': 9, 'pitch': 4.97, 'roll': -3.64, 'pres': 190}
{'lipoC2': 7.42, 'lipoC3S1': 3.64, 'temp': 29.81, 'lipoC3S3': 11.3, 'lipoC3S2': 7.51, 'rot1': 29, 'rot0': 29, 'rot3': 47, 'rot2': 33, 'state': 'normal', 'yaw': -4.57, 'datetime': '2018-10-10 01:33:06.433005', 'mgs': 0, 'volt': 0.8691, 'depth': 1.08, 'time': 10, 'pitch': 5.02, 'roll': -2.76, 'pres': 178}
{'lipoC2': 7.39, 'lipoC3S1': 3.74, 'temp': 29.81, 'lipoC3S3': 11.27, 'lipoC3S2': 7.49, 'rot1': 30, 'rot0': 30, 'rot3': 48, 'rot2': 34, 'state': 'normal', 'yaw': -5.16, 'datetime': '2018-10-10 01:33:06.541964', 'mgs': 0, 'volt': 0.9082, 'depth': 1.691, 'time': 10, 'pitch': 4.71, 'roll': -2.04, 'pres': 186}
{'lipoC2': 7.42, 'lipoC3S1': 3.6, 'temp': 29.75, 'lipoC3S3': 11.31, 'lipoC3S2': 7.42, 'rot1': 31, 'rot0': 32, 'rot3': 48, 'rot2': 34, 'state': 'normal', 'yaw': -5.76, 'datetime': '2018-10-10 01:33:06.646462', 'mgs': 0, 'volt': 0.874, 'depth': 1.157, 'time': 10, 'pitch': 4.09, 'roll': -2.04, 'pres': 179}
{'lipoC2': 7.42, 'lipoC3S1': 3.69, 'temp': 29.75, 'lipoC3S3': 11.32, 'lipoC3S2': 7.52, 'rot1': 33, 'rot0': 33, 'rot3': 49, 'rot2': 35, 'state': 'normal', 'yaw': -6.35, 'datetime': '2018-10-10 01:33:06.751593', 'mgs': 0, 'volt': 0.9521, 'depth': 2.377, 'time': 10, 'pitch': 3.36, 'roll': -2.47, 'pres': 195}
{'lipoC2': 7.42, 'lipoC3S1': 3.75, 'temp': 29.81, 'lipoC3S3': 11.25, 'lipoC3S2': 7.52, 'rot1': 34, 'rot0': 34, 'rot3': 49, 'rot2': 35, 'state': 'normal', 'yaw': -6.92, 'datetime': '2018-10-10 01:33:06.855346', 'mgs': 0, 'volt': 0.8691, 'depth': 1.08, 'time': 10, 'pitch': 2.81, 'roll': -2.82, 'pres': 178}
{'lipoC2': 7.42, 'lipoC3S1': 3.71, 'temp': 29.81, 'lipoC3S3': 11.36, 'lipoC3S2': 7.45, 'rot1': 35, 'rot0': 35, 'rot3': 49, 'rot2': 35, 'state': 'normal', 'yaw': -6.94, 'datetime': '2018-10-10 01:33:06.960176', 'mgs': 0, 'volt': 0.8643, 'depth': 1.004, 'time': 10, 'pitch': 2.38, 'roll': -2.73, 'pres': 177}
{'lipoC2': 7.42, 'lipoC3S1': 3.76, 'temp': 29.75, 'lipoC3S3': 11.35, 'lipoC3S2': 7.54, 'rot1': 36, 'rot0': 36, 'rot3': 49, 'rot2': 35, 'state': 'normal', 'yaw': -6.36, 'datetime': '2018-10-10 01:33:07.064142', 'mgs': 0, 'volt': 0.9229, 'depth': 1.92, 'time': 10, 'pitch': 1.46, 'roll': -2.48, 'pres': 189}
{'lipoC2': 7.42, 'lipoC3S1': 3.7, 'temp': 29.75, 'lipoC3S3': 11.36, 'lipoC3S2': 7.44, 'rot1': 38, 'rot0': 37, 'rot3': 49, 'rot2': 35, 'state': 'normal', 'yaw': -5.43, 'datetime': '2018-10-10 01:33:07.167798', 'mgs': 0, 'volt': 0.8691, 'depth': 1.08, 'time': 10, 'pitch': 0.23, 'roll': -2.35, 'pres': 178}
{'lipoC2': 7.42, 'lipoC3S1': 3.73, 'temp': 29.75, 'lipoC3S3': 11.36, 'lipoC3S2': 7.53, 'rot1': 39, 'rot0': 38, 'rot3': 49, 'rot2': 35, 'state': 'normal', 'yaw': -4.23, 'datetime': '2018-10-10 01:33:07.272707', 'mgs': 0, 'volt': 0.874, 'depth': 1.157, 'time': 10, 'pitch': -0.94, 'roll': -2.31, 'pres': 179}
{'lipoC2': 7.41, 'lipoC3S1': 3.75, 'temp': 29.75, 'lipoC3S3': 11.35, 'lipoC3S2': 7.53, 'rot1': 40, 'rot0': 38, 'rot3': 49, 'rot2': 35, 'state': 'normal', 'yaw': -2.71, 'datetime': '2018-10-10 01:33:07.376616', 'mgs': 0, 'volt': 0.874, 'depth': 1.157, 'time': 10, 'pitch': -1.46, 'roll': -2.13, 'pres': 179}
{'lipoC2': 7.42, 'lipoC3S1': 3.68, 'temp': 29.75, 'lipoC3S3': 11.32, 'lipoC3S2': 7.52, 'rot1': 41, 'rot0': 39, 'rot3': 49, 'rot2': 35, 'state': 'normal', 'yaw': -1.25, 'datetime': '2018-10-10 01:33:07.480236', 'mgs': 0, 'volt': 0.8496, 'depth': 0.775, 'time': 11, 'pitch': -1.06, 'roll': -2.12, 'pres': 174}
{'lipoC2': 7.4, 'lipoC3S1': 3.75, 'temp': 29.75, 'lipoC3S3': 11.29, 'lipoC3S2': 7.51, 'rot1': 43, 'rot0': 41, 'rot3': 49, 'rot2': 35, 'state': 'normal', 'yaw': -0.16, 'datetime': '2018-10-10 01:33:07.584250', 'mgs': 0, 'volt': 0.9033, 'depth': 1.614, 'time': 11, 'pitch': -0.23, 'roll': -2.41, 'pres': 185}
{'lipoC2': 7.42, 'lipoC3S1': 3.57, 'temp': 29.75, 'lipoC3S3': 11.3, 'lipoC3S2': 7.4, 'rot1': 44, 'rot0': 42, 'rot3': 49, 'rot2': 35, 'state': 'normal', 'yaw': 0.51, 'datetime': '2018-10-10 01:33:07.688101', 'mgs': 0, 'volt': 0.8789, 'depth': 1.233, 'time': 11, 'pitch': 0.61, 'roll': -2.78, 'pres': 180}
{'lipoC2': 7.4, 'lipoC3S1': 3.73, 'temp': 29.81, 'lipoC3S3': 10.98, 'lipoC3S2': 7.48, 'rot1': 45, 'rot0': 44, 'rot3': 50, 'rot2': 35, 'state': 'normal', 'yaw': 0.75, 'datetime': '2018-10-10 01:33:07.791726', 'mgs': 0, 'volt': 0.8643, 'depth': 1.004, 'time': 11, 'pitch': 1.41, 'roll': -2.75, 'pres': 177}
{'lipoC2': 7.42, 'lipoC3S1': 3.57, 'temp': 29.81, 'lipoC3S3': 11.32, 'lipoC3S2': 7.38, 'rot1': 46, 'rot0': 45, 'rot3': 50, 'rot2': 36, 'state': 'normal', 'yaw': 0.8, 'datetime': '2018-10-10 01:33:07.895484', 'mgs': 0, 'volt': 0.8838, 'depth': 1.309, 'time': 11, 'pitch': 2.29, 'roll': -2.25, 'pres': 181}
{'lipoC2': 7.4, 'lipoC3S1': 3.75, 'temp': 29.81, 'lipoC3S3': 11.29, 'lipoC3S2': 7.51, 'rot1': 47, 'rot0': 47, 'rot3': 51, 'rot2': 36, 'state': 'normal', 'yaw': 0.72, 'datetime': '2018-10-10 01:33:07.999214', 'mgs': 0, 'volt': 0.918, 'depth': 1.843, 'time': 11, 'pitch': 3.54, 'roll': -1.65, 'pres': 188}
{'lipoC2': 7.41, 'lipoC3S1': 3.74, 'temp': 29.75, 'lipoC3S3': 11.15, 'lipoC3S2': 7.49, 'rot1': 49, 'rot0': 48, 'rot3': 51, 'rot2': 36, 'state': 'normal', 'yaw': 0.55, 'datetime': '2018-10-10 01:33:08.104322', 'mgs': 0, 'volt': 0.8887, 'depth': 1.385, 'time': 11, 'pitch': 4.52, 'roll': -1.61, 'pres': 182}
{'lipoC2': 7.42, 'lipoC3S1': 3.7, 'temp': 29.75, 'lipoC3S3': 11.31, 'lipoC3S2': 7.52, 'rot1': 50, 'rot0': 49, 'rot3': 51, 'rot2': 36, 'state': 'normal', 'yaw': 0.25, 'datetime': '2018-10-10 01:33:08.207894', 'mgs': 0, 'volt': 0.9668, 'depth': 2.606, 'time': 11, 'pitch': 4.89, 'roll': -1.98, 'pres': 198}
{'lipoC2': 7.4, 'lipoC3S1': 3.72, 'temp': 29.75, 'lipoC3S3': 11.01, 'lipoC3S2': 7.47, 'rot1': 51, 'rot0': 51, 'rot3': 51, 'rot2': 37, 'state': 'normal', 'yaw': -0.12, 'datetime': '2018-10-10 01:33:08.311803', 'mgs': 0, 'volt': 0.8887, 'depth': 1.385, 'time': 11, 'pitch': 4.46, 'roll': -2.34, 'pres': 182}
{'lipoC2': 7.42, 'lipoC3S1': 3.64, 'temp': 29.75, 'lipoC3S3': 11.29, 'lipoC3S2': 7.5, 'rot1': 53, 'rot0': 52, 'rot3': 51, 'rot2': 37, 'state': 'normal', 'yaw': -0.61, 'datetime': '2018-10-10 01:33:08.416498', 'mgs': 0, 'volt': 0.918, 'depth': 1.843, 'time': 12, 'pitch': 3.96, 'roll': -2.42, 'pres': 188}
{'lipoC2': 7.41, 'lipoC3S1': 3.73, 'temp': 29.75, 'lipoC3S3': 11.14, 'lipoC3S2': 7.42, 'rot1': 54, 'rot0': 54, 'rot3': 52, 'rot2': 38, 'state': 'normal', 'yaw': -1.28, 'datetime': '2018-10-10 01:33:08.520130', 'mgs': 0, 'volt': 0.8838, 'depth': 1.309, 'time': 12, 'pitch': 4.25, 'roll': -2.19, 'pres': 181}
{'lipoC2': 7.42, 'lipoC3S1': 3.73, 'temp': 29.75, 'lipoC3S3': 11.27, 'lipoC3S2': 7.38, 'rot1': 55, 'rot0': 55, 'rot3': 52, 'rot2': 38, 'state': 'normal', 'yaw': -1.92, 'datetime': '2018-10-10 01:33:08.625218', 'mgs': 0, 'volt': 0.8838, 'depth': 1.309, 'time': 12, 'pitch': 5.43, 'roll': -1.89, 'pres': 181}
{'lipoC2': 7.4, 'lipoC3S1': 3.75, 'temp': 29.75, 'lipoC3S3': 11.29, 'lipoC3S2': 7.51, 'rot1': 56, 'rot0': 56, 'rot3': 52, 'rot2': 38, 'state': 'normal', 'yaw': -2.57, 'datetime': '2018-10-10 01:33:08.728875', 'mgs': 0, 'volt': 0.9229, 'depth': 1.92, 'time': 12, 'pitch': 6.37, 'roll': -1.76, 'pres': 189}
{'lipoC2': 7.42, 'lipoC3S1': 3.61, 'temp': 29.81, 'lipoC3S3': 11.32, 'lipoC3S2': 7.42, 'rot1': 58, 'rot0': 58, 'rot3': 52, 'rot2': 38, 'state': 'normal', 'yaw': -3.2, 'datetime': '2018-10-10 01:33:08.832587', 'mgs': 0, 'volt': 0.8838, 'depth': 1.309, 'time': 12, 'pitch': 6.21, 'roll': -1.91, 'pres': 181}
{'lipoC2': 7.4, 'lipoC3S1': 3.74, 'temp': 29.81, 'lipoC3S3': 11.32, 'lipoC3S2': 7.5, 'rot1': 59, 'rot0': 59, 'rot3': 52, 'rot2': 38, 'state': 'normal', 'yaw': -3.91, 'datetime': '2018-10-10 01:33:08.936388', 'mgs': 0, 'volt': 0.9033, 'depth': 1.614, 'time': 12, 'pitch': 5.28, 'roll': -2.18, 'pres': 185}
{'lipoC2': 7.42, 'lipoC3S1': 3.65, 'temp': 29.75, 'lipoC3S3': 11.32, 'lipoC3S2': 7.49, 'rot1': 60, 'rot0': 61, 'rot3': 52, 'rot2': 38, 'state': 'normal', 'yaw': -4.8, 'datetime': '2018-10-10 01:33:09.040094', 'mgs': 0, 'volt': 0.8887, 'depth': 1.385, 'time': 12, 'pitch': 4.15, 'roll': -2.4, 'pres': 182}
{'lipoC2': 7.41, 'lipoC3S1': 3.74, 'temp': 29.75, 'lipoC3S3': 11.18, 'lipoC3S2': 7.5, 'rot1': 61, 'rot0': 62, 'rot3': 52, 'rot2': 38, 'state': 'normal', 'yaw': -5.59, 'datetime': '2018-10-10 01:33:09.143813', 'mgs': 0, 'volt': 0.8789, 'depth': 1.233, 'time': 12, 'pitch': 3.5, 'roll': -2.39, 'pres': 180}
{'lipoC2': 7.42, 'lipoC3S1': 3.69, 'temp': 29.75, 'lipoC3S3': 11.31, 'lipoC3S2': 7.52, 'rot1': 62, 'rot0': 63, 'rot3': 52, 'rot2': 38, 'state': 'normal', 'yaw': -6.4, 'datetime': '2018-10-10 01:33:09.247661', 'mgs': 0, 'volt': 0.874, 'depth': 1.157, 'time': 12, 'pitch': 3.29, 'roll': -2.13, 'pres': 179}
{'lipoC2': 7.41, 'lipoC3S1': 3.75, 'temp': 29.75, 'lipoC3S3': 11.27, 'lipoC3S2': 7.52, 'rot1': 64, 'rot0': 64, 'rot3': 52, 'rot2': 38, 'state': 'normal', 'yaw': -7.34, 'datetime': '2018-10-10 01:33:09.351222', 'mgs': 0, 'volt': 0.8789, 'depth': 1.233, 'time': 12, 'pitch': 3.47, 'roll': -1.89, 'pres': 180}
{'lipoC2': 7.42, 'lipoC3S1': 3.69, 'temp': 29.75, 'lipoC3S3': 11.35, 'lipoC3S2': 7.53, 'rot1': 65, 'rot0': 65, 'rot3': 52, 'rot2': 38, 'state': 'normal', 'yaw': -7.76, 'datetime': '2018-10-10 01:33:09.455972', 'mgs': 0, 'volt': 0.8789, 'depth': 1.233, 'time': 13, 'pitch': 3.5, 'roll': -1.85, 'pres': 180}
{'lipoC2': 7.41, 'lipoC3S1': 3.75, 'temp': 29.75, 'lipoC3S3': 11.34, 'lipoC3S2': 7.52, 'rot1': 66, 'rot0': 66, 'rot3': 52, 'rot2': 38, 'state': 'normal', 'yaw': -7.61, 'datetime': '2018-10-10 01:33:09.559782', 'mgs': 0, 'volt': 0.8789, 'depth': 1.233, 'time': 13, 'pitch': 2.79, 'roll': -1.84, 'pres': 180}
{'lipoC2': 7.42, 'lipoC3S1': 3.7, 'temp': 29.75, 'lipoC3S3': 11.35, 'lipoC3S2': 7.53, 'rot1': 67, 'rot0': 67, 'rot3': 52, 'rot2': 38, 'state': 'normal', 'yaw': -7.02, 'datetime': '2018-10-10 01:33:09.663434', 'mgs': 0, 'volt': 0.874, 'depth': 1.157, 'time': 13, 'pitch': 1.34, 'roll': -1.77, 'pres': 179}
{'lipoC2': 7.42, 'lipoC3S1': 3.76, 'temp': 29.81, 'lipoC3S3': 11.35, 'lipoC3S2': 7.54, 'rot1': 69, 'rot0': 68, 'rot3': 52, 'rot2': 38, 'state': 'normal', 'yaw': -6.1, 'datetime': '2018-10-10 01:33:09.768471', 'mgs': 0, 'volt': 0.9131, 'depth': 1.767, 'time': 13, 'pitch': -0.07, 'roll': -1.73, 'pres': 187}
{'lipoC2': 7.42, 'lipoC3S1': 3.74, 'temp': 29.81, 'lipoC3S3': 11.25, 'lipoC3S2': 7.38, 'rot1': 70, 'rot0': 69, 'rot3': 53, 'rot2': 38, 'state': 'normal', 'yaw': -4.81, 'datetime': '2018-10-10 01:33:09.872293', 'mgs': 0, 'volt': 0.8838, 'depth': 1.309, 'time': 13, 'pitch': -0.67, 'roll': -1.91, 'pres': 181}
{'lipoC2': 7.42, 'lipoC3S1': 3.73, 'temp': 29.81, 'lipoC3S3': 11.32, 'lipoC3S2': 7.42, 'rot1': 71, 'rot0': 69, 'rot3': 53, 'rot2': 39, 'state': 'normal', 'yaw': -3.45, 'datetime': '2018-10-10 01:33:09.977322', 'mgs': 0, 'volt': 0.8838, 'depth': 1.309, 'time': 13, 'pitch': -0.18, 'roll': -2.25, 'pres': 181}
{'lipoC2': 7.4, 'lipoC3S1': 3.75, 'temp': 29.81, 'lipoC3S3': 11.3, 'lipoC3S2': 7.51, 'rot1': 73, 'rot0': 70, 'rot3': 54, 'rot2': 39, 'state': 'normal', 'yaw': -1.9, 'datetime': '2018-10-10 01:33:10.081030', 'mgs': 0, 'volt': 0.9424, 'depth': 2.225, 'time': 13, 'pitch': 0.51, 'roll': -2.44, 'pres': 193}
{'lipoC2': 7.42, 'lipoC3S1': 3.65, 'temp': 29.81, 'lipoC3S3': 11.32, 'lipoC3S2': 7.41, 'rot1': 74, 'rot0': 71, 'rot3': 54, 'rot2': 40, 'state': 'normal', 'yaw': -0.47, 'datetime': '2018-10-10 01:33:10.184828', 'mgs': 0, 'volt': 0.8887, 'depth': 1.385, 'time': 13, 'pitch': 1.01, 'roll': -2.42, 'pres': 182}
{'lipoC2': 7.4, 'lipoC3S1': 3.73, 'temp': 29.81, 'lipoC3S3': 10.97, 'lipoC3S2': 7.48, 'rot1': 75, 'rot0': 72, 'rot3': 55, 'rot2': 40, 'state': 'normal', 'yaw': 0.93, 'datetime': '2018-10-10 01:33:10.288465', 'mgs': 0, 'volt': 0.8936, 'depth': 1.462, 'time': 13, 'pitch': 1.71, 'roll': -2.37, 'pres': 183}
{'lipoC2': 7.42, 'lipoC3S1': 3.63, 'temp': 29.81, 'lipoC3S3': 11.29, 'lipoC3S2': 7.49, 'rot1': 77, 'rot0': 73, 'rot3': 56, 'rot2': 41, 'state': 'normal', 'yaw': 1.94, 'datetime': '2018-10-10 01:33:10.392110', 'mgs': 0, 'volt': 0.918, 'depth': 1.843, 'time': 13, 'pitch': 2.56, 'roll': -2.4, 'pres': 188}
{'lipoC2': 7.41, 'lipoC3S1': 3.73, 'temp': 29.81, 'lipoC3S3': 11.05, 'lipoC3S2': 7.41, 'rot1': 78, 'rot0': 75, 'rot3': 56, 'rot2': 41, 'state': 'normal', 'yaw': 2.32, 'datetime': '2018-10-10 01:33:10.495937', 'mgs': 0, 'volt': 0.8838, 'depth': 1.309, 'time': 14, 'pitch': 2.77, 'roll': -2.63, 'pres': 181}
{'lipoC2': 7.42, 'lipoC3S1': 3.69, 'temp': 29.81, 'lipoC3S3': 11.3, 'lipoC3S2': 7.51, 'rot1': 79, 'rot0': 76, 'rot3': 57, 'rot2': 42, 'state': 'normal', 'yaw': 2.33, 'datetime': '2018-10-10 01:33:10.599615', 'mgs': 0, 'volt': 0.957, 'depth': 2.454, 'time': 14, 'pitch': 2.62, 'roll': -3.05, 'pres': 196}
