{'lipoC2': 7.42, 'lipoC3S1': 4.0, 'temp': 30.5, 'lipoC3S3': 12.13, 'lipoC3S2': 8.01, 'rot1': 0, 'rot0': 0, 'rot3': 0, 'rot2': 0, 'state': 'normal', 'yaw': -38.5, 'datetime': '2018-10-09 13:04:32.403489', 'mgs': 0, 'volt': 0.9619, 'depth': 2.53, 'time': 100, 'pitch': 1.72, 'roll': -1.6, 'pres': 197}
{'lipoC2': 7.42, 'lipoC3S1': 4.0, 'temp': 30.5, 'lipoC3S3': 12.13, 'lipoC3S2': 8.01, 'rot1': 0, 'rot0': 0, 'rot3': 0, 'rot2': 0, 'state': 'normal', 'yaw': -38.53, 'datetime': '2018-10-09 13:04:32.436536', 'mgs': 0, 'volt': 0.9619, 'depth': 2.53, 'time': 100, 'pitch': 1.5, 'roll': -1.92, 'pres': 197}
{'lipoC2': 7.42, 'lipoC3S1': 4.0, 'temp': 30.5, 'lipoC3S3': 12.13, 'lipoC3S2': 8.01, 'rot1': 0, 'rot0': 0, 'rot3': 0, 'rot2': 0, 'state': 'normal', 'yaw': -38.36, 'datetime': '2018-10-09 13:04:32.467215', 'mgs': 0, 'volt': 0.957, 'depth': 2.454, 'time': 101, 'pitch': 1.02, 'roll': -2.3, 'pres': 196}
{'lipoC2': 7.42, 'lipoC3S1': 4.0, 'temp': 30.56, 'lipoC3S3': 12.13, 'lipoC3S2': 8.01, 'rot1': 0, 'rot0': 0, 'rot3': 0, 'rot2': 0, 'state': 'normal', 'yaw': -37.95, 'datetime': '2018-10-09 13:04:32.489785', 'mgs': 0, 'volt': 0.9521, 'depth': 2.377, 'time': 101, 'pitch': 0.11, 'roll': -2.77, 'pres': 195}
{'lipoC2': 7.42, 'lipoC3S1': 4.0, 'temp': 30.56, 'lipoC3S3': 12.13, 'lipoC3S2': 8.01, 'rot1': 0, 'rot0': 0, 'rot3': 0, 'rot2': 0, 'state': 'normal', 'yaw': -37.41, 'datetime': '2018-10-09 13:04:32.501591', 'mgs': 0, 'volt': 0.9521, 'depth': 2.377, 'time': 101, 'pitch': -1.26, 'roll': -3.23, 'pres': 195}
{'lipoC2': 7.42, 'lipoC3S1': 4.0, 'temp': 30.56, 'lipoC3S3': 12.13, 'lipoC3S2': 8.01, 'rot1': 0, 'rot0': 0, 'rot3': 0, 'rot2': 0, 'state': 'normal', 'yaw': -36.81, 'datetime': '2018-10-09 13:04:32.511268', 'mgs': 0, 'volt': 0.9473, 'depth': 2.301, 'time': 101, 'pitch': -2.6, 'roll': -3.6, 'pres': 194}
{'lipoC2': 7.42, 'lipoC3S1': 4.0, 'temp': 30.56, 'lipoC3S3': 12.13, 'lipoC3S2': 8.01, 'rot1': 0, 'rot0': 0, 'rot3': 0, 'rot2': 0, 'state': 'normal', 'yaw': -36.11, 'datetime': '2018-10-09 13:04:32.521983', 'mgs': 0, 'volt': 0.9473, 'depth': 2.301, 'time': 101, 'pitch': -3.78, 'roll': -3.95, 'pres': 194}
{'lipoC2': 7.42, 'lipoC3S1': 4.0, 'temp': 30.56, 'lipoC3S3': 12.13, 'lipoC3S2': 8.01, 'rot1': 0, 'rot0': 0, 'rot3': 0, 'rot2': 0, 'state': 'normal', 'yaw': -35.38, 'datetime': '2018-10-09 13:04:32.531527', 'mgs': 0, 'volt': 0.9424, 'depth': 2.225, 'time': 101, 'pitch': -4.56, 'roll': -4.21, 'pres': 193}
{'lipoC2': 7.42, 'lipoC3S1': 4.0, 'temp': 30.56, 'lipoC3S3': 12.13, 'lipoC3S2': 8.01, 'rot1': 0, 'rot0': 0, 'rot3': 0, 'rot2': 0, 'state': 'normal', 'yaw': -34.53, 'datetime': '2018-10-09 13:04:32.541100', 'mgs': 0, 'volt': 0.9424, 'depth': 2.225, 'time': 101, 'pitch': -4.72, 'roll': -4.34, 'pres': 193}
{'lipoC2': 7.42, 'lipoC3S1': 4.0, 'temp': 30.56, 'lipoC3S3': 12.13, 'lipoC3S2': 8.01, 'rot1': 0, 'rot0': 0, 'rot3': 0, 'rot2': 0, 'state': 'normal', 'yaw': -33.65, 'datetime': '2018-10-09 13:04:32.550633', 'mgs': 0, 'volt': 0.9424, 'depth': 2.225, 'time': 101, 'pitch': -4.32, 'roll': -4.4, 'pres': 193}
{'lipoC2': 7.42, 'lipoC3S1': 4.0, 'temp': 30.56, 'lipoC3S3': 12.13, 'lipoC3S2': 8.01, 'rot1': 0, 'rot0': 0, 'rot3': 0, 'rot2': 0, 'state': 'normal', 'yaw': -32.59, 'datetime': '2018-10-09 13:04:32.560203', 'mgs': 0, 'volt': 0.9375, 'depth': 2.148, 'time': 101, 'pitch': -3.77, 'roll': -4.39, 'pres': 192}
{'lipoC2': 7.42, 'lipoC3S1': 4.0, 'temp': 30.56, 'lipoC3S3': 12.13, 'lipoC3S2': 8.01, 'rot1': 0, 'rot0': 0, 'rot3': 0, 'rot2': 0, 'state': 'normal', 'yaw': -31.25, 'datetime': '2018-10-09 13:04:32.569764', 'mgs': 0, 'volt': 0.9375, 'depth': 2.148, 'time': 101, 'pitch': -3.61, 'roll': -4.32, 'pres': 192}
{'lipoC2': 7.42, 'lipoC3S1': 4.0, 'temp': 30.56, 'lipoC3S3': 12.13, 'lipoC3S2': 8.01, 'rot1': 0, 'rot0': 0, 'rot3': 0, 'rot2': 0, 'state': 'normal', 'yaw': -29.97, 'datetime': '2018-10-09 13:04:32.579316', 'mgs': 0, 'volt': 0.9326, 'depth': 2.072, 'time': 102, 'pitch': -3.71, 'roll': -4.17, 'pres': 191}
{'lipoC2': 7.42, 'lipoC3S1': 4.0, 'temp': 30.5, 'lipoC3S3': 12.13, 'lipoC3S2': 8.01, 'rot1': 0, 'rot0': 0, 'rot3': 0, 'rot2': 0, 'state': 'normal', 'yaw': -28.74, 'datetime': '2018-10-09 13:04:32.588899', 'mgs': 0, 'volt': 0.9375, 'depth': 2.148, 'time': 102, 'pitch': -3.73, 'roll': -3.95, 'pres': 192}
{'lipoC2': 7.42, 'lipoC3S1': 4.0, 'temp': 30.5, 'lipoC3S3': 12.13, 'lipoC3S2': 8.01, 'rot1': 0, 'rot0': 0, 'rot3': 0, 'rot2': 0, 'state': 'normal', 'yaw': -27.5, 'datetime': '2018-10-09 13:04:32.598738', 'mgs': 0, 'volt': 0.9326, 'depth': 2.072, 'time': 102, 'pitch': -3.54, 'roll': -3.76, 'pres': 191}
{'lipoC2': 7.42, 'lipoC3S1': 4.0, 'temp': 30.5, 'lipoC3S3': 12.12, 'lipoC3S2': 8.01, 'rot1': 0, 'rot0': 0, 'rot3': 0, 'rot2': 0, 'state': 'normal', 'yaw': -26.34, 'datetime': '2018-10-09 13:04:32.609843', 'mgs': 0, 'volt': 0.9375, 'depth': 2.148, 'time': 102, 'pitch': -2.68, 'roll': -3.46, 'pres': 192}
{'lipoC2': 7.42, 'lipoC3S1': 4.0, 'temp': 30.5, 'lipoC3S3': 12.13, 'lipoC3S2': 8.01, 'rot1': 0, 'rot0': 0, 'rot3': 0, 'rot2': 0, 'state': 'normal', 'yaw': -25.76, 'datetime': '2018-10-09 13:04:32.619494', 'mgs': 0, 'volt': 0.9375, 'depth': 2.148, 'time': 102, 'pitch': -1.04, 'roll': -2.89, 'pres': 192}
{'lipoC2': 7.42, 'lipoC3S1': 4.0, 'temp': 30.5, 'lipoC3S3': 12.12, 'lipoC3S2': 8.01, 'rot1': 0, 'rot0': 0, 'rot3': 0, 'rot2': 0, 'state': 'normal', 'yaw': -25.55, 'datetime': '2018-10-09 13:04:32.629505', 'mgs': 0, 'volt': 0.9375, 'depth': 2.148, 'time': 102, 'pitch': 0.87, 'roll': -2.03, 'pres': 192}
{'lipoC2': 7.42, 'lipoC3S1': 4.0, 'temp': 30.5, 'lipoC3S3': 12.13, 'lipoC3S2': 8.01, 'rot1': 0, 'rot0': 0, 'rot3': 0, 'rot2': 0, 'state': 'normal', 'yaw': -25.36, 'datetime': '2018-10-09 13:04:32.639031', 'mgs': 0, 'volt': 0.9375, 'depth': 2.148, 'time': 102, 'pitch': 2.85, 'roll': -1.01, 'pres': 192}
{'lipoC2': 7.42, 'lipoC3S1': 4.0, 'temp': 30.5, 'lipoC3S3': 12.13, 'lipoC3S2': 8.01, 'rot1': 0, 'rot0': 0, 'rot3': 0, 'rot2': 0, 'state': 'normal', 'yaw': -25.04, 'datetime': '2018-10-09 13:04:32.648565', 'mgs': 0, 'volt': 0.9375, 'depth': 2.148, 'time': 102, 'pitch': 4.37, 'roll': -0.18, 'pres': 192}
{'lipoC2': 7.42, 'lipoC3S1': 4.0, 'temp': 30.56, 'lipoC3S3': 12.12, 'lipoC3S2': 8.01, 'rot1': 0, 'rot0': 0, 'rot3': 0, 'rot2': 0, 'state': 'normal', 'yaw': -24.64, 'datetime': '2018-10-09 13:04:32.658156', 'mgs': 0, 'volt': 0.9424, 'depth': 2.225, 'time': 102, 'pitch': 5.62, 'roll': 0.46, 'pres': 193}
{'lipoC2': 7.42, 'lipoC3S1': 4.0, 'temp': 30.56, 'lipoC3S3': 12.12, 'lipoC3S2': 8.01, 'rot1': 0, 'rot0': 0, 'rot3': 0, 'rot2': 0, 'state': 'normal', 'yaw': -24.18, 'datetime': '2018-10-09 13:04:32.726514', 'mgs': 0, 'volt': 0.9424, 'depth': 2.225, 'time': 102, 'pitch': 6.87, 'roll': 0.92, 'pres': 193}
{'lipoC2': 7.42, 'lipoC3S1': 4.0, 'temp': 30.44, 'lipoC3S3': 12.13, 'lipoC3S2': 8.0, 'rot1': 0, 'rot0': 0, 'rot3': 0, 'rot2': 0, 'state': 'normal', 'yaw': -23.82, 'datetime': '2018-10-09 13:04:32.829674', 'mgs': 0, 'volt': 0.9424, 'depth': 2.225, 'time': 103, 'pitch': 7.72, 'roll': 1.11, 'pres': 193}
{'lipoC2': 7.42, 'lipoC3S1': 4.0, 'temp': 30.44, 'lipoC3S3': 12.12, 'lipoC3S2': 8.01, 'rot1': 0, 'rot0': 0, 'rot3': 0, 'rot2': 0, 'state': 'normal', 'yaw': -23.73, 'datetime': '2018-10-09 13:04:32.932745', 'mgs': 0, 'volt': 0.9375, 'depth': 2.148, 'time': 103, 'pitch': 8.44, 'roll': 1.12, 'pres': 192}
{'lipoC2': 7.42, 'lipoC3S1': 4.0, 'temp': 30.5, 'lipoC3S3': 12.12, 'lipoC3S2': 8.01, 'rot1': 0, 'rot0': 0, 'rot3': 0, 'rot2': 0, 'state': 'normal', 'yaw': -24.06, 'datetime': '2018-10-09 13:04:33.035860', 'mgs': 0, 'volt': 0.9375, 'depth': 2.148, 'time': 103, 'pitch': 9.01, 'roll': 1.11, 'pres': 192}
{'lipoC2': 7.42, 'lipoC3S1': 4.0, 'temp': 30.5, 'lipoC3S3': 12.12, 'lipoC3S2': 8.0, 'rot1': 0, 'rot0': 0, 'rot3': 0, 'rot2': 0, 'state': 'normal', 'yaw': -24.74, 'datetime': '2018-10-09 13:04:33.138981', 'mgs': 0, 'volt': 0.9375, 'depth': 2.148, 'time': 103, 'pitch': 9.08, 'roll': 1.12, 'pres': 192}
{'lipoC2': 7.42, 'lipoC3S1': 4.0, 'temp': 30.5, 'lipoC3S3': 12.12, 'lipoC3S2': 8.01, 'rot1': 0, 'rot0': 0, 'rot3': 0, 'rot2': 0, 'state': 'normal', 'yaw': -25.72, 'datetime': '2018-10-09 13:04:33.248549', 'mgs': 0, 'volt': 0.9375, 'depth': 2.148, 'time': 103, 'pitch': 8.63, 'roll': 1.09, 'pres': 192}
{'lipoC2': 7.42, 'lipoC3S1': 4.0, 'temp': 30.5, 'lipoC3S3': 12.12, 'lipoC3S2': 8.01, 'rot1': 0, 'rot0': 0, 'rot3': 0, 'rot2': 0, 'state': 'normal', 'yaw': -26.95, 'datetime': '2018-10-09 13:04:33.351900', 'mgs': 0, 'volt': 0.9375, 'depth': 2.148, 'time': 103, 'pitch': 7.73, 'roll': 0.93, 'pres': 192}
{'lipoC2': 7.42, 'lipoC3S1': 4.0, 'temp': 30.5, 'lipoC3S3': 12.13, 'lipoC3S2': 8.01, 'rot1': 0, 'rot0': 0, 'rot3': 0, 'rot2': 0, 'state': 'normal', 'yaw': -28.03, 'datetime': '2018-10-09 13:04:33.454838', 'mgs': 0, 'volt': 0.9375, 'depth': 2.148, 'time': 103, 'pitch': 6.98, 'roll': 0.67, 'pres': 192}
{'lipoC2': 7.42, 'lipoC3S1': 4.0, 'temp': 30.56, 'lipoC3S3': 12.12, 'lipoC3S2': 8.01, 'rot1': 0, 'rot0': 0, 'rot3': 0, 'rot2': 0, 'state': 'normal', 'yaw': -29.09, 'datetime': '2018-10-09 13:04:33.557972', 'mgs': 0, 'volt': 0.9326, 'depth': 2.072, 'time': 103, 'pitch': 6.5, 'roll': 0.22, 'pres': 191}
{'lipoC2': 7.42, 'lipoC3S1': 4.0, 'temp': 30.56, 'lipoC3S3': 12.12, 'lipoC3S2': 8.0, 'rot1': 0, 'rot0': 0, 'rot3': 0, 'rot2': 0, 'state': 'normal', 'yaw': -30.09, 'datetime': '2018-10-09 13:04:33.661883', 'mgs': 0, 'volt': 0.9277, 'depth': 1.996, 'time': 103, 'pitch': 6.22, 'roll': -0.4, 'pres': 190}
{'lipoC2': 7.42, 'lipoC3S1': 4.0, 'temp': 30.5, 'lipoC3S3': 12.12, 'lipoC3S2': 8.01, 'rot1': 0, 'rot0': 0, 'rot3': 0, 'rot2': 0, 'state': 'normal', 'yaw': -31.07, 'datetime': '2018-10-09 13:04:33.764934', 'mgs': 0, 'volt': 0.9277, 'depth': 1.996, 'time': 104, 'pitch': 5.82, 'roll': -1.15, 'pres': 190}
{'lipoC2': 7.42, 'lipoC3S1': 4.0, 'temp': 30.5, 'lipoC3S3': 12.13, 'lipoC3S2': 8.01, 'rot1': 0, 'rot0': 0, 'rot3': 0, 'rot2': 0, 'state': 'normal', 'yaw': -31.89, 'datetime': '2018-10-09 13:04:33.866898', 'mgs': 0, 'volt': 0.9229, 'depth': 1.92, 'time': 104, 'pitch': 5.15, 'roll': -1.86, 'pres': 189}
{'lipoC2': 7.42, 'lipoC3S1': 4.0, 'temp': 30.5, 'lipoC3S3': 12.12, 'lipoC3S2': 8.01, 'rot1': 0, 'rot0': 0, 'rot3': 0, 'rot2': 0, 'state': 'normal', 'yaw': -32.58, 'datetime': '2018-10-09 13:04:33.969982', 'mgs': 0, 'volt': 0.918, 'depth': 1.843, 'time': 104, 'pitch': 3.89, 'roll': -2.56, 'pres': 188}
{'lipoC2': 7.42, 'lipoC3S1': 4.0, 'temp': 30.5, 'lipoC3S3': 12.13, 'lipoC3S2': 8.01, 'rot1': 0, 'rot0': 0, 'rot3': 0, 'rot2': 0, 'state': 'normal', 'yaw': -33.05, 'datetime': '2018-10-09 13:04:34.073061', 'mgs': 0, 'volt': 0.918, 'depth': 1.843, 'time': 104, 'pitch': 1.63, 'roll': -3.35, 'pres': 188}
{'lipoC2': 7.42, 'lipoC3S1': 4.0, 'temp': 30.5, 'lipoC3S3': 12.12, 'lipoC3S2': 8.01, 'rot1': 0, 'rot0': 0, 'rot3': 0, 'rot2': 0, 'state': 'normal', 'yaw': -33.25, 'datetime': '2018-10-09 13:04:34.176381', 'mgs': 0, 'volt': 0.9131, 'depth': 1.767, 'time': 104, 'pitch': -0.51, 'roll': -4.04, 'pres': 187}
{'lipoC2': 7.42, 'lipoC3S1': 4.0, 'temp': 30.5, 'lipoC3S3': 12.13, 'lipoC3S2': 8.01, 'rot1': 0, 'rot0': 0, 'rot3': 0, 'rot2': 0, 'state': 'normal', 'yaw': -33.26, 'datetime': '2018-10-09 13:04:34.287382', 'mgs': 0, 'volt': 0.9131, 'depth': 1.767, 'time': 104, 'pitch': -2.04, 'roll': -4.66, 'pres': 187}
{'lipoC2': 7.42, 'lipoC3S1': 4.0, 'temp': 30.5, 'lipoC3S3': 12.13, 'lipoC3S2': 8.01, 'rot1': 0, 'rot0': 0, 'rot3': 0, 'rot2': 0, 'state': 'normal', 'yaw': -33.05, 'datetime': '2018-10-09 13:04:34.389068', 'mgs': 0, 'volt': 0.9131, 'depth': 1.767, 'time': 104, 'pitch': -3.03, 'roll': -5.27, 'pres': 187}
{'lipoC2': 7.42, 'lipoC3S1': 4.0, 'temp': 30.56, 'lipoC3S3': 12.13, 'lipoC3S2': 8.01, 'rot1': 0, 'rot0': 0, 'rot3': 0, 'rot2': 0, 'state': 'normal', 'yaw': -32.75, 'datetime': '2018-10-09 13:04:34.486840', 'mgs': 0, 'volt': 0.9082, 'depth': 1.691, 'time': 104, 'pitch': -3.1, 'roll': -5.66, 'pres': 186}
{'lipoC2': 7.42, 'lipoC3S1': 4.0, 'temp': 30.56, 'lipoC3S3': 12.12, 'lipoC3S2': 8.01, 'rot1': 0, 'rot0': 0, 'rot3': 0, 'rot2': 0, 'state': 'normal', 'yaw': -32.37, 'datetime': '2018-10-09 13:04:34.589832', 'mgs': 0, 'volt': 0.9082, 'depth': 1.691, 'time': 104, 'pitch': -2.62, 'roll': -5.87, 'pres': 186}
{'lipoC2': 7.42, 'lipoC3S1': 4.0, 'temp': 30.56, 'lipoC3S3': 12.12, 'lipoC3S2': 8.01, 'rot1': 0, 'rot0': 0, 'rot3': 0, 'rot2': 0, 'state': 'normal', 'yaw': -31.83, 'datetime': '2018-10-09 13:04:34.692997', 'mgs': 0, 'volt': 0.9082, 'depth': 1.691, 'time': 104, 'pitch': -1.89, 'roll': -5.91, 'pres': 186}
{'lipoC2': 7.42, 'lipoC3S1': 4.0, 'temp': 30.5, 'lipoC3S3': 12.13, 'lipoC3S2': 8.01, 'rot1': 0, 'rot0': 0, 'rot3': 0, 'rot2': 0, 'state': 'normal', 'yaw': -31.27, 'datetime': '2018-10-09 13:04:34.796357', 'mgs': 0, 'volt': 0.9082, 'depth': 1.691, 'time': 105, 'pitch': -1.5, 'roll': -5.76, 'pres': 186}
{'lipoC2': 7.42, 'lipoC3S1': 4.0, 'temp': 30.5, 'lipoC3S3': 12.12, 'lipoC3S2': 8.01, 'rot1': 0, 'rot0': 0, 'rot3': 0, 'rot2': 0, 'state': 'normal', 'yaw': -30.73, 'datetime': '2018-10-09 13:04:34.899165', 'mgs': 0, 'volt': 0.9082, 'depth': 1.691, 'time': 105, 'pitch': -1.54, 'roll': -5.4, 'pres': 186}
{'lipoC2': 7.42, 'lipoC3S1': 4.0, 'temp': 30.5, 'lipoC3S3': 12.13, 'lipoC3S2': 8.01, 'rot1': 0, 'rot0': 0, 'rot3': 0, 'rot2': 0, 'state': 'normal', 'yaw': -30.23, 'datetime': '2018-10-09 13:04:35.002441', 'mgs': 0, 'volt': 0.9082, 'depth': 1.691, 'time': 105, 'pitch': -1.94, 'roll': -4.84, 'pres': 186}
{'lipoC2': 7.42, 'lipoC3S1': 4.0, 'temp': 30.5, 'lipoC3S3': 12.12, 'lipoC3S2': 8.01, 'rot1': 0, 'rot0': 0, 'rot3': 0, 'rot2': 0, 'state': 'normal', 'yaw': -29.74, 'datetime': '2018-10-09 13:04:35.105614', 'mgs': 0, 'volt': 0.9131, 'depth': 1.767, 'time': 105, 'pitch': -2.36, 'roll': -4.09, 'pres': 187}
{'lipoC2': 7.42, 'lipoC3S1': 4.0, 'temp': 30.5, 'lipoC3S3': 12.12, 'lipoC3S2': 8.01, 'rot1': 0, 'rot0': 0, 'rot3': 0, 'rot2': 0, 'state': 'normal', 'yaw': -29.3, 'datetime': '2018-10-09 13:04:35.208617', 'mgs': 0, 'volt': 0.9131, 'depth': 1.767, 'time': 105, 'pitch': -2.55, 'roll': -3.38, 'pres': 187}
{'lipoC2': 7.42, 'lipoC3S1': 4.0, 'temp': 30.56, 'lipoC3S3': 12.12, 'lipoC3S2': 8.01, 'rot1': 0, 'rot0': 0, 'rot3': 0, 'rot2': 0, 'state': 'normal', 'yaw': -28.79, 'datetime': '2018-10-09 13:04:35.312779', 'mgs': 0, 'volt': 0.9131, 'depth': 1.767, 'time': 105, 'pitch': -2.58, 'roll': -2.77, 'pres': 187}
{'lipoC2': 7.42, 'lipoC3S1': 4.0, 'temp': 30.56, 'lipoC3S3': 12.12, 'lipoC3S2': 8.01, 'rot1': 0, 'rot0': 0, 'rot3': 0, 'rot2': 0, 'state': 'normal', 'yaw': -28.25, 'datetime': '2018-10-09 13:04:35.415884', 'mgs': 0, 'volt': 0.9131, 'depth': 1.767, 'time': 105, 'pitch': -2.64, 'roll': -2.08, 'pres': 187}
{'lipoC2': 7.42, 'lipoC3S1': 4.0, 'temp': 30.5, 'lipoC3S3': 12.12, 'lipoC3S2': 8.01, 'rot1': 0, 'rot0': 0, 'rot3': 0, 'rot2': 0, 'state': 'normal', 'yaw': -27.95, 'datetime': '2018-10-09 13:04:35.519216', 'mgs': 0, 'volt': 0.918, 'depth': 1.843, 'time': 105, 'pitch': -2.5, 'roll': -1.45, 'pres': 188}
{'lipoC2': 7.42, 'lipoC3S1': 4.0, 'temp': 30.5, 'lipoC3S3': 12.12, 'lipoC3S2': 8.0, 'rot1': 0, 'rot0': 0, 'rot3': 0, 'rot2': 0, 'state': 'normal', 'yaw': -27.67, 'datetime': '2018-10-09 13:04:35.623307', 'mgs': 0, 'volt': 0.918, 'depth': 1.843, 'time': 105, 'pitch': -2.32, 'roll': -0.92, 'pres': 188}
{'lipoC2': 7.42, 'lipoC3S1': 4.0, 'temp': 30.56, 'lipoC3S3': 12.13, 'lipoC3S2': 8.0, 'rot1': 0, 'rot0': 0, 'rot3': 0, 'rot2': 0, 'state': 'normal', 'yaw': -27.32, 'datetime': '2018-10-09 13:04:35.726467', 'mgs': 0, 'volt': 0.918, 'depth': 1.843, 'time': 105, 'pitch': -2.22, 'roll': -0.48, 'pres': 188}
{'lipoC2': 7.42, 'lipoC3S1': 4.0, 'temp': 30.56, 'lipoC3S3': 12.12, 'lipoC3S2': 8.01, 'rot1': 0, 'rot0': 0, 'rot3': 0, 'rot2': 0, 'state': 'normal', 'yaw': -26.93, 'datetime': '2018-10-09 13:04:35.829914', 'mgs': 0, 'volt': 0.918, 'depth': 1.843, 'time': 106, 'pitch': -1.96, 'roll': -0.18, 'pres': 188}
{'lipoC2': 7.42, 'lipoC3S1': 4.0, 'temp': 30.56, 'lipoC3S3': 12.12, 'lipoC3S2': 8.01, 'rot1': 0, 'rot0': 0, 'rot3': 0, 'rot2': 0, 'state': 'normal', 'yaw': -26.57, 'datetime': '2018-10-09 13:04:35.934053', 'mgs': 0, 'volt': 0.9229, 'depth': 1.92, 'time': 106, 'pitch': -1.09, 'roll': 0.06, 'pres': 189}
{'lipoC2': 7.42, 'lipoC3S1': 4.0, 'temp': 30.5, 'lipoC3S3': 12.12, 'lipoC3S2': 8.01, 'rot1': 0, 'rot0': 0, 'rot3': 0, 'rot2': 0, 'state': 'normal', 'yaw': -26.36, 'datetime': '2018-10-09 13:04:36.037242', 'mgs': 0, 'volt': 0.9277, 'depth': 1.996, 'time': 106, 'pitch': 0.6, 'roll': 0.3, 'pres': 190}
{'lipoC2': 7.42, 'lipoC3S1': 4.0, 'temp': 30.5, 'lipoC3S3': 12.12, 'lipoC3S2': 8.01, 'rot1': 0, 'rot0': 0, 'rot3': 0, 'rot2': 0, 'state': 'normal', 'yaw': -26.36, 'datetime': '2018-10-09 13:04:36.140338', 'mgs': 0, 'volt': 0.9277, 'depth': 1.996, 'time': 106, 'pitch': 2.45, 'roll': 0.45, 'pres': 190}
{'lipoC2': 7.42, 'lipoC3S1': 4.0, 'temp': 30.5, 'lipoC3S3': 12.12, 'lipoC3S2': 8.01, 'rot1': 0, 'rot0': 0, 'rot3': 0, 'rot2': 0, 'state': 'normal', 'yaw': -26.46, 'datetime': '2018-10-09 13:04:36.243529', 'mgs': 0, 'volt': 0.9277, 'depth': 1.996, 'time': 106, 'pitch': 4.14, 'roll': 0.48, 'pres': 190}
{'lipoC2': 7.42, 'lipoC3S1': 4.0, 'temp': 30.5, 'lipoC3S3': 12.12, 'lipoC3S2': 8.01, 'rot1': 0, 'rot0': 0, 'rot3': 0, 'rot2': 0, 'state': 'normal', 'yaw': -26.56, 'datetime': '2018-10-09 13:04:36.346438', 'mgs': 0, 'volt': 0.9277, 'depth': 1.996, 'time': 106, 'pitch': 5.31, 'roll': 0.44, 'pres': 190}
{'lipoC2': 7.42, 'lipoC3S1': 4.0, 'temp': 30.5, 'lipoC3S3': 12.12, 'lipoC3S2': 8.01, 'rot1': 0, 'rot0': 0, 'rot3': 0, 'rot2': 0, 'state': 'normal', 'yaw': -26.63, 'datetime': '2018-10-09 13:04:36.449541', 'mgs': 0, 'volt': 0.9326, 'depth': 2.072, 'time': 106, 'pitch': 5.58, 'roll': 0.33, 'pres': 191}
{'lipoC2': 7.42, 'lipoC3S1': 4.0, 'temp': 30.5, 'lipoC3S3': 12.12, 'lipoC3S2': 8.01, 'rot1': 0, 'rot0': 0, 'rot3': 0, 'rot2': 0, 'state': 'normal', 'yaw': -26.46, 'datetime': '2018-10-09 13:04:36.552675', 'mgs': 0, 'volt': 0.9326, 'depth': 2.072, 'time': 106, 'pitch': 5.28, 'roll': 0.03, 'pres': 191}
{'lipoC2': 7.42, 'lipoC3S1': 4.0, 'temp': 30.5, 'lipoC3S3': 12.12, 'lipoC3S2': 8.01, 'rot1': 0, 'rot0': 0, 'rot3': 0, 'rot2': 0, 'state': 'normal', 'yaw': -26.29, 'datetime': '2018-10-09 13:04:36.655931', 'mgs': 0, 'volt': 0.9277, 'depth': 1.996, 'time': 106, 'pitch': 4.95, 'roll': -0.37, 'pres': 190}
{'lipoC2': 7.42, 'lipoC3S1': 4.0, 'temp': 30.5, 'lipoC3S3': 12.12, 'lipoC3S2': 8.01, 'rot1': 0, 'rot0': 0, 'rot3': 0, 'rot2': 0, 'state': 'normal', 'yaw': -26.12, 'datetime': '2018-10-09 13:04:36.759136', 'mgs': 0, 'volt': 0.9277, 'depth': 1.996, 'time': 107, 'pitch': 4.41, 'roll': -0.96, 'pres': 190}
{'lipoC2': 7.42, 'lipoC3S1': 4.0, 'temp': 30.5, 'lipoC3S3': 12.12, 'lipoC3S2': 8.01, 'rot1': 0, 'rot0': 0, 'rot3': 0, 'rot2': 0, 'state': 'normal', 'yaw': -26.16, 'datetime': '2018-10-09 13:04:36.862095', 'mgs': 0, 'volt': 0.9277, 'depth': 1.996, 'time': 107, 'pitch': 4.22, 'roll': -1.54, 'pres': 190}
{'lipoC2': 7.42, 'lipoC3S1': 4.0, 'temp': 30.5, 'lipoC3S3': 12.13, 'lipoC3S2': 8.01, 'rot1': 0, 'rot0': 0, 'rot3': 0, 'rot2': 0, 'state': 'normal', 'yaw': -26.4, 'datetime': '2018-10-09 13:04:36.966297', 'mgs': 0, 'volt': 0.9277, 'depth': 1.996, 'time': 107, 'pitch': 4.12, 'roll': -2.12, 'pres': 190}
{'lipoC2': 7.42, 'lipoC3S1': 4.0, 'temp': 30.5, 'lipoC3S3': 12.13, 'lipoC3S2': 8.01, 'rot1': 0, 'rot0': 0, 'rot3': 0, 'rot2': 0, 'state': 'normal', 'yaw': -26.89, 'datetime': '2018-10-09 13:04:37.069477', 'mgs': 0, 'volt': 0.9277, 'depth': 1.996, 'time': 107, 'pitch': 4.04, 'roll': -2.68, 'pres': 190}
{'lipoC2': 7.42, 'lipoC3S1': 4.0, 'temp': 30.5, 'lipoC3S3': 12.12, 'lipoC3S2': 8.01, 'rot1': 0, 'rot0': 0, 'rot3': 0, 'rot2': 0, 'state': 'normal', 'yaw': -27.33, 'datetime': '2018-10-09 13:04:37.172515', 'mgs': 0, 'volt': 0.9277, 'depth': 1.996, 'time': 107, 'pitch': 4.1, 'roll': -3.15, 'pres': 190}
{'lipoC2': 7.42, 'lipoC3S1': 4.0, 'temp': 30.5, 'lipoC3S3': 12.12, 'lipoC3S2': 8.01, 'rot1': 0, 'rot0': 0, 'rot3': 0, 'rot2': 0, 'state': 'normal', 'yaw': -27.75, 'datetime': '2018-10-09 13:04:37.276979', 'mgs': 0, 'volt': 0.9277, 'depth': 1.996, 'time': 107, 'pitch': 4.0, 'roll': -3.63, 'pres': 190}
{'lipoC2': 7.42, 'lipoC3S1': 4.0, 'temp': 30.5, 'lipoC3S3': 12.12, 'lipoC3S2': 8.01, 'rot1': 0, 'rot0': 0, 'rot3': 0, 'rot2': 0, 'state': 'normal', 'yaw': -28.1, 'datetime': '2018-10-09 13:04:37.380314', 'mgs': 0, 'volt': 0.9277, 'depth': 1.996, 'time': 107, 'pitch': 3.53, 'roll': -4.3, 'pres': 190}
{'lipoC2': 7.42, 'lipoC3S1': 4.0, 'temp': 30.5, 'lipoC3S3': 12.12, 'lipoC3S2': 8.01, 'rot1': 0, 'rot0': 0, 'rot3': 0, 'rot2': 0, 'state': 'normal', 'yaw': -28.38, 'datetime': '2018-10-09 13:04:37.483150', 'mgs': 0, 'volt': 0.9277, 'depth': 1.996, 'time': 107, 'pitch': 2.7, 'roll': -5.04, 'pres': 190}
{'lipoC2': 7.42, 'lipoC3S1': 4.0, 'temp': 30.5, 'lipoC3S3': 12.12, 'lipoC3S2': 8.01, 'rot1': 0, 'rot0': 0, 'rot3': 0, 'rot2': 0, 'state': 'normal', 'yaw': -28.64, 'datetime': '2018-10-09 13:04:37.588135', 'mgs': 0, 'volt': 0.9277, 'depth': 1.996, 'time': 107, 'pitch': 1.85, 'roll': -5.85, 'pres': 190}
{'lipoC2': 7.42, 'lipoC3S1': 4.0, 'temp': 30.5, 'lipoC3S3': 12.12, 'lipoC3S2': 8.01, 'rot1': 0, 'rot0': 0, 'rot3': 0, 'rot2': 0, 'state': 'normal', 'yaw': -28.96, 'datetime': '2018-10-09 13:04:37.691316', 'mgs': 0, 'volt': 0.9277, 'depth': 1.996, 'time': 107, 'pitch': 1.59, 'roll': -6.76, 'pres': 190}
{'lipoC2': 7.42, 'lipoC3S1': 4.0, 'temp': 30.5, 'lipoC3S3': 12.13, 'lipoC3S2': 8.01, 'rot1': 0, 'rot0': 0, 'rot3': 0, 'rot2': 0, 'state': 'normal', 'yaw': -29.33, 'datetime': '2018-10-09 13:04:37.794408', 'mgs': 0, 'volt': 0.9277, 'depth': 1.996, 'time': 108, 'pitch': 1.99, 'roll': -7.47, 'pres': 190}
{'lipoC2': 7.42, 'lipoC3S1': 4.0, 'temp': 30.56, 'lipoC3S3': 12.12, 'lipoC3S2': 8.01, 'rot1': 0, 'rot0': 0, 'rot3': 0, 'rot2': 0, 'state': 'normal', 'yaw': -29.87, 'datetime': '2018-10-09 13:04:37.897261', 'mgs': 0, 'volt': 0.9277, 'depth': 1.996, 'time': 108, 'pitch': 2.58, 'roll': -7.88, 'pres': 190}
{'lipoC2': 7.42, 'lipoC3S1': 4.0, 'temp': 30.56, 'lipoC3S3': 12.12, 'lipoC3S2': 8.01, 'rot1': 0, 'rot0': 0, 'rot3': 0, 'rot2': 0, 'state': 'normal', 'yaw': -30.55, 'datetime': '2018-10-09 13:04:38.000351', 'mgs': 0, 'volt': 0.9229, 'depth': 1.92, 'time': 108, 'pitch': 2.95, 'roll': -7.95, 'pres': 189}
{'lipoC2': 7.42, 'lipoC3S1': 4.0, 'temp': 30.56, 'lipoC3S3': 12.12, 'lipoC3S2': 8.01, 'rot1': 0, 'rot0': 0, 'rot3': 0, 'rot2': 0, 'state': 'normal', 'yaw': -31.16, 'datetime': '2018-10-09 13:04:38.103586', 'mgs': 0, 'volt': 0.9277, 'depth': 1.996, 'time': 108, 'pitch': 2.67, 'roll': -7.66, 'pres': 190}
{'lipoC2': 7.42, 'lipoC3S1': 4.0, 'temp': 30.56, 'lipoC3S3': 12.12, 'lipoC3S2': 8.01, 'rot1': 0, 'rot0': 0, 'rot3': 0, 'rot2': 0, 'state': 'normal', 'yaw': -31.77, 'datetime': '2018-10-09 13:04:38.206658', 'mgs': 0, 'volt': 0.9277, 'depth': 1.996, 'time': 108, 'pitch': 1.85, 'roll': -7.05, 'pres': 190}
{'lipoC2': 7.42, 'lipoC3S1': 4.0, 'temp': 30.56, 'lipoC3S3': 12.13, 'lipoC3S2': 8.01, 'rot1': 0, 'rot0': 0, 'rot3': 0, 'rot2': 0, 'state': 'normal', 'yaw': -32.34, 'datetime': '2018-10-09 13:04:38.309861', 'mgs': 0, 'volt': 0.9277, 'depth': 1.996, 'time': 108, 'pitch': 0.59, 'roll': -6.17, 'pres': 190}
{'lipoC2': 7.42, 'lipoC3S1': 4.0, 'temp': 30.5, 'lipoC3S3': 12.12, 'lipoC3S2': 8.01, 'rot1': 0, 'rot0': 0, 'rot3': 0, 'rot2': 0, 'state': 'normal', 'yaw': -32.87, 'datetime': '2018-10-09 13:04:38.413005', 'mgs': 0, 'volt': 0.9326, 'depth': 2.072, 'time': 108, 'pitch': -0.98, 'roll': -5.04, 'pres': 191}
{'lipoC2': 7.42, 'lipoC3S1': 4.0, 'temp': 30.5, 'lipoC3S3': 12.12, 'lipoC3S2': 8.0, 'rot1': 0, 'rot0': 0, 'rot3': 0, 'rot2': 0, 'state': 'normal', 'yaw': -33.18, 'datetime': '2018-10-09 13:04:38.516045', 'mgs': 0, 'volt': 0.9326, 'depth': 2.072, 'time': 108, 'pitch': -2.11, 'roll': -4.01, 'pres': 191}
{'lipoC2': 7.42, 'lipoC3S1': 4.0, 'temp': 30.5, 'lipoC3S3': 12.12, 'lipoC3S2': 8.01, 'rot1': 0, 'rot0': 0, 'rot3': 0, 'rot2': 0, 'state': 'normal', 'yaw': -33.24, 'datetime': '2018-10-09 13:04:38.620129', 'mgs': 0, 'volt': 0.9326, 'depth': 2.072, 'time': 108, 'pitch': -2.54, 'roll': -3.21, 'pres': 191}
{'lipoC2': 7.42, 'lipoC3S1': 4.0, 'temp': 30.5, 'lipoC3S3': 12.12, 'lipoC3S2': 8.0, 'rot1': 0, 'rot0': 0, 'rot3': 0, 'rot2': 0, 'state': 'normal', 'yaw': -33.25, 'datetime': '2018-10-09 13:04:38.723275', 'mgs': 0, 'volt': 0.9277, 'depth': 1.996, 'time': 108, 'pitch': -2.28, 'roll': -2.64, 'pres': 190}
{'lipoC2': 7.42, 'lipoC3S1': 4.0, 'temp': 30.5, 'lipoC3S3': 12.12, 'lipoC3S2': 8.01, 'rot1': 0, 'rot0': 0, 'rot3': 0, 'rot2': 0, 'state': 'normal', 'yaw': -33.29, 'datetime': '2018-10-09 13:04:38.827210', 'mgs': 0, 'volt': 0.9326, 'depth': 2.072, 'time': 109, 'pitch': -1.74, 'roll': -2.28, 'pres': 191}
{'lipoC2': 7.42, 'lipoC3S1': 4.0, 'temp': 30.5, 'lipoC3S3': 12.12, 'lipoC3S2': 8.01, 'rot1': 0, 'rot0': 0, 'rot3': 0, 'rot2': 0, 'state': 'normal', 'yaw': -33.44, 'datetime': '2018-10-09 13:04:38.931070', 'mgs': 0, 'volt': 0.9326, 'depth': 2.072, 'time': 109, 'pitch': -1.21, 'roll': -2.03, 'pres': 191}
{'lipoC2': 7.42, 'lipoC3S1': 4.0, 'temp': 30.5, 'lipoC3S3': 12.12, 'lipoC3S2': 8.01, 'rot1': 0, 'rot0': 0, 'rot3': 0, 'rot2': 0, 'state': 'normal', 'yaw': -33.56, 'datetime': '2018-10-09 13:04:39.034203', 'mgs': 0, 'volt': 0.9326, 'depth': 2.072, 'time': 109, 'pitch': -0.9, 'roll': -1.8, 'pres': 191}
{'lipoC2': 7.42, 'lipoC3S1': 4.0, 'temp': 30.5, 'lipoC3S3': 12.12, 'lipoC3S2': 8.0, 'rot1': 0, 'rot0': 0, 'rot3': 0, 'rot2': 0, 'state': 'normal', 'yaw': -33.65, 'datetime': '2018-10-09 13:04:39.137333', 'mgs': 0, 'volt': 0.9326, 'depth': 2.072, 'time': 109, 'pitch': -0.87, 'roll': -1.92, 'pres': 191}
{'lipoC2': 7.42, 'lipoC3S1': 4.0, 'temp': 30.5, 'lipoC3S3': 12.13, 'lipoC3S2': 8.01, 'rot1': 0, 'rot0': 0, 'rot3': 0, 'rot2': 0, 'state': 'normal', 'yaw': -33.92, 'datetime': '2018-10-09 13:04:39.241772', 'mgs': 0, 'volt': 0.9326, 'depth': 2.072, 'time': 109, 'pitch': -0.97, 'roll': -2.43, 'pres': 191}
{'lipoC2': 7.42, 'lipoC3S1': 4.0, 'temp': 30.5, 'lipoC3S3': 12.12, 'lipoC3S2': 8.01, 'rot1': 0, 'rot0': 0, 'rot3': 0, 'rot2': 0, 'state': 'normal', 'yaw': -34.61, 'datetime': '2018-10-09 13:04:39.345336', 'mgs': 0, 'volt': 0.9326, 'depth': 2.072, 'time': 109, 'pitch': -1.12, 'roll': -3.38, 'pres': 191}
{'lipoC2': 7.42, 'lipoC3S1': 4.0, 'temp': 30.5, 'lipoC3S3': 12.13, 'lipoC3S2': 8.01, 'rot1': 0, 'rot0': 0, 'rot3': 0, 'rot2': 0, 'state': 'normal', 'yaw': -35.52, 'datetime': '2018-10-09 13:04:39.448011', 'mgs': 0, 'volt': 0.9326, 'depth': 2.072, 'time': 109, 'pitch': -1.24, 'roll': -4.47, 'pres': 191}
{'lipoC2': 7.42, 'lipoC3S1': 4.0, 'temp': 30.5, 'lipoC3S3': 12.12, 'lipoC3S2': 8.01, 'rot1': 0, 'rot0': 0, 'rot3': 0, 'rot2': 0, 'state': 'normal', 'yaw': -36.34, 'datetime': '2018-10-09 13:04:39.550929', 'mgs': 0, 'volt': 0.9326, 'depth': 2.072, 'time': 109, 'pitch': -1.07, 'roll': -5.71, 'pres': 191}
{'lipoC2': 7.42, 'lipoC3S1': 4.0, 'temp': 30.5, 'lipoC3S3': 12.13, 'lipoC3S2': 8.01, 'rot1': 0, 'rot0': 0, 'rot3': 0, 'rot2': 0, 'state': 'normal', 'yaw': -37.17, 'datetime': '2018-10-09 13:04:39.654053', 'mgs': 0, 'volt': 0.9326, 'depth': 2.072, 'time': 109, 'pitch': -0.86, 'roll': -6.91, 'pres': 191}
{'lipoC2': 7.42, 'lipoC3S1': 4.0, 'temp': 30.5, 'lipoC3S3': 12.12, 'lipoC3S2': 8.01, 'rot1': 0, 'rot0': 0, 'rot3': 0, 'rot2': 0, 'state': 'normal', 'yaw': -38.08, 'datetime': '2018-10-09 13:04:39.757149', 'mgs': 0, 'volt': 0.9326, 'depth': 2.072, 'time': 109, 'pitch': -0.61, 'roll': -7.58, 'pres': 191}
{'lipoC2': 7.42, 'lipoC3S1': 4.0, 'temp': 30.5, 'lipoC3S3': 12.12, 'lipoC3S2': 8.01, 'rot1': 0, 'rot0': 0, 'rot3': 0, 'rot2': 0, 'state': 'normal', 'yaw': -39.21, 'datetime': '2018-10-09 13:04:39.861145', 'mgs': 0, 'volt': 0.9375, 'depth': 2.148, 'time': 110, 'pitch': -0.02, 'roll': -7.79, 'pres': 192}
{'lipoC2': 7.42, 'lipoC3S1': 4.0, 'temp': 30.5, 'lipoC3S3': 12.12, 'lipoC3S2': 8.01, 'rot1': 0, 'rot0': 0, 'rot3': 0, 'rot2': 0, 'state': 'normal', 'yaw': -40.4, 'datetime': '2018-10-09 13:04:39.963503', 'mgs': 0, 'volt': 0.9375, 'depth': 2.148, 'time': 110, 'pitch': 0.9, 'roll': -7.63, 'pres': 192}
{'lipoC2': 7.42, 'lipoC3S1': 4.0, 'temp': 30.5, 'lipoC3S3': 12.13, 'lipoC3S2': 8.01, 'rot1': 0, 'rot0': 0, 'rot3': 0, 'rot2': 0, 'state': 'normal', 'yaw': -41.54, 'datetime': '2018-10-09 13:04:40.066675', 'mgs': 0, 'volt': 0.9375, 'depth': 2.148, 'time': 110, 'pitch': 1.98, 'roll': -7.17, 'pres': 192}
{'lipoC2': 7.42, 'lipoC3S1': 4.0, 'temp': 30.5, 'lipoC3S3': 12.12, 'lipoC3S2': 8.0, 'rot1': 0, 'rot0': 0, 'rot3': 0, 'rot2': 0, 'state': 'normal', 'yaw': -42.37, 'datetime': '2018-10-09 13:04:40.169799', 'mgs': 0, 'volt': 0.9424, 'depth': 2.225, 'time': 110, 'pitch': 2.63, 'roll': -6.58, 'pres': 193}
{'lipoC2': 7.42, 'lipoC3S1': 4.0, 'temp': 30.5, 'lipoC3S3': 12.12, 'lipoC3S2': 8.01, 'rot1': 0, 'rot0': 0, 'rot3': 0, 'rot2': 0, 'state': 'normal', 'yaw': -42.96, 'datetime': '2018-10-09 13:04:40.273151', 'mgs': 0, 'volt': 0.9424, 'depth': 2.225, 'time': 110, 'pitch': 2.63, 'roll': -5.87, 'pres': 193}
{'lipoC2': 7.42, 'lipoC3S1': 4.0, 'temp': 30.5, 'lipoC3S3': 12.12, 'lipoC3S2': 8.01, 'rot1': 0, 'rot0': 0, 'rot3': 0, 'rot2': 0, 'state': 'normal', 'yaw': -43.47, 'datetime': '2018-10-09 13:04:40.376506', 'mgs': 0, 'volt': 0.9424, 'depth': 2.225, 'time': 110, 'pitch': 2.04, 'roll': -4.98, 'pres': 193}
{'lipoC2': 7.42, 'lipoC3S1': 4.0, 'temp': 30.5, 'lipoC3S3': 12.12, 'lipoC3S2': 8.01, 'rot1': 0, 'rot0': 0, 'rot3': 0, 'rot2': 0, 'state': 'normal', 'yaw': -43.81, 'datetime': '2018-10-09 13:04:40.479357', 'mgs': 0, 'volt': 0.9424, 'depth': 2.225, 'time': 110, 'pitch': 1.37, 'roll': -4.09, 'pres': 193}
{'lipoC2': 7.42, 'lipoC3S1': 4.0, 'temp': 30.5, 'lipoC3S3': 12.12, 'lipoC3S2': 8.0, 'rot1': 0, 'rot0': 0, 'rot3': 0, 'rot2': 0, 'state': 'normal', 'yaw': -43.97, 'datetime': '2018-10-09 13:04:40.583573', 'mgs': 0, 'volt': 0.9473, 'depth': 2.301, 'time': 110, 'pitch': 0.7, 'roll': -3.15, 'pres': 194}
{'lipoC2': 7.42, 'lipoC3S1': 4.0, 'temp': 30.5, 'lipoC3S3': 12.12, 'lipoC3S2': 8.0, 'rot1': 0, 'rot0': 0, 'rot3': 0, 'rot2': 0, 'state': 'normal', 'yaw': -43.94, 'datetime': '2018-10-09 13:04:40.686889', 'mgs': 0, 'volt': 0.9473, 'depth': 2.301, 'time': 110, 'pitch': -0.02, 'roll': -2.2, 'pres': 194}
{'lipoC2': 7.42, 'lipoC3S1': 4.0, 'temp': 30.5, 'lipoC3S3': 12.12, 'lipoC3S2': 8.01, 'rot1': 0, 'rot0': 0, 'rot3': 0, 'rot2': 0, 'state': 'normal', 'yaw': -43.91, 'datetime': '2018-10-09 13:04:40.789883', 'mgs': 0, 'volt': 0.9473, 'depth': 2.301, 'time': 111, 'pitch': -0.56, 'roll': -1.44, 'pres': 194}
{'lipoC2': 7.42, 'lipoC3S1': 4.0, 'temp': 30.5, 'lipoC3S3': 12.12, 'lipoC3S2': 8.01, 'rot1': 0, 'rot0': 0, 'rot3': 0, 'rot2': 0, 'state': 'normal', 'yaw': -43.8, 'datetime': '2018-10-09 13:04:40.894204', 'mgs': 0, 'volt': 0.9473, 'depth': 2.301, 'time': 111, 'pitch': -0.88, 'roll': -0.83, 'pres': 194}
{'lipoC2': 7.42, 'lipoC3S1': 4.0, 'temp': 30.5, 'lipoC3S3': 12.12, 'lipoC3S2': 8.01, 'rot1': 0, 'rot0': 0, 'rot3': 0, 'rot2': 0, 'state': 'normal', 'yaw': -43.69, 'datetime': '2018-10-09 13:04:40.997256', 'mgs': 0, 'volt': 0.9473, 'depth': 2.301, 'time': 111, 'pitch': -0.99, 'roll': -0.36, 'pres': 194}
{'lipoC2': 7.42, 'lipoC3S1': 4.0, 'temp': 30.5, 'lipoC3S3': 12.12, 'lipoC3S2': 8.01, 'rot1': 0, 'rot0': 0, 'rot3': 0, 'rot2': 0, 'state': 'normal', 'yaw': -43.67, 'datetime': '2018-10-09 13:04:41.100690', 'mgs': 0, 'volt': 0.9424, 'depth': 2.225, 'time': 111, 'pitch': -0.83, 'roll': -0.15, 'pres': 193}
{'lipoC2': 7.42, 'lipoC3S1': 4.0, 'temp': 30.5, 'lipoC3S3': 12.12, 'lipoC3S2': 8.01, 'rot1': 0, 'rot0': 0, 'rot3': 0, 'rot2': 0, 'state': 'normal', 'yaw': -43.67, 'datetime': '2018-10-09 13:04:41.203418', 'mgs': 0, 'volt': 0.9424, 'depth': 2.225, 'time': 111, 'pitch': -0.73, 'roll': -0.12, 'pres': 193}
{'lipoC2': 7.42, 'lipoC3S1': 4.0, 'temp': 30.5, 'lipoC3S3': 12.12, 'lipoC3S2': 8.0, 'rot1': 0, 'rot0': 0, 'rot3': 0, 'rot2': 0, 'state': 'normal', 'yaw': -43.57, 'datetime': '2018-10-09 13:04:41.306849', 'mgs': 0, 'volt': 0.9424, 'depth': 2.225, 'time': 111, 'pitch': -0.75, 'roll': -0.33, 'pres': 193}
{'lipoC2': 7.42, 'lipoC3S1': 4.0, 'temp': 30.5, 'lipoC3S3': 12.12, 'lipoC3S2': 8.01, 'rot1': 0, 'rot0': 0, 'rot3': 0, 'rot2': 0, 'state': 'normal', 'yaw': -43.29, 'datetime': '2018-10-09 13:04:41.409928', 'mgs': 0, 'volt': 0.9424, 'depth': 2.225, 'time': 111, 'pitch': -0.89, 'roll': -0.76, 'pres': 193}
{'lipoC2': 7.42, 'lipoC3S1': 4.0, 'temp': 30.5, 'lipoC3S3': 12.12, 'lipoC3S2': 8.01, 'rot1': 0, 'rot0': 0, 'rot3': 0, 'rot2': 0, 'state': 'normal', 'yaw': -42.89, 'datetime': '2018-10-09 13:04:41.519653', 'mgs': 0, 'volt': 0.9473, 'depth': 2.301, 'time': 111, 'pitch': -1.05, 'roll': -1.32, 'pres': 194}
{'lipoC2': 7.42, 'lipoC3S1': 4.0, 'temp': 30.5, 'lipoC3S3': 12.12, 'lipoC3S2': 8.01, 'rot1': 0, 'rot0': 0, 'rot3': 0, 'rot2': 0, 'state': 'normal', 'yaw': -42.54, 'datetime': '2018-10-09 13:04:41.616075', 'mgs': 0, 'volt': 0.9424, 'depth': 2.225, 'time': 111, 'pitch': -0.66, 'roll': -1.9, 'pres': 193}
{'lipoC2': 7.42, 'lipoC3S1': 4.0, 'temp': 30.5, 'lipoC3S3': 12.12, 'lipoC3S2': 8.01, 'rot1': 0, 'rot0': 0, 'rot3': 0, 'rot2': 0, 'state': 'normal', 'yaw': -42.26, 'datetime': '2018-10-09 13:04:41.719212', 'mgs': 0, 'volt': 0.9424, 'depth': 2.225, 'time': 111, 'pitch': 0.08, 'roll': -2.54, 'pres': 193}
{'lipoC2': 7.42, 'lipoC3S1': 4.0, 'temp': 30.5, 'lipoC3S3': 12.12, 'lipoC3S2': 8.01, 'rot1': 0, 'rot0': 0, 'rot3': 0, 'rot2': 0, 'state': 'normal', 'yaw': -42.02, 'datetime': '2018-10-09 13:04:41.822425', 'mgs': 0, 'volt': 0.9424, 'depth': 2.225, 'time': 112, 'pitch': 0.53, 'roll': -3.1, 'pres': 193}
{'lipoC2': 7.42, 'lipoC3S1': 4.0, 'temp': 30.5, 'lipoC3S3': 12.12, 'lipoC3S2': 8.01, 'rot1': 0, 'rot0': 0, 'rot3': 0, 'rot2': 0, 'state': 'normal', 'yaw': -41.73, 'datetime': '2018-10-09 13:04:41.925635', 'mgs': 0, 'volt': 0.9424, 'depth': 2.225, 'time': 112, 'pitch': 0.79, 'roll': -3.6, 'pres': 193}
{'lipoC2': 7.42, 'lipoC3S1': 4.0, 'temp': 30.5, 'lipoC3S3': 12.12, 'lipoC3S2': 8.01, 'rot1': 0, 'rot0': 0, 'rot3': 0, 'rot2': 0, 'state': 'normal', 'yaw': -41.26, 'datetime': '2018-10-09 13:04:42.028605', 'mgs': 0, 'volt': 0.9424, 'depth': 2.225, 'time': 112, 'pitch': 0.92, 'roll': -4.1, 'pres': 193}
{'lipoC2': 7.42, 'lipoC3S1': 4.0, 'temp': 30.5, 'lipoC3S3': 12.12, 'lipoC3S2': 8.01, 'rot1': 0, 'rot0': 0, 'rot3': 0, 'rot2': 0, 'state': 'normal', 'yaw': -40.84, 'datetime': '2018-10-09 13:04:42.131622', 'mgs': 0, 'volt': 0.9424, 'depth': 2.225, 'time': 112, 'pitch': 0.81, 'roll': -4.41, 'pres': 193}
{'lipoC2': 7.42, 'lipoC3S1': 4.0, 'temp': 30.56, 'lipoC3S3': 12.12, 'lipoC3S2': 8.0, 'rot1': 0, 'rot0': 0, 'rot3': 0, 'rot2': 0, 'state': 'normal', 'yaw': -40.59, 'datetime': '2018-10-09 13:04:42.236066', 'mgs': 0, 'volt': 0.9424, 'depth': 2.225, 'time': 112, 'pitch': 0.85, 'roll': -4.53, 'pres': 193}
{'lipoC2': 7.42, 'lipoC3S1': 4.0, 'temp': 30.56, 'lipoC3S3': 12.12, 'lipoC3S2': 8.01, 'rot1': 0, 'rot0': 0, 'rot3': 0, 'rot2': 0, 'state': 'normal', 'yaw': -40.55, 'datetime': '2018-10-09 13:04:42.339246', 'mgs': 0, 'volt': 0.9424, 'depth': 2.225, 'time': 112, 'pitch': 1.7, 'roll': -4.43, 'pres': 193}
{'lipoC2': 7.42, 'lipoC3S1': 4.0, 'temp': 30.56, 'lipoC3S3': 12.12, 'lipoC3S2': 8.01, 'rot1': 0, 'rot0': 0, 'rot3': 0, 'rot2': 0, 'state': 'normal', 'yaw': -40.54, 'datetime': '2018-10-09 13:04:42.445275', 'mgs': 0, 'volt': 0.9424, 'depth': 2.225, 'time': 112, 'pitch': 2.9, 'roll': -4.18, 'pres': 193}
{'lipoC2': 7.42, 'lipoC3S1': 4.0, 'temp': 30.56, 'lipoC3S3': 12.12, 'lipoC3S2': 8.01, 'rot1': 0, 'rot0': 0, 'rot3': 0, 'rot2': 0, 'state': 'normal', 'yaw': -40.57, 'datetime': '2018-10-09 13:04:42.546693', 'mgs': 0, 'volt': 0.9473, 'depth': 2.301, 'time': 112, 'pitch': 3.97, 'roll': -3.79, 'pres': 194}
{'lipoC2': 7.42, 'lipoC3S1': 4.0, 'temp': 30.56, 'lipoC3S3': 12.12, 'lipoC3S2': 8.0, 'rot1': 0, 'rot0': 0, 'rot3': 0, 'rot2': 0, 'state': 'normal', 'yaw': -40.55, 'datetime': '2018-10-09 13:04:42.650209', 'mgs': 0, 'volt': 0.9424, 'depth': 2.225, 'time': 112, 'pitch': 5.28, 'roll': -3.31, 'pres': 193}
{'lipoC2': 7.42, 'lipoC3S1': 4.0, 'temp': 30.5, 'lipoC3S3': 12.12, 'lipoC3S2': 8.0, 'rot1': 0, 'rot0': 0, 'rot3': 0, 'rot2': 0, 'state': 'normal', 'yaw': -40.61, 'datetime': '2018-10-09 13:04:42.753321', 'mgs': 0, 'volt': 0.9424, 'depth': 2.225, 'time': 112, 'pitch': 5.77, 'roll': -2.81, 'pres': 193}
{'lipoC2': 7.42, 'lipoC3S1': 4.0, 'temp': 30.5, 'lipoC3S3': 12.12, 'lipoC3S2': 8.01, 'rot1': 0, 'rot0': 0, 'rot3': 0, 'rot2': 0, 'state': 'normal', 'yaw': -41.01, 'datetime': '2018-10-09 13:04:42.856135', 'mgs': 0, 'volt': 0.9473, 'depth': 2.301, 'time': 113, 'pitch': 5.5, 'roll': -2.18, 'pres': 194}
{'lipoC2': 7.42, 'lipoC3S1': 4.0, 'temp': 30.5, 'lipoC3S3': 12.12, 'lipoC3S2': 8.01, 'rot1': 0, 'rot0': 0, 'rot3': 0, 'rot2': 0, 'state': 'normal', 'yaw': -41.66, 'datetime': '2018-10-09 13:04:42.959631', 'mgs': 0, 'volt': 0.9473, 'depth': 2.301, 'time': 113, 'pitch': 5.2, 'roll': -1.43, 'pres': 194}
{'lipoC2': 7.42, 'lipoC3S1': 4.0, 'temp': 30.56, 'lipoC3S3': 12.12, 'lipoC3S2': 8.01, 'rot1': 0, 'rot0': 0, 'rot3': 0, 'rot2': 0, 'state': 'normal', 'yaw': -42.3, 'datetime': '2018-10-09 13:04:43.062658', 'mgs': 0, 'volt': 0.9473, 'depth': 2.301, 'time': 113, 'pitch': 4.88, 'roll': -0.7, 'pres': 194}
{'lipoC2': 7.42, 'lipoC3S1': 4.0, 'temp': 30.56, 'lipoC3S3': 12.12, 'lipoC3S2': 8.01, 'rot1': 0, 'rot0': 0, 'rot3': 0, 'rot2': 0, 'state': 'normal', 'yaw': -42.68, 'datetime': '2018-10-09 13:04:43.165794', 'mgs': 0, 'volt': 0.9473, 'depth': 2.301, 'time': 113, 'pitch': 4.53, 'roll': -0.25, 'pres': 194}
{'lipoC2': 7.42, 'lipoC3S1': 4.0, 'temp': 30.56, 'lipoC3S3': 12.12, 'lipoC3S2': 8.01, 'rot1': 0, 'rot0': 0, 'rot3': 0, 'rot2': 0, 'state': 'normal', 'yaw': -42.97, 'datetime': '2018-10-09 13:04:43.268777', 'mgs': 0, 'volt': 0.9473, 'depth': 2.301, 'time': 113, 'pitch': 4.44, 'roll': 0.0, 'pres': 194}
{'lipoC2': 7.42, 'lipoC3S1': 4.0, 'temp': 30.56, 'lipoC3S3': 12.12, 'lipoC3S2': 8.0, 'rot1': 0, 'rot0': 0, 'rot3': 0, 'rot2': 0, 'state': 'normal', 'yaw': -43.15, 'datetime': '2018-10-09 13:04:43.372106', 'mgs': 0, 'volt': 0.9424, 'depth': 2.225, 'time': 113, 'pitch': 4.62, 'roll': 0.02, 'pres': 193}
{'lipoC2': 7.42, 'lipoC3S1': 4.0, 'temp': 30.5, 'lipoC3S3': 12.12, 'lipoC3S2': 8.01, 'rot1': 0, 'rot0': 0, 'rot3': 0, 'rot2': 0, 'state': 'normal', 'yaw': -43.18, 'datetime': '2018-10-09 13:04:43.475038', 'mgs': 0, 'volt': 0.9424, 'depth': 2.225, 'time': 113, 'pitch': 4.63, 'roll': -0.18, 'pres': 193}
{'lipoC2': 7.42, 'lipoC3S1': 4.0, 'temp': 30.5, 'lipoC3S3': 12.12, 'lipoC3S2': 8.01, 'rot1': 0, 'rot0': 0, 'rot3': 0, 'rot2': 0, 'state': 'normal', 'yaw': -43.18, 'datetime': '2018-10-09 13:04:43.578208', 'mgs': 0, 'volt': 0.9473, 'depth': 2.301, 'time': 113, 'pitch': 4.64, 'roll': -0.54, 'pres': 194}
{'lipoC2': 7.42, 'lipoC3S1': 4.0, 'temp': 30.5, 'lipoC3S3': 12.12, 'lipoC3S2': 8.0, 'rot1': 0, 'rot0': 0, 'rot3': 0, 'rot2': 0, 'state': 'normal', 'yaw': -43.23, 'datetime': '2018-10-09 13:04:43.681774', 'mgs': 0, 'volt': 0.9424, 'depth': 2.225, 'time': 113, 'pitch': 4.76, 'roll': -0.95, 'pres': 193}
{'lipoC2': 7.42, 'lipoC3S1': 4.0, 'temp': 30.5, 'lipoC3S3': 12.12, 'lipoC3S2': 8.0, 'rot1': 0, 'rot0': 0, 'rot3': 0, 'rot2': 0, 'state': 'normal', 'yaw': -43.58, 'datetime': '2018-10-09 13:04:43.785015', 'mgs': 0, 'volt': 0.9424, 'depth': 2.225, 'time': 114, 'pitch': 4.67, 'roll': -1.27, 'pres': 193}
{'lipoC2': 7.42, 'lipoC3S1': 4.0, 'temp': 30.5, 'lipoC3S3': 12.12, 'lipoC3S2': 8.01, 'rot1': 0, 'rot0': 0, 'rot3': 0, 'rot2': 0, 'state': 'normal', 'yaw': -44.06, 'datetime': '2018-10-09 13:04:43.888553', 'mgs': 0, 'volt': 0.9375, 'depth': 2.148, 'time': 114, 'pitch': 4.33, 'roll': -1.45, 'pres': 192}
{'lipoC2': 7.42, 'lipoC3S1': 4.0, 'temp': 30.5, 'lipoC3S3': 12.12, 'lipoC3S2': 8.01, 'rot1': 0, 'rot0': 0, 'rot3': 0, 'rot2': 0, 'state': 'normal', 'yaw': -44.65, 'datetime': '2018-10-09 13:04:43.992328', 'mgs': 0, 'volt': 0.9375, 'depth': 2.148, 'time': 114, 'pitch': 3.88, 'roll': -1.61, 'pres': 192}
{'lipoC2': 7.42, 'lipoC3S1': 4.0, 'temp': 30.5, 'lipoC3S3': 12.12, 'lipoC3S2': 8.01, 'rot1': 0, 'rot0': 0, 'rot3': 0, 'rot2': 0, 'state': 'normal', 'yaw': -45.38, 'datetime': '2018-10-09 13:04:44.095497', 'mgs': 0, 'volt': 0.9326, 'depth': 2.072, 'time': 114, 'pitch': 3.45, 'roll': -1.85, 'pres': 191}
{'lipoC2': 7.42, 'lipoC3S1': 4.0, 'temp': 30.5, 'lipoC3S3': 12.12, 'lipoC3S2': 8.0, 'rot1': 0, 'rot0': 0, 'rot3': 0, 'rot2': 0, 'state': 'normal', 'yaw': -45.9, 'datetime': '2018-10-09 13:04:44.198904', 'mgs': 0, 'volt': 0.9326, 'depth': 2.072, 'time': 114, 'pitch': 3.3, 'roll': -2.23, 'pres': 191}
{'lipoC2': 7.42, 'lipoC3S1': 4.0, 'temp': 30.5, 'lipoC3S3': 12.12, 'lipoC3S2': 8.01, 'rot1': 0, 'rot0': 0, 'rot3': 0, 'rot2': 0, 'state': 'normal', 'yaw': -46.18, 'datetime': '2018-10-09 13:04:44.303227', 'mgs': 0, 'volt': 0.9326, 'depth': 2.072, 'time': 114, 'pitch': 3.37, 'roll': -2.79, 'pres': 191}
{'lipoC2': 7.42, 'lipoC3S1': 4.0, 'temp': 30.5, 'lipoC3S3': 12.12, 'lipoC3S2': 8.01, 'rot1': 0, 'rot0': 0, 'rot3': 0, 'rot2': 0, 'state': 'normal', 'yaw': -46.28, 'datetime': '2018-10-09 13:04:44.406312', 'mgs': 0, 'volt': 0.9326, 'depth': 2.072, 'time': 114, 'pitch': 3.74, 'roll': -3.49, 'pres': 191}
{'lipoC2': 7.42, 'lipoC3S1': 4.0, 'temp': 30.5, 'lipoC3S3': 12.12, 'lipoC3S2': 8.01, 'rot1': 0, 'rot0': 0, 'rot3': 0, 'rot2': 0, 'state': 'normal', 'yaw': -46.39, 'datetime': '2018-10-09 13:04:44.515454', 'mgs': 0, 'volt': 0.9326, 'depth': 2.072, 'time': 114, 'pitch': 3.96, 'roll': -4.02, 'pres': 191}
{'lipoC2': 7.42, 'lipoC3S1': 4.0, 'temp': 30.5, 'lipoC3S3': 12.12, 'lipoC3S2': 8.01, 'rot1': 0, 'rot0': 0, 'rot3': 0, 'rot2': 0, 'state': 'normal', 'yaw': -46.55, 'datetime': '2018-10-09 13:04:44.612343', 'mgs': 0, 'volt': 0.9326, 'depth': 2.072, 'time': 114, 'pitch': 4.14, 'roll': -4.39, 'pres': 191}
{'lipoC2': 7.42, 'lipoC3S1': 4.0, 'temp': 30.5, 'lipoC3S3': 12.12, 'lipoC3S2': 8.01, 'rot1': 0, 'rot0': 0, 'rot3': 0, 'rot2': 0, 'state': 'normal', 'yaw': -46.7, 'datetime': '2018-10-09 13:04:44.715441', 'mgs': 0, 'volt': 0.9277, 'depth': 1.996, 'time': 114, 'pitch': 4.26, 'roll': -4.64, 'pres': 190}
{'lipoC2': 7.42, 'lipoC3S1': 4.0, 'temp': 30.5, 'lipoC3S3': 12.12, 'lipoC3S2': 8.01, 'rot1': 0, 'rot0': 0, 'rot3': 0, 'rot2': 0, 'state': 'normal', 'yaw': -46.79, 'datetime': '2018-10-09 13:04:44.818625', 'mgs': 0, 'volt': 0.9326, 'depth': 2.072, 'time': 115, 'pitch': 4.11, 'roll': -4.72, 'pres': 191}
{'lipoC2': 7.42, 'lipoC3S1': 4.0, 'temp': 30.5, 'lipoC3S3': 12.12, 'lipoC3S2': 8.01, 'rot1': 0, 'rot0': 0, 'rot3': 0, 'rot2': 0, 'state': 'normal', 'yaw': -46.86, 'datetime': '2018-10-09 13:04:44.921719', 'mgs': 0, 'volt': 0.9277, 'depth': 1.996, 'time': 115, 'pitch': 3.81, 'roll': -4.71, 'pres': 190}
{'lipoC2': 7.42, 'lipoC3S1': 4.0, 'temp': 30.5, 'lipoC3S3': 12.12, 'lipoC3S2': 8.01, 'rot1': 0, 'rot0': 0, 'rot3': 0, 'rot2': 0, 'state': 'normal', 'yaw': -46.99, 'datetime': '2018-10-09 13:04:45.025004', 'mgs': 0, 'volt': 0.9277, 'depth': 1.996, 'time': 115, 'pitch': 3.47, 'roll': -4.59, 'pres': 190}
{'lipoC2': 7.42, 'lipoC3S1': 4.0, 'temp': 30.5, 'lipoC3S3': 12.12, 'lipoC3S2': 8.01, 'rot1': 0, 'rot0': 0, 'rot3': 0, 'rot2': 0, 'state': 'normal', 'yaw': -47.17, 'datetime': '2018-10-09 13:04:45.128003', 'mgs': 0, 'volt': 0.9277, 'depth': 1.996, 'time': 115, 'pitch': 3.09, 'roll': -4.31, 'pres': 190}
{'lipoC2': 7.42, 'lipoC3S1': 4.0, 'temp': 30.5, 'lipoC3S3': 12.12, 'lipoC3S2': 8.0, 'rot1': 0, 'rot0': 0, 'rot3': 0, 'rot2': 0, 'state': 'normal', 'yaw': -47.29, 'datetime': '2018-10-09 13:04:45.231097', 'mgs': 0, 'volt': 0.9229, 'depth': 1.92, 'time': 115, 'pitch': 2.46, 'roll': -3.91, 'pres': 189}
{'lipoC2': 7.42, 'lipoC3S1': 4.0, 'temp': 30.5, 'lipoC3S3': 12.12, 'lipoC3S2': 8.01, 'rot1': 0, 'rot0': 0, 'rot3': 0, 'rot2': 0, 'state': 'normal', 'yaw': -47.34, 'datetime': '2018-10-09 13:04:45.334975', 'mgs': 0, 'volt': 0.9229, 'depth': 1.92, 'time': 115, 'pitch': 1.36, 'roll': -3.43, 'pres': 189}
{'lipoC2': 7.42, 'lipoC3S1': 4.0, 'temp': 30.56, 'lipoC3S3': 12.12, 'lipoC3S2': 8.01, 'rot1': 0, 'rot0': 0, 'rot3': 0, 'rot2': 0, 'state': 'normal', 'yaw': -47.27, 'datetime': '2018-10-09 13:04:45.438091', 'mgs': 0, 'volt': 0.9229, 'depth': 1.92, 'time': 115, 'pitch': -0.19, 'roll': -2.89, 'pres': 189}
{'lipoC2': 7.42, 'lipoC3S1': 4.0, 'temp': 30.56, 'lipoC3S3': 12.12, 'lipoC3S2': 8.01, 'rot1': 0, 'rot0': 0, 'rot3': 0, 'rot2': 0, 'state': 'normal', 'yaw': -47.21, 'datetime': '2018-10-09 13:04:45.541173', 'mgs': 0, 'volt': 0.9229, 'depth': 1.92, 'time': 115, 'pitch': -1.43, 'roll': -2.4, 'pres': 189}
{'lipoC2': 7.42, 'lipoC3S1': 4.0, 'temp': 30.56, 'lipoC3S3': 12.12, 'lipoC3S2': 8.01, 'rot1': 0, 'rot0': 0, 'rot3': 0, 'rot2': 0, 'state': 'normal', 'yaw': -47.17, 'datetime': '2018-10-09 13:04:45.645602', 'mgs': 0, 'volt': 0.9229, 'depth': 1.92, 'time': 115, 'pitch': -2.01, 'roll': -2.03, 'pres': 189}
{'lipoC2': 7.42, 'lipoC3S1': 4.0, 'temp': 30.56, 'lipoC3S3': 12.13, 'lipoC3S2': 8.01, 'rot1': 0, 'rot0': 0, 'rot3': 0, 'rot2': 0, 'state': 'normal', 'yaw': -47.22, 'datetime': '2018-10-09 13:04:45.748654', 'mgs': 0, 'volt': 0.918, 'depth': 1.843, 'time': 115, 'pitch': -1.97, 'roll': -1.78, 'pres': 188}
{'lipoC2': 7.42, 'lipoC3S1': 4.0, 'temp': 30.56, 'lipoC3S3': 12.12, 'lipoC3S2': 8.01, 'rot1': 0, 'rot0': 0, 'rot3': 0, 'rot2': 0, 'state': 'normal', 'yaw': -47.36, 'datetime': '2018-10-09 13:04:45.851779', 'mgs': 0, 'volt': 0.918, 'depth': 1.843, 'time': 116, 'pitch': -1.34, 'roll': -1.71, 'pres': 188}
{'lipoC2': 7.42, 'lipoC3S1': 4.0, 'temp': 30.5, 'lipoC3S3': 12.12, 'lipoC3S2': 8.0, 'rot1': 0, 'rot0': 0, 'rot3': 0, 'rot2': 0, 'state': 'normal', 'yaw': -47.57, 'datetime': '2018-10-09 13:04:45.956313', 'mgs': 0, 'volt': 0.918, 'depth': 1.843, 'time': 116, 'pitch': -0.5, 'roll': -1.69, 'pres': 188}
{'lipoC2': 7.42, 'lipoC3S1': 4.0, 'temp': 30.5, 'lipoC3S3': 12.12, 'lipoC3S2': 8.01, 'rot1': 0, 'rot0': 0, 'rot3': 0, 'rot2': 0, 'state': 'normal', 'yaw': -47.76, 'datetime': '2018-10-09 13:04:46.059275', 'mgs': 0, 'volt': 0.918, 'depth': 1.843, 'time': 116, 'pitch': 0.36, 'roll': -1.64, 'pres': 188}
{'lipoC2': 7.42, 'lipoC3S1': 4.0, 'temp': 30.5, 'lipoC3S3': 12.12, 'lipoC3S2': 8.01, 'rot1': 0, 'rot0': 0, 'rot3': 0, 'rot2': 0, 'state': 'normal', 'yaw': -47.83, 'datetime': '2018-10-09 13:04:46.162282', 'mgs': 0, 'volt': 0.918, 'depth': 1.843, 'time': 116, 'pitch': 0.99, 'roll': -1.61, 'pres': 188}
{'lipoC2': 7.42, 'lipoC3S1': 4.0, 'temp': 30.5, 'lipoC3S3': 12.12, 'lipoC3S2': 8.01, 'rot1': 0, 'rot0': 0, 'rot3': 0, 'rot2': 0, 'state': 'normal', 'yaw': -47.79, 'datetime': '2018-10-09 13:04:46.265617', 'mgs': 0, 'volt': 0.918, 'depth': 1.843, 'time': 116, 'pitch': 1.37, 'roll': -1.6, 'pres': 188}
{'lipoC2': 7.42, 'lipoC3S1': 4.0, 'temp': 30.5, 'lipoC3S3': 12.13, 'lipoC3S2': 8.01, 'rot1': 0, 'rot0': 0, 'rot3': 0, 'rot2': 0, 'state': 'normal', 'yaw': -47.61, 'datetime': '2018-10-09 13:04:46.368994', 'mgs': 0, 'volt': 0.918, 'depth': 1.843, 'time': 116, 'pitch': 1.46, 'roll': -1.61, 'pres': 188}
{'lipoC2': 7.42, 'lipoC3S1': 4.0, 'temp': 30.5, 'lipoC3S3': 12.12, 'lipoC3S2': 8.01, 'rot1': 0, 'rot0': 0, 'rot3': 0, 'rot2': 0, 'state': 'normal', 'yaw': -47.44, 'datetime': '2018-10-09 13:04:46.472660', 'mgs': 0, 'volt': 0.918, 'depth': 1.843, 'time': 116, 'pitch': 1.41, 'roll': -1.66, 'pres': 188}
{'lipoC2': 7.42, 'lipoC3S1': 4.0, 'temp': 30.5, 'lipoC3S3': 12.12, 'lipoC3S2': 8.0, 'rot1': 0, 'rot0': 0, 'rot3': 0, 'rot2': 0, 'state': 'normal', 'yaw': -47.23, 'datetime': '2018-10-09 13:04:46.574937', 'mgs': 0, 'volt': 0.918, 'depth': 1.843, 'time': 116, 'pitch': 1.36, 'roll': -1.88, 'pres': 188}
{'lipoC2': 7.42, 'lipoC3S1': 4.0, 'temp': 30.5, 'lipoC3S3': 12.12, 'lipoC3S2': 8.01, 'rot1': 0, 'rot0': 0, 'rot3': 0, 'rot2': 0, 'state': 'normal', 'yaw': -46.99, 'datetime': '2018-10-09 13:04:46.678309', 'mgs': 0, 'volt': 0.918, 'depth': 1.843, 'time': 116, 'pitch': 1.33, 'roll': -2.23, 'pres': 188}
{'lipoC2': 7.42, 'lipoC3S1': 4.0, 'temp': 30.5, 'lipoC3S3': 12.12, 'lipoC3S2': 8.0, 'rot1': 0, 'rot0': 0, 'rot3': 0, 'rot2': 0, 'state': 'normal', 'yaw': -46.72, 'datetime': '2018-10-09 13:04:46.781270', 'mgs': 0, 'volt': 0.918, 'depth': 1.843, 'time': 117, 'pitch': 0.99, 'roll': -2.64, 'pres': 188}
{'lipoC2': 7.42, 'lipoC3S1': 4.0, 'temp': 30.5, 'lipoC3S3': 12.12, 'lipoC3S2': 8.01, 'rot1': 0, 'rot0': 0, 'rot3': 0, 'rot2': 0, 'state': 'normal', 'yaw': -46.57, 'datetime': '2018-10-09 13:04:46.884267', 'mgs': 0, 'volt': 0.9131, 'depth': 1.767, 'time': 117, 'pitch': 0.39, 'roll': -2.79, 'pres': 187}
{'lipoC2': 7.42, 'lipoC3S1': 4.0, 'temp': 30.5, 'lipoC3S3': 12.12, 'lipoC3S2': 8.01, 'rot1': 0, 'rot0': 0, 'rot3': 0, 'rot2': 0, 'state': 'normal', 'yaw': -46.46, 'datetime': '2018-10-09 13:04:46.988682', 'mgs': 0, 'volt': 0.918, 'depth': 1.843, 'time': 117, 'pitch': -0.18, 'roll': -2.72, 'pres': 188}
{'lipoC2': 7.42, 'lipoC3S1': 4.0, 'temp': 30.5, 'lipoC3S3': 12.12, 'lipoC3S2': 8.01, 'rot1': 0, 'rot0': 0, 'rot3': 0, 'rot2': 0, 'state': 'normal', 'yaw': -46.32, 'datetime': '2018-10-09 13:04:47.091709', 'mgs': 0, 'volt': 0.9131, 'depth': 1.767, 'time': 117, 'pitch': -0.63, 'roll': -2.39, 'pres': 187}
{'lipoC2': 7.42, 'lipoC3S1': 4.0, 'temp': 30.5, 'lipoC3S3': 12.12, 'lipoC3S2': 8.0, 'rot1': 0, 'rot0': 0, 'rot3': 0, 'rot2': 0, 'state': 'normal', 'yaw': -46.07, 'datetime': '2018-10-09 13:04:47.195119', 'mgs': 0, 'volt': 0.9131, 'depth': 1.767, 'time': 117, 'pitch': -1.02, 'roll': -2.11, 'pres': 187}
{'lipoC2': 7.42, 'lipoC3S1': 4.0, 'temp': 30.5, 'lipoC3S3': 12.12, 'lipoC3S2': 8.01, 'rot1': 0, 'rot0': 0, 'rot3': 0, 'rot2': 0, 'state': 'normal', 'yaw': -45.74, 'datetime': '2018-10-09 13:04:47.299433', 'mgs': 0, 'volt': 0.9131, 'depth': 1.767, 'time': 117, 'pitch': -1.4, 'roll': -1.97, 'pres': 187}
{'lipoC2': 7.42, 'lipoC3S1': 4.0, 'temp': 30.5, 'lipoC3S3': 12.12, 'lipoC3S2': 8.0, 'rot1': 0, 'rot0': 0, 'rot3': 0, 'rot2': 0, 'state': 'normal', 'yaw': -45.34, 'datetime': '2018-10-09 13:04:47.402697', 'mgs': 0, 'volt': 0.9082, 'depth': 1.691, 'time': 117, 'pitch': -1.52, 'roll': -2.03, 'pres': 186}
{'lipoC2': 7.42, 'lipoC3S1': 4.0, 'temp': 30.5, 'lipoC3S3': 12.12, 'lipoC3S2': 8.01, 'rot1': 0, 'rot0': 0, 'rot3': 0, 'rot2': 0, 'state': 'normal', 'yaw': -44.98, 'datetime': '2018-10-09 13:04:47.505655', 'mgs': 0, 'volt': 0.9131, 'depth': 1.767, 'time': 117, 'pitch': -1.34, 'roll': -2.2, 'pres': 187}
{'lipoC2': 7.42, 'lipoC3S1': 4.0, 'temp': 30.56, 'lipoC3S3': 12.12, 'lipoC3S2': 8.0, 'rot1': 0, 'rot0': 0, 'rot3': 0, 'rot2': 0, 'state': 'normal', 'yaw': -44.66, 'datetime': '2018-10-09 13:04:47.610466', 'mgs': 0, 'volt': 0.9131, 'depth': 1.767, 'time': 117, 'pitch': -1.02, 'roll': -2.28, 'pres': 187}
{'lipoC2': 7.42, 'lipoC3S1': 4.0, 'temp': 30.56, 'lipoC3S3': 12.12, 'lipoC3S2': 8.01, 'rot1': 0, 'rot0': 0, 'rot3': 0, 'rot2': 0, 'state': 'normal', 'yaw': -44.37, 'datetime': '2018-10-09 13:04:47.713404', 'mgs': 0, 'volt': 0.9131, 'depth': 1.767, 'time': 117, 'pitch': -0.61, 'roll': -2.23, 'pres': 187}
{'lipoC2': 7.42, 'lipoC3S1': 4.0, 'temp': 30.5, 'lipoC3S3': 12.12, 'lipoC3S2': 8.01, 'rot1': 0, 'rot0': 0, 'rot3': 0, 'rot2': 0, 'state': 'normal', 'yaw': -44.12, 'datetime': '2018-10-09 13:04:47.816445', 'mgs': 0, 'volt': 0.9131, 'depth': 1.767, 'time': 118, 'pitch': -0.5, 'roll': -2.01, 'pres': 187}
{'lipoC2': 7.42, 'lipoC3S1': 4.0, 'temp': 30.5, 'lipoC3S3': 12.12, 'lipoC3S2': 8.01, 'rot1': 0, 'rot0': 0, 'rot3': 0, 'rot2': 0, 'state': 'normal', 'yaw': -43.88, 'datetime': '2018-10-09 13:04:47.919769', 'mgs': 0, 'volt': 0.918, 'depth': 1.843, 'time': 118, 'pitch': -0.77, 'roll': -1.67, 'pres': 188}
{'lipoC2': 7.42, 'lipoC3S1': 4.0, 'temp': 30.5, 'lipoC3S3': 12.12, 'lipoC3S2': 8.0, 'rot1': 0, 'rot0': 0, 'rot3': 0, 'rot2': 0, 'state': 'normal', 'yaw': -43.6, 'datetime': '2018-10-09 13:04:48.022535', 'mgs': 0, 'volt': 0.918, 'depth': 1.843, 'time': 118, 'pitch': -1.19, 'roll': -1.28, 'pres': 188}
{'lipoC2': 7.42, 'lipoC3S1': 4.0, 'temp': 30.5, 'lipoC3S3': 12.12, 'lipoC3S2': 8.01, 'rot1': 0, 'rot0': 0, 'rot3': 0, 'rot2': 0, 'state': 'normal', 'yaw': -43.35, 'datetime': '2018-10-09 13:04:48.125843', 'mgs': 0, 'volt': 0.918, 'depth': 1.843, 'time': 118, 'pitch': -1.22, 'roll': -1.0, 'pres': 188}
{'lipoC2': 7.42, 'lipoC3S1': 4.0, 'temp': 30.5, 'lipoC3S3': 12.12, 'lipoC3S2': 8.0, 'rot1': 0, 'rot0': 0, 'rot3': 0, 'rot2': 0, 'state': 'normal', 'yaw': -43.15, 'datetime': '2018-10-09 13:04:48.228723', 'mgs': 0, 'volt': 0.918, 'depth': 1.843, 'time': 118, 'pitch': -0.81, 'roll': -0.85, 'pres': 188}
{'lipoC2': 7.42, 'lipoC3S1': 4.0, 'temp': 30.5, 'lipoC3S3': 12.12, 'lipoC3S2': 8.01, 'rot1': 0, 'rot0': 0, 'rot3': 0, 'rot2': 0, 'state': 'normal', 'yaw': -43.04, 'datetime': '2018-10-09 13:04:48.332083', 'mgs': 0, 'volt': 0.918, 'depth': 1.843, 'time': 118, 'pitch': -0.15, 'roll': -0.82, 'pres': 188}
{'lipoC2': 7.42, 'lipoC3S1': 4.0, 'temp': 30.5, 'lipoC3S3': 12.12, 'lipoC3S2': 8.01, 'rot1': 0, 'rot0': 0, 'rot3': 0, 'rot2': 0, 'state': 'normal', 'yaw': -43.02, 'datetime': '2018-10-09 13:04:48.435187', 'mgs': 0, 'volt': 0.918, 'depth': 1.843, 'time': 118, 'pitch': 0.69, 'roll': -0.87, 'pres': 188}
{'lipoC2': 7.42, 'lipoC3S1': 4.0, 'temp': 30.5, 'lipoC3S3': 12.12, 'lipoC3S2': 8.01, 'rot1': 0, 'rot0': 0, 'rot3': 0, 'rot2': 0, 'state': 'normal', 'yaw': -43.16, 'datetime': '2018-10-09 13:04:48.538249', 'mgs': 0, 'volt': 0.918, 'depth': 1.843, 'time': 118, 'pitch': 1.18, 'roll': -0.82, 'pres': 188}
{'lipoC2': 7.42, 'lipoC3S1': 4.0, 'temp': 30.5, 'lipoC3S3': 12.12, 'lipoC3S2': 8.0, 'rot1': 0, 'rot0': 0, 'rot3': 0, 'rot2': 0, 'state': 'normal', 'yaw': -43.44, 'datetime': '2018-10-09 13:04:48.641449', 'mgs': 0, 'volt': 0.918, 'depth': 1.843, 'time': 118, 'pitch': 1.26, 'roll': -0.64, 'pres': 188}
{'lipoC2': 7.42, 'lipoC3S1': 4.0, 'temp': 30.5, 'lipoC3S3': 12.12, 'lipoC3S2': 8.01, 'rot1': 0, 'rot0': 0, 'rot3': 0, 'rot2': 0, 'state': 'normal', 'yaw': -43.87, 'datetime': '2018-10-09 13:04:48.744684', 'mgs': 0, 'volt': 0.918, 'depth': 1.843, 'time': 118, 'pitch': 0.74, 'roll': -0.38, 'pres': 188}
{'lipoC2': 7.42, 'lipoC3S1': 4.0, 'temp': 30.5, 'lipoC3S3': 12.12, 'lipoC3S2': 8.0, 'rot1': 0, 'rot0': 0, 'rot3': 0, 'rot2': 0, 'state': 'normal', 'yaw': -44.38, 'datetime': '2018-10-09 13:04:48.847785', 'mgs': 0, 'volt': 0.918, 'depth': 1.843, 'time': 119, 'pitch': -0.3, 'roll': -0.12, 'pres': 188}
{'lipoC2': 7.42, 'lipoC3S1': 4.0, 'temp': 30.5, 'lipoC3S3': 12.12, 'lipoC3S2': 8.0, 'rot1': 0, 'rot0': 0, 'rot3': 0, 'rot2': 0, 'state': 'normal', 'yaw': -44.98, 'datetime': '2018-10-09 13:04:48.952204', 'mgs': 0, 'volt': 0.918, 'depth': 1.843, 'time': 119, 'pitch': -1.44, 'roll': 0.08, 'pres': 188}
{'lipoC2': 7.42, 'lipoC3S1': 4.0, 'temp': 30.5, 'lipoC3S3': 12.12, 'lipoC3S2': 8.01, 'rot1': 0, 'rot0': 0, 'rot3': 0, 'rot2': 0, 'state': 'normal', 'yaw': -45.77, 'datetime': '2018-10-09 13:04:49.055224', 'mgs': 0, 'volt': 0.918, 'depth': 1.843, 'time': 119, 'pitch': -2.3, 'roll': 0.16, 'pres': 188}
{'lipoC2': 7.42, 'lipoC3S1': 4.0, 'temp': 30.5, 'lipoC3S3': 12.12, 'lipoC3S2': 8.01, 'rot1': 0, 'rot0': 0, 'rot3': 0, 'rot2': 0, 'state': 'normal', 'yaw': -46.54, 'datetime': '2018-10-09 13:04:49.158577', 'mgs': 0, 'volt': 0.918, 'depth': 1.843, 'time': 119, 'pitch': -2.64, 'roll': 0.09, 'pres': 188}
{'lipoC2': 7.42, 'lipoC3S1': 4.0, 'temp': 30.5, 'lipoC3S3': 12.12, 'lipoC3S2': 8.01, 'rot1': 0, 'rot0': 0, 'rot3': 0, 'rot2': 0, 'state': 'normal', 'yaw': -47.14, 'datetime': '2018-10-09 13:04:49.262934', 'mgs': 0, 'volt': 0.9131, 'depth': 1.767, 'time': 119, 'pitch': -2.65, 'roll': -0.2, 'pres': 187}
{'lipoC2': 7.42, 'lipoC3S1': 4.0, 'temp': 30.5, 'lipoC3S3': 12.12, 'lipoC3S2': 8.0, 'rot1': 0, 'rot0': 0, 'rot3': 0, 'rot2': 0, 'state': 'normal', 'yaw': -47.17, 'datetime': '2018-10-09 13:04:49.366122', 'mgs': 0, 'volt': 0.918, 'depth': 1.843, 'time': 119, 'pitch': -2.42, 'roll': -0.83, 'pres': 188}
{'lipoC2': 7.42, 'lipoC3S1': 4.0, 'temp': 30.5, 'lipoC3S3': 12.12, 'lipoC3S2': 8.01, 'rot1': 0, 'rot0': 0, 'rot3': 0, 'rot2': 0, 'state': 'normal', 'yaw': -46.28, 'datetime': '2018-10-09 13:04:49.468885', 'mgs': 0, 'volt': 0.9131, 'depth': 1.767, 'time': 119, 'pitch': -2.05, 'roll': -1.88, 'pres': 187}
{'lipoC2': 7.42, 'lipoC3S1': 4.0, 'temp': 30.5, 'lipoC3S3': 12.12, 'lipoC3S2': 8.01, 'rot1': 0, 'rot0': 0, 'rot3': 0, 'rot2': 0, 'state': 'normal', 'yaw': -45.07, 'datetime': '2018-10-09 13:04:49.572150', 'mgs': 0, 'volt': 0.9131, 'depth': 1.767, 'time': 119, 'pitch': -1.16, 'roll': -3.37, 'pres': 187}
{'lipoC2': 7.42, 'lipoC3S1': 4.0, 'temp': 30.5, 'lipoC3S3': 12.12, 'lipoC3S2': 8.01, 'rot1': 0, 'rot0': 0, 'rot3': 0, 'rot2': 0, 'state': 'normal', 'yaw': -43.4, 'datetime': '2018-10-09 13:04:49.675178', 'mgs': 0, 'volt': 0.9131, 'depth': 1.767, 'time': 119, 'pitch': -0.6, 'roll': -4.92, 'pres': 187}
{'lipoC2': 7.42, 'lipoC3S1': 4.0, 'temp': 30.44, 'lipoC3S3': 12.12, 'lipoC3S2': 8.01, 'rot1': 0, 'rot0': 0, 'rot3': 0, 'rot2': 0, 'state': 'normal', 'yaw': -41.07, 'datetime': '2018-10-09 13:04:49.778268', 'mgs': 0, 'volt': 0.9131, 'depth': 1.767, 'time': 120, 'pitch': -0.62, 'roll': -6.48, 'pres': 187}
{'lipoC2': 7.42, 'lipoC3S1': 4.0, 'temp': 30.44, 'lipoC3S3': 12.12, 'lipoC3S2': 8.01, 'rot1': 0, 'rot0': 0, 'rot3': 0, 'rot2': 0, 'state': 'normal', 'yaw': -38.31, 'datetime': '2018-10-09 13:04:49.882194', 'mgs': 0, 'volt': 0.9131, 'depth': 1.767, 'time': 120, 'pitch': -0.7, 'roll': -7.73, 'pres': 187}
{'lipoC2': 7.42, 'lipoC3S1': 4.0, 'temp': 30.44, 'lipoC3S3': 12.13, 'lipoC3S2': 8.01, 'rot1': 0, 'rot0': 0, 'rot3': 0, 'rot2': 0, 'state': 'normal', 'yaw': -35.05, 'datetime': '2018-10-09 13:04:49.984463', 'mgs': 0, 'volt': 0.9082, 'depth': 1.691, 'time': 120, 'pitch': -0.79, 'roll': -8.7, 'pres': 186}
{'lipoC2': 7.42, 'lipoC3S1': 4.0, 'temp': 30.5, 'lipoC3S3': 12.12, 'lipoC3S2': 8.0, 'rot1': 0, 'rot0': 0, 'rot3': 0, 'rot2': 0, 'state': 'normal', 'yaw': -31.19, 'datetime': '2018-10-09 13:04:50.087614', 'mgs': 0, 'volt': 0.9033, 'depth': 1.614, 'time': 120, 'pitch': -1.26, 'roll': -9.27, 'pres': 185}
{'lipoC2': 7.42, 'lipoC3S1': 4.0, 'temp': 30.5, 'lipoC3S3': 12.12, 'lipoC3S2': 8.01, 'rot1': 0, 'rot0': 0, 'rot3': 0, 'rot2': 0, 'state': 'normal', 'yaw': -27.76, 'datetime': '2018-10-09 13:04:50.190848', 'mgs': 0, 'volt': 0.9082, 'depth': 1.691, 'time': 120, 'pitch': -1.64, 'roll': -9.22, 'pres': 186}
{'lipoC2': 7.42, 'lipoC3S1': 4.0, 'temp': 30.5, 'lipoC3S3': 12.13, 'lipoC3S2': 8.01, 'rot1': 0, 'rot0': 0, 'rot3': 0, 'rot2': 0, 'state': 'normal', 'yaw': -24.57, 'datetime': '2018-10-09 13:04:50.293727', 'mgs': 0, 'volt': 0.9033, 'depth': 1.614, 'time': 120, 'pitch': -2.23, 'roll': -8.54, 'pres': 185}
{'lipoC2': 7.42, 'lipoC3S1': 4.0, 'temp': 30.5, 'lipoC3S3': 12.12, 'lipoC3S2': 8.01, 'rot1': 0, 'rot0': 0, 'rot3': 0, 'rot2': 0, 'state': 'normal', 'yaw': -21.63, 'datetime': '2018-10-09 13:04:50.397183', 'mgs': 0, 'volt': 0.9082, 'depth': 1.691, 'time': 120, 'pitch': -3.35, 'roll': -7.03, 'pres': 186}
{'lipoC2': 7.42, 'lipoC3S1': 4.0, 'temp': 30.5, 'lipoC3S3': 12.12, 'lipoC3S2': 8.01, 'rot1': 0, 'rot0': 0, 'rot3': 0, 'rot2': 0, 'state': 'normal', 'yaw': -19.75, 'datetime': '2018-10-09 13:04:50.500183', 'mgs': 0, 'volt': 0.9082, 'depth': 1.691, 'time': 120, 'pitch': -4.29, 'roll': -5.02, 'pres': 186}
{'lipoC2': 7.42, 'lipoC3S1': 4.0, 'temp': 30.5, 'lipoC3S3': 12.13, 'lipoC3S2': 8.01, 'rot1': 0, 'rot0': 0, 'rot3': 0, 'rot2': 0, 'state': 'normal', 'yaw': -18.84, 'datetime': '2018-10-09 13:04:50.604194', 'mgs': 0, 'volt': 0.9082, 'depth': 1.691, 'time': 120, 'pitch': -4.66, 'roll': -2.49, 'pres': 186}
{'lipoC2': 7.42, 'lipoC3S1': 4.0, 'temp': 30.5, 'lipoC3S3': 12.12, 'lipoC3S2': 8.01, 'rot1': 0, 'rot0': 0, 'rot3': 0, 'rot2': 0, 'state': 'normal', 'yaw': -18.7, 'datetime': '2018-10-09 13:04:50.707705', 'mgs': 0, 'volt': 0.9131, 'depth': 1.767, 'time': 120, 'pitch': -4.43, 'roll': 0.36, 'pres': 187}
{'lipoC2': 7.42, 'lipoC3S1': 4.0, 'temp': 30.5, 'lipoC3S3': 12.12, 'lipoC3S2': 8.01, 'rot1': 0, 'rot0': 0, 'rot3': 0, 'rot2': 0, 'state': 'normal', 'yaw': -18.7, 'datetime': '2018-10-09 13:04:50.810894', 'mgs': 0, 'volt': 0.9082, 'depth': 1.691, 'time': 121, 'pitch': -4.25, 'roll': 3.21, 'pres': 186}
{'lipoC2': 7.42, 'lipoC3S1': 4.0, 'temp': 30.5, 'lipoC3S3': 12.12, 'lipoC3S2': 8.01, 'rot1': 0, 'rot0': 0, 'rot3': 0, 'rot2': 0, 'state': 'normal', 'yaw': -18.74, 'datetime': '2018-10-09 13:04:50.914617', 'mgs': 0, 'volt': 0.9131, 'depth': 1.767, 'time': 121, 'pitch': -4.43, 'roll': 5.28, 'pres': 187}
