{'lipoC2': 7.66, 'lipoC3S1': 4.15, 'temp': 31.88, 'lipoC3S3': 12.55, 'lipoC3S2': 8.3, 'rot1': 15, 'rot0': 22, 'rot3': 4, 'rot2': 4, 'state': 'normal', 'yaw': 159.18, 'datetime': '2018-10-09 11:34:22.653242', 'mgs': 0, 'volt': 0.0, 'depth': -12.5, 'time': 1052, 'pitch': 4.96, 'roll': 13.72, 'pres': 0}
{'lipoC2': 7.66, 'lipoC3S1': 4.15, 'temp': 31.81, 'lipoC3S3': 12.55, 'lipoC3S2': 8.3, 'rot1': 15, 'rot0': 22, 'rot3': 4, 'rot2': 4, 'state': 'normal', 'yaw': 158.54, 'datetime': '2018-10-09 11:34:22.676882', 'mgs': 0, 'volt': 0.0, 'depth': -12.5, 'time': 1052, 'pitch': 5.0, 'roll': 13.84, 'pres': 0}
{'lipoC2': 7.66, 'lipoC3S1': 4.15, 'temp': 31.81, 'lipoC3S3': 12.55, 'lipoC3S2': 8.3, 'rot1': 15, 'rot0': 22, 'rot3': 4, 'rot2': 4, 'state': 'normal', 'yaw': 157.86, 'datetime': '2018-10-09 11:34:22.700408', 'mgs': 0, 'volt': 0.0, 'depth': -12.5, 'time': 1052, 'pitch': 5.14, 'roll': 13.82, 'pres': 0}
{'lipoC2': 7.66, 'lipoC3S1': 4.15, 'temp': 31.88, 'lipoC3S3': 12.55, 'lipoC3S2': 8.3, 'rot1': 15, 'rot0': 22, 'rot3': 4, 'rot2': 4, 'state': 'normal', 'yaw': 157.12, 'datetime': '2018-10-09 11:34:22.723874', 'mgs': 0, 'volt': 0.0, 'depth': -12.5, 'time': 1052, 'pitch': 5.51, 'roll': 13.61, 'pres': 0}
{'lipoC2': 7.66, 'lipoC3S1': 4.15, 'temp': 31.88, 'lipoC3S3': 12.55, 'lipoC3S2': 8.3, 'rot1': 15, 'rot0': 22, 'rot3': 4, 'rot2': 4, 'state': 'normal', 'yaw': 156.53, 'datetime': '2018-10-09 11:34:22.739830', 'mgs': 0, 'volt': 0.0, 'depth': -12.5, 'time': 1053, 'pitch': 5.93, 'roll': 13.12, 'pres': 0}
{'lipoC2': 7.66, 'lipoC3S1': 4.15, 'temp': 31.88, 'lipoC3S3': 12.55, 'lipoC3S2': 8.3, 'rot1': 15, 'rot0': 22, 'rot3': 4, 'rot2': 4, 'state': 'normal', 'yaw': 155.94, 'datetime': '2018-10-09 11:34:22.749903', 'mgs': 0, 'volt': 0.0, 'depth': -12.5, 'time': 1053, 'pitch': 6.2, 'roll': 12.45, 'pres': 0}
{'lipoC2': 7.66, 'lipoC3S1': 4.15, 'temp': 31.88, 'lipoC3S3': 12.55, 'lipoC3S2': 8.3, 'rot1': 15, 'rot0': 22, 'rot3': 4, 'rot2': 4, 'state': 'normal', 'yaw': 155.18, 'datetime': '2018-10-09 11:34:22.759993', 'mgs': 0, 'volt': 0.0, 'depth': -12.5, 'time': 1053, 'pitch': 6.23, 'roll': 11.74, 'pres': 0}
{'lipoC2': 7.66, 'lipoC3S1': 4.15, 'temp': 31.88, 'lipoC3S3': 12.55, 'lipoC3S2': 8.3, 'rot1': 15, 'rot0': 22, 'rot3': 4, 'rot2': 4, 'state': 'normal', 'yaw': 154.42, 'datetime': '2018-10-09 11:34:22.770097', 'mgs': 0, 'volt': 0.0, 'depth': -12.5, 'time': 1053, 'pitch': 6.05, 'roll': 11.13, 'pres': 0}
{'lipoC2': 7.66, 'lipoC3S1': 4.15, 'temp': 31.81, 'lipoC3S3': 12.55, 'lipoC3S2': 8.3, 'rot1': 15, 'rot0': 22, 'rot3': 4, 'rot2': 4, 'state': 'normal', 'yaw': 153.7, 'datetime': '2018-10-09 11:34:22.780184', 'mgs': 0, 'volt': 0.0, 'depth': -12.5, 'time': 1053, 'pitch': 5.94, 'roll': 10.4, 'pres': 0}
{'lipoC2': 7.66, 'lipoC3S1': 4.15, 'temp': 31.81, 'lipoC3S3': 12.55, 'lipoC3S2': 8.3, 'rot1': 15, 'rot0': 22, 'rot3': 4, 'rot2': 4, 'state': 'normal', 'yaw': 153.1, 'datetime': '2018-10-09 11:34:22.790240', 'mgs': 0, 'volt': 0.0, 'depth': -12.5, 'time': 1053, 'pitch': 6.35, 'roll': 9.52, 'pres': 0}
{'lipoC2': 7.66, 'lipoC3S1': 4.15, 'temp': 31.88, 'lipoC3S3': 12.55, 'lipoC3S2': 8.3, 'rot1': 15, 'rot0': 22, 'rot3': 4, 'rot2': 4, 'state': 'normal', 'yaw': 152.84, 'datetime': '2018-10-09 11:34:22.800297', 'mgs': 0, 'volt': 0.0, 'depth': -12.5, 'time': 1053, 'pitch': 7.66, 'roll': 9.0, 'pres': 0}
{'lipoC2': 7.66, 'lipoC3S1': 4.15, 'temp': 31.88, 'lipoC3S3': 12.55, 'lipoC3S2': 8.3, 'rot1': 15, 'rot0': 22, 'rot3': 4, 'rot2': 4, 'state': 'normal', 'yaw': 152.49, 'datetime': '2018-10-09 11:34:22.810347', 'mgs': 0, 'volt': 0.0, 'depth': -12.5, 'time': 1053, 'pitch': 9.77, 'roll': 9.07, 'pres': 0}
{'lipoC2': 7.66, 'lipoC3S1': 4.15, 'temp': 31.88, 'lipoC3S3': 12.55, 'lipoC3S2': 8.3, 'rot1': 15, 'rot0': 22, 'rot3': 4, 'rot2': 4, 'state': 'normal', 'yaw': 152.0, 'datetime': '2018-10-09 11:34:22.820381', 'mgs': 0, 'volt': 0.0, 'depth': -12.5, 'time': 1053, 'pitch': 11.42, 'roll': 9.39, 'pres': 0}
{'lipoC2': 7.66, 'lipoC3S1': 4.15, 'temp': 31.81, 'lipoC3S3': 12.55, 'lipoC3S2': 8.3, 'rot1': 15, 'rot0': 22, 'rot3': 4, 'rot2': 4, 'state': 'normal', 'yaw': 151.41, 'datetime': '2018-10-09 11:34:22.830443', 'mgs': 0, 'volt': 0.0, 'depth': -12.5, 'time': 1053, 'pitch': 12.39, 'roll': 9.66, 'pres': 0}
{'lipoC2': 7.66, 'lipoC3S1': 4.15, 'temp': 31.81, 'lipoC3S3': 12.55, 'lipoC3S2': 8.3, 'rot1': 15, 'rot0': 22, 'rot3': 4, 'rot2': 4, 'state': 'normal', 'yaw': 150.66, 'datetime': '2018-10-09 11:34:22.840946', 'mgs': 0, 'volt': 0.0, 'depth': -12.5, 'time': 1054, 'pitch': 13.01, 'roll': 9.87, 'pres': 0}
{'lipoC2': 7.66, 'lipoC3S1': 4.15, 'temp': 31.88, 'lipoC3S3': 12.55, 'lipoC3S2': 8.3, 'rot1': 15, 'rot0': 22, 'rot3': 4, 'rot2': 4, 'state': 'normal', 'yaw': 149.73, 'datetime': '2018-10-09 11:34:22.851195', 'mgs': 0, 'volt': 0.0, 'depth': -12.5, 'time': 1054, 'pitch': 13.6, 'roll': 9.91, 'pres': 0}
{'lipoC2': 7.66, 'lipoC3S1': 4.15, 'temp': 31.88, 'lipoC3S3': 12.55, 'lipoC3S2': 8.3, 'rot1': 15, 'rot0': 22, 'rot3': 4, 'rot2': 4, 'state': 'normal', 'yaw': 148.64, 'datetime': '2018-10-09 11:34:22.861345', 'mgs': 0, 'volt': 0.0, 'depth': -12.5, 'time': 1054, 'pitch': 14.07, 'roll': 9.84, 'pres': 0}
{'lipoC2': 7.66, 'lipoC3S1': 4.15, 'temp': 31.88, 'lipoC3S3': 12.55, 'lipoC3S2': 8.3, 'rot1': 15, 'rot0': 22, 'rot3': 4, 'rot2': 4, 'state': 'normal', 'yaw': 147.28, 'datetime': '2018-10-09 11:34:22.871484', 'mgs': 0, 'volt': 0.0, 'depth': -12.5, 'time': 1054, 'pitch': 14.34, 'roll': 9.89, 'pres': 0}
{'lipoC2': 7.66, 'lipoC3S1': 4.15, 'temp': 31.88, 'lipoC3S3': 12.55, 'lipoC3S2': 8.3, 'rot1': 15, 'rot0': 22, 'rot3': 4, 'rot2': 4, 'state': 'normal', 'yaw': 145.67, 'datetime': '2018-10-09 11:34:22.881588', 'mgs': 0, 'volt': 0.0, 'depth': -12.5, 'time': 1054, 'pitch': 13.97, 'roll': 9.85, 'pres': 0}
{'lipoC2': 7.66, 'lipoC3S1': 4.15, 'temp': 31.88, 'lipoC3S3': 12.55, 'lipoC3S2': 8.3, 'rot1': 15, 'rot0': 22, 'rot3': 4, 'rot2': 4, 'state': 'normal', 'yaw': 144.09, 'datetime': '2018-10-09 11:34:22.891655', 'mgs': 0, 'volt': 0.0, 'depth': -12.5, 'time': 1054, 'pitch': 12.89, 'roll': 9.77, 'pres': 0}
{'lipoC2': 7.66, 'lipoC3S1': 4.15, 'temp': 31.81, 'lipoC3S3': 12.55, 'lipoC3S2': 8.3, 'rot1': 15, 'rot0': 22, 'rot3': 4, 'rot2': 4, 'state': 'normal', 'yaw': 142.4, 'datetime': '2018-10-09 11:34:22.901716', 'mgs': 0, 'volt': 0.0, 'depth': -12.5, 'time': 1054, 'pitch': 11.48, 'roll': 9.63, 'pres': 0}
{'lipoC2': 7.66, 'lipoC3S1': 4.15, 'temp': 31.81, 'lipoC3S3': 12.55, 'lipoC3S2': 8.3, 'rot1': 15, 'rot0': 22, 'rot3': 4, 'rot2': 4, 'state': 'normal', 'yaw': 140.62, 'datetime': '2018-10-09 11:34:22.911786', 'mgs': 0, 'volt': 0.0, 'depth': -12.5, 'time': 1054, 'pitch': 9.88, 'roll': 9.29, 'pres': 0}
{'lipoC2': 7.66, 'lipoC3S1': 4.15, 'temp': 31.81, 'lipoC3S3': 12.55, 'lipoC3S2': 8.3, 'rot1': 15, 'rot0': 22, 'rot3': 4, 'rot2': 4, 'state': 'normal', 'yaw': 139.19, 'datetime': '2018-10-09 11:34:22.921871', 'mgs': 0, 'volt': 0.0, 'depth': -12.5, 'time': 1054, 'pitch': 8.79, 'roll': 8.7, 'pres': 0}
{'lipoC2': 7.66, 'lipoC3S1': 4.15, 'temp': 31.81, 'lipoC3S3': 12.55, 'lipoC3S2': 8.3, 'rot1': 15, 'rot0': 22, 'rot3': 4, 'rot2': 4, 'state': 'normal', 'yaw': 137.84, 'datetime': '2018-10-09 11:34:22.931929', 'mgs': 0, 'volt': 0.0, 'depth': -12.5, 'time': 1054, 'pitch': 8.25, 'roll': 7.8, 'pres': 0}
{'lipoC2': 7.66, 'lipoC3S1': 4.15, 'temp': 31.81, 'lipoC3S3': 12.55, 'lipoC3S2': 8.3, 'rot1': 15, 'rot0': 22, 'rot3': 4, 'rot2': 4, 'state': 'normal', 'yaw': 136.76, 'datetime': '2018-10-09 11:34:22.941978', 'mgs': 0, 'volt': 0.0, 'depth': -12.5, 'time': 1055, 'pitch': 8.55, 'roll': 6.92, 'pres': 0}
{'lipoC2': 7.66, 'lipoC3S1': 4.15, 'temp': 31.81, 'lipoC3S3': 12.55, 'lipoC3S2': 8.3, 'rot1': 15, 'rot0': 22, 'rot3': 4, 'rot2': 4, 'state': 'normal', 'yaw': 135.72, 'datetime': '2018-10-09 11:34:22.952006', 'mgs': 0, 'volt': 0.0, 'depth': -12.5, 'time': 1055, 'pitch': 9.51, 'roll': 6.27, 'pres': 0}
{'lipoC2': 7.66, 'lipoC3S1': 4.15, 'temp': 31.81, 'lipoC3S3': 12.55, 'lipoC3S2': 8.3, 'rot1': 15, 'rot0': 22, 'rot3': 4, 'rot2': 4, 'state': 'normal', 'yaw': 134.56, 'datetime': '2018-10-09 11:34:22.962108', 'mgs': 0, 'volt': 0.0, 'depth': -12.5, 'time': 1055, 'pitch': 10.65, 'roll': 5.92, 'pres': 0}
{'lipoC2': 7.66, 'lipoC3S1': 4.15, 'temp': 31.81, 'lipoC3S3': 12.55, 'lipoC3S2': 8.3, 'rot1': 15, 'rot0': 22, 'rot3': 4, 'rot2': 4, 'state': 'normal', 'yaw': 133.43, 'datetime': '2018-10-09 11:34:22.972228', 'mgs': 0, 'volt': 0.0, 'depth': -12.5, 'time': 1055, 'pitch': 11.04, 'roll': 5.74, 'pres': 0}
{'lipoC2': 7.66, 'lipoC3S1': 4.15, 'temp': 31.81, 'lipoC3S3': 12.55, 'lipoC3S2': 8.3, 'rot1': 15, 'rot0': 22, 'rot3': 4, 'rot2': 4, 'state': 'normal', 'yaw': 132.27, 'datetime': '2018-10-09 11:34:22.982576', 'mgs': 0, 'volt': 0.0, 'depth': -12.5, 'time': 1055, 'pitch': 10.62, 'roll': 5.65, 'pres': 0}
{'lipoC2': 7.66, 'lipoC3S1': 4.15, 'temp': 31.88, 'lipoC3S3': 12.55, 'lipoC3S2': 8.3, 'rot1': 15, 'rot0': 22, 'rot3': 4, 'rot2': 4, 'state': 'normal', 'yaw': 131.0, 'datetime': '2018-10-09 11:34:22.992717', 'mgs': 0, 'volt': 0.0, 'depth': -12.5, 'time': 1055, 'pitch': 9.4, 'roll': 5.52, 'pres': 0}
{'lipoC2': 7.66, 'lipoC3S1': 4.15, 'temp': 31.88, 'lipoC3S3': 12.55, 'lipoC3S2': 8.3, 'rot1': 15, 'rot0': 22, 'rot3': 4, 'rot2': 4, 'state': 'normal', 'yaw': 129.89, 'datetime': '2018-10-09 11:34:23.002799', 'mgs': 0, 'volt': 0.0, 'depth': -12.5, 'time': 1055, 'pitch': 8.12, 'roll': 5.35, 'pres': 0}
{'lipoC2': 7.66, 'lipoC3S1': 4.15, 'temp': 31.81, 'lipoC3S3': 12.55, 'lipoC3S2': 8.3, 'rot1': 15, 'rot0': 22, 'rot3': 4, 'rot2': 4, 'state': 'normal', 'yaw': 128.84, 'datetime': '2018-10-09 11:34:23.012850', 'mgs': 0, 'volt': 0.0, 'depth': -12.5, 'time': 1055, 'pitch': 7.15, 'roll': 5.21, 'pres': 0}
{'lipoC2': 7.66, 'lipoC3S1': 4.15, 'temp': 31.81, 'lipoC3S3': 12.55, 'lipoC3S2': 8.3, 'rot1': 15, 'rot0': 22, 'rot3': 4, 'rot2': 4, 'state': 'normal', 'yaw': 127.87, 'datetime': '2018-10-09 11:34:23.022913', 'mgs': 0, 'volt': 0.0, 'depth': -12.5, 'time': 1055, 'pitch': 6.83, 'roll': 5.09, 'pres': 0}
{'lipoC2': 7.66, 'lipoC3S1': 4.15, 'temp': 31.81, 'lipoC3S3': 12.55, 'lipoC3S2': 8.3, 'rot1': 15, 'rot0': 22, 'rot3': 4, 'rot2': 4, 'state': 'normal', 'yaw': 126.91, 'datetime': '2018-10-09 11:34:23.032971', 'mgs': 0, 'volt': 0.0, 'depth': -12.5, 'time': 1056, 'pitch': 7.25, 'roll': 5.0, 'pres': 0}
{'lipoC2': 7.66, 'lipoC3S1': 4.15, 'temp': 31.88, 'lipoC3S3': 12.55, 'lipoC3S2': 8.3, 'rot1': 15, 'rot0': 22, 'rot3': 4, 'rot2': 4, 'state': 'normal', 'yaw': 126.08, 'datetime': '2018-10-09 11:34:23.043037', 'mgs': 0, 'volt': 0.0, 'depth': -12.5, 'time': 1056, 'pitch': 8.11, 'roll': 5.06, 'pres': 0}
{'lipoC2': 7.66, 'lipoC3S1': 4.15, 'temp': 31.88, 'lipoC3S3': 12.55, 'lipoC3S2': 8.3, 'rot1': 15, 'rot0': 22, 'rot3': 4, 'rot2': 4, 'state': 'normal', 'yaw': 125.2, 'datetime': '2018-10-09 11:34:23.053121', 'mgs': 0, 'volt': 0.0, 'depth': -12.5, 'time': 1056, 'pitch': 9.2, 'roll': 5.24, 'pres': 0}
{'lipoC2': 7.66, 'lipoC3S1': 4.15, 'temp': 31.88, 'lipoC3S3': 12.55, 'lipoC3S2': 8.3, 'rot1': 15, 'rot0': 22, 'rot3': 4, 'rot2': 4, 'state': 'normal', 'yaw': 124.41, 'datetime': '2018-10-09 11:34:23.063252', 'mgs': 0, 'volt': 0.0, 'depth': -12.5, 'time': 1056, 'pitch': 10.04, 'roll': 5.44, 'pres': 0}
{'lipoC2': 7.66, 'lipoC3S1': 4.15, 'temp': 31.88, 'lipoC3S3': 12.55, 'lipoC3S2': 8.3, 'rot1': 15, 'rot0': 22, 'rot3': 4, 'rot2': 4, 'state': 'normal', 'yaw': 123.61, 'datetime': '2018-10-09 11:34:23.073323', 'mgs': 0, 'volt': 0.0, 'depth': -12.5, 'time': 1056, 'pitch': 10.56, 'roll': 5.6, 'pres': 0}
{'lipoC2': 7.66, 'lipoC3S1': 4.15, 'temp': 31.88, 'lipoC3S3': 12.55, 'lipoC3S2': 8.3, 'rot1': 15, 'rot0': 22, 'rot3': 4, 'rot2': 4, 'state': 'normal', 'yaw': 122.72, 'datetime': '2018-10-09 11:34:23.083393', 'mgs': 0, 'volt': 0.0, 'depth': -12.5, 'time': 1056, 'pitch': 10.69, 'roll': 5.64, 'pres': 0}
{'lipoC2': 7.66, 'lipoC3S1': 4.15, 'temp': 31.81, 'lipoC3S3': 12.55, 'lipoC3S2': 8.3, 'rot1': 15, 'rot0': 22, 'rot3': 4, 'rot2': 4, 'state': 'normal', 'yaw': 121.89, 'datetime': '2018-10-09 11:34:23.093451', 'mgs': 0, 'volt': 0.0, 'depth': -12.5, 'time': 1056, 'pitch': 10.48, 'roll': 5.59, 'pres': 0}
{'lipoC2': 7.66, 'lipoC3S1': 4.15, 'temp': 31.81, 'lipoC3S3': 12.55, 'lipoC3S2': 8.3, 'rot1': 15, 'rot0': 22, 'rot3': 4, 'rot2': 4, 'state': 'normal', 'yaw': 121.08, 'datetime': '2018-10-09 11:34:23.103547', 'mgs': 0, 'volt': 0.0, 'depth': -12.5, 'time': 1056, 'pitch': 10.17, 'roll': 5.53, 'pres': 0}
{'lipoC2': 7.66, 'lipoC3S1': 4.15, 'temp': 31.88, 'lipoC3S3': 12.55, 'lipoC3S2': 8.3, 'rot1': 15, 'rot0': 22, 'rot3': 4, 'rot2': 4, 'state': 'normal', 'yaw': 120.23, 'datetime': '2018-10-09 11:34:23.113873', 'mgs': 0, 'volt': 0.0, 'depth': -12.5, 'time': 1056, 'pitch': 10.01, 'roll': 5.53, 'pres': 0}
{'lipoC2': 7.66, 'lipoC3S1': 4.15, 'temp': 31.88, 'lipoC3S3': 12.55, 'lipoC3S2': 8.3, 'rot1': 15, 'rot0': 22, 'rot3': 4, 'rot2': 4, 'state': 'normal', 'yaw': 119.53, 'datetime': '2018-10-09 11:34:23.124021', 'mgs': 0, 'volt': 0.0, 'depth': -12.5, 'time': 1056, 'pitch': 10.21, 'roll': 5.57, 'pres': 0}
{'lipoC2': 7.66, 'lipoC3S1': 4.15, 'temp': 31.81, 'lipoC3S3': 12.55, 'lipoC3S2': 8.3, 'rot1': 15, 'rot0': 22, 'rot3': 4, 'rot2': 4, 'state': 'normal', 'yaw': 118.91, 'datetime': '2018-10-09 11:34:23.134122', 'mgs': 0, 'volt': 0.0, 'depth': -12.5, 'time': 1057, 'pitch': 10.78, 'roll': 5.59, 'pres': 0}
{'lipoC2': 7.66, 'lipoC3S1': 4.15, 'temp': 31.81, 'lipoC3S3': 12.55, 'lipoC3S2': 8.3, 'rot1': 15, 'rot0': 22, 'rot3': 4, 'rot2': 4, 'state': 'normal', 'yaw': 118.35, 'datetime': '2018-10-09 11:34:23.144173', 'mgs': 0, 'volt': 0.0, 'depth': -12.5, 'time': 1057, 'pitch': 11.63, 'roll': 5.43, 'pres': 0}
{'lipoC2': 7.66, 'lipoC3S1': 4.15, 'temp': 31.81, 'lipoC3S3': 12.55, 'lipoC3S2': 8.3, 'rot1': 15, 'rot0': 22, 'rot3': 4, 'rot2': 4, 'state': 'normal', 'yaw': 117.75, 'datetime': '2018-10-09 11:34:23.154213', 'mgs': 0, 'volt': 0.0, 'depth': -12.5, 'time': 1057, 'pitch': 12.6, 'roll': 5.04, 'pres': 0}
{'lipoC2': 7.66, 'lipoC3S1': 4.15, 'temp': 31.81, 'lipoC3S3': 12.55, 'lipoC3S2': 8.3, 'rot1': 15, 'rot0': 22, 'rot3': 4, 'rot2': 4, 'state': 'normal', 'yaw': 117.16, 'datetime': '2018-10-09 11:34:23.164318', 'mgs': 0, 'volt': 0.0, 'depth': -12.5, 'time': 1057, 'pitch': 13.2, 'roll': 4.61, 'pres': 0}
{'lipoC2': 7.66, 'lipoC3S1': 4.15, 'temp': 31.81, 'lipoC3S3': 12.55, 'lipoC3S2': 8.3, 'rot1': 15, 'rot0': 22, 'rot3': 4, 'rot2': 4, 'state': 'normal', 'yaw': 116.52, 'datetime': '2018-10-09 11:34:23.174411', 'mgs': 0, 'volt': 0.0, 'depth': -12.5, 'time': 1057, 'pitch': 13.36, 'roll': 4.25, 'pres': 0}
{'lipoC2': 7.66, 'lipoC3S1': 4.15, 'temp': 31.81, 'lipoC3S3': 12.55, 'lipoC3S2': 8.3, 'rot1': 15, 'rot0': 22, 'rot3': 4, 'rot2': 4, 'state': 'normal', 'yaw': 115.75, 'datetime': '2018-10-09 11:34:23.184524', 'mgs': 0, 'volt': 0.0, 'depth': -12.5, 'time': 1057, 'pitch': 12.85, 'roll': 4.05, 'pres': 0}
{'lipoC2': 7.66, 'lipoC3S1': 4.15, 'temp': 31.81, 'lipoC3S3': 12.55, 'lipoC3S2': 8.3, 'rot1': 15, 'rot0': 22, 'rot3': 4, 'rot2': 4, 'state': 'normal', 'yaw': 115.05, 'datetime': '2018-10-09 11:34:23.194625', 'mgs': 0, 'volt': 0.0, 'depth': -12.5, 'time': 1057, 'pitch': 11.89, 'roll': 4.03, 'pres': 0}
{'lipoC2': 7.66, 'lipoC3S1': 4.15, 'temp': 31.88, 'lipoC3S3': 12.55, 'lipoC3S2': 8.3, 'rot1': 15, 'rot0': 22, 'rot3': 4, 'rot2': 4, 'state': 'normal', 'yaw': 114.4, 'datetime': '2018-10-09 11:34:23.204731', 'mgs': 0, 'volt': 0.0, 'depth': -12.5, 'time': 1057, 'pitch': 10.83, 'roll': 4.08, 'pres': 0}
{'lipoC2': 7.66, 'lipoC3S1': 4.15, 'temp': 31.88, 'lipoC3S3': 12.55, 'lipoC3S2': 8.3, 'rot1': 15, 'rot0': 22, 'rot3': 4, 'rot2': 4, 'state': 'normal', 'yaw': 113.78, 'datetime': '2018-10-09 11:34:23.214873', 'mgs': 0, 'volt': 0.0, 'depth': -12.5, 'time': 1057, 'pitch': 9.99, 'roll': 4.05, 'pres': 0}
{'lipoC2': 7.66, 'lipoC3S1': 4.15, 'temp': 31.88, 'lipoC3S3': 12.55, 'lipoC3S2': 8.3, 'rot1': 15, 'rot0': 22, 'rot3': 4, 'rot2': 4, 'state': 'normal', 'yaw': 113.27, 'datetime': '2018-10-09 11:34:23.224966', 'mgs': 0, 'volt': 0.0, 'depth': -12.5, 'time': 1057, 'pitch': 9.79, 'roll': 3.91, 'pres': 0}
{'lipoC2': 7.66, 'lipoC3S1': 4.15, 'temp': 31.81, 'lipoC3S3': 12.55, 'lipoC3S2': 8.3, 'rot1': 15, 'rot0': 22, 'rot3': 4, 'rot2': 4, 'state': 'normal', 'yaw': 112.75, 'datetime': '2018-10-09 11:34:23.235004', 'mgs': 0, 'volt': 0.0, 'depth': -12.5, 'time': 1058, 'pitch': 10.16, 'roll': 3.64, 'pres': 0}
{'lipoC2': 7.66, 'lipoC3S1': 4.15, 'temp': 31.81, 'lipoC3S3': 12.55, 'lipoC3S2': 8.3, 'rot1': 15, 'rot0': 22, 'rot3': 4, 'rot2': 4, 'state': 'normal', 'yaw': 112.28, 'datetime': '2018-10-09 11:34:23.245098', 'mgs': 0, 'volt': 0.0, 'depth': -12.5, 'time': 1058, 'pitch': 10.77, 'roll': 3.45, 'pres': 0}
{'lipoC2': 7.66, 'lipoC3S1': 4.15, 'temp': 31.81, 'lipoC3S3': 12.55, 'lipoC3S2': 8.3, 'rot1': 15, 'rot0': 22, 'rot3': 4, 'rot2': 4, 'state': 'normal', 'yaw': 111.8, 'datetime': '2018-10-09 11:34:23.255433', 'mgs': 0, 'volt': 0.0, 'depth': -12.5, 'time': 1058, 'pitch': 11.38, 'roll': 3.42, 'pres': 0}
{'lipoC2': 7.66, 'lipoC3S1': 4.15, 'temp': 31.81, 'lipoC3S3': 12.55, 'lipoC3S2': 8.3, 'rot1': 15, 'rot0': 22, 'rot3': 4, 'rot2': 4, 'state': 'normal', 'yaw': 111.29, 'datetime': '2018-10-09 11:34:23.265549', 'mgs': 0, 'volt': 0.0, 'depth': -12.5, 'time': 1058, 'pitch': 11.85, 'roll': 3.57, 'pres': 0}
{'lipoC2': 7.66, 'lipoC3S1': 4.15, 'temp': 31.88, 'lipoC3S3': 12.55, 'lipoC3S2': 8.3, 'rot1': 15, 'rot0': 22, 'rot3': 4, 'rot2': 4, 'state': 'normal', 'yaw': 110.8, 'datetime': '2018-10-09 11:34:23.275607', 'mgs': 0, 'volt': 0.0, 'depth': -12.5, 'time': 1058, 'pitch': 12.01, 'roll': 3.76, 'pres': 0}
{'lipoC2': 7.66, 'lipoC3S1': 4.15, 'temp': 31.88, 'lipoC3S3': 12.55, 'lipoC3S2': 8.3, 'rot1': 15, 'rot0': 22, 'rot3': 4, 'rot2': 4, 'state': 'normal', 'yaw': 110.31, 'datetime': '2018-10-09 11:34:23.285708', 'mgs': 0, 'volt': 0.0, 'depth': -12.5, 'time': 1058, 'pitch': 11.94, 'roll': 3.85, 'pres': 0}
{'lipoC2': 7.66, 'lipoC3S1': 4.15, 'temp': 31.88, 'lipoC3S3': 12.55, 'lipoC3S2': 8.3, 'rot1': 15, 'rot0': 22, 'rot3': 4, 'rot2': 4, 'state': 'normal', 'yaw': 109.81, 'datetime': '2018-10-09 11:34:23.295839', 'mgs': 0, 'volt': 0.0, 'depth': -12.5, 'time': 1058, 'pitch': 11.71, 'roll': 3.84, 'pres': 0}
{'lipoC2': 7.66, 'lipoC3S1': 4.15, 'temp': 31.88, 'lipoC3S3': 12.55, 'lipoC3S2': 8.3, 'rot1': 15, 'rot0': 22, 'rot3': 4, 'rot2': 4, 'state': 'normal', 'yaw': 109.28, 'datetime': '2018-10-09 11:34:23.305964', 'mgs': 0, 'volt': 0.0, 'depth': -12.5, 'time': 1058, 'pitch': 11.36, 'roll': 3.79, 'pres': 0}
{'lipoC2': 7.66, 'lipoC3S1': 4.15, 'temp': 31.88, 'lipoC3S3': 12.55, 'lipoC3S2': 8.3, 'rot1': 15, 'rot0': 22, 'rot3': 4, 'rot2': 4, 'state': 'normal', 'yaw': 108.82, 'datetime': '2018-10-09 11:34:23.316029', 'mgs': 0, 'volt': 0.0, 'depth': -12.5, 'time': 1058, 'pitch': 11.02, 'roll': 3.83, 'pres': 0}
{'lipoC2': 7.66, 'lipoC3S1': 4.15, 'temp': 31.88, 'lipoC3S3': 12.55, 'lipoC3S2': 8.3, 'rot1': 15, 'rot0': 22, 'rot3': 4, 'rot2': 4, 'state': 'normal', 'yaw': 108.37, 'datetime': '2018-10-09 11:34:23.326094', 'mgs': 0, 'volt': 0.0, 'depth': -12.5, 'time': 1059, 'pitch': 10.69, 'roll': 3.93, 'pres': 0}
{'lipoC2': 7.66, 'lipoC3S1': 4.15, 'temp': 31.88, 'lipoC3S3': 12.55, 'lipoC3S2': 8.3, 'rot1': 15, 'rot0': 22, 'rot3': 4, 'rot2': 4, 'state': 'normal', 'yaw': 107.9, 'datetime': '2018-10-09 11:34:23.336247', 'mgs': 0, 'volt': 0.0, 'depth': -12.5, 'time': 1059, 'pitch': 10.37, 'roll': 4.03, 'pres': 0}
{'lipoC2': 7.66, 'lipoC3S1': 4.15, 'temp': 31.88, 'lipoC3S3': 12.55, 'lipoC3S2': 8.3, 'rot1': 15, 'rot0': 22, 'rot3': 4, 'rot2': 4, 'state': 'normal', 'yaw': 107.5, 'datetime': '2018-10-09 11:34:23.346377', 'mgs': 0, 'volt': 0.0, 'depth': -12.5, 'time': 1059, 'pitch': 10.35, 'roll': 4.07, 'pres': 0}
{'lipoC2': 7.66, 'lipoC3S1': 4.15, 'temp': 31.88, 'lipoC3S3': 12.55, 'lipoC3S2': 8.3, 'rot1': 15, 'rot0': 22, 'rot3': 4, 'rot2': 4, 'state': 'normal', 'yaw': 107.09, 'datetime': '2018-10-09 11:34:23.356477', 'mgs': 0, 'volt': 0.0, 'depth': -12.5, 'time': 1059, 'pitch': 10.74, 'roll': 3.98, 'pres': 0}
{'lipoC2': 7.66, 'lipoC3S1': 4.15, 'temp': 31.88, 'lipoC3S3': 12.55, 'lipoC3S2': 8.3, 'rot1': 15, 'rot0': 22, 'rot3': 4, 'rot2': 4, 'state': 'normal', 'yaw': 106.74, 'datetime': '2018-10-09 11:34:23.366588', 'mgs': 0, 'volt': 0.0, 'depth': -12.5, 'time': 1059, 'pitch': 11.47, 'roll': 3.8, 'pres': 0}
{'lipoC2': 7.66, 'lipoC3S1': 4.15, 'temp': 31.81, 'lipoC3S3': 12.55, 'lipoC3S2': 8.3, 'rot1': 15, 'rot0': 22, 'rot3': 4, 'rot2': 4, 'state': 'normal', 'yaw': 106.41, 'datetime': '2018-10-09 11:34:23.376718', 'mgs': 0, 'volt': 0.0, 'depth': -12.5, 'time': 1059, 'pitch': 12.37, 'roll': 3.58, 'pres': 0}
{'lipoC2': 7.66, 'lipoC3S1': 4.15, 'temp': 31.81, 'lipoC3S3': 12.55, 'lipoC3S2': 8.3, 'rot1': 15, 'rot0': 22, 'rot3': 4, 'rot2': 4, 'state': 'normal', 'yaw': 106.01, 'datetime': '2018-10-09 11:34:23.387065', 'mgs': 0, 'volt': 0.0, 'depth': -12.5, 'time': 1059, 'pitch': 13.12, 'roll': 3.35, 'pres': 0}
{'lipoC2': 7.66, 'lipoC3S1': 4.15, 'temp': 31.81, 'lipoC3S3': 12.55, 'lipoC3S2': 8.3, 'rot1': 15, 'rot0': 22, 'rot3': 4, 'rot2': 4, 'state': 'normal', 'yaw': 105.61, 'datetime': '2018-10-09 11:34:23.397264', 'mgs': 0, 'volt': 0.0, 'depth': -12.5, 'time': 1059, 'pitch': 13.31, 'roll': 3.21, 'pres': 0}
{'lipoC2': 7.66, 'lipoC3S1': 4.15, 'temp': 31.81, 'lipoC3S3': 12.55, 'lipoC3S2': 8.3, 'rot1': 15, 'rot0': 22, 'rot3': 4, 'rot2': 4, 'state': 'normal', 'yaw': 105.2, 'datetime': '2018-10-09 11:34:23.407383', 'mgs': 0, 'volt': 0.0, 'depth': -12.5, 'time': 1059, 'pitch': 13.01, 'roll': 3.12, 'pres': 0}
{'lipoC2': 7.66, 'lipoC3S1': 4.15, 'temp': 31.81, 'lipoC3S3': 12.55, 'lipoC3S2': 8.3, 'rot1': 15, 'rot0': 22, 'rot3': 4, 'rot2': 4, 'state': 'normal', 'yaw': 104.72, 'datetime': '2018-10-09 11:34:23.417526', 'mgs': 0, 'volt': 0.0, 'depth': -12.5, 'time': 1059, 'pitch': 12.4, 'roll': 3.02, 'pres': 0}
{'lipoC2': 7.66, 'lipoC3S1': 4.15, 'temp': 31.81, 'lipoC3S3': 12.55, 'lipoC3S2': 8.3, 'rot1': 15, 'rot0': 22, 'rot3': 4, 'rot2': 4, 'state': 'normal', 'yaw': 104.29, 'datetime': '2018-10-09 11:34:23.427631', 'mgs': 0, 'volt': 0.0, 'depth': -12.5, 'time': 1060, 'pitch': 11.9, 'roll': 3.0, 'pres': 0}
{'lipoC2': 7.66, 'lipoC3S1': 4.15, 'temp': 31.81, 'lipoC3S3': 12.55, 'lipoC3S2': 8.3, 'rot1': 15, 'rot0': 22, 'rot3': 4, 'rot2': 4, 'state': 'normal', 'yaw': 103.87, 'datetime': '2018-10-09 11:34:23.437842', 'mgs': 0, 'volt': 0.0, 'depth': -12.5, 'time': 1060, 'pitch': 11.63, 'roll': 3.01, 'pres': 0}
{'lipoC2': 7.66, 'lipoC3S1': 4.15, 'temp': 31.81, 'lipoC3S3': 12.55, 'lipoC3S2': 8.3, 'rot1': 15, 'rot0': 22, 'rot3': 4, 'rot2': 4, 'state': 'normal', 'yaw': 103.44, 'datetime': '2018-10-09 11:34:23.447959', 'mgs': 0, 'volt': 0.0, 'depth': -12.5, 'time': 1060, 'pitch': 11.67, 'roll': 3.04, 'pres': 0}
{'lipoC2': 7.66, 'lipoC3S1': 4.15, 'temp': 31.81, 'lipoC3S3': 12.55, 'lipoC3S2': 8.3, 'rot1': 15, 'rot0': 22, 'rot3': 4, 'rot2': 4, 'state': 'normal', 'yaw': 103.1, 'datetime': '2018-10-09 11:34:23.458153', 'mgs': 0, 'volt': 0.0, 'depth': -12.5, 'time': 1060, 'pitch': 11.99, 'roll': 2.98, 'pres': 0}
{'lipoC2': 7.66, 'lipoC3S1': 4.15, 'temp': 31.81, 'lipoC3S3': 12.55, 'lipoC3S2': 8.3, 'rot1': 15, 'rot0': 22, 'rot3': 4, 'rot2': 4, 'state': 'normal', 'yaw': 102.8, 'datetime': '2018-10-09 11:34:23.468229', 'mgs': 0, 'volt': 0.0, 'depth': -12.5, 'time': 1060, 'pitch': 12.46, 'roll': 2.8, 'pres': 0}
{'lipoC2': 7.66, 'lipoC3S1': 4.15, 'temp': 31.81, 'lipoC3S3': 12.54, 'lipoC3S2': 8.29, 'rot1': 15, 'rot0': 22, 'rot3': 4, 'rot2': 4, 'state': 'normal', 'yaw': 102.5, 'datetime': '2018-10-09 11:34:23.478435', 'mgs': 0, 'volt': 0.0, 'depth': -12.5, 'time': 1060, 'pitch': 12.83, 'roll': 2.53, 'pres': 0}
{'lipoC2': 7.66, 'lipoC3S1': 4.15, 'temp': 31.81, 'lipoC3S3': 12.55, 'lipoC3S2': 8.3, 'rot1': 15, 'rot0': 22, 'rot3': 4, 'rot2': 4, 'state': 'normal', 'yaw': 102.12, 'datetime': '2018-10-09 11:34:23.488538', 'mgs': 0, 'volt': 0.0, 'depth': -12.5, 'time': 1060, 'pitch': 12.88, 'roll': 2.23, 'pres': 0}
{'lipoC2': 7.66, 'lipoC3S1': 4.15, 'temp': 31.81, 'lipoC3S3': 12.55, 'lipoC3S2': 8.3, 'rot1': 15, 'rot0': 22, 'rot3': 4, 'rot2': 4, 'state': 'normal', 'yaw': 101.71, 'datetime': '2018-10-09 11:34:23.498730', 'mgs': 0, 'volt': 0.0, 'depth': -12.5, 'time': 1060, 'pitch': 12.53, 'roll': 2.16, 'pres': 0}
{'lipoC2': 7.66, 'lipoC3S1': 4.15, 'temp': 31.81, 'lipoC3S3': 12.55, 'lipoC3S2': 8.3, 'rot1': 15, 'rot0': 22, 'rot3': 4, 'rot2': 4, 'state': 'normal', 'yaw': 101.27, 'datetime': '2018-10-09 11:34:23.508808', 'mgs': 0, 'volt': 0.0, 'depth': -12.5, 'time': 1060, 'pitch': 11.9, 'roll': 2.37, 'pres': 0}
{'lipoC2': 7.66, 'lipoC3S1': 4.15, 'temp': 31.81, 'lipoC3S3': 12.55, 'lipoC3S2': 8.3, 'rot1': 15, 'rot0': 22, 'rot3': 4, 'rot2': 4, 'state': 'normal', 'yaw': 100.8, 'datetime': '2018-10-09 11:34:23.518972', 'mgs': 0, 'volt': 0.0, 'depth': -12.5, 'time': 1060, 'pitch': 11.11, 'roll': 2.82, 'pres': 0}
{'lipoC2': 7.66, 'lipoC3S1': 4.15, 'temp': 31.81, 'lipoC3S3': 12.55, 'lipoC3S2': 8.3, 'rot1': 15, 'rot0': 22, 'rot3': 4, 'rot2': 4, 'state': 'normal', 'yaw': 100.44, 'datetime': '2018-10-09 11:34:23.529226', 'mgs': 0, 'volt': 0.0, 'depth': -12.5, 'time': 1061, 'pitch': 10.62, 'roll': 3.16, 'pres': 0}
{'lipoC2': 7.66, 'lipoC3S1': 4.15, 'temp': 31.81, 'lipoC3S3': 12.55, 'lipoC3S2': 8.3, 'rot1': 15, 'rot0': 22, 'rot3': 4, 'rot2': 4, 'state': 'normal', 'yaw': 100.14, 'datetime': '2018-10-09 11:34:23.539415', 'mgs': 0, 'volt': 0.0, 'depth': -12.5, 'time': 1061, 'pitch': 10.52, 'roll': 3.18, 'pres': 0}
{'lipoC2': 7.66, 'lipoC3S1': 4.15, 'temp': 31.81, 'lipoC3S3': 12.55, 'lipoC3S2': 8.3, 'rot1': 15, 'rot0': 22, 'rot3': 4, 'rot2': 4, 'state': 'normal', 'yaw': 99.93, 'datetime': '2018-10-09 11:34:23.549513', 'mgs': 0, 'volt': 0.0, 'depth': -12.5, 'time': 1061, 'pitch': 10.89, 'roll': 2.79, 'pres': 0}
{'lipoC2': 7.66, 'lipoC3S1': 4.15, 'temp': 31.81, 'lipoC3S3': 12.55, 'lipoC3S2': 8.3, 'rot1': 15, 'rot0': 22, 'rot3': 4, 'rot2': 4, 'state': 'normal', 'yaw': 99.72, 'datetime': '2018-10-09 11:34:23.559699', 'mgs': 0, 'volt': 0.0, 'depth': -12.5, 'time': 1061, 'pitch': 11.57, 'roll': 2.27, 'pres': 0}
{'lipoC2': 7.66, 'lipoC3S1': 4.15, 'temp': 31.81, 'lipoC3S3': 12.55, 'lipoC3S2': 8.3, 'rot1': 15, 'rot0': 22, 'rot3': 4, 'rot2': 4, 'state': 'normal', 'yaw': 99.43, 'datetime': '2018-10-09 11:34:23.569807', 'mgs': 0, 'volt': 0.0, 'depth': -12.5, 'time': 1061, 'pitch': 12.39, 'roll': 1.91, 'pres': 0}
{'lipoC2': 7.66, 'lipoC3S1': 4.15, 'temp': 31.81, 'lipoC3S3': 12.55, 'lipoC3S2': 8.3, 'rot1': 15, 'rot0': 22, 'rot3': 4, 'rot2': 4, 'state': 'normal', 'yaw': 99.11, 'datetime': '2018-10-09 11:34:23.579953', 'mgs': 0, 'volt': 0.0, 'depth': -12.5, 'time': 1061, 'pitch': 12.88, 'roll': 1.98, 'pres': 0}
{'lipoC2': 7.66, 'lipoC3S1': 4.15, 'temp': 31.81, 'lipoC3S3': 12.55, 'lipoC3S2': 8.3, 'rot1': 15, 'rot0': 22, 'rot3': 4, 'rot2': 4, 'state': 'normal', 'yaw': 98.76, 'datetime': '2018-10-09 11:34:23.590039', 'mgs': 0, 'volt': 0.0, 'depth': -12.5, 'time': 1061, 'pitch': 12.9, 'roll': 2.37, 'pres': 0}
{'lipoC2': 7.66, 'lipoC3S1': 4.15, 'temp': 31.81, 'lipoC3S3': 12.55, 'lipoC3S2': 8.3, 'rot1': 15, 'rot0': 22, 'rot3': 4, 'rot2': 4, 'state': 'normal', 'yaw': 98.41, 'datetime': '2018-10-09 11:34:23.600204', 'mgs': 0, 'volt': 0.0, 'depth': -12.5, 'time': 1061, 'pitch': 12.52, 'roll': 2.78, 'pres': 0}
{'lipoC2': 7.66, 'lipoC3S1': 4.15, 'temp': 31.81, 'lipoC3S3': 12.55, 'lipoC3S2': 8.29, 'rot1': 15, 'rot0': 22, 'rot3': 4, 'rot2': 4, 'state': 'normal', 'yaw': 98.09, 'datetime': '2018-10-09 11:34:23.610730', 'mgs': 0, 'volt': 0.0, 'depth': -12.5, 'time': 1061, 'pitch': 11.97, 'roll': 3.03, 'pres': 0}
{'lipoC2': 7.66, 'lipoC3S1': 4.15, 'temp': 31.81, 'lipoC3S3': 12.55, 'lipoC3S2': 8.3, 'rot1': 15, 'rot0': 22, 'rot3': 4, 'rot2': 4, 'state': 'normal', 'yaw': 97.86, 'datetime': '2018-10-09 11:34:23.620986', 'mgs': 0, 'volt': 0.0, 'depth': -12.5, 'time': 1061, 'pitch': 11.7, 'roll': 2.94, 'pres': 0}
{'lipoC2': 7.66, 'lipoC3S1': 4.15, 'temp': 31.75, 'lipoC3S3': 12.55, 'lipoC3S2': 8.3, 'rot1': 15, 'rot0': 22, 'rot3': 4, 'rot2': 4, 'state': 'normal', 'yaw': 97.66, 'datetime': '2018-10-09 11:34:23.631123', 'mgs': 0, 'volt': 0.0, 'depth': -12.5, 'time': 1062, 'pitch': 11.75, 'roll': 2.59, 'pres': 0}
{'lipoC2': 7.66, 'lipoC3S1': 4.15, 'temp': 31.75, 'lipoC3S3': 12.55, 'lipoC3S2': 8.3, 'rot1': 15, 'rot0': 22, 'rot3': 4, 'rot2': 4, 'state': 'normal', 'yaw': 97.46, 'datetime': '2018-10-09 11:34:23.641230', 'mgs': 0, 'volt': 0.0, 'depth': -12.5, 'time': 1062, 'pitch': 12.12, 'roll': 2.12, 'pres': 0}
{'lipoC2': 7.66, 'lipoC3S1': 4.15, 'temp': 31.75, 'lipoC3S3': 12.55, 'lipoC3S2': 8.3, 'rot1': 15, 'rot0': 22, 'rot3': 4, 'rot2': 4, 'state': 'normal', 'yaw': 97.25, 'datetime': '2018-10-09 11:34:23.651321', 'mgs': 0, 'volt': 0.0, 'depth': -12.5, 'time': 1062, 'pitch': 12.56, 'roll': 1.82, 'pres': 0}
{'lipoC2': 7.66, 'lipoC3S1': 4.15, 'temp': 31.75, 'lipoC3S3': 12.55, 'lipoC3S2': 8.3, 'rot1': 15, 'rot0': 22, 'rot3': 4, 'rot2': 4, 'state': 'normal', 'yaw': 97.0, 'datetime': '2018-10-09 11:34:23.661398', 'mgs': 0, 'volt': 0.0, 'depth': -12.5, 'time': 1062, 'pitch': 12.9, 'roll': 1.77, 'pres': 0}
{'lipoC2': 7.66, 'lipoC3S1': 4.15, 'temp': 31.75, 'lipoC3S3': 12.55, 'lipoC3S2': 8.3, 'rot1': 15, 'rot0': 22, 'rot3': 4, 'rot2': 4, 'state': 'normal', 'yaw': 96.7, 'datetime': '2018-10-09 11:34:23.671696', 'mgs': 0, 'volt': 0.0, 'depth': -12.5, 'time': 1062, 'pitch': 13.08, 'roll': 1.98, 'pres': 0}
{'lipoC2': 7.66, 'lipoC3S1': 4.15, 'temp': 31.81, 'lipoC3S3': 12.55, 'lipoC3S2': 8.3, 'rot1': 15, 'rot0': 22, 'rot3': 4, 'rot2': 4, 'state': 'normal', 'yaw': 96.41, 'datetime': '2018-10-09 11:34:23.681860', 'mgs': 0, 'volt': 0.0, 'depth': -12.5, 'time': 1062, 'pitch': 13.07, 'roll': 2.2, 'pres': 0}
{'lipoC2': 7.66, 'lipoC3S1': 4.15, 'temp': 31.81, 'lipoC3S3': 12.55, 'lipoC3S2': 8.3, 'rot1': 15, 'rot0': 22, 'rot3': 4, 'rot2': 4, 'state': 'normal', 'yaw': 96.11, 'datetime': '2018-10-09 11:34:23.691957', 'mgs': 0, 'volt': 0.0, 'depth': -12.5, 'time': 1062, 'pitch': 12.97, 'roll': 2.21, 'pres': 0}
{'lipoC2': 7.66, 'lipoC3S1': 4.15, 'temp': 31.81, 'lipoC3S3': 12.55, 'lipoC3S2': 8.3, 'rot1': 15, 'rot0': 22, 'rot3': 4, 'rot2': 4, 'state': 'normal', 'yaw': 95.9, 'datetime': '2018-10-09 11:34:23.702035', 'mgs': 0, 'volt': 0.0, 'depth': -12.5, 'time': 1062, 'pitch': 12.95, 'roll': 1.95, 'pres': 0}
{'lipoC2': 7.66, 'lipoC3S1': 4.15, 'temp': 31.81, 'lipoC3S3': 12.55, 'lipoC3S2': 8.3, 'rot1': 15, 'rot0': 22, 'rot3': 4, 'rot2': 4, 'state': 'normal', 'yaw': 95.72, 'datetime': '2018-10-09 11:34:23.712245', 'mgs': 0, 'volt': 0.0, 'depth': -12.5, 'time': 1062, 'pitch': 13.03, 'roll': 1.56, 'pres': 0}
{'lipoC2': 7.66, 'lipoC3S1': 4.15, 'temp': 31.81, 'lipoC3S3': 12.54, 'lipoC3S2': 8.3, 'rot1': 15, 'rot0': 22, 'rot3': 4, 'rot2': 4, 'state': 'normal', 'yaw': 95.5, 'datetime': '2018-10-09 11:34:23.722347', 'mgs': 0, 'volt': 0.0, 'depth': -12.5, 'time': 1063, 'pitch': 13.23, 'roll': 1.23, 'pres': 0}
{'lipoC2': 7.66, 'lipoC3S1': 4.15, 'temp': 31.81, 'lipoC3S3': 12.55, 'lipoC3S2': 8.3, 'rot1': 15, 'rot0': 22, 'rot3': 4, 'rot2': 4, 'state': 'normal', 'yaw': 95.23, 'datetime': '2018-10-09 11:34:23.732543', 'mgs': 0, 'volt': 0.0, 'depth': -12.5, 'time': 1063, 'pitch': 13.36, 'roll': 1.2, 'pres': 0}
{'lipoC2': 7.66, 'lipoC3S1': 4.15, 'temp': 31.81, 'lipoC3S3': 12.55, 'lipoC3S2': 8.3, 'rot1': 15, 'rot0': 22, 'rot3': 4, 'rot2': 4, 'state': 'normal', 'yaw': 94.93, 'datetime': '2018-10-09 11:34:23.742868', 'mgs': 0, 'volt': 0.0, 'depth': -12.5, 'time': 1063, 'pitch': 13.31, 'roll': 1.46, 'pres': 0}
{'lipoC2': 7.66, 'lipoC3S1': 4.15, 'temp': 31.81, 'lipoC3S3': 12.54, 'lipoC3S2': 8.29, 'rot1': 15, 'rot0': 22, 'rot3': 4, 'rot2': 4, 'state': 'normal', 'yaw': 94.58, 'datetime': '2018-10-09 11:34:23.753014', 'mgs': 0, 'volt': 0.0, 'depth': -12.5, 'time': 1063, 'pitch': 13.08, 'roll': 1.89, 'pres': 0}
{'lipoC2': 7.66, 'lipoC3S1': 4.15, 'temp': 31.81, 'lipoC3S3': 12.55, 'lipoC3S2': 8.3, 'rot1': 15, 'rot0': 22, 'rot3': 4, 'rot2': 4, 'state': 'normal', 'yaw': 94.13, 'datetime': '2018-10-09 11:34:23.763136', 'mgs': 0, 'volt': 0.0, 'depth': -12.5, 'time': 1063, 'pitch': 12.52, 'roll': 2.13, 'pres': 0}
{'lipoC2': 7.66, 'lipoC3S1': 4.15, 'temp': 31.81, 'lipoC3S3': 12.54, 'lipoC3S2': 8.3, 'rot1': 15, 'rot0': 22, 'rot3': 4, 'rot2': 4, 'state': 'normal', 'yaw': 93.79, 'datetime': '2018-10-09 11:34:23.773248', 'mgs': 0, 'volt': 0.0, 'depth': -12.5, 'time': 1063, 'pitch': 12.0, 'roll': 1.98, 'pres': 0}
{'lipoC2': 7.66, 'lipoC3S1': 4.15, 'temp': 31.81, 'lipoC3S3': 12.55, 'lipoC3S2': 8.3, 'rot1': 15, 'rot0': 22, 'rot3': 4, 'rot2': 4, 'state': 'normal', 'yaw': 93.48, 'datetime': '2018-10-09 11:34:23.783386', 'mgs': 0, 'volt': 0.0, 'depth': -12.5, 'time': 1063, 'pitch': 11.85, 'roll': 1.58, 'pres': 0}
{'lipoC2': 7.66, 'lipoC3S1': 4.15, 'temp': 31.81, 'lipoC3S3': 12.55, 'lipoC3S2': 8.3, 'rot1': 15, 'rot0': 22, 'rot3': 4, 'rot2': 4, 'state': 'normal', 'yaw': 93.15, 'datetime': '2018-10-09 11:34:23.793506', 'mgs': 0, 'volt': 0.0, 'depth': -12.5, 'time': 1063, 'pitch': 12.16, 'roll': 1.12, 'pres': 0}
{'lipoC2': 7.66, 'lipoC3S1': 4.15, 'temp': 31.81, 'lipoC3S3': 12.55, 'lipoC3S2': 8.3, 'rot1': 15, 'rot0': 22, 'rot3': 4, 'rot2': 4, 'state': 'normal', 'yaw': 92.81, 'datetime': '2018-10-09 11:34:23.803846', 'mgs': 0, 'volt': 0.0, 'depth': -12.5, 'time': 1063, 'pitch': 12.64, 'roll': 0.93, 'pres': 0}
{'lipoC2': 7.66, 'lipoC3S1': 4.15, 'temp': 31.81, 'lipoC3S3': 12.55, 'lipoC3S2': 8.3, 'rot1': 15, 'rot0': 22, 'rot3': 4, 'rot2': 4, 'state': 'normal', 'yaw': 92.47, 'datetime': '2018-10-09 11:34:23.813978', 'mgs': 0, 'volt': 0.0, 'depth': -12.5, 'time': 1063, 'pitch': 12.98, 'roll': 1.0, 'pres': 0}
{'lipoC2': 7.66, 'lipoC3S1': 4.15, 'temp': 31.81, 'lipoC3S3': 12.55, 'lipoC3S2': 8.3, 'rot1': 15, 'rot0': 22, 'rot3': 4, 'rot2': 4, 'state': 'normal', 'yaw': 92.14, 'datetime': '2018-10-09 11:34:23.824110', 'mgs': 0, 'volt': 0.0, 'depth': -12.5, 'time': 1064, 'pitch': 13.06, 'roll': 1.19, 'pres': 0}
{'lipoC2': 7.66, 'lipoC3S1': 4.15, 'temp': 31.81, 'lipoC3S3': 12.55, 'lipoC3S2': 8.29, 'rot1': 15, 'rot0': 22, 'rot3': 4, 'rot2': 4, 'state': 'normal', 'yaw': 91.85, 'datetime': '2018-10-09 11:34:23.834199', 'mgs': 0, 'volt': 0.0, 'depth': -12.5, 'time': 1064, 'pitch': 12.94, 'roll': 1.21, 'pres': 0}
{'lipoC2': 7.66, 'lipoC3S1': 4.15, 'temp': 31.75, 'lipoC3S3': 12.55, 'lipoC3S2': 8.3, 'rot1': 15, 'rot0': 22, 'rot3': 4, 'rot2': 4, 'state': 'normal', 'yaw': 91.5, 'datetime': '2018-10-09 11:34:23.844284', 'mgs': 0, 'volt': 0.0, 'depth': -12.5, 'time': 1064, 'pitch': 12.73, 'roll': 0.98, 'pres': 0}
{'lipoC2': 7.66, 'lipoC3S1': 4.15, 'temp': 31.75, 'lipoC3S3': 12.55, 'lipoC3S2': 8.3, 'rot1': 15, 'rot0': 22, 'rot3': 4, 'rot2': 4, 'state': 'normal', 'yaw': 91.15, 'datetime': '2018-10-09 11:34:23.854380', 'mgs': 0, 'volt': 0.0, 'depth': -12.5, 'time': 1064, 'pitch': 12.59, 'roll': 0.65, 'pres': 0}
{'lipoC2': 7.66, 'lipoC3S1': 4.15, 'temp': 31.75, 'lipoC3S3': 12.55, 'lipoC3S2': 8.3, 'rot1': 15, 'rot0': 22, 'rot3': 4, 'rot2': 4, 'state': 'normal', 'yaw': 90.82, 'datetime': '2018-10-09 11:34:23.864449', 'mgs': 0, 'volt': 0.0, 'depth': -12.5, 'time': 1064, 'pitch': 12.65, 'roll': 0.47, 'pres': 0}
{'lipoC2': 7.66, 'lipoC3S1': 4.15, 'temp': 31.81, 'lipoC3S3': 12.55, 'lipoC3S2': 8.3, 'rot1': 15, 'rot0': 22, 'rot3': 4, 'rot2': 4, 'state': 'normal', 'yaw': 90.46, 'datetime': '2018-10-09 11:34:23.874558', 'mgs': 0, 'volt': 0.0, 'depth': -12.5, 'time': 1064, 'pitch': 12.88, 'roll': 0.56, 'pres': 0}
{'lipoC2': 7.66, 'lipoC3S1': 4.15, 'temp': 31.81, 'lipoC3S3': 12.55, 'lipoC3S2': 8.3, 'rot1': 15, 'rot0': 22, 'rot3': 4, 'rot2': 4, 'state': 'normal', 'yaw': 90.14, 'datetime': '2018-10-09 11:34:23.884702', 'mgs': 0, 'volt': 0.0, 'depth': -12.5, 'time': 1064, 'pitch': 13.05, 'roll': 0.93, 'pres': 0}
{'lipoC2': 7.66, 'lipoC3S1': 4.15, 'temp': 31.75, 'lipoC3S3': 12.55, 'lipoC3S2': 8.3, 'rot1': 15, 'rot0': 22, 'rot3': 4, 'rot2': 4, 'state': 'normal', 'yaw': 89.82, 'datetime': '2018-10-09 11:34:23.894826', 'mgs': 0, 'volt': 0.0, 'depth': -12.5, 'time': 1064, 'pitch': 13.08, 'roll': 1.39, 'pres': 0}
{'lipoC2': 7.66, 'lipoC3S1': 4.15, 'temp': 31.75, 'lipoC3S3': 12.55, 'lipoC3S2': 8.3, 'rot1': 15, 'rot0': 22, 'rot3': 4, 'rot2': 4, 'state': 'normal', 'yaw': 89.44, 'datetime': '2018-10-09 11:34:23.904944', 'mgs': 0, 'volt': 0.0, 'depth': -12.5, 'time': 1064, 'pitch': 13.06, 'roll': 1.76, 'pres': 0}
{'lipoC2': 7.66, 'lipoC3S1': 4.15, 'temp': 31.81, 'lipoC3S3': 12.55, 'lipoC3S2': 8.3, 'rot1': 15, 'rot0': 22, 'rot3': 4, 'rot2': 4, 'state': 'normal', 'yaw': 89.09, 'datetime': '2018-10-09 11:34:23.915047', 'mgs': 0, 'volt': 0.0, 'depth': -12.5, 'time': 1064, 'pitch': 12.98, 'roll': 1.89, 'pres': 0}
{'lipoC2': 7.66, 'lipoC3S1': 4.15, 'temp': 31.81, 'lipoC3S3': 12.55, 'lipoC3S2': 8.3, 'rot1': 15, 'rot0': 22, 'rot3': 4, 'rot2': 4, 'state': 'normal', 'yaw': 88.74, 'datetime': '2018-10-09 11:34:23.925140', 'mgs': 0, 'volt': 0.0, 'depth': -12.5, 'time': 1065, 'pitch': 12.92, 'roll': 1.85, 'pres': 0}
{'lipoC2': 7.66, 'lipoC3S1': 4.15, 'temp': 31.81, 'lipoC3S3': 12.55, 'lipoC3S2': 8.3, 'rot1': 15, 'rot0': 22, 'rot3': 4, 'rot2': 4, 'state': 'normal', 'yaw': 88.17, 'datetime': '2018-10-09 11:34:23.935206', 'mgs': 0, 'volt': 0.0, 'depth': -12.5, 'time': 1065, 'pitch': 13.05, 'roll': 2.04, 'pres': 0}
{'lipoC2': 7.66, 'lipoC3S1': 4.15, 'temp': 31.81, 'lipoC3S3': 12.55, 'lipoC3S2': 8.3, 'rot1': 15, 'rot0': 22, 'rot3': 4, 'rot2': 4, 'state': 'normal', 'yaw': 87.49, 'datetime': '2018-10-09 11:34:23.945510', 'mgs': 0, 'volt': 0.0, 'depth': -12.5, 'time': 1065, 'pitch': 13.71, 'roll': 2.54, 'pres': 0}
{'lipoC2': 7.66, 'lipoC3S1': 4.15, 'temp': 31.81, 'lipoC3S3': 12.55, 'lipoC3S2': 8.3, 'rot1': 15, 'rot0': 22, 'rot3': 4, 'rot2': 4, 'state': 'normal', 'yaw': 86.82, 'datetime': '2018-10-09 11:34:23.955623', 'mgs': 0, 'volt': 0.0, 'depth': -12.5, 'time': 1065, 'pitch': 14.69, 'roll': 3.38, 'pres': 0}
{'lipoC2': 7.66, 'lipoC3S1': 4.15, 'temp': 31.81, 'lipoC3S3': 12.55, 'lipoC3S2': 8.3, 'rot1': 15, 'rot0': 22, 'rot3': 4, 'rot2': 4, 'state': 'normal', 'yaw': 86.19, 'datetime': '2018-10-09 11:34:23.965695', 'mgs': 0, 'volt': 0.0, 'depth': -12.5, 'time': 1065, 'pitch': 15.64, 'roll': 4.29, 'pres': 0}
{'lipoC2': 7.66, 'lipoC3S1': 4.15, 'temp': 31.81, 'lipoC3S3': 12.55, 'lipoC3S2': 8.3, 'rot1': 15, 'rot0': 22, 'rot3': 4, 'rot2': 4, 'state': 'normal', 'yaw': 85.61, 'datetime': '2018-10-09 11:34:23.975753', 'mgs': 0, 'volt': 0.0, 'depth': -12.5, 'time': 1065, 'pitch': 16.41, 'roll': 5.04, 'pres': 0}
{'lipoC2': 7.66, 'lipoC3S1': 4.15, 'temp': 31.81, 'lipoC3S3': 12.54, 'lipoC3S2': 8.3, 'rot1': 15, 'rot0': 22, 'rot3': 4, 'rot2': 4, 'state': 'normal', 'yaw': 85.21, 'datetime': '2018-10-09 11:34:23.985843', 'mgs': 0, 'volt': 0.0, 'depth': -12.5, 'time': 1065, 'pitch': 16.88, 'roll': 5.33, 'pres': 0}
{'lipoC2': 7.66, 'lipoC3S1': 4.15, 'temp': 31.81, 'lipoC3S3': 12.55, 'lipoC3S2': 8.3, 'rot1': 15, 'rot0': 22, 'rot3': 4, 'rot2': 4, 'state': 'normal', 'yaw': 84.71, 'datetime': '2018-10-09 11:34:23.995917', 'mgs': 0, 'volt': 0.0, 'depth': -12.5, 'time': 1065, 'pitch': 17.09, 'roll': 5.14, 'pres': 0}
{'lipoC2': 7.66, 'lipoC3S1': 4.15, 'temp': 31.81, 'lipoC3S3': 12.55, 'lipoC3S2': 8.3, 'rot1': 15, 'rot0': 22, 'rot3': 4, 'rot2': 4, 'state': 'normal', 'yaw': 84.22, 'datetime': '2018-10-09 11:34:24.006012', 'mgs': 0, 'volt': 0.0, 'depth': -12.5, 'time': 1065, 'pitch': 17.13, 'roll': 4.53, 'pres': 0}
{'lipoC2': 7.66, 'lipoC3S1': 4.15, 'temp': 31.75, 'lipoC3S3': 12.55, 'lipoC3S2': 8.3, 'rot1': 15, 'rot0': 22, 'rot3': 4, 'rot2': 4, 'state': 'normal', 'yaw': 83.6, 'datetime': '2018-10-09 11:34:24.016125', 'mgs': 0, 'volt': 0.0, 'depth': -12.5, 'time': 1066, 'pitch': 16.99, 'roll': 3.63, 'pres': 0}
{'lipoC2': 7.66, 'lipoC3S1': 4.15, 'temp': 31.75, 'lipoC3S3': 12.54, 'lipoC3S2': 8.3, 'rot1': 15, 'rot0': 22, 'rot3': 4, 'rot2': 4, 'state': 'normal', 'yaw': 83.04, 'datetime': '2018-10-09 11:34:24.026264', 'mgs': 0, 'volt': 0.0, 'depth': -12.5, 'time': 1066, 'pitch': 16.74, 'roll': 2.84, 'pres': 0}
{'lipoC2': 7.66, 'lipoC3S1': 4.15, 'temp': 31.81, 'lipoC3S3': 12.55, 'lipoC3S2': 8.29, 'rot1': 15, 'rot0': 22, 'rot3': 4, 'rot2': 4, 'state': 'normal', 'yaw': 83.05, 'datetime': '2018-10-09 11:34:24.036397', 'mgs': 0, 'volt': 0.0, 'depth': -12.5, 'time': 1066, 'pitch': 16.58, 'roll': 2.78, 'pres': 0}
{'lipoC2': 7.66, 'lipoC3S1': 4.15, 'temp': 31.81, 'lipoC3S3': 12.55, 'lipoC3S2': 8.3, 'rot1': 15, 'rot0': 22, 'rot3': 4, 'rot2': 4, 'state': 'normal', 'yaw': 83.89, 'datetime': '2018-10-09 11:34:24.046511', 'mgs': 0, 'volt': 0.0, 'depth': -12.5, 'time': 1066, 'pitch': 17.21, 'roll': 3.87, 'pres': 0}
{'lipoC2': 7.66, 'lipoC3S1': 4.15, 'temp': 31.81, 'lipoC3S3': 12.55, 'lipoC3S2': 8.29, 'rot1': 15, 'rot0': 22, 'rot3': 4, 'rot2': 4, 'state': 'normal', 'yaw': 85.93, 'datetime': '2018-10-09 11:34:24.056644', 'mgs': 0, 'volt': 0.0, 'depth': -12.5, 'time': 1066, 'pitch': 18.73, 'roll': 6.19, 'pres': 0}
{'lipoC2': 7.66, 'lipoC3S1': 4.15, 'temp': 31.81, 'lipoC3S3': 12.55, 'lipoC3S2': 8.3, 'rot1': 15, 'rot0': 22, 'rot3': 4, 'rot2': 4, 'state': 'normal', 'yaw': 88.86, 'datetime': '2018-10-09 11:34:24.066730', 'mgs': 0, 'volt': 0.0, 'depth': -12.5, 'time': 1066, 'pitch': 20.09, 'roll': 8.8, 'pres': 0}
{'lipoC2': 7.66, 'lipoC3S1': 4.15, 'temp': 31.81, 'lipoC3S3': 12.55, 'lipoC3S2': 8.29, 'rot1': 15, 'rot0': 22, 'rot3': 4, 'rot2': 4, 'state': 'normal', 'yaw': 92.46, 'datetime': '2018-10-09 11:34:24.076855', 'mgs': 0, 'volt': 0.0, 'depth': -12.5, 'time': 1066, 'pitch': 20.54, 'roll': 11.25, 'pres': 0}
{'lipoC2': 7.66, 'lipoC3S1': 4.15, 'temp': 31.81, 'lipoC3S3': 12.55, 'lipoC3S2': 8.3, 'rot1': 15, 'rot0': 22, 'rot3': 4, 'rot2': 4, 'state': 'normal', 'yaw': 96.54, 'datetime': '2018-10-09 11:34:24.087177', 'mgs': 0, 'volt': 0.0, 'depth': -12.5, 'time': 1066, 'pitch': 19.62, 'roll': 13.17, 'pres': 0}
{'lipoC2': 7.66, 'lipoC3S1': 4.15, 'temp': 31.81, 'lipoC3S3': 12.55, 'lipoC3S2': 8.3, 'rot1': 15, 'rot0': 22, 'rot3': 4, 'rot2': 4, 'state': 'normal', 'yaw': 99.93, 'datetime': '2018-10-09 11:34:24.097311', 'mgs': 0, 'volt': 0.0, 'depth': -12.5, 'time': 1066, 'pitch': 17.84, 'roll': 14.04, 'pres': 0}
{'lipoC2': 7.66, 'lipoC3S1': 4.15, 'temp': 31.81, 'lipoC3S3': 12.55, 'lipoC3S2': 8.3, 'rot1': 15, 'rot0': 22, 'rot3': 4, 'rot2': 4, 'state': 'normal', 'yaw': 102.93, 'datetime': '2018-10-09 11:34:24.107388', 'mgs': 0, 'volt': 0.0, 'depth': -12.5, 'time': 1066, 'pitch': 15.71, 'roll': 14.49, 'pres': 0}
{'lipoC2': 7.66, 'lipoC3S1': 4.15, 'temp': 31.81, 'lipoC3S3': 12.54, 'lipoC3S2': 8.29, 'rot1': 15, 'rot0': 22, 'rot3': 4, 'rot2': 4, 'state': 'normal', 'yaw': 105.79, 'datetime': '2018-10-09 11:34:24.117502', 'mgs': 0, 'volt': 0.0, 'depth': -12.5, 'time': 1067, 'pitch': 13.37, 'roll': 15.16, 'pres': 0}
{'lipoC2': 7.66, 'lipoC3S1': 4.15, 'temp': 31.81, 'lipoC3S3': 12.55, 'lipoC3S2': 8.3, 'rot1': 15, 'rot0': 22, 'rot3': 4, 'rot2': 4, 'state': 'normal', 'yaw': 107.89, 'datetime': '2018-10-09 11:34:24.127574', 'mgs': 0, 'volt': 0.0, 'depth': -12.5, 'time': 1067, 'pitch': 11.67, 'roll': 16.05, 'pres': 0}
{'lipoC2': 7.66, 'lipoC3S1': 4.15, 'temp': 31.81, 'lipoC3S3': 12.55, 'lipoC3S2': 8.3, 'rot1': 15, 'rot0': 22, 'rot3': 4, 'rot2': 4, 'state': 'normal', 'yaw': 109.35, 'datetime': '2018-10-09 11:34:24.137662', 'mgs': 0, 'volt': 0.0, 'depth': -12.5, 'time': 1067, 'pitch': 10.69, 'roll': 17.03, 'pres': 0}
{'lipoC2': 7.66, 'lipoC3S1': 4.15, 'temp': 31.81, 'lipoC3S3': 12.55, 'lipoC3S2': 8.3, 'rot1': 15, 'rot0': 22, 'rot3': 4, 'rot2': 4, 'state': 'normal', 'yaw': 110.29, 'datetime': '2018-10-09 11:34:24.147744', 'mgs': 0, 'volt': 0.0, 'depth': -12.5, 'time': 1067, 'pitch': 10.44, 'roll': 17.82, 'pres': 0}
{'lipoC2': 7.66, 'lipoC3S1': 4.15, 'temp': 31.75, 'lipoC3S3': 12.55, 'lipoC3S2': 8.3, 'rot1': 15, 'rot0': 22, 'rot3': 4, 'rot2': 4, 'state': 'normal', 'yaw': 110.59, 'datetime': '2018-10-09 11:34:24.157826', 'mgs': 0, 'volt': 0.0, 'depth': -12.5, 'time': 1067, 'pitch': 10.83, 'roll': 18.12, 'pres': 0}
{'lipoC2': 7.66, 'lipoC3S1': 4.15, 'temp': 31.75, 'lipoC3S3': 12.55, 'lipoC3S2': 8.3, 'rot1': 15, 'rot0': 22, 'rot3': 4, 'rot2': 4, 'state': 'normal', 'yaw': 110.36, 'datetime': '2018-10-09 11:34:24.167885', 'mgs': 0, 'volt': 0.0, 'depth': -12.5, 'time': 1067, 'pitch': 11.54, 'roll': 18.22, 'pres': 0}
{'lipoC2': 7.66, 'lipoC3S1': 4.15, 'temp': 31.81, 'lipoC3S3': 12.55, 'lipoC3S2': 8.3, 'rot1': 15, 'rot0': 22, 'rot3': 4, 'rot2': 4, 'state': 'normal', 'yaw': 109.6, 'datetime': '2018-10-09 11:34:24.177961', 'mgs': 0, 'volt': 0.0, 'depth': -12.5, 'time': 1067, 'pitch': 12.15, 'roll': 18.43, 'pres': 0}
{'lipoC2': 7.66, 'lipoC3S1': 4.15, 'temp': 31.81, 'lipoC3S3': 12.55, 'lipoC3S2': 8.29, 'rot1': 15, 'rot0': 22, 'rot3': 4, 'rot2': 4, 'state': 'normal', 'yaw': 108.85, 'datetime': '2018-10-09 11:34:24.188022', 'mgs': 0, 'volt': 0.0, 'depth': -12.5, 'time': 1067, 'pitch': 12.34, 'roll': 18.99, 'pres': 0}
{'lipoC2': 7.66, 'lipoC3S1': 4.15, 'temp': 31.81, 'lipoC3S3': 12.54, 'lipoC3S2': 8.29, 'rot1': 15, 'rot0': 22, 'rot3': 4, 'rot2': 4, 'state': 'normal', 'yaw': 108.31, 'datetime': '2018-10-09 11:34:24.198107', 'mgs': 0, 'volt': 0.0, 'depth': -12.5, 'time': 1067, 'pitch': 12.35, 'roll': 19.83, 'pres': 0}
{'lipoC2': 7.66, 'lipoC3S1': 4.15, 'temp': 31.75, 'lipoC3S3': 12.55, 'lipoC3S2': 8.3, 'rot1': 15, 'rot0': 22, 'rot3': 4, 'rot2': 4, 'state': 'normal', 'yaw': 107.97, 'datetime': '2018-10-09 11:34:24.208233', 'mgs': 0, 'volt': 0.0, 'depth': -12.5, 'time': 1067, 'pitch': 12.25, 'roll': 20.75, 'pres': 0}
{'lipoC2': 7.66, 'lipoC3S1': 4.15, 'temp': 31.75, 'lipoC3S3': 12.55, 'lipoC3S2': 8.3, 'rot1': 15, 'rot0': 22, 'rot3': 4, 'rot2': 4, 'state': 'normal', 'yaw': 107.83, 'datetime': '2018-10-09 11:34:24.218483', 'mgs': 0, 'volt': 0.0, 'depth': -12.5, 'time': 1068, 'pitch': 12.21, 'roll': 21.43, 'pres': 0}
{'lipoC2': 7.66, 'lipoC3S1': 4.15, 'temp': 31.81, 'lipoC3S3': 12.55, 'lipoC3S2': 8.3, 'rot1': 15, 'rot0': 22, 'rot3': 4, 'rot2': 4, 'state': 'normal', 'yaw': 107.85, 'datetime': '2018-10-09 11:34:24.228694', 'mgs': 0, 'volt': 0.0, 'depth': -12.5, 'time': 1068, 'pitch': 12.26, 'roll': 21.89, 'pres': 0}
{'lipoC2': 7.66, 'lipoC3S1': 4.15, 'temp': 31.81, 'lipoC3S3': 12.55, 'lipoC3S2': 8.3, 'rot1': 15, 'rot0': 22, 'rot3': 4, 'rot2': 4, 'state': 'normal', 'yaw': 107.87, 'datetime': '2018-10-09 11:34:24.238793', 'mgs': 0, 'volt': 0.0, 'depth': -12.5, 'time': 1068, 'pitch': 12.32, 'roll': 22.18, 'pres': 0}
{'lipoC2': 7.66, 'lipoC3S1': 4.15, 'temp': 31.81, 'lipoC3S3': 12.55, 'lipoC3S2': 8.3, 'rot1': 15, 'rot0': 22, 'rot3': 4, 'rot2': 4, 'state': 'normal', 'yaw': 107.77, 'datetime': '2018-10-09 11:34:24.248973', 'mgs': 0, 'volt': 0.0, 'depth': -12.5, 'time': 1068, 'pitch': 12.28, 'roll': 22.35, 'pres': 0}
{'lipoC2': 7.66, 'lipoC3S1': 4.15, 'temp': 31.81, 'lipoC3S3': 12.55, 'lipoC3S2': 8.3, 'rot1': 15, 'rot0': 22, 'rot3': 4, 'rot2': 4, 'state': 'normal', 'yaw': 107.4, 'datetime': '2018-10-09 11:34:24.259043', 'mgs': 0, 'volt': 0.0, 'depth': -12.5, 'time': 1068, 'pitch': 12.12, 'roll': 22.49, 'pres': 0}
{'lipoC2': 7.66, 'lipoC3S1': 4.15, 'temp': 31.81, 'lipoC3S3': 12.55, 'lipoC3S2': 8.3, 'rot1': 15, 'rot0': 22, 'rot3': 4, 'rot2': 4, 'state': 'normal', 'yaw': 106.8, 'datetime': '2018-10-09 11:34:24.269233', 'mgs': 0, 'volt': 0.0, 'depth': -12.5, 'time': 1068, 'pitch': 11.92, 'roll': 22.87, 'pres': 0}
{'lipoC2': 7.66, 'lipoC3S1': 4.15, 'temp': 31.75, 'lipoC3S3': 12.55, 'lipoC3S2': 8.29, 'rot1': 15, 'rot0': 22, 'rot3': 4, 'rot2': 4, 'state': 'normal', 'yaw': 106.13, 'datetime': '2018-10-09 11:34:24.279327', 'mgs': 0, 'volt': 0.0, 'depth': -12.5, 'time': 1068, 'pitch': 11.82, 'roll': 23.45, 'pres': 0}
{'lipoC2': 7.66, 'lipoC3S1': 4.15, 'temp': 31.75, 'lipoC3S3': 12.55, 'lipoC3S2': 8.3, 'rot1': 15, 'rot0': 22, 'rot3': 4, 'rot2': 4, 'state': 'normal', 'yaw': 105.4, 'datetime': '2018-10-09 11:34:24.289485', 'mgs': 0, 'volt': 0.0, 'depth': -12.5, 'time': 1068, 'pitch': 11.8, 'roll': 24.11, 'pres': 0}
{'lipoC2': 7.66, 'lipoC3S1': 4.15, 'temp': 31.75, 'lipoC3S3': 12.55, 'lipoC3S2': 8.3, 'rot1': 15, 'rot0': 22, 'rot3': 4, 'rot2': 4, 'state': 'normal', 'yaw': 104.57, 'datetime': '2018-10-09 11:34:24.299582', 'mgs': 0, 'volt': 0.0, 'depth': -12.5, 'time': 1068, 'pitch': 11.68, 'roll': 24.71, 'pres': 0}
{'lipoC2': 7.66, 'lipoC3S1': 4.15, 'temp': 31.75, 'lipoC3S3': 12.55, 'lipoC3S2': 8.3, 'rot1': 15, 'rot0': 22, 'rot3': 4, 'rot2': 4, 'state': 'normal', 'yaw': 103.94, 'datetime': '2018-10-09 11:34:24.309789', 'mgs': 0, 'volt': 0.0, 'depth': -12.5, 'time': 1069, 'pitch': 11.37, 'roll': 24.85, 'pres': 0}
{'lipoC2': 7.66, 'lipoC3S1': 4.15, 'temp': 31.75, 'lipoC3S3': 12.55, 'lipoC3S2': 8.3, 'rot1': 15, 'rot0': 22, 'rot3': 4, 'rot2': 4, 'state': 'normal', 'yaw': 103.51, 'datetime': '2018-10-09 11:34:24.319922', 'mgs': 0, 'volt': 0.0, 'depth': -12.5, 'time': 1069, 'pitch': 10.93, 'roll': 24.78, 'pres': 0}
{'lipoC2': 7.66, 'lipoC3S1': 4.15, 'temp': 31.75, 'lipoC3S3': 12.55, 'lipoC3S2': 8.29, 'rot1': 15, 'rot0': 22, 'rot3': 4, 'rot2': 4, 'state': 'normal', 'yaw': 103.33, 'datetime': '2018-10-09 11:34:24.330112', 'mgs': 0, 'volt': 0.0, 'depth': -12.5, 'time': 1069, 'pitch': 10.43, 'roll': 24.92, 'pres': 0}
{'lipoC2': 7.66, 'lipoC3S1': 4.15, 'temp': 31.75, 'lipoC3S3': 12.55, 'lipoC3S2': 8.3, 'rot1': 15, 'rot0': 22, 'rot3': 4, 'rot2': 4, 'state': 'normal', 'yaw': 103.38, 'datetime': '2018-10-09 11:34:24.340229', 'mgs': 0, 'volt': 0.0, 'depth': -12.5, 'time': 1069, 'pitch': 9.87, 'roll': 25.35, 'pres': 0}
{'lipoC2': 7.66, 'lipoC3S1': 4.15, 'temp': 31.75, 'lipoC3S3': 12.55, 'lipoC3S2': 8.3, 'rot1': 15, 'rot0': 22, 'rot3': 4, 'rot2': 4, 'state': 'normal', 'yaw': 103.49, 'datetime': '2018-10-09 11:34:24.350404', 'mgs': 0, 'volt': 0.0, 'depth': -12.5, 'time': 1069, 'pitch': 9.26, 'roll': 26.18, 'pres': 0}
{'lipoC2': 7.66, 'lipoC3S1': 4.15, 'temp': 31.75, 'lipoC3S3': 12.55, 'lipoC3S2': 8.3, 'rot1': 15, 'rot0': 22, 'rot3': 4, 'rot2': 4, 'state': 'normal', 'yaw': 103.55, 'datetime': '2018-10-09 11:34:24.360305', 'mgs': 0, 'volt': 0.0, 'depth': -12.5, 'time': 1069, 'pitch': 8.53, 'roll': 27.42, 'pres': 0}
{'lipoC2': 7.66, 'lipoC3S1': 4.15, 'temp': 31.81, 'lipoC3S3': 12.55, 'lipoC3S2': 8.3, 'rot1': 15, 'rot0': 22, 'rot3': 4, 'rot2': 4, 'state': 'normal', 'yaw': 103.71, 'datetime': '2018-10-09 11:34:24.369900', 'mgs': 0, 'volt': 0.0, 'depth': -12.5, 'time': 1069, 'pitch': 7.89, 'roll': 28.44, 'pres': 0}
{'lipoC2': 7.65, 'lipoC3S1': 4.15, 'temp': 31.81, 'lipoC3S3': 12.55, 'lipoC3S2': 8.3, 'rot1': 15, 'rot0': 22, 'rot3': 4, 'rot2': 4, 'state': 'normal', 'yaw': 104.08, 'datetime': '2018-10-09 11:34:24.379447', 'mgs': 0, 'volt': 0.0, 'depth': -12.5, 'time': 1069, 'pitch': 7.36, 'roll': 29.0, 'pres': 0}
{'lipoC2': 7.66, 'lipoC3S1': 4.15, 'temp': 31.69, 'lipoC3S3': 12.54, 'lipoC3S2': 8.3, 'rot1': 15, 'rot0': 22, 'rot3': 4, 'rot2': 4, 'state': 'normal', 'yaw': 104.96, 'datetime': '2018-10-09 11:34:24.388986', 'mgs': 0, 'volt': 0.0, 'depth': -12.5, 'time': 1069, 'pitch': 7.33, 'roll': 28.71, 'pres': 0}
{'lipoC2': 7.66, 'lipoC3S1': 4.15, 'temp': 31.69, 'lipoC3S3': 12.55, 'lipoC3S2': 8.3, 'rot1': 15, 'rot0': 22, 'rot3': 4, 'rot2': 4, 'state': 'normal', 'yaw': 105.78, 'datetime': '2018-10-09 11:34:24.398570', 'mgs': 0, 'volt': 0.0, 'depth': -12.5, 'time': 1069, 'pitch': 7.65, 'roll': 28.44, 'pres': 0}
{'lipoC2': 7.66, 'lipoC3S1': 4.15, 'temp': 31.69, 'lipoC3S3': 12.55, 'lipoC3S2': 8.3, 'rot1': 15, 'rot0': 22, 'rot3': 4, 'rot2': 4, 'state': 'normal', 'yaw': 106.45, 'datetime': '2018-10-09 11:34:24.408158', 'mgs': 0, 'volt': 0.0, 'depth': -12.5, 'time': 1070, 'pitch': 8.25, 'roll': 28.33, 'pres': 0}
{'lipoC2': 7.66, 'lipoC3S1': 4.15, 'temp': 31.75, 'lipoC3S3': 12.55, 'lipoC3S2': 8.3, 'rot1': 15, 'rot0': 22, 'rot3': 4, 'rot2': 4, 'state': 'normal', 'yaw': 107.03, 'datetime': '2018-10-09 11:34:24.417729', 'mgs': 0, 'volt': 0.0, 'depth': -12.5, 'time': 1070, 'pitch': 9.11, 'roll': 27.94, 'pres': 0}
{'lipoC2': 7.65, 'lipoC3S1': 4.15, 'temp': 31.75, 'lipoC3S3': 12.55, 'lipoC3S2': 8.3, 'rot1': 15, 'rot0': 22, 'rot3': 4, 'rot2': 4, 'state': 'normal', 'yaw': 107.37, 'datetime': '2018-10-09 11:34:24.427292', 'mgs': 0, 'volt': 0.0, 'depth': -12.5, 'time': 1070, 'pitch': 9.79, 'roll': 26.22, 'pres': 0}
{'lipoC2': 7.65, 'lipoC3S1': 4.15, 'temp': 31.75, 'lipoC3S3': 12.55, 'lipoC3S2': 8.3, 'rot1': 15, 'rot0': 22, 'rot3': 4, 'rot2': 4, 'state': 'normal', 'yaw': 107.4, 'datetime': '2018-10-09 11:34:24.436814', 'mgs': 0, 'volt': 0.0, 'depth': -12.5, 'time': 1070, 'pitch': 10.16, 'roll': 22.14, 'pres': 0}
{'lipoC2': 7.66, 'lipoC3S1': 4.15, 'temp': 31.75, 'lipoC3S3': 12.55, 'lipoC3S2': 8.3, 'rot1': 15, 'rot0': 22, 'rot3': 4, 'rot2': 4, 'state': 'normal', 'yaw': 107.18, 'datetime': '2018-10-09 11:34:24.446346', 'mgs': 0, 'volt': 0.0, 'depth': -12.5, 'time': 1070, 'pitch': 9.97, 'roll': 17.04, 'pres': 0}
{'lipoC2': 7.66, 'lipoC3S1': 4.15, 'temp': 31.75, 'lipoC3S3': 12.55, 'lipoC3S2': 8.3, 'rot1': 15, 'rot0': 22, 'rot3': 4, 'rot2': 4, 'state': 'normal', 'yaw': 106.9, 'datetime': '2018-10-09 11:34:24.455902', 'mgs': 0, 'volt': 0.0, 'depth': -12.5, 'time': 1070, 'pitch': 9.45, 'roll': 11.92, 'pres': 0}
{'lipoC2': 7.66, 'lipoC3S1': 4.15, 'temp': 31.75, 'lipoC3S3': 12.55, 'lipoC3S2': 8.3, 'rot1': 15, 'rot0': 22, 'rot3': 4, 'rot2': 4, 'state': 'normal', 'yaw': 106.66, 'datetime': '2018-10-09 11:34:24.465413', 'mgs': 0, 'volt': 0.0, 'depth': -12.5, 'time': 1070, 'pitch': 9.0, 'roll': 7.26, 'pres': 0}
{'lipoC2': 7.66, 'lipoC3S1': 4.15, 'temp': 31.75, 'lipoC3S3': 12.55, 'lipoC3S2': 8.3, 'rot1': 15, 'rot0': 22, 'rot3': 4, 'rot2': 4, 'state': 'normal', 'yaw': 106.53, 'datetime': '2018-10-09 11:34:24.474928', 'mgs': 0, 'volt': 0.0, 'depth': -12.5, 'time': 1070, 'pitch': 8.96, 'roll': 4.05, 'pres': 0}
{'lipoC2': 7.65, 'lipoC3S1': 4.15, 'temp': 31.69, 'lipoC3S3': 12.55, 'lipoC3S2': 8.29, 'rot1': 15, 'rot0': 22, 'rot3': 4, 'rot2': 4, 'state': 'normal', 'yaw': 106.55, 'datetime': '2018-10-09 11:34:24.484605', 'mgs': 0, 'volt': 0.0, 'depth': -12.5, 'time': 1070, 'pitch': 9.28, 'roll': 1.59, 'pres': 0}
{'lipoC2': 7.66, 'lipoC3S1': 4.15, 'temp': 31.69, 'lipoC3S3': 12.54, 'lipoC3S2': 8.3, 'rot1': 15, 'rot0': 22, 'rot3': 4, 'rot2': 4, 'state': 'normal', 'yaw': 106.64, 'datetime': '2018-10-09 11:34:24.494183', 'mgs': 0, 'volt': 0.0, 'depth': -12.5, 'time': 1070, 'pitch': 9.77, 'roll': -0.15, 'pres': 0}
{'lipoC2': 7.66, 'lipoC3S1': 4.15, 'temp': 31.75, 'lipoC3S3': 12.55, 'lipoC3S2': 8.3, 'rot1': 15, 'rot0': 22, 'rot3': 4, 'rot2': 4, 'state': 'normal', 'yaw': 106.81, 'datetime': '2018-10-09 11:34:24.503741', 'mgs': 0, 'volt': 0.0, 'depth': -12.5, 'time': 1071, 'pitch': 10.32, 'roll': -1.61, 'pres': 0}
{'lipoC2': 7.66, 'lipoC3S1': 4.15, 'temp': 31.75, 'lipoC3S3': 12.54, 'lipoC3S2': 8.3, 'rot1': 15, 'rot0': 22, 'rot3': 4, 'rot2': 4, 'state': 'normal', 'yaw': 107.07, 'datetime': '2018-10-09 11:34:24.513327', 'mgs': 0, 'volt': 0.0, 'depth': -12.5, 'time': 1071, 'pitch': 10.79, 'roll': -2.84, 'pres': 0}
{'lipoC2': 7.65, 'lipoC3S1': 4.15, 'temp': 31.69, 'lipoC3S3': 12.55, 'lipoC3S2': 8.3, 'rot1': 15, 'rot0': 22, 'rot3': 4, 'rot2': 4, 'state': 'normal', 'yaw': 107.39, 'datetime': '2018-10-09 11:34:24.522941', 'mgs': 0, 'volt': 0.0, 'depth': -12.5, 'time': 1071, 'pitch': 11.26, 'roll': -3.99, 'pres': 0}
{'lipoC2': 7.66, 'lipoC3S1': 4.15, 'temp': 31.69, 'lipoC3S3': 12.55, 'lipoC3S2': 8.3, 'rot1': 15, 'rot0': 22, 'rot3': 4, 'rot2': 4, 'state': 'normal', 'yaw': 107.59, 'datetime': '2018-10-09 11:34:24.623137', 'mgs': 0, 'volt': 0.0, 'depth': -12.5, 'time': 1071, 'pitch': 11.9, 'roll': -4.88, 'pres': 0}
{'lipoC2': 7.66, 'lipoC3S1': 4.15, 'temp': 31.69, 'lipoC3S3': 12.55, 'lipoC3S2': 8.3, 'rot1': 15, 'rot0': 22, 'rot3': 4, 'rot2': 4, 'state': 'normal', 'yaw': 107.5, 'datetime': '2018-10-09 11:34:24.726777', 'mgs': 0, 'volt': 0.0, 'depth': -12.5, 'time': 1071, 'pitch': 12.64, 'roll': -4.83, 'pres': 0}
{'lipoC2': 7.66, 'lipoC3S1': 4.15, 'temp': 31.75, 'lipoC3S3': 12.54, 'lipoC3S2': 8.3, 'rot1': 15, 'rot0': 22, 'rot3': 4, 'rot2': 4, 'state': 'normal', 'yaw': 107.4, 'datetime': '2018-10-09 11:34:24.830769', 'mgs': 0, 'volt': 0.0, 'depth': -12.5, 'time': 1071, 'pitch': 13.34, 'roll': -3.93, 'pres': 0}
{'lipoC2': 7.66, 'lipoC3S1': 4.15, 'temp': 31.75, 'lipoC3S3': 12.55, 'lipoC3S2': 8.3, 'rot1': 15, 'rot0': 22, 'rot3': 4, 'rot2': 4, 'state': 'normal', 'yaw': 107.53, 'datetime': '2018-10-09 11:34:24.934063', 'mgs': 0, 'volt': 0.0, 'depth': -12.5, 'time': 1071, 'pitch': 13.9, 'roll': -2.28, 'pres': 0}
{'lipoC2': 7.66, 'lipoC3S1': 4.15, 'temp': 31.81, 'lipoC3S3': 12.55, 'lipoC3S2': 8.3, 'rot1': 15, 'rot0': 22, 'rot3': 4, 'rot2': 4, 'state': 'normal', 'yaw': 107.93, 'datetime': '2018-10-09 11:34:25.038677', 'mgs': 0, 'volt': 0.0, 'depth': -12.5, 'time': 1071, 'pitch': 14.2, 'roll': -0.44, 'pres': 0}
{'lipoC2': 7.66, 'lipoC3S1': 4.15, 'temp': 31.81, 'lipoC3S3': 12.55, 'lipoC3S2': 8.3, 'rot1': 15, 'rot0': 22, 'rot3': 4, 'rot2': 4, 'state': 'normal', 'yaw': 108.52, 'datetime': '2018-10-09 11:34:25.141982', 'mgs': 0, 'volt': 0.0, 'depth': -12.5, 'time': 1071, 'pitch': 14.5, 'roll': 1.81, 'pres': 0}
{'lipoC2': 7.66, 'lipoC3S1': 4.15, 'temp': 31.81, 'lipoC3S3': 12.55, 'lipoC3S2': 8.3, 'rot1': 15, 'rot0': 22, 'rot3': 4, 'rot2': 4, 'state': 'normal', 'yaw': 109.07, 'datetime': '2018-10-09 11:34:25.245441', 'mgs': 0, 'volt': 0.0, 'depth': -12.5, 'time': 1072, 'pitch': 14.95, 'roll': 3.91, 'pres': 0}
{'lipoC2': 7.66, 'lipoC3S1': 4.15, 'temp': 31.81, 'lipoC3S3': 12.55, 'lipoC3S2': 8.3, 'rot1': 15, 'rot0': 22, 'rot3': 4, 'rot2': 4, 'state': 'normal', 'yaw': 109.65, 'datetime': '2018-10-09 11:34:25.356472', 'mgs': 0, 'volt': 0.0, 'depth': -12.5, 'time': 1072, 'pitch': 15.39, 'roll': 6.13, 'pres': 0}
{'lipoC2': 7.66, 'lipoC3S1': 4.15, 'temp': 31.81, 'lipoC3S3': 12.54, 'lipoC3S2': 8.3, 'rot1': 15, 'rot0': 22, 'rot3': 4, 'rot2': 4, 'state': 'normal', 'yaw': 110.29, 'datetime': '2018-10-09 11:34:25.453325', 'mgs': 0, 'volt': 0.0, 'depth': -12.5, 'time': 1072, 'pitch': 15.67, 'roll': 8.72, 'pres': 0}
{'lipoC2': 7.66, 'lipoC3S1': 4.15, 'temp': 31.75, 'lipoC3S3': 12.55, 'lipoC3S2': 8.3, 'rot1': 15, 'rot0': 22, 'rot3': 4, 'rot2': 4, 'state': 'normal', 'yaw': 110.8, 'datetime': '2018-10-09 11:34:25.558842', 'mgs': 0, 'volt': 0.0, 'depth': -12.5, 'time': 1072, 'pitch': 15.68, 'roll': 11.15, 'pres': 0}
{'lipoC2': 7.66, 'lipoC3S1': 4.15, 'temp': 31.75, 'lipoC3S3': 12.55, 'lipoC3S2': 8.3, 'rot1': 15, 'rot0': 22, 'rot3': 4, 'rot2': 4, 'state': 'normal', 'yaw': 111.07, 'datetime': '2018-10-09 11:34:25.666506', 'mgs': 0, 'volt': 0.0, 'depth': -12.5, 'time': 1072, 'pitch': 15.38, 'roll': 13.43, 'pres': 0}
{'lipoC2': 7.66, 'lipoC3S1': 4.15, 'temp': 31.75, 'lipoC3S3': 12.55, 'lipoC3S2': 8.3, 'rot1': 15, 'rot0': 22, 'rot3': 4, 'rot2': 4, 'state': 'normal', 'yaw': 111.2, 'datetime': '2018-10-09 11:34:25.769816', 'mgs': 0, 'volt': 0.0, 'depth': -12.5, 'time': 1072, 'pitch': 14.77, 'roll': 15.3, 'pres': 0}
{'lipoC2': 7.66, 'lipoC3S1': 4.15, 'temp': 31.75, 'lipoC3S3': 12.55, 'lipoC3S2': 8.3, 'rot1': 15, 'rot0': 22, 'rot3': 4, 'rot2': 4, 'state': 'normal', 'yaw': 111.36, 'datetime': '2018-10-09 11:34:25.873078', 'mgs': 0, 'volt': 0.0, 'depth': -12.5, 'time': 1072, 'pitch': 14.22, 'roll': 16.27, 'pres': 0}
{'lipoC2': 7.66, 'lipoC3S1': 4.15, 'temp': 31.75, 'lipoC3S3': 12.55, 'lipoC3S2': 8.3, 'rot1': 15, 'rot0': 22, 'rot3': 4, 'rot2': 4, 'state': 'normal', 'yaw': 111.66, 'datetime': '2018-10-09 11:34:25.976375', 'mgs': 0, 'volt': 0.0, 'depth': -12.5, 'time': 1072, 'pitch': 13.71, 'roll': 16.56, 'pres': 0}
{'lipoC2': 7.66, 'lipoC3S1': 4.15, 'temp': 31.75, 'lipoC3S3': 12.55, 'lipoC3S2': 8.3, 'rot1': 15, 'rot0': 22, 'rot3': 4, 'rot2': 4, 'state': 'normal', 'yaw': 112.1, 'datetime': '2018-10-09 11:34:26.079633', 'mgs': 0, 'volt': 0.0, 'depth': -12.5, 'time': 1072, 'pitch': 13.11, 'roll': 16.44, 'pres': 0}
{'lipoC2': 7.66, 'lipoC3S1': 4.15, 'temp': 31.75, 'lipoC3S3': 12.55, 'lipoC3S2': 8.3, 'rot1': 15, 'rot0': 22, 'rot3': 4, 'rot2': 4, 'state': 'normal', 'yaw': 112.48, 'datetime': '2018-10-09 11:34:26.183002', 'mgs': 0, 'volt': 0.0, 'depth': -12.5, 'time': 1072, 'pitch': 12.4, 'roll': 16.25, 'pres': 0}
