{'lipoC2': 7.91, 'lipoC3S1': 4.16, 'temp': 25.69, 'lipoC3S3': 12.58, 'lipoC3S2': 8.32, 'rot1': 0, 'rot0': 0, 'rot3': 0, 'rot2': 0, 'state': 'normal', 'yaw': 0.0, 'datetime': '2018-10-05 15:32:02.321196', 'mgs': 1, 'volt': 0.7813, 'depth': -0.293, 'time': 1, 'pitch': -5.6, 'roll': -1.85, 'pres': 160}
{'lipoC2': 7.91, 'lipoC3S1': 4.16, 'temp': 25.69, 'lipoC3S3': 12.58, 'lipoC3S2': 8.32, 'rot1': 0, 'rot0': 0, 'rot3': 0, 'rot2': 0, 'state': 'normal', 'yaw': 0.0, 'datetime': '2018-10-05 15:32:08.352827', 'mgs': 1, 'volt': 0.7813, 'depth': -0.293, 'time': 1, 'pitch': -5.6, 'roll': -1.85, 'pres': 160}
{'lipoC2': 7.91, 'lipoC3S1': 4.16, 'temp': 25.69, 'lipoC3S3': 12.58, 'lipoC3S2': 8.32, 'rot1': 0, 'rot0': 0, 'rot3': 0, 'rot2': 0, 'state': 'normal', 'yaw': 0.0, 'datetime': '2018-10-05 15:32:08.376371', 'mgs': 1, 'volt': 0.7813, 'depth': -0.293, 'time': 1, 'pitch': -5.6, 'roll': -1.85, 'pres': 160}
{'lipoC2': 7.91, 'lipoC3S1': 4.16, 'temp': 25.69, 'lipoC3S3': 12.58, 'lipoC3S2': 8.32, 'rot1': 0, 'rot0': 0, 'rot3': 0, 'rot2': 0, 'state': 'normal', 'yaw': 0.0, 'datetime': '2018-10-05 15:32:08.411910', 'mgs': 1, 'volt': 0.7813, 'depth': -0.293, 'time': 1, 'pitch': -5.6, 'roll': -1.85, 'pres': 160}
{'lipoC2': 7.91, 'lipoC3S1': 4.16, 'temp': 25.69, 'lipoC3S3': 12.58, 'lipoC3S2': 8.32, 'rot1': 0, 'rot0': 0, 'rot3': 0, 'rot2': 0, 'state': 'normal', 'yaw': 0.0, 'datetime': '2018-10-05 15:32:08.424483', 'mgs': 1, 'volt': 0.7813, 'depth': -0.293, 'time': 1, 'pitch': -5.6, 'roll': -1.85, 'pres': 160}
{'lipoC2': 7.91, 'lipoC3S1': 4.16, 'temp': 25.69, 'lipoC3S3': 12.58, 'lipoC3S2': 8.32, 'rot1': 0, 'rot0': 0, 'rot3': 0, 'rot2': 0, 'state': 'normal', 'yaw': 0.0, 'datetime': '2018-10-05 15:32:08.444728', 'mgs': 1, 'volt': 0.7813, 'depth': -0.293, 'time': 1, 'pitch': -5.6, 'roll': -1.85, 'pres': 160}
{'lipoC2': 7.91, 'lipoC3S1': 4.16, 'temp': 25.69, 'lipoC3S3': 12.58, 'lipoC3S2': 8.32, 'rot1': 0, 'rot0': 0, 'rot3': 0, 'rot2': 0, 'state': 'normal', 'yaw': 0.0, 'datetime': '2018-10-05 15:32:08.454759', 'mgs': 1, 'volt': 0.7813, 'depth': -0.293, 'time': 2, 'pitch': -5.6, 'roll': -1.85, 'pres': 160}
{'lipoC2': 7.91, 'lipoC3S1': 4.16, 'temp': 25.69, 'lipoC3S3': 12.58, 'lipoC3S2': 8.32, 'rot1': 0, 'rot0': 0, 'rot3': 0, 'rot2': 0, 'state': 'normal', 'yaw': 0.0, 'datetime': '2018-10-05 15:32:08.474954', 'mgs': 1, 'volt': 0.7813, 'depth': -0.293, 'time': 2, 'pitch': -5.6, 'roll': -1.85, 'pres': 160}
{'lipoC2': 7.91, 'lipoC3S1': 4.16, 'temp': 25.69, 'lipoC3S3': 12.58, 'lipoC3S2': 8.32, 'rot1': 0, 'rot0': 0, 'rot3': 0, 'rot2': 0, 'state': 'normal', 'yaw': 0.0, 'datetime': '2018-10-05 15:32:08.485001', 'mgs': 1, 'volt': 0.7861, 'depth': -0.217, 'time': 2, 'pitch': -5.6, 'roll': -1.85, 'pres': 161}
{'lipoC2': 7.91, 'lipoC3S1': 4.16, 'temp': 25.69, 'lipoC3S3': 12.58, 'lipoC3S2': 8.32, 'rot1': 0, 'rot0': 0, 'rot3': 0, 'rot2': 0, 'state': 'normal', 'yaw': 0.0, 'datetime': '2018-10-05 15:32:08.505243', 'mgs': 1, 'volt': 0.7813, 'depth': -0.293, 'time': 2, 'pitch': -5.6, 'roll': -1.85, 'pres': 160}
{'lipoC2': 7.91, 'lipoC3S1': 4.16, 'temp': 25.69, 'lipoC3S3': 12.58, 'lipoC3S2': 8.32, 'rot1': 0, 'rot0': 0, 'rot3': 0, 'rot2': 0, 'state': 'normal', 'yaw': 0.0, 'datetime': '2018-10-05 15:32:08.515298', 'mgs': 1, 'volt': 0.7813, 'depth': -0.293, 'time': 2, 'pitch': -5.6, 'roll': -1.85, 'pres': 160}
{'lipoC2': 7.91, 'lipoC3S1': 4.16, 'temp': 25.69, 'lipoC3S3': 12.58, 'lipoC3S2': 8.32, 'rot1': 0, 'rot0': 0, 'rot3': 0, 'rot2': 0, 'state': 'normal', 'yaw': 0.0, 'datetime': '2018-10-05 15:32:08.535504', 'mgs': 1, 'volt': 0.7813, 'depth': -0.293, 'time': 2, 'pitch': -5.6, 'roll': -1.85, 'pres': 160}
{'lipoC2': 7.91, 'lipoC3S1': 4.16, 'temp': 25.69, 'lipoC3S3': 12.58, 'lipoC3S2': 8.32, 'rot1': 0, 'rot0': 0, 'rot3': 0, 'rot2': 0, 'state': 'normal', 'yaw': 0.0, 'datetime': '2018-10-05 15:32:08.545522', 'mgs': 1, 'volt': 0.7813, 'depth': -0.293, 'time': 2, 'pitch': -5.6, 'roll': -1.85, 'pres': 160}
{'lipoC2': 7.91, 'lipoC3S1': 4.16, 'temp': 25.69, 'lipoC3S3': 12.58, 'lipoC3S2': 8.32, 'rot1': 0, 'rot0': 0, 'rot3': 0, 'rot2': 0, 'state': 'normal', 'yaw': 0.0, 'datetime': '2018-10-05 15:32:08.565735', 'mgs': 1, 'volt': 0.7813, 'depth': -0.293, 'time': 2, 'pitch': -5.6, 'roll': -1.85, 'pres': 160}
{'lipoC2': 7.91, 'lipoC3S1': 4.16, 'temp': 25.69, 'lipoC3S3': 12.58, 'lipoC3S2': 8.32, 'rot1': 0, 'rot0': 0, 'rot3': 0, 'rot2': 0, 'state': 'normal', 'yaw': 0.0, 'datetime': '2018-10-05 15:32:08.575931', 'mgs': 1, 'volt': 0.7813, 'depth': -0.293, 'time': 2, 'pitch': -5.6, 'roll': -1.85, 'pres': 160}
{'lipoC2': 7.91, 'lipoC3S1': 4.16, 'temp': 25.69, 'lipoC3S3': 12.58, 'lipoC3S2': 8.32, 'rot1': 0, 'rot0': 0, 'rot3': 0, 'rot2': 0, 'state': 'normal', 'yaw': 0.0, 'datetime': '2018-10-05 15:32:08.596200', 'mgs': 1, 'volt': 0.7813, 'depth': -0.293, 'time': 3, 'pitch': -5.6, 'roll': -1.85, 'pres': 160}
{'lipoC2': 7.91, 'lipoC3S1': 4.16, 'temp': 25.69, 'lipoC3S3': 12.58, 'lipoC3S2': 8.32, 'rot1': 0, 'rot0': 0, 'rot3': 0, 'rot2': 0, 'state': 'normal', 'yaw': 0.0, 'datetime': '2018-10-05 15:32:08.606229', 'mgs': 1, 'volt': 0.7813, 'depth': -0.293, 'time': 3, 'pitch': -5.6, 'roll': -1.85, 'pres': 160}
{'lipoC2': 7.91, 'lipoC3S1': 4.16, 'temp': 25.69, 'lipoC3S3': 12.58, 'lipoC3S2': 8.32, 'rot1': 0, 'rot0': 0, 'rot3': 0, 'rot2': 0, 'state': 'normal', 'yaw': 0.0, 'datetime': '2018-10-05 15:32:08.626465', 'mgs': 1, 'volt': 0.7861, 'depth': -0.217, 'time': 3, 'pitch': -5.6, 'roll': -1.85, 'pres': 161}
{'lipoC2': 7.91, 'lipoC3S1': 4.16, 'temp': 25.69, 'lipoC3S3': 12.58, 'lipoC3S2': 8.32, 'rot1': 0, 'rot0': 0, 'rot3': 0, 'rot2': 0, 'state': 'normal', 'yaw': 0.0, 'datetime': '2018-10-05 15:32:08.636514', 'mgs': 1, 'volt': 0.7813, 'depth': -0.293, 'time': 3, 'pitch': -5.6, 'roll': -1.85, 'pres': 160}
{'lipoC2': 7.91, 'lipoC3S1': 4.16, 'temp': 25.75, 'lipoC3S3': 12.58, 'lipoC3S2': 8.32, 'rot1': 0, 'rot0': 0, 'rot3': 0, 'rot2': 0, 'state': 'normal', 'yaw': 0.0, 'datetime': '2018-10-05 15:32:08.656833', 'mgs': 1, 'volt': 0.7813, 'depth': -0.293, 'time': 3, 'pitch': -5.6, 'roll': -1.85, 'pres': 160}
{'lipoC2': 7.91, 'lipoC3S1': 4.16, 'temp': 25.75, 'lipoC3S3': 12.58, 'lipoC3S2': 8.32, 'rot1': 0, 'rot0': 0, 'rot3': 0, 'rot2': 0, 'state': 'normal', 'yaw': 0.0, 'datetime': '2018-10-05 15:32:08.667112', 'mgs': 1, 'volt': 0.7813, 'depth': -0.293, 'time': 3, 'pitch': -5.61, 'roll': -1.86, 'pres': 160}
{'lipoC2': 7.91, 'lipoC3S1': 4.16, 'temp': 25.75, 'lipoC3S3': 12.58, 'lipoC3S2': 8.32, 'rot1': 0, 'rot0': 0, 'rot3': 0, 'rot2': 0, 'state': 'normal', 'yaw': -0.0, 'datetime': '2018-10-05 15:32:08.687453', 'mgs': 1, 'volt': 0.7813, 'depth': -0.293, 'time': 3, 'pitch': -5.62, 'roll': -1.86, 'pres': 160}
{'lipoC2': 7.91, 'lipoC3S1': 4.16, 'temp': 25.69, 'lipoC3S3': 12.58, 'lipoC3S2': 8.32, 'rot1': 0, 'rot0': 0, 'rot3': 0, 'rot2': 0, 'state': 'normal', 'yaw': 0.0, 'datetime': '2018-10-05 15:32:08.697531', 'mgs': 1, 'volt': 0.7813, 'depth': -0.293, 'time': 1, 'pitch': -5.55, 'roll': -1.58, 'pres': 160}
{'lipoC2': 7.91, 'lipoC3S1': 4.16, 'temp': 25.69, 'lipoC3S3': 12.58, 'lipoC3S2': 8.32, 'rot1': 0, 'rot0': 0, 'rot3': 0, 'rot2': 0, 'state': 'normal', 'yaw': 4.94, 'datetime': '2018-10-05 15:32:08.717739', 'mgs': 1, 'volt': 0.7813, 'depth': -0.293, 'time': 1, 'pitch': -5.45, 'roll': -1.46, 'pres': 160}
{'lipoC2': 7.91, 'lipoC3S1': 4.17, 'temp': 25.69, 'lipoC3S3': 12.58, 'lipoC3S2': 8.32, 'rot1': 0, 'rot0': 0, 'rot3': 0, 'rot2': 0, 'state': 'normal', 'yaw': 9.64, 'datetime': '2018-10-05 15:32:08.727825', 'mgs': 1, 'volt': 0.7861, 'depth': -0.217, 'time': 1, 'pitch': -5.33, 'roll': -1.37, 'pres': 161}
{'lipoC2': 7.91, 'lipoC3S1': 4.17, 'temp': 25.69, 'lipoC3S3': 12.58, 'lipoC3S2': 8.32, 'rot1': 0, 'rot0': 0, 'rot3': 0, 'rot2': 0, 'state': 'normal', 'yaw': 14.52, 'datetime': '2018-10-05 15:32:08.743856', 'mgs': 1, 'volt': 0.7813, 'depth': -0.293, 'time': 1, 'pitch': -5.23, 'roll': -1.25, 'pres': 160}
{'lipoC2': 7.91, 'lipoC3S1': 4.17, 'temp': 25.69, 'lipoC3S3': 12.58, 'lipoC3S2': 8.32, 'rot1': 0, 'rot0': 0, 'rot3': 0, 'rot2': 0, 'state': 'normal', 'yaw': 20.06, 'datetime': '2018-10-05 15:32:08.759921', 'mgs': 1, 'volt': 0.7861, 'depth': -0.217, 'time': 1, 'pitch': -5.2, 'roll': -1.1, 'pres': 161}
{'lipoC2': 7.91, 'lipoC3S1': 4.17, 'temp': 25.69, 'lipoC3S3': 12.58, 'lipoC3S2': 8.32, 'rot1': 0, 'rot0': 0, 'rot3': 0, 'rot2': 0, 'state': 'normal', 'yaw': 25.18, 'datetime': '2018-10-05 15:32:08.775979', 'mgs': 1, 'volt': 0.7813, 'depth': -0.293, 'time': 1, 'pitch': -5.2, 'roll': -0.99, 'pres': 160}
{'lipoC2': 7.91, 'lipoC3S1': 4.17, 'temp': 25.69, 'lipoC3S3': 12.58, 'lipoC3S2': 8.32, 'rot1': 0, 'rot0': 0, 'rot3': 0, 'rot2': 0, 'state': 'normal', 'yaw': 30.36, 'datetime': '2018-10-05 15:32:08.792183', 'mgs': 1, 'volt': 0.7813, 'depth': -0.293, 'time': 1, 'pitch': -5.24, 'roll': -0.89, 'pres': 160}
{'lipoC2': 7.91, 'lipoC3S1': 4.16, 'temp': 25.75, 'lipoC3S3': 12.58, 'lipoC3S2': 8.32, 'rot1': 0, 'rot0': 0, 'rot3': 0, 'rot2': 0, 'state': 'normal', 'yaw': 36.09, 'datetime': '2018-10-05 15:32:08.808236', 'mgs': 1, 'volt': 0.7813, 'depth': -0.293, 'time': 1, 'pitch': -5.29, 'roll': -0.78, 'pres': 160}
{'lipoC2': 7.91, 'lipoC3S1': 4.16, 'temp': 25.75, 'lipoC3S3': 12.58, 'lipoC3S2': 8.32, 'rot1': 0, 'rot0': 0, 'rot3': 0, 'rot2': 0, 'state': 'normal', 'yaw': 41.32, 'datetime': '2018-10-05 15:32:08.824240', 'mgs': 1, 'volt': 0.7813, 'depth': -0.293, 'time': 2, 'pitch': -5.27, 'roll': -0.68, 'pres': 160}
{'lipoC2': 7.91, 'lipoC3S1': 4.16, 'temp': 25.69, 'lipoC3S3': 12.58, 'lipoC3S2': 8.32, 'rot1': 0, 'rot0': 0, 'rot3': 0, 'rot2': 0, 'state': 'normal', 'yaw': 46.58, 'datetime': '2018-10-05 15:32:08.840308', 'mgs': 1, 'volt': 0.7813, 'depth': -0.293, 'time': 2, 'pitch': -5.25, 'roll': -0.58, 'pres': 160}
{'lipoC2': 7.91, 'lipoC3S1': 4.16, 'temp': 25.69, 'lipoC3S3': 12.58, 'lipoC3S2': 8.32, 'rot1': 0, 'rot0': 0, 'rot3': 0, 'rot2': 0, 'state': 'normal', 'yaw': 52.43, 'datetime': '2018-10-05 15:32:08.856343', 'mgs': 1, 'volt': 0.7813, 'depth': -0.293, 'time': 2, 'pitch': -5.38, 'roll': -0.52, 'pres': 160}
{'lipoC2': 7.91, 'lipoC3S1': 4.16, 'temp': 25.69, 'lipoC3S3': 12.58, 'lipoC3S2': 8.32, 'rot1': 0, 'rot0': 0, 'rot3': 0, 'rot2': 0, 'state': 'normal', 'yaw': 57.84, 'datetime': '2018-10-05 15:32:08.872403', 'mgs': 1, 'volt': 0.7813, 'depth': -0.293, 'time': 2, 'pitch': -5.45, 'roll': -0.44, 'pres': 160}
{'lipoC2': 7.91, 'lipoC3S1': 4.17, 'temp': 25.69, 'lipoC3S3': 12.58, 'lipoC3S2': 8.32, 'rot1': 0, 'rot0': 0, 'rot3': 0, 'rot2': 0, 'state': 'normal', 'yaw': 63.29, 'datetime': '2018-10-05 15:32:08.888446', 'mgs': 1, 'volt': 0.7861, 'depth': -0.217, 'time': 2, 'pitch': -5.44, 'roll': -0.36, 'pres': 161}
{'lipoC2': 7.91, 'lipoC3S1': 4.17, 'temp': 25.69, 'lipoC3S3': 12.58, 'lipoC3S2': 8.32, 'rot1': 0, 'rot0': 0, 'rot3': 0, 'rot2': 0, 'state': 'normal', 'yaw': 69.39, 'datetime': '2018-10-05 15:32:08.904553', 'mgs': 1, 'volt': 0.7813, 'depth': -0.293, 'time': 2, 'pitch': -5.54, 'roll': -0.36, 'pres': 160}
{'lipoC2': 7.91, 'lipoC3S1': 4.17, 'temp': 25.69, 'lipoC3S3': 12.58, 'lipoC3S2': 8.32, 'rot1': 0, 'rot0': 0, 'rot3': 0, 'rot2': 0, 'state': 'normal', 'yaw': 75.0, 'datetime': '2018-10-05 15:32:08.920606', 'mgs': 1, 'volt': 0.7813, 'depth': -0.293, 'time': 2, 'pitch': -5.63, 'roll': -0.24, 'pres': 160}
{'lipoC2': 7.91, 'lipoC3S1': 4.17, 'temp': 25.69, 'lipoC3S3': 12.58, 'lipoC3S2': 8.32, 'rot1': 0, 'rot0': 0, 'rot3': 0, 'rot2': 0, 'state': 'normal', 'yaw': 80.65, 'datetime': '2018-10-05 15:32:08.936626', 'mgs': 1, 'volt': 0.7861, 'depth': -0.217, 'time': 2, 'pitch': -5.68, 'roll': -0.2, 'pres': 161}
{'lipoC2': 7.91, 'lipoC3S1': 4.17, 'temp': 25.75, 'lipoC3S3': 12.58, 'lipoC3S2': 8.32, 'rot1': 0, 'rot0': 0, 'rot3': 0, 'rot2': 0, 'state': 'normal', 'yaw': 86.86, 'datetime': '2018-10-05 15:32:08.952654', 'mgs': 1, 'volt': 0.7813, 'depth': -0.293, 'time': 2, 'pitch': -5.76, 'roll': -0.19, 'pres': 160}
{'lipoC2': 7.91, 'lipoC3S1': 4.16, 'temp': 25.75, 'lipoC3S3': 12.58, 'lipoC3S2': 8.32, 'rot1': 0, 'rot0': 0, 'rot3': 0, 'rot2': 0, 'state': 'normal', 'yaw': 92.52, 'datetime': '2018-10-05 15:32:08.968704', 'mgs': 1, 'volt': 0.7813, 'depth': -0.293, 'time': 3, 'pitch': -5.84, 'roll': -0.14, 'pres': 160}
{'lipoC2': 7.91, 'lipoC3S1': 4.16, 'temp': 25.75, 'lipoC3S3': 12.58, 'lipoC3S2': 8.32, 'rot1': 0, 'rot0': 0, 'rot3': 0, 'rot2': 0, 'state': 'normal', 'yaw': 98.22, 'datetime': '2018-10-05 15:32:08.984776', 'mgs': 1, 'volt': 0.7813, 'depth': -0.293, 'time': 3, 'pitch': -5.85, 'roll': -0.14, 'pres': 160}
{'lipoC2': 7.91, 'lipoC3S1': 4.16, 'temp': 25.75, 'lipoC3S3': 12.58, 'lipoC3S2': 8.32, 'rot1': 0, 'rot0': 0, 'rot3': 0, 'rot2': 0, 'state': 'normal', 'yaw': 104.01, 'datetime': '2018-10-05 15:32:09.000981', 'mgs': 1, 'volt': 0.7813, 'depth': -0.293, 'time': 3, 'pitch': -5.89, 'roll': -0.13, 'pres': 160}
{'lipoC2': 7.91, 'lipoC3S1': 4.16, 'temp': 25.75, 'lipoC3S3': 12.58, 'lipoC3S2': 8.32, 'rot1': 0, 'rot0': 0, 'rot3': 0, 'rot2': 0, 'state': 'normal', 'yaw': 110.5, 'datetime': '2018-10-05 15:32:09.017016', 'mgs': 1, 'volt': 0.7813, 'depth': -0.293, 'time': 3, 'pitch': -6.03, 'roll': -0.13, 'pres': 160}
{'lipoC2': 7.91, 'lipoC3S1': 4.16, 'temp': 25.75, 'lipoC3S3': 12.58, 'lipoC3S2': 8.32, 'rot1': 0, 'rot0': 0, 'rot3': 0, 'rot2': 0, 'state': 'normal', 'yaw': 116.5, 'datetime': '2018-10-05 15:32:09.033061', 'mgs': 1, 'volt': 0.7813, 'depth': -0.293, 'time': 3, 'pitch': -6.15, 'roll': -0.13, 'pres': 160}
{'lipoC2': 7.91, 'lipoC3S1': 4.17, 'temp': 25.75, 'lipoC3S3': 12.58, 'lipoC3S2': 8.32, 'rot1': 0, 'rot0': 0, 'rot3': 0, 'rot2': 0, 'state': 'normal', 'yaw': 122.55, 'datetime': '2018-10-05 15:32:09.049092', 'mgs': 1, 'volt': 0.7813, 'depth': -0.293, 'time': 3, 'pitch': -6.18, 'roll': -0.13, 'pres': 160}
{'lipoC2': 7.91, 'lipoC3S1': 4.17, 'temp': 25.75, 'lipoC3S3': 12.58, 'lipoC3S2': 8.32, 'rot1': 0, 'rot0': 0, 'rot3': 0, 'rot2': 0, 'state': 'normal', 'yaw': 129.3, 'datetime': '2018-10-05 15:32:09.065143', 'mgs': 1, 'volt': 0.7861, 'depth': -0.217, 'time': 3, 'pitch': -6.18, 'roll': -0.16, 'pres': 161}
{'lipoC2': 7.91, 'lipoC3S1': 4.17, 'temp': 25.75, 'lipoC3S3': 12.58, 'lipoC3S2': 8.32, 'rot1': 0, 'rot0': 0, 'rot3': 0, 'rot2': 0, 'state': 'normal', 'yaw': 135.55, 'datetime': '2018-10-05 15:32:09.081219', 'mgs': 1, 'volt': 0.7861, 'depth': -0.217, 'time': 3, 'pitch': -6.28, 'roll': -0.18, 'pres': 161}
{'lipoC2': 7.91, 'lipoC3S1': 4.17, 'temp': 25.75, 'lipoC3S3': 12.58, 'lipoC3S2': 8.32, 'rot1': 0, 'rot0': 0, 'rot3': 0, 'rot2': 0, 'state': 'normal', 'yaw': 141.89, 'datetime': '2018-10-05 15:32:09.097277', 'mgs': 1, 'volt': 0.7861, 'depth': -0.217, 'time': 3, 'pitch': -6.41, 'roll': -0.23, 'pres': 161}
{'lipoC2': 7.91, 'lipoC3S1': 4.16, 'temp': 25.75, 'lipoC3S3': 12.58, 'lipoC3S2': 8.32, 'rot1': 0, 'rot0': 0, 'rot3': 0, 'rot2': 0, 'state': 'normal', 'yaw': 148.97, 'datetime': '2018-10-05 15:32:09.113329', 'mgs': 1, 'volt': 0.7813, 'depth': -0.293, 'time': 3, 'pitch': -6.48, 'roll': -0.27, 'pres': 160}
{'lipoC2': 7.91, 'lipoC3S1': 4.16, 'temp': 25.75, 'lipoC3S3': 12.58, 'lipoC3S2': 8.32, 'rot1': 0, 'rot0': 0, 'rot3': 0, 'rot2': 0, 'state': 'normal', 'yaw': 155.51, 'datetime': '2018-10-05 15:32:09.129358', 'mgs': 1, 'volt': 0.7813, 'depth': -0.293, 'time': 4, 'pitch': -6.56, 'roll': -0.33, 'pres': 160}
{'lipoC2': 7.91, 'lipoC3S1': 4.16, 'temp': 25.75, 'lipoC3S3': 12.58, 'lipoC3S2': 8.32, 'rot1': 0, 'rot0': 0, 'rot3': 0, 'rot2': 0, 'state': 'normal', 'yaw': 162.17, 'datetime': '2018-10-05 15:32:09.145447', 'mgs': 1, 'volt': 0.7813, 'depth': -0.293, 'time': 4, 'pitch': -6.63, 'roll': -0.41, 'pres': 160}
{'lipoC2': 7.91, 'lipoC3S1': 4.16, 'temp': 25.75, 'lipoC3S3': 12.58, 'lipoC3S2': 8.32, 'rot1': 0, 'rot0': 0, 'rot3': 0, 'rot2': 0, 'state': 'normal', 'yaw': 169.61, 'datetime': '2018-10-05 15:32:09.161484', 'mgs': 1, 'volt': 0.7861, 'depth': -0.217, 'time': 4, 'pitch': -6.66, 'roll': -0.47, 'pres': 161}
{'lipoC2': 7.91, 'lipoC3S1': 4.16, 'temp': 25.75, 'lipoC3S3': 12.58, 'lipoC3S2': 8.32, 'rot1': 0, 'rot0': 0, 'rot3': 0, 'rot2': 0, 'state': 'normal', 'yaw': 176.52, 'datetime': '2018-10-05 15:32:09.177549', 'mgs': 1, 'volt': 0.7813, 'depth': -0.293, 'time': 4, 'pitch': -6.69, 'roll': -0.57, 'pres': 160}
{'lipoC2': 7.91, 'lipoC3S1': 4.17, 'temp': 25.75, 'lipoC3S3': 12.58, 'lipoC3S2': 8.32, 'rot1': 0, 'rot0': 0, 'rot3': 0, 'rot2': 0, 'state': 'normal', 'yaw': -176.43, 'datetime': '2018-10-05 15:32:09.193650', 'mgs': 1, 'volt': 0.7813, 'depth': -0.293, 'time': 4, 'pitch': -6.75, 'roll': -0.64, 'pres': 160}
{'lipoC2': 7.91, 'lipoC3S1': 4.17, 'temp': 25.75, 'lipoC3S3': 12.58, 'lipoC3S2': 8.32, 'rot1': 0, 'rot0': 0, 'rot3': 0, 'rot2': 0, 'state': 'normal', 'yaw': -168.56, 'datetime': '2018-10-05 15:32:09.209759', 'mgs': 1, 'volt': 0.7861, 'depth': -0.217, 'time': 4, 'pitch': -6.81, 'roll': -0.71, 'pres': 161}
{'lipoC2': 7.91, 'lipoC3S1': 4.17, 'temp': 25.75, 'lipoC3S3': 12.58, 'lipoC3S2': 8.32, 'rot1': 0, 'rot0': 0, 'rot3': 0, 'rot2': 0, 'state': 'normal', 'yaw': -161.31, 'datetime': '2018-10-05 15:32:09.225959', 'mgs': 1, 'volt': 0.7861, 'depth': -0.217, 'time': 4, 'pitch': -6.86, 'roll': -0.8, 'pres': 161}
{'lipoC2': 7.91, 'lipoC3S1': 4.17, 'temp': 25.75, 'lipoC3S3': 12.58, 'lipoC3S2': 8.32, 'rot1': 0, 'rot0': 0, 'rot3': 0, 'rot2': 0, 'state': 'normal', 'yaw': -154.02, 'datetime': '2018-10-05 15:32:09.242023', 'mgs': 1, 'volt': 0.7861, 'depth': -0.217, 'time': 4, 'pitch': -6.85, 'roll': -0.84, 'pres': 161}
{'lipoC2': 7.91, 'lipoC3S1': 4.17, 'temp': 25.75, 'lipoC3S3': 12.58, 'lipoC3S2': 8.32, 'rot1': 0, 'rot0': 0, 'rot3': 0, 'rot2': 0, 'state': 'normal', 'yaw': -145.99, 'datetime': '2018-10-05 15:32:09.258081', 'mgs': 1, 'volt': 0.7813, 'depth': -0.293, 'time': 4, 'pitch': -6.79, 'roll': -0.95, 'pres': 160}
{'lipoC2': 7.91, 'lipoC3S1': 4.16, 'temp': 25.75, 'lipoC3S3': 12.58, 'lipoC3S2': 8.32, 'rot1': 0, 'rot0': 0, 'rot3': 0, 'rot2': 0, 'state': 'normal', 'yaw': -138.66, 'datetime': '2018-10-05 15:32:09.274121', 'mgs': 1, 'volt': 0.7813, 'depth': -0.293, 'time': 4, 'pitch': -6.79, 'roll': -1.07, 'pres': 160}
{'lipoC2': 7.91, 'lipoC3S1': 4.16, 'temp': 25.75, 'lipoC3S3': 12.58, 'lipoC3S2': 8.32, 'rot1': 0, 'rot0': 0, 'rot3': 0, 'rot2': 0, 'state': 'normal', 'yaw': -131.28, 'datetime': '2018-10-05 15:32:09.290173', 'mgs': 1, 'volt': 0.7813, 'depth': -0.293, 'time': 5, 'pitch': -6.81, 'roll': -1.13, 'pres': 160}
{'lipoC2': 7.91, 'lipoC3S1': 4.16, 'temp': 25.75, 'lipoC3S3': 12.58, 'lipoC3S2': 8.32, 'rot1': 0, 'rot0': 0, 'rot3': 0, 'rot2': 0, 'state': 'normal', 'yaw': -123.1, 'datetime': '2018-10-05 15:32:09.306361', 'mgs': 1, 'volt': 0.7813, 'depth': -0.293, 'time': 5, 'pitch': -6.72, 'roll': -1.21, 'pres': 160}
{'lipoC2': 7.91, 'lipoC3S1': 4.16, 'temp': 25.75, 'lipoC3S3': 12.58, 'lipoC3S2': 8.32, 'rot1': 0, 'rot0': 0, 'rot3': 0, 'rot2': 0, 'state': 'normal', 'yaw': -115.64, 'datetime': '2018-10-05 15:32:09.321922', 'mgs': 1, 'volt': 0.7813, 'depth': -0.293, 'time': 5, 'pitch': -6.62, 'roll': -1.25, 'pres': 160}
{'lipoC2': 7.91, 'lipoC3S1': 4.16, 'temp': 25.75, 'lipoC3S3': 12.58, 'lipoC3S2': 8.32, 'rot1': 0, 'rot0': 0, 'rot3': 0, 'rot2': 0, 'state': 'normal', 'yaw': -108.14, 'datetime': '2018-10-05 15:32:09.337478', 'mgs': 1, 'volt': 0.7813, 'depth': -0.293, 'time': 5, 'pitch': -6.63, 'roll': -1.34, 'pres': 160}
{'lipoC2': 7.91, 'lipoC3S1': 4.17, 'temp': 25.75, 'lipoC3S3': 12.58, 'lipoC3S2': 8.32, 'rot1': 0, 'rot0': 0, 'rot3': 0, 'rot2': 0, 'state': 'normal', 'yaw': -100.61, 'datetime': '2018-10-05 15:32:09.353022', 'mgs': 1, 'volt': 0.7861, 'depth': -0.217, 'time': 5, 'pitch': -6.61, 'roll': -1.37, 'pres': 161}
{'lipoC2': 7.91, 'lipoC3S1': 4.17, 'temp': 25.69, 'lipoC3S3': 12.58, 'lipoC3S2': 8.32, 'rot1': 0, 'rot0': 0, 'rot3': 0, 'rot2': 0, 'state': 'normal', 'yaw': -92.3, 'datetime': '2018-10-05 15:32:09.368516', 'mgs': 1, 'volt': 0.7813, 'depth': -0.293, 'time': 5, 'pitch': -6.45, 'roll': -1.43, 'pres': 160}
{'lipoC2': 7.91, 'lipoC3S1': 4.17, 'temp': 25.69, 'lipoC3S3': 12.58, 'lipoC3S2': 8.32, 'rot1': 0, 'rot0': 0, 'rot3': 0, 'rot2': 0, 'state': 'normal', 'yaw': -84.63, 'datetime': '2018-10-05 15:32:09.383960', 'mgs': 1, 'volt': 0.7813, 'depth': -0.293, 'time': 5, 'pitch': -6.32, 'roll': -1.48, 'pres': 160}
{'lipoC2': 7.91, 'lipoC3S1': 4.17, 'temp': 25.69, 'lipoC3S3': 12.58, 'lipoC3S2': 8.32, 'rot1': 0, 'rot0': 0, 'rot3': 0, 'rot2': 0, 'state': 'normal', 'yaw': -76.01, 'datetime': '2018-10-05 15:32:09.399508', 'mgs': 1, 'volt': 0.7861, 'depth': -0.217, 'time': 5, 'pitch': -6.31, 'roll': -1.51, 'pres': 161}
{'lipoC2': 7.91, 'lipoC3S1': 4.17, 'temp': 25.69, 'lipoC3S3': 12.58, 'lipoC3S2': 8.32, 'rot1': 0, 'rot0': 0, 'rot3': 0, 'rot2': 0, 'state': 'normal', 'yaw': -68.04, 'datetime': '2018-10-05 15:32:09.415007', 'mgs': 1, 'volt': 0.7813, 'depth': -0.293, 'time': 5, 'pitch': -6.28, 'roll': -1.52, 'pres': 160}
{'lipoC2': 7.91, 'lipoC3S1': 4.16, 'temp': 25.69, 'lipoC3S3': 12.56, 'lipoC3S2': 8.31, 'rot1': 0, 'rot0': 0, 'rot3': 0, 'rot2': 0, 'state': 'normal', 'yaw': -59.95, 'datetime': '2018-10-05 15:32:09.430600', 'mgs': 1, 'volt': 0.7813, 'depth': -0.293, 'time': 6, 'pitch': -6.18, 'roll': -1.51, 'pres': 160}
{'lipoC2': 7.9, 'lipoC3S1': 4.16, 'temp': 25.75, 'lipoC3S3': 12.56, 'lipoC3S2': 8.31, 'rot1': 0, 'rot0': 0, 'rot3': 0, 'rot2': 0, 'state': 'normal', 'yaw': -50.91, 'datetime': '2018-10-05 15:32:09.446097', 'mgs': 1, 'volt': 0.7813, 'depth': -0.293, 'time': 6, 'pitch': -6.13, 'roll': -1.52, 'pres': 160}
{'lipoC2': 7.9, 'lipoC3S1': 4.16, 'temp': 25.75, 'lipoC3S3': 12.58, 'lipoC3S2': 8.32, 'rot1': 0, 'rot0': 0, 'rot3': 0, 'rot2': 0, 'state': 'normal', 'yaw': -42.56, 'datetime': '2018-10-05 15:32:09.461561', 'mgs': 1, 'volt': 0.7813, 'depth': -0.293, 'time': 6, 'pitch': -6.07, 'roll': -1.49, 'pres': 160}
{'lipoC2': 7.9, 'lipoC3S1': 4.16, 'temp': 25.69, 'lipoC3S3': 12.56, 'lipoC3S2': 8.31, 'rot1': 0, 'rot0': 0, 'rot3': 0, 'rot2': 0, 'state': 'normal', 'yaw': -34.08, 'datetime': '2018-10-05 15:32:09.477034', 'mgs': 1, 'volt': 0.7813, 'depth': -0.293, 'time': 6, 'pitch': -5.99, 'roll': -1.47, 'pres': 160}
{'lipoC2': 7.9, 'lipoC3S1': 4.15, 'temp': 25.69, 'lipoC3S3': 12.55, 'lipoC3S2': 8.19, 'rot1': 0, 'rot0': 0, 'rot3': 0, 'rot2': 0, 'state': 'normal', 'yaw': -25.41, 'datetime': '2018-10-05 15:32:09.492500', 'mgs': 1, 'volt': 0.7813, 'depth': -0.293, 'time': 6, 'pitch': -5.91, 'roll': -1.44, 'pres': 160}
{'lipoC2': 7.9, 'lipoC3S1': 4.09, 'temp': 25.69, 'lipoC3S3': 12.5, 'lipoC3S2': 8.26, 'rot1': 1, 'rot0': 2, 'rot3': 0, 'rot2': 0, 'state': 'normal', 'yaw': -15.69, 'datetime': '2018-10-05 15:32:09.508021', 'mgs': 1, 'volt': 0.7617, 'depth': -0.598, 'time': 6, 'pitch': -5.9, 'roll': -1.37, 'pres': 156}
{'lipoC2': 7.88, 'lipoC3S1': 4.17, 'temp': 25.69, 'lipoC3S3': 12.45, 'lipoC3S2': 8.23, 'rot1': 4, 'rot0': 4, 'rot3': 0, 'rot2': 0, 'state': 'normal', 'yaw': -6.73, 'datetime': '2018-10-05 15:32:09.523411', 'mgs': 1, 'volt': 0.8057, 'depth': 0.089, 'time': 6, 'pitch': -5.82, 'roll': -1.3, 'pres': 165}
{'lipoC2': 7.9, 'lipoC3S1': 4.04, 'temp': 25.69, 'lipoC3S3': 12.34, 'lipoC3S2': 8.11, 'rot1': 8, 'rot0': 8, 'rot3': 0, 'rot2': 0, 'state': 'normal', 'yaw': 2.28, 'datetime': '2018-10-05 15:32:09.543100', 'mgs': 1, 'volt': 0.7959, 'depth': -0.064, 'time': 6, 'pitch': -5.72, 'roll': -1.17, 'pres': 163}
{'lipoC2': 7.87, 'lipoC3S1': 4.16, 'temp': 25.75, 'lipoC3S3': 12.51, 'lipoC3S2': 8.29, 'rot1': 31, 'rot0': 16, 'rot3': 0, 'rot2': 2, 'state': 'normal', 'yaw': 12.14, 'datetime': '2018-10-05 15:32:09.552674', 'mgs': 1, 'volt': 0.791, 'depth': -0.14, 'time': 6, 'pitch': -5.69, 'roll': -1.15, 'pres': 162}
{'lipoC2': 7.88, 'lipoC3S1': 4.12, 'temp': 25.75, 'lipoC3S3': 12.23, 'lipoC3S2': 8.19, 'rot1': 43, 'rot0': 19, 'rot3': 0, 'rot2': 2, 'state': 'normal', 'yaw': 21.05, 'datetime': '2018-10-05 15:32:09.568200', 'mgs': 1, 'volt': 0.7959, 'depth': -0.064, 'time': 6, 'pitch': -5.74, 'roll': -1.14, 'pres': 163}
{'lipoC2': 7.91, 'lipoC3S1': 4.15, 'temp': 25.81, 'lipoC3S3': 12.56, 'lipoC3S2': 8.36, 'rot1': 46, 'rot0': 22, 'rot3': 0, 'rot2': 2, 'state': 'normal', 'yaw': 29.94, 'datetime': '2018-10-05 15:32:09.583760', 'mgs': 1, 'volt': 0.7813, 'depth': -0.293, 'time': 7, 'pitch': -5.8, 'roll': -0.97, 'pres': 160}
{'lipoC2': 7.9, 'lipoC3S1': 4.16, 'temp': 25.81, 'lipoC3S3': 12.56, 'lipoC3S2': 8.31, 'rot1': 47, 'rot0': 23, 'rot3': 0, 'rot2': 2, 'state': 'normal', 'yaw': 39.64, 'datetime': '2018-10-05 15:32:09.599366', 'mgs': 1, 'volt': 0.7813, 'depth': -0.293, 'time': 7, 'pitch': -5.8, 'roll': -0.91, 'pres': 160}
{'lipoC2': 7.9, 'lipoC3S1': 4.15, 'temp': 25.81, 'lipoC3S3': 12.52, 'lipoC3S2': 8.28, 'rot1': 48, 'rot0': 24, 'rot3': 0, 'rot2': 2, 'state': 'normal', 'yaw': 48.37, 'datetime': '2018-10-05 15:32:09.684900', 'mgs': 1, 'volt': 0.7813, 'depth': -0.293, 'time': 7, 'pitch': -5.74, 'roll': -0.84, 'pres': 160}
{'lipoC2': 7.88, 'lipoC3S1': 4.15, 'temp': 25.69, 'lipoC3S3': 12.52, 'lipoC3S2': 8.29, 'rot1': 49, 'rot0': 25, 'rot3': 0, 'rot2': 2, 'state': 'normal', 'yaw': 57.87, 'datetime': '2018-10-05 15:32:09.788524', 'mgs': 1, 'volt': 0.7861, 'depth': -0.217, 'time': 7, 'pitch': -5.79, 'roll': -0.79, 'pres': 161}
{'lipoC2': 7.91, 'lipoC3S1': 4.21, 'temp': 25.69, 'lipoC3S3': 12.54, 'lipoC3S2': 8.29, 'rot1': 51, 'rot0': 27, 'rot3': 0, 'rot2': 2, 'state': 'normal', 'yaw': 66.43, 'datetime': '2018-10-05 15:32:09.892081', 'mgs': 1, 'volt': 0.8252, 'depth': 0.394, 'time': 7, 'pitch': -5.89, 'roll': -0.77, 'pres': 169}
{'lipoC2': 7.9, 'lipoC3S1': 4.14, 'temp': 25.75, 'lipoC3S3': 12.56, 'lipoC3S2': 8.21, 'rot1': 53, 'rot0': 29, 'rot3': 0, 'rot2': 2, 'state': 'normal', 'yaw': 74.95, 'datetime': '2018-10-05 15:32:09.996983', 'mgs': 1, 'volt': 0.7813, 'depth': -0.293, 'time': 7, 'pitch': -5.94, 'roll': -0.73, 'pres': 160}
{'lipoC2': 7.91, 'lipoC3S1': 4.14, 'temp': 25.75, 'lipoC3S3': 12.5, 'lipoC3S2': 8.17, 'rot1': 55, 'rot0': 31, 'rot3': 0, 'rot2': 2, 'state': 'normal', 'yaw': 84.29, 'datetime': '2018-10-05 15:32:10.100613', 'mgs': 1, 'volt': 0.7813, 'depth': -0.293, 'time': 7, 'pitch': -5.94, 'roll': -0.72, 'pres': 160}
{'lipoC2': 7.9, 'lipoC3S1': 4.14, 'temp': 25.69, 'lipoC3S3': 12.39, 'lipoC3S2': 8.26, 'rot1': 58, 'rot0': 34, 'rot3': 0, 'rot2': 2, 'state': 'normal', 'yaw': 92.74, 'datetime': '2018-10-05 15:32:10.204265', 'mgs': 1, 'volt': 0.7813, 'depth': -0.293, 'time': 7, 'pitch': -5.96, 'roll': -0.67, 'pres': 160}
{'lipoC2': 7.88, 'lipoC3S1': 4.14, 'temp': 25.69, 'lipoC3S3': 12.48, 'lipoC3S2': 8.26, 'rot1': 61, 'rot0': 37, 'rot3': 0, 'rot2': 2, 'state': 'normal', 'yaw': 101.13, 'datetime': '2018-10-05 15:32:10.307871', 'mgs': 1, 'volt': 0.791, 'depth': -0.14, 'time': 7, 'pitch': -6.08, 'roll': -0.66, 'pres': 162}
