{'lipoC2': 7.34, 'lipoC3S1': 3.88, 'temp': 26.75, 'lipoC3S3': 11.72, 'lipoC3S2': 7.75, 'rot1': 0, 'rot0': 0, 'rot3': 0, 'rot2': 0, 'state': 'normal', 'yaw': -0.34, 'datetime': '2018-10-09 19:57:15.719067', 'mgs': 0, 'volt': 0.874, 'depth': 1.157, 'time': 1, 'pitch': 1.71, 'roll': -5.56, 'pres': 179}
{'lipoC2': 7.34, 'lipoC3S1': 3.88, 'temp': 26.75, 'lipoC3S3': 11.72, 'lipoC3S2': 7.75, 'rot1': 0, 'rot0': 0, 'rot3': 0, 'rot2': 0, 'state': 'normal', 'yaw': -0.69, 'datetime': '2018-10-09 19:57:18.746420', 'mgs': 0, 'volt': 0.874, 'depth': 1.157, 'time': 1, 'pitch': 2.04, 'roll': -6.14, 'pres': 179}
{'lipoC2': 7.34, 'lipoC3S1': 3.88, 'temp': 26.75, 'lipoC3S3': 11.72, 'lipoC3S2': 7.75, 'rot1': 0, 'rot0': 0, 'rot3': 0, 'rot2': 0, 'state': 'normal', 'yaw': -1.26, 'datetime': '2018-10-09 19:57:21.788322', 'mgs': 0, 'volt': 0.8691, 'depth': 1.08, 'time': 1, 'pitch': 2.39, 'roll': -6.75, 'pres': 178}
{'lipoC2': 7.34, 'lipoC3S1': 3.88, 'temp': 26.75, 'lipoC3S3': 11.72, 'lipoC3S2': 7.75, 'rot1': 0, 'rot0': 0, 'rot3': 0, 'rot2': 0, 'state': 'normal', 'yaw': -1.96, 'datetime': '2018-10-09 19:57:21.818308', 'mgs': 0, 'volt': 0.8691, 'depth': 1.08, 'time': 1, 'pitch': 2.76, 'roll': -7.42, 'pres': 178}
{'lipoC2': 7.34, 'lipoC3S1': 3.88, 'temp': 26.75, 'lipoC3S3': 11.72, 'lipoC3S2': 7.75, 'rot1': 0, 'rot0': 0, 'rot3': 0, 'rot2': 0, 'state': 'normal', 'yaw': -2.83, 'datetime': '2018-10-09 19:57:21.848506', 'mgs': 0, 'volt': 0.8691, 'depth': 1.08, 'time': 1, 'pitch': 3.01, 'roll': -8.11, 'pres': 178}
{'lipoC2': 7.34, 'lipoC3S1': 3.88, 'temp': 26.75, 'lipoC3S3': 11.72, 'lipoC3S2': 7.75, 'rot1': 0, 'rot0': 0, 'rot3': 0, 'rot2': 0, 'state': 'normal', 'yaw': -3.55, 'datetime': '2018-10-09 19:57:21.878436', 'mgs': 0, 'volt': 0.8691, 'depth': 1.08, 'time': 1, 'pitch': 2.81, 'roll': -8.66, 'pres': 178}
{'lipoC2': 7.34, 'lipoC3S1': 3.88, 'temp': 26.75, 'lipoC3S3': 11.72, 'lipoC3S2': 7.75, 'rot1': 0, 'rot0': 0, 'rot3': 0, 'rot2': 0, 'state': 'normal', 'yaw': -4.15, 'datetime': '2018-10-09 19:57:21.907051', 'mgs': 0, 'volt': 0.8691, 'depth': 1.08, 'time': 1, 'pitch': 2.64, 'roll': -9.14, 'pres': 178}
{'lipoC2': 7.34, 'lipoC3S1': 3.88, 'temp': 26.75, 'lipoC3S3': 11.72, 'lipoC3S2': 7.75, 'rot1': 0, 'rot0': 0, 'rot3': 0, 'rot2': 0, 'state': 'normal', 'yaw': -4.56, 'datetime': '2018-10-09 19:57:21.922802', 'mgs': 0, 'volt': 0.8643, 'depth': 1.004, 'time': 2, 'pitch': 2.76, 'roll': -9.68, 'pres': 177}
{'lipoC2': 7.34, 'lipoC3S1': 3.88, 'temp': 26.69, 'lipoC3S3': 11.72, 'lipoC3S2': 7.75, 'rot1': 0, 'rot0': 0, 'rot3': 0, 'rot2': 0, 'state': 'normal', 'yaw': -4.65, 'datetime': '2018-10-09 19:57:21.941915', 'mgs': 0, 'volt': 0.8643, 'depth': 1.004, 'time': 2, 'pitch': 3.01, 'roll': -10.19, 'pres': 177}
{'lipoC2': 7.34, 'lipoC3S1': 3.88, 'temp': 26.69, 'lipoC3S3': 11.72, 'lipoC3S2': 7.75, 'rot1': 0, 'rot0': 0, 'rot3': 0, 'rot2': 0, 'state': 'normal', 'yaw': -4.77, 'datetime': '2018-10-09 19:57:21.960866', 'mgs': 0, 'volt': 0.8643, 'depth': 1.004, 'time': 2, 'pitch': 2.9, 'roll': -10.6, 'pres': 177}
{'lipoC2': 7.34, 'lipoC3S1': 3.88, 'temp': 26.69, 'lipoC3S3': 11.72, 'lipoC3S2': 7.75, 'rot1': 0, 'rot0': 0, 'rot3': 0, 'rot2': 0, 'state': 'normal', 'yaw': -5.08, 'datetime': '2018-10-09 19:57:21.982513', 'mgs': 0, 'volt': 0.8643, 'depth': 1.004, 'time': 2, 'pitch': 2.55, 'roll': -11.03, 'pres': 177}
{'lipoC2': 7.34, 'lipoC3S1': 3.88, 'temp': 26.75, 'lipoC3S3': 11.72, 'lipoC3S2': 7.75, 'rot1': 0, 'rot0': 0, 'rot3': 0, 'rot2': 0, 'state': 'normal', 'yaw': -5.46, 'datetime': '2018-10-09 19:57:22.008322', 'mgs': 0, 'volt': 0.8643, 'depth': 1.004, 'time': 2, 'pitch': 2.75, 'roll': -11.51, 'pres': 177}
{'lipoC2': 7.34, 'lipoC3S1': 3.88, 'temp': 26.75, 'lipoC3S3': 11.72, 'lipoC3S2': 7.75, 'rot1': 0, 'rot0': 0, 'rot3': 0, 'rot2': 0, 'state': 'normal', 'yaw': -5.68, 'datetime': '2018-10-09 19:57:22.038104', 'mgs': 0, 'volt': 0.8594, 'depth': 0.928, 'time': 2, 'pitch': 3.29, 'roll': -12.12, 'pres': 176}
{'lipoC2': 7.34, 'lipoC3S1': 3.88, 'temp': 26.69, 'lipoC3S3': 11.72, 'lipoC3S2': 7.75, 'rot1': 0, 'rot0': 0, 'rot3': 0, 'rot2': 0, 'state': 'normal', 'yaw': -5.86, 'datetime': '2018-10-09 19:57:22.063611', 'mgs': 0, 'volt': 0.8594, 'depth': 0.928, 'time': 2, 'pitch': 3.65, 'roll': -12.72, 'pres': 176}
{'lipoC2': 7.34, 'lipoC3S1': 3.88, 'temp': 26.69, 'lipoC3S3': 11.72, 'lipoC3S2': 7.75, 'rot1': 0, 'rot0': 0, 'rot3': 0, 'rot2': 0, 'state': 'normal', 'yaw': -6.08, 'datetime': '2018-10-09 19:57:22.084389', 'mgs': 0, 'volt': 0.8594, 'depth': 0.928, 'time': 2, 'pitch': 3.74, 'roll': -13.05, 'pres': 176}
{'lipoC2': 7.34, 'lipoC3S1': 3.88, 'temp': 26.69, 'lipoC3S3': 11.72, 'lipoC3S2': 7.75, 'rot1': 0, 'rot0': 0, 'rot3': 0, 'rot2': 0, 'state': 'normal', 'yaw': -6.29, 'datetime': '2018-10-09 19:57:22.100985', 'mgs': 0, 'volt': 0.8594, 'depth': 0.928, 'time': 2, 'pitch': 4.07, 'roll': -13.21, 'pres': 176}
{'lipoC2': 7.34, 'lipoC3S1': 3.88, 'temp': 26.69, 'lipoC3S3': 11.72, 'lipoC3S2': 7.75, 'rot1': 0, 'rot0': 0, 'rot3': 0, 'rot2': 0, 'state': 'normal', 'yaw': -6.29, 'datetime': '2018-10-09 19:57:22.117141', 'mgs': 0, 'volt': 0.8594, 'depth': 0.928, 'time': 3, 'pitch': 4.63, 'roll': -13.29, 'pres': 176}
{'lipoC2': 7.34, 'lipoC3S1': 3.88, 'temp': 26.69, 'lipoC3S3': 11.72, 'lipoC3S2': 7.75, 'rot1': 0, 'rot0': 0, 'rot3': 0, 'rot2': 0, 'state': 'normal', 'yaw': -6.01, 'datetime': '2018-10-09 19:57:22.134820', 'mgs': 0, 'volt': 0.8594, 'depth': 0.928, 'time': 3, 'pitch': 4.9, 'roll': -13.23, 'pres': 176}
{'lipoC2': 7.34, 'lipoC3S1': 3.88, 'temp': 26.75, 'lipoC3S3': 11.72, 'lipoC3S2': 7.75, 'rot1': 0, 'rot0': 0, 'rot3': 0, 'rot2': 0, 'state': 'normal', 'yaw': -5.75, 'datetime': '2018-10-09 19:57:22.151172', 'mgs': 0, 'volt': 0.8594, 'depth': 0.928, 'time': 3, 'pitch': 4.96, 'roll': -12.91, 'pres': 176}
{'lipoC2': 7.34, 'lipoC3S1': 3.88, 'temp': 26.75, 'lipoC3S3': 11.72, 'lipoC3S2': 7.75, 'rot1': 0, 'rot0': 0, 'rot3': 0, 'rot2': 0, 'state': 'normal', 'yaw': -5.55, 'datetime': '2018-10-09 19:57:22.167715', 'mgs': 0, 'volt': 0.8594, 'depth': 0.928, 'time': 3, 'pitch': 5.12, 'roll': -12.35, 'pres': 176}
{'lipoC2': 7.34, 'lipoC3S1': 3.88, 'temp': 26.75, 'lipoC3S3': 11.72, 'lipoC3S2': 7.75, 'rot1': 0, 'rot0': 0, 'rot3': 0, 'rot2': 0, 'state': 'normal', 'yaw': -5.27, 'datetime': '2018-10-09 19:57:22.186023', 'mgs': 0, 'volt': 0.8545, 'depth': 0.851, 'time': 3, 'pitch': 5.49, 'roll': -11.75, 'pres': 175}
{'lipoC2': 7.34, 'lipoC3S1': 3.88, 'temp': 26.75, 'lipoC3S3': 11.72, 'lipoC3S2': 7.75, 'rot1': 0, 'rot0': 0, 'rot3': 0, 'rot2': 0, 'state': 'normal', 'yaw': -4.88, 'datetime': '2018-10-09 19:57:22.202590', 'mgs': 0, 'volt': 0.8545, 'depth': 0.851, 'time': 3, 'pitch': 5.89, 'roll': -11.06, 'pres': 175}
{'lipoC2': 7.34, 'lipoC3S1': 3.88, 'temp': 26.75, 'lipoC3S3': 11.72, 'lipoC3S2': 7.75, 'rot1': 0, 'rot0': 0, 'rot3': 0, 'rot2': 0, 'state': 'normal', 'yaw': -4.61, 'datetime': '2018-10-09 19:57:22.219085', 'mgs': 0, 'volt': 0.8594, 'depth': 0.928, 'time': 3, 'pitch': 6.22, 'roll': -10.07, 'pres': 176}
{'lipoC2': 7.34, 'lipoC3S1': 3.88, 'temp': 26.75, 'lipoC3S3': 11.72, 'lipoC3S2': 7.75, 'rot1': 0, 'rot0': 0, 'rot3': 0, 'rot2': 0, 'state': 'normal', 'yaw': -4.45, 'datetime': '2018-10-09 19:57:22.238088', 'mgs': 0, 'volt': 0.8594, 'depth': 0.928, 'time': 3, 'pitch': 6.51, 'roll': -9.08, 'pres': 176}
{'lipoC2': 7.34, 'lipoC3S1': 3.88, 'temp': 26.75, 'lipoC3S3': 11.72, 'lipoC3S2': 7.75, 'rot1': 0, 'rot0': 0, 'rot3': 0, 'rot2': 0, 'state': 'normal', 'yaw': -4.15, 'datetime': '2018-10-09 19:57:22.261160', 'mgs': 0, 'volt': 0.8594, 'depth': 0.928, 'time': 3, 'pitch': 6.86, 'roll': -8.18, 'pres': 176}
{'lipoC2': 7.34, 'lipoC3S1': 3.88, 'temp': 26.69, 'lipoC3S3': 11.72, 'lipoC3S2': 7.75, 'rot1': 0, 'rot0': 0, 'rot3': 0, 'rot2': 0, 'state': 'normal', 'yaw': -3.74, 'datetime': '2018-10-09 19:57:22.282943', 'mgs': 0, 'volt': 0.8594, 'depth': 0.928, 'time': 3, 'pitch': 7.19, 'roll': -7.4, 'pres': 176}
{'lipoC2': 7.34, 'lipoC3S1': 3.88, 'temp': 26.69, 'lipoC3S3': 11.72, 'lipoC3S2': 7.75, 'rot1': 0, 'rot0': 0, 'rot3': 0, 'rot2': 0, 'state': 'normal', 'yaw': -3.49, 'datetime': '2018-10-09 19:57:22.300355', 'mgs': 0, 'volt': 0.8594, 'depth': 0.928, 'time': 4, 'pitch': 7.24, 'roll': -6.82, 'pres': 176}
{'lipoC2': 7.34, 'lipoC3S1': 3.88, 'temp': 26.69, 'lipoC3S3': 11.72, 'lipoC3S2': 7.75, 'rot1': 0, 'rot0': 0, 'rot3': 0, 'rot2': 0, 'state': 'normal', 'yaw': -3.34, 'datetime': '2018-10-09 19:57:22.316615', 'mgs': 0, 'volt': 0.8594, 'depth': 0.928, 'time': 4, 'pitch': 7.1, 'roll': -6.43, 'pres': 176}
{'lipoC2': 7.34, 'lipoC3S1': 3.88, 'temp': 26.69, 'lipoC3S3': 11.72, 'lipoC3S2': 7.75, 'rot1': 0, 'rot0': 0, 'rot3': 0, 'rot2': 0, 'state': 'normal', 'yaw': -3.32, 'datetime': '2018-10-09 19:57:22.333634', 'mgs': 0, 'volt': 0.8594, 'depth': 0.928, 'time': 4, 'pitch': 6.96, 'roll': -6.29, 'pres': 176}
{'lipoC2': 7.34, 'lipoC3S1': 3.88, 'temp': 26.69, 'lipoC3S3': 11.72, 'lipoC3S2': 7.75, 'rot1': 0, 'rot0': 0, 'rot3': 0, 'rot2': 0, 'state': 'normal', 'yaw': -3.33, 'datetime': '2018-10-09 19:57:22.356134', 'mgs': 0, 'volt': 0.8594, 'depth': 0.928, 'time': 4, 'pitch': 7.04, 'roll': -6.41, 'pres': 176}
{'lipoC2': 7.34, 'lipoC3S1': 3.88, 'temp': 26.75, 'lipoC3S3': 11.72, 'lipoC3S2': 7.75, 'rot1': 0, 'rot0': 0, 'rot3': 0, 'rot2': 0, 'state': 'normal', 'yaw': -0.02, 'datetime': '2018-10-09 19:57:22.372343', 'mgs': 0, 'volt': 0.8496, 'depth': 0.775, 'time': 1, 'pitch': -1.7, 'roll': -3.51, 'pres': 174}
{'lipoC2': 7.34, 'lipoC3S1': 3.88, 'temp': 26.75, 'lipoC3S3': 11.72, 'lipoC3S2': 7.75, 'rot1': 0, 'rot0': 0, 'rot3': 0, 'rot2': 0, 'state': 'normal', 'yaw': -0.11, 'datetime': '2018-10-09 19:57:22.388975', 'mgs': 0, 'volt': 0.8496, 'depth': 0.775, 'time': 1, 'pitch': -2.32, 'roll': -3.15, 'pres': 174}
{'lipoC2': 7.34, 'lipoC3S1': 3.88, 'temp': 26.75, 'lipoC3S3': 11.73, 'lipoC3S2': 7.76, 'rot1': 0, 'rot0': 0, 'rot3': 0, 'rot2': 0, 'state': 'normal', 'yaw': -0.07, 'datetime': '2018-10-09 19:57:22.405838', 'mgs': 0, 'volt': 0.8545, 'depth': 0.851, 'time': 1, 'pitch': -2.75, 'roll': -2.99, 'pres': 175}
{'lipoC2': 7.34, 'lipoC3S1': 3.88, 'temp': 26.75, 'lipoC3S3': 11.73, 'lipoC3S2': 7.75, 'rot1': 0, 'rot0': 0, 'rot3': 0, 'rot2': 0, 'state': 'normal', 'yaw': -0.04, 'datetime': '2018-10-09 19:57:22.422849', 'mgs': 0, 'volt': 0.8545, 'depth': 0.851, 'time': 1, 'pitch': -2.99, 'roll': -2.92, 'pres': 175}
{'lipoC2': 7.34, 'lipoC3S1': 3.88, 'temp': 26.75, 'lipoC3S3': 11.73, 'lipoC3S2': 7.76, 'rot1': 0, 'rot0': 0, 'rot3': 0, 'rot2': 0, 'state': 'normal', 'yaw': -0.04, 'datetime': '2018-10-09 19:57:22.440120', 'mgs': 0, 'volt': 0.8545, 'depth': 0.851, 'time': 1, 'pitch': -3.15, 'roll': -2.81, 'pres': 175}
{'lipoC2': 7.34, 'lipoC3S1': 3.88, 'temp': 26.75, 'lipoC3S3': 11.72, 'lipoC3S2': 7.76, 'rot1': 0, 'rot0': 0, 'rot3': 0, 'rot2': 0, 'state': 'normal', 'yaw': -0.17, 'datetime': '2018-10-09 19:57:22.456830', 'mgs': 0, 'volt': 0.8594, 'depth': 0.928, 'time': 1, 'pitch': -3.29, 'roll': -2.56, 'pres': 176}
{'lipoC2': 7.34, 'lipoC3S1': 3.88, 'temp': 26.75, 'lipoC3S3': 11.73, 'lipoC3S2': 7.76, 'rot1': 0, 'rot0': 0, 'rot3': 0, 'rot2': 0, 'state': 'normal', 'yaw': -0.45, 'datetime': '2018-10-09 19:57:22.473470', 'mgs': 0, 'volt': 0.8594, 'depth': 0.928, 'time': 1, 'pitch': -3.33, 'roll': -2.14, 'pres': 176}
{'lipoC2': 7.34, 'lipoC3S1': 3.88, 'temp': 26.75, 'lipoC3S3': 11.72, 'lipoC3S2': 7.75, 'rot1': 0, 'rot0': 0, 'rot3': 0, 'rot2': 0, 'state': 'normal', 'yaw': -0.74, 'datetime': '2018-10-09 19:57:22.490018', 'mgs': 0, 'volt': 0.8594, 'depth': 0.928, 'time': 1, 'pitch': -3.3, 'roll': -1.7, 'pres': 176}
{'lipoC2': 7.34, 'lipoC3S1': 3.88, 'temp': 26.75, 'lipoC3S3': 11.72, 'lipoC3S2': 7.75, 'rot1': 0, 'rot0': 0, 'rot3': 0, 'rot2': 0, 'state': 'normal', 'yaw': -0.93, 'datetime': '2018-10-09 19:57:22.506696', 'mgs': 0, 'volt': 0.8594, 'depth': 0.928, 'time': 2, 'pitch': -3.24, 'roll': -1.32, 'pres': 176}
{'lipoC2': 7.34, 'lipoC3S1': 3.88, 'temp': 26.81, 'lipoC3S3': 11.72, 'lipoC3S2': 7.75, 'rot1': 0, 'rot0': 0, 'rot3': 0, 'rot2': 0, 'state': 'normal', 'yaw': -0.97, 'datetime': '2018-10-09 19:57:22.523560', 'mgs': 0, 'volt': 0.8643, 'depth': 1.004, 'time': 2, 'pitch': -3.23, 'roll': -1.09, 'pres': 177}
{'lipoC2': 7.34, 'lipoC3S1': 3.88, 'temp': 26.81, 'lipoC3S3': 11.72, 'lipoC3S2': 7.75, 'rot1': 0, 'rot0': 0, 'rot3': 0, 'rot2': 0, 'state': 'normal', 'yaw': -0.9, 'datetime': '2018-10-09 19:57:22.540494', 'mgs': 0, 'volt': 0.8643, 'depth': 1.004, 'time': 2, 'pitch': -3.3, 'roll': -1.02, 'pres': 177}
{'lipoC2': 7.34, 'lipoC3S1': 3.88, 'temp': 26.81, 'lipoC3S3': 11.72, 'lipoC3S2': 7.75, 'rot1': 0, 'rot0': 0, 'rot3': 0, 'rot2': 0, 'state': 'normal', 'yaw': -0.73, 'datetime': '2018-10-09 19:57:22.557471', 'mgs': 0, 'volt': 0.8643, 'depth': 1.004, 'time': 2, 'pitch': -3.37, 'roll': -1.06, 'pres': 177}
{'lipoC2': 7.34, 'lipoC3S1': 3.88, 'temp': 26.75, 'lipoC3S3': 11.73, 'lipoC3S2': 7.76, 'rot1': 0, 'rot0': 0, 'rot3': 0, 'rot2': 0, 'state': 'normal', 'yaw': -0.55, 'datetime': '2018-10-09 19:57:22.574496', 'mgs': 0, 'volt': 0.8643, 'depth': 1.004, 'time': 2, 'pitch': -3.43, 'roll': -1.18, 'pres': 177}
{'lipoC2': 7.34, 'lipoC3S1': 3.88, 'temp': 26.75, 'lipoC3S3': 11.73, 'lipoC3S2': 7.75, 'rot1': 0, 'rot0': 0, 'rot3': 0, 'rot2': 0, 'state': 'normal', 'yaw': -0.4, 'datetime': '2018-10-09 19:57:22.591424', 'mgs': 0, 'volt': 0.8691, 'depth': 1.08, 'time': 2, 'pitch': -3.46, 'roll': -1.32, 'pres': 178}
{'lipoC2': 7.34, 'lipoC3S1': 3.88, 'temp': 26.69, 'lipoC3S3': 11.73, 'lipoC3S2': 7.75, 'rot1': 0, 'rot0': 0, 'rot3': 0, 'rot2': 0, 'state': 'normal', 'yaw': -0.32, 'datetime': '2018-10-09 19:57:22.608008', 'mgs': 0, 'volt': 0.8691, 'depth': 1.08, 'time': 2, 'pitch': -3.44, 'roll': -1.41, 'pres': 178}
{'lipoC2': 7.34, 'lipoC3S1': 3.88, 'temp': 26.69, 'lipoC3S3': 11.73, 'lipoC3S2': 7.75, 'rot1': 0, 'rot0': 0, 'rot3': 0, 'rot2': 0, 'state': 'normal', 'yaw': -0.29, 'datetime': '2018-10-09 19:57:22.624582', 'mgs': 0, 'volt': 0.874, 'depth': 1.157, 'time': 2, 'pitch': -3.48, 'roll': -1.47, 'pres': 179}
{'lipoC2': 7.34, 'lipoC3S1': 3.88, 'temp': 26.75, 'lipoC3S3': 11.73, 'lipoC3S2': 7.76, 'rot1': 0, 'rot0': 0, 'rot3': 0, 'rot2': 0, 'state': 'normal', 'yaw': -0.3, 'datetime': '2018-10-09 19:57:22.641196', 'mgs': 0, 'volt': 0.874, 'depth': 1.157, 'time': 2, 'pitch': -3.54, 'roll': -1.45, 'pres': 179}
{'lipoC2': 7.33, 'lipoC3S1': 3.81, 'temp': 26.75, 'lipoC3S3': 11.63, 'lipoC3S2': 7.65, 'rot1': 0, 'rot0': 0, 'rot3': 0, 'rot2': 0, 'state': 'normal', 'yaw': -0.3, 'datetime': '2018-10-09 19:57:22.657822', 'mgs': 0, 'volt': 0.8984, 'depth': 1.538, 'time': 3, 'pitch': -3.68, 'roll': -1.43, 'pres': 184}
{'lipoC2': 7.33, 'lipoC3S1': 3.83, 'temp': 26.75, 'lipoC3S3': 11.67, 'lipoC3S2': 7.7, 'rot1': 0, 'rot0': 0, 'rot3': 1, 'rot2': 1, 'state': 'normal', 'yaw': -0.37, 'datetime': '2018-10-09 19:57:22.674616', 'mgs': 0, 'volt': 0.8887, 'depth': 1.385, 'time': 3, 'pitch': -3.62, 'roll': -1.29, 'pres': 182}
{'lipoC2': 7.33, 'lipoC3S1': 3.84, 'temp': 26.75, 'lipoC3S3': 11.6, 'lipoC3S2': 7.71, 'rot1': 0, 'rot0': 0, 'rot3': 2, 'rot2': 2, 'state': 'normal', 'yaw': -0.51, 'datetime': '2018-10-09 19:57:22.690866', 'mgs': 0, 'volt': 0.8936, 'depth': 1.462, 'time': 3, 'pitch': -3.15, 'roll': -0.98, 'pres': 183}
{'lipoC2': 7.33, 'lipoC3S1': 3.86, 'temp': 26.75, 'lipoC3S3': 11.64, 'lipoC3S2': 7.68, 'rot1': 0, 'rot0': 0, 'rot3': 3, 'rot2': 3, 'state': 'normal', 'yaw': -0.69, 'datetime': '2018-10-09 19:57:22.707210', 'mgs': 0, 'volt': 0.8838, 'depth': 1.309, 'time': 3, 'pitch': -2.37, 'roll': -0.6, 'pres': 181}
{'lipoC2': 7.33, 'lipoC3S1': 3.86, 'temp': 26.69, 'lipoC3S3': 11.6, 'lipoC3S2': 7.68, 'rot1': 0, 'rot0': 0, 'rot3': 3, 'rot2': 4, 'state': 'normal', 'yaw': -0.9, 'datetime': '2018-10-09 19:57:22.723359', 'mgs': 0, 'volt': 0.8838, 'depth': 1.309, 'time': 3, 'pitch': -1.39, 'roll': -0.17, 'pres': 181}
{'lipoC2': 7.34, 'lipoC3S1': 3.83, 'temp': 26.69, 'lipoC3S3': 11.64, 'lipoC3S2': 7.69, 'rot1': 0, 'rot0': 0, 'rot3': 4, 'rot2': 4, 'state': 'normal', 'yaw': -1.13, 'datetime': '2018-10-09 19:57:22.739420', 'mgs': 0, 'volt': 0.874, 'depth': 1.157, 'time': 3, 'pitch': -0.3, 'roll': 0.33, 'pres': 179}
{'lipoC2': 7.34, 'lipoC3S1': 3.83, 'temp': 26.75, 'lipoC3S3': 11.65, 'lipoC3S2': 7.69, 'rot1': 0, 'rot0': 0, 'rot3': 5, 'rot2': 5, 'state': 'normal', 'yaw': -1.27, 'datetime': '2018-10-09 19:57:22.755353', 'mgs': 0, 'volt': 0.8936, 'depth': 1.462, 'time': 3, 'pitch': 0.49, 'roll': 0.76, 'pres': 183}
{'lipoC2': 7.33, 'lipoC3S1': 3.85, 'temp': 26.75, 'lipoC3S3': 11.65, 'lipoC3S2': 7.71, 'rot1': 0, 'rot0': 0, 'rot3': 6, 'rot2': 6, 'state': 'normal', 'yaw': -1.26, 'datetime': '2018-10-09 19:57:22.771327', 'mgs': 0, 'volt': 0.8838, 'depth': 1.309, 'time': 3, 'pitch': 0.97, 'roll': 1.06, 'pres': 181}
{'lipoC2': 7.33, 'lipoC3S1': 3.86, 'temp': 26.75, 'lipoC3S3': 11.6, 'lipoC3S2': 7.66, 'rot1': 0, 'rot0': 0, 'rot3': 7, 'rot2': 7, 'state': 'normal', 'yaw': -1.26, 'datetime': '2018-10-09 19:57:22.787439', 'mgs': 0, 'volt': 0.874, 'depth': 1.157, 'time': 3, 'pitch': 1.2, 'roll': 1.32, 'pres': 179}
{'lipoC2': 7.34, 'lipoC3S1': 3.82, 'temp': 26.69, 'lipoC3S3': 11.61, 'lipoC3S2': 7.67, 'rot1': 0, 'rot0': 0, 'rot3': 8, 'rot2': 8, 'state': 'normal', 'yaw': -1.26, 'datetime': '2018-10-09 19:57:22.803489', 'mgs': 0, 'volt': 0.8643, 'depth': 1.004, 'time': 3, 'pitch': 1.18, 'roll': 1.51, 'pres': 177}
{'lipoC2': 7.34, 'lipoC3S1': 3.87, 'temp': 26.69, 'lipoC3S3': 11.63, 'lipoC3S2': 7.69, 'rot1': 0, 'rot0': 0, 'rot3': 9, 'rot2': 8, 'state': 'normal', 'yaw': -1.26, 'datetime': '2018-10-09 19:57:22.819804', 'mgs': 0, 'volt': 0.8643, 'depth': 1.004, 'time': 4, 'pitch': 1.04, 'roll': 1.64, 'pres': 177}
{'lipoC2': 7.34, 'lipoC3S1': 3.83, 'temp': 26.75, 'lipoC3S3': 11.63, 'lipoC3S2': 7.68, 'rot1': 0, 'rot0': 0, 'rot3': 10, 'rot2': 9, 'state': 'normal', 'yaw': -1.26, 'datetime': '2018-10-09 19:57:22.836148', 'mgs': 0, 'volt': 0.8203, 'depth': 0.317, 'time': 4, 'pitch': 0.88, 'roll': 1.68, 'pres': 168}
{'lipoC2': 7.34, 'lipoC3S1': 3.83, 'temp': 26.75, 'lipoC3S3': 11.64, 'lipoC3S2': 7.68, 'rot1': 0, 'rot0': 0, 'rot3': 11, 'rot2': 10, 'state': 'normal', 'yaw': -1.26, 'datetime': '2018-10-09 19:57:22.853208', 'mgs': 0, 'volt': 0.8789, 'depth': 1.233, 'time': 4, 'pitch': 0.73, 'roll': 1.71, 'pres': 180}
{'lipoC2': 7.33, 'lipoC3S1': 3.86, 'temp': 26.69, 'lipoC3S3': 11.61, 'lipoC3S2': 7.67, 'rot1': 0, 'rot0': 0, 'rot3': 12, 'rot2': 11, 'state': 'normal', 'yaw': -1.25, 'datetime': '2018-10-09 19:57:22.869717', 'mgs': 0, 'volt': 0.8545, 'depth': 0.851, 'time': 4, 'pitch': 0.55, 'roll': 1.62, 'pres': 175}
{'lipoC2': 7.33, 'lipoC3S1': 3.85, 'temp': 26.69, 'lipoC3S3': 11.63, 'lipoC3S2': 7.71, 'rot1': 0, 'rot0': 0, 'rot3': 13, 'rot2': 12, 'state': 'normal', 'yaw': -1.11, 'datetime': '2018-10-09 19:57:22.886720', 'mgs': 0, 'volt': 0.8594, 'depth': 0.928, 'time': 4, 'pitch': 0.47, 'roll': 1.24, 'pres': 176}
{'lipoC2': 7.34, 'lipoC3S1': 3.84, 'temp': 26.69, 'lipoC3S3': 11.67, 'lipoC3S2': 7.7, 'rot1': 0, 'rot0': 0, 'rot3': 14, 'rot2': 13, 'state': 'normal', 'yaw': -0.9, 'datetime': '2018-10-09 19:57:22.903923', 'mgs': 0, 'volt': 0.8496, 'depth': 0.775, 'time': 4, 'pitch': 0.48, 'roll': 0.79, 'pres': 174}
{'lipoC2': 7.33, 'lipoC3S1': 3.86, 'temp': 26.69, 'lipoC3S3': 11.61, 'lipoC3S2': 7.67, 'rot1': 0, 'rot0': 0, 'rot3': 16, 'rot2': 14, 'state': 'normal', 'yaw': -0.61, 'datetime': '2018-10-09 19:57:22.920719', 'mgs': 0, 'volt': 0.8398, 'depth': 0.623, 'time': 4, 'pitch': 0.64, 'roll': 0.34, 'pres': 172}
{'lipoC2': 7.33, 'lipoC3S1': 3.86, 'temp': 26.69, 'lipoC3S3': 11.61, 'lipoC3S2': 7.68, 'rot1': 0, 'rot0': 0, 'rot3': 17, 'rot2': 14, 'state': 'normal', 'yaw': -0.26, 'datetime': '2018-10-09 19:57:22.937174', 'mgs': 0, 'volt': 0.8398, 'depth': 0.623, 'time': 4, 'pitch': 0.89, 'roll': -0.01, 'pres': 172}
{'lipoC2': 7.33, 'lipoC3S1': 3.86, 'temp': 26.75, 'lipoC3S3': 11.61, 'lipoC3S2': 7.71, 'rot1': 0, 'rot0': 0, 'rot3': 18, 'rot2': 15, 'state': 'normal', 'yaw': 0.1, 'datetime': '2018-10-09 19:57:22.953675', 'mgs': 0, 'volt': 0.8447, 'depth': 0.699, 'time': 4, 'pitch': 1.07, 'roll': -0.09, 'pres': 173}
{'lipoC2': 7.34, 'lipoC3S1': 3.84, 'temp': 26.75, 'lipoC3S3': 11.67, 'lipoC3S2': 7.71, 'rot1': 0, 'rot0': 0, 'rot3': 19, 'rot2': 16, 'state': 'normal', 'yaw': 0.5, 'datetime': '2018-10-09 19:57:22.970450', 'mgs': 0, 'volt': 0.8496, 'depth': 0.775, 'time': 4, 'pitch': 1.1, 'roll': -0.02, 'pres': 174}
{'lipoC2': 7.34, 'lipoC3S1': 3.84, 'temp': 26.69, 'lipoC3S3': 11.67, 'lipoC3S2': 7.7, 'rot1': 0, 'rot0': 0, 'rot3': 20, 'rot2': 17, 'state': 'normal', 'yaw': 0.95, 'datetime': '2018-10-09 19:57:22.987061', 'mgs': 0, 'volt': 0.8203, 'depth': 0.317, 'time': 5, 'pitch': 1.05, 'roll': 0.14, 'pres': 168}
{'lipoC2': 7.34, 'lipoC3S1': 3.85, 'temp': 26.69, 'lipoC3S3': 11.65, 'lipoC3S2': 7.7, 'rot1': 0, 'rot0': 0, 'rot3': 21, 'rot2': 18, 'state': 'normal', 'yaw': 1.39, 'datetime': '2018-10-09 19:57:23.003894', 'mgs': 0, 'volt': 0.8301, 'depth': 0.47, 'time': 5, 'pitch': 0.94, 'roll': 0.26, 'pres': 170}
{'lipoC2': 7.33, 'lipoC3S1': 3.86, 'temp': 26.69, 'lipoC3S3': 11.61, 'lipoC3S2': 7.71, 'rot1': 0, 'rot0': 0, 'rot3': 22, 'rot2': 19, 'state': 'normal', 'yaw': 1.88, 'datetime': '2018-10-09 19:57:23.020713', 'mgs': 0, 'volt': 0.8398, 'depth': 0.623, 'time': 5, 'pitch': 0.78, 'roll': 0.3, 'pres': 172}
{'lipoC2': 7.34, 'lipoC3S1': 3.85, 'temp': 26.69, 'lipoC3S3': 11.67, 'lipoC3S2': 7.72, 'rot1': 0, 'rot0': 0, 'rot3': 24, 'rot2': 20, 'state': 'normal', 'yaw': 2.4, 'datetime': '2018-10-09 19:57:23.037259', 'mgs': 0, 'volt': 0.8447, 'depth': 0.699, 'time': 5, 'pitch': 0.63, 'roll': 0.22, 'pres': 173}
{'lipoC2': 7.34, 'lipoC3S1': 3.84, 'temp': 26.69, 'lipoC3S3': 11.67, 'lipoC3S2': 7.71, 'rot1': 0, 'rot0': 0, 'rot3': 25, 'rot2': 21, 'state': 'normal', 'yaw': 2.82, 'datetime': '2018-10-09 19:57:23.053783', 'mgs': 0, 'volt': 0.8447, 'depth': 0.699, 'time': 5, 'pitch': 0.46, 'roll': 0.08, 'pres': 173}
{'lipoC2': 7.33, 'lipoC3S1': 3.85, 'temp': 26.69, 'lipoC3S3': 11.64, 'lipoC3S2': 7.71, 'rot1': 0, 'rot0': 0, 'rot3': 26, 'rot2': 22, 'state': 'normal', 'yaw': 3.19, 'datetime': '2018-10-09 19:57:23.070180', 'mgs': 0, 'volt': 0.8398, 'depth': 0.623, 'time': 5, 'pitch': 0.3, 'roll': -0.17, 'pres': 172}
{'lipoC2': 7.33, 'lipoC3S1': 3.84, 'temp': 26.69, 'lipoC3S3': 11.67, 'lipoC3S2': 7.71, 'rot1': 0, 'rot0': 0, 'rot3': 27, 'rot2': 23, 'state': 'normal', 'yaw': 3.63, 'datetime': '2018-10-09 19:57:23.086188', 'mgs': 0, 'volt': 0.8447, 'depth': 0.699, 'time': 5, 'pitch': 0.26, 'roll': -0.45, 'pres': 173}
{'lipoC2': 7.34, 'lipoC3S1': 3.86, 'temp': 26.75, 'lipoC3S3': 11.63, 'lipoC3S2': 7.7, 'rot1': 0, 'rot0': 0, 'rot3': 28, 'rot2': 24, 'state': 'normal', 'yaw': 4.01, 'datetime': '2018-10-09 19:57:23.102316', 'mgs': 0, 'volt': 0.8301, 'depth': 0.47, 'time': 5, 'pitch': 0.4, 'roll': -0.63, 'pres': 170}
{'lipoC2': 7.33, 'lipoC3S1': 3.86, 'temp': 26.75, 'lipoC3S3': 11.61, 'lipoC3S2': 7.67, 'rot1': 0, 'rot0': 0, 'rot3': 29, 'rot2': 24, 'state': 'normal', 'yaw': 4.37, 'datetime': '2018-10-09 19:57:23.118370', 'mgs': 0, 'volt': 0.8398, 'depth': 0.623, 'time': 5, 'pitch': 0.62, 'roll': -0.73, 'pres': 172}
{'lipoC2': 7.33, 'lipoC3S1': 3.85, 'temp': 26.75, 'lipoC3S3': 11.6, 'lipoC3S2': 7.71, 'rot1': 0, 'rot0': 0, 'rot3': 31, 'rot2': 25, 'state': 'normal', 'yaw': 4.71, 'datetime': '2018-10-09 19:57:23.134523', 'mgs': 0, 'volt': 0.835, 'depth': 0.546, 'time': 6, 'pitch': 0.86, 'roll': -0.81, 'pres': 171}
{'lipoC2': 7.33, 'lipoC3S1': 3.84, 'temp': 26.75, 'lipoC3S3': 11.64, 'lipoC3S2': 7.7, 'rot1': 0, 'rot0': 0, 'rot3': 32, 'rot2': 26, 'state': 'normal', 'yaw': 5.04, 'datetime': '2018-10-09 19:57:23.150702', 'mgs': 0, 'volt': 0.8301, 'depth': 0.47, 'time': 6, 'pitch': 1.06, 'roll': -0.87, 'pres': 170}
{'lipoC2': 7.33, 'lipoC3S1': 3.83, 'temp': 26.75, 'lipoC3S3': 11.63, 'lipoC3S2': 7.68, 'rot1': 0, 'rot0': 0, 'rot3': 33, 'rot2': 27, 'state': 'normal', 'yaw': 5.43, 'datetime': '2018-10-09 19:57:23.166647', 'mgs': 0, 'volt': 0.8301, 'depth': 0.47, 'time': 6, 'pitch': 1.16, 'roll': -0.93, 'pres': 170}
{'lipoC2': 7.33, 'lipoC3S1': 3.86, 'temp': 26.75, 'lipoC3S3': 11.61, 'lipoC3S2': 7.68, 'rot1': 0, 'rot0': 0, 'rot3': 34, 'rot2': 28, 'state': 'normal', 'yaw': 5.89, 'datetime': '2018-10-09 19:57:23.182717', 'mgs': 0, 'volt': 0.835, 'depth': 0.546, 'time': 6, 'pitch': 1.22, 'roll': -1.0, 'pres': 171}
{'lipoC2': 7.32, 'lipoC3S1': 3.82, 'temp': 26.75, 'lipoC3S3': 11.61, 'lipoC3S2': 7.71, 'rot1': 1, 'rot0': 1, 'rot3': 35, 'rot2': 29, 'state': 'normal', 'yaw': 6.4, 'datetime': '2018-10-09 19:57:23.198794', 'mgs': 0, 'volt': 0.835, 'depth': 0.546, 'time': 6, 'pitch': 1.27, 'roll': -1.04, 'pres': 171}
{'lipoC2': 7.33, 'lipoC3S1': 3.84, 'temp': 26.56, 'lipoC3S3': 11.65, 'lipoC3S2': 7.71, 'rot1': 1, 'rot0': 1, 'rot3': 36, 'rot2': 30, 'state': 'normal', 'yaw': 7.01, 'datetime': '2018-10-09 19:57:23.214949', 'mgs': 0, 'volt': 0.8447, 'depth': 0.699, 'time': 6, 'pitch': 1.33, 'roll': -1.03, 'pres': 173}
{'lipoC2': 7.33, 'lipoC3S1': 3.84, 'temp': 26.56, 'lipoC3S3': 11.67, 'lipoC3S2': 7.7, 'rot1': 1, 'rot0': 1, 'rot3': 37, 'rot2': 31, 'state': 'normal', 'yaw': 7.62, 'datetime': '2018-10-09 19:57:23.231179', 'mgs': 0, 'volt': 0.8398, 'depth': 0.623, 'time': 6, 'pitch': 1.42, 'roll': -1.01, 'pres': 172}
{'lipoC2': 7.33, 'lipoC3S1': 3.83, 'temp': 26.56, 'lipoC3S3': 11.65, 'lipoC3S2': 7.7, 'rot1': 1, 'rot0': 1, 'rot3': 39, 'rot2': 32, 'state': 'normal', 'yaw': 8.24, 'datetime': '2018-10-09 19:57:23.247355', 'mgs': 0, 'volt': 0.8398, 'depth': 0.623, 'time': 6, 'pitch': 1.5, 'roll': -0.98, 'pres': 172}
{'lipoC2': 7.33, 'lipoC3S1': 3.83, 'temp': 26.75, 'lipoC3S3': 11.65, 'lipoC3S2': 7.69, 'rot1': 2, 'rot0': 2, 'rot3': 40, 'rot2': 32, 'state': 'normal', 'yaw': 8.95, 'datetime': '2018-10-09 19:57:23.263489', 'mgs': 0, 'volt': 0.835, 'depth': 0.546, 'time': 6, 'pitch': 1.53, 'roll': -0.95, 'pres': 171}
{'lipoC2': 7.33, 'lipoC3S1': 3.86, 'temp': 26.75, 'lipoC3S3': 11.63, 'lipoC3S2': 7.68, 'rot1': 2, 'rot0': 2, 'rot3': 41, 'rot2': 33, 'state': 'normal', 'yaw': 9.64, 'datetime': '2018-10-09 19:57:23.279568', 'mgs': 0, 'volt': 0.8496, 'depth': 0.775, 'time': 6, 'pitch': 1.52, 'roll': -0.92, 'pres': 174}
{'lipoC2': 7.33, 'lipoC3S1': 3.86, 'temp': 26.56, 'lipoC3S3': 11.64, 'lipoC3S2': 7.7, 'rot1': 2, 'rot0': 2, 'rot3': 42, 'rot2': 34, 'state': 'normal', 'yaw': 10.35, 'datetime': '2018-10-09 19:57:23.295966', 'mgs': 0, 'volt': 0.8594, 'depth': 0.928, 'time': 7, 'pitch': 1.48, 'roll': -0.89, 'pres': 176}
{'lipoC2': 7.33, 'lipoC3S1': 3.86, 'temp': 26.56, 'lipoC3S3': 11.6, 'lipoC3S2': 7.71, 'rot1': 2, 'rot0': 2, 'rot3': 43, 'rot2': 35, 'state': 'normal', 'yaw': 11.17, 'datetime': '2018-10-09 19:57:23.311870', 'mgs': 0, 'volt': 0.8398, 'depth': 0.623, 'time': 7, 'pitch': 1.43, 'roll': -0.86, 'pres': 172}
{'lipoC2': 7.32, 'lipoC3S1': 3.85, 'temp': 26.69, 'lipoC3S3': 11.61, 'lipoC3S2': 7.71, 'rot1': 3, 'rot0': 3, 'rot3': 44, 'rot2': 36, 'state': 'normal', 'yaw': 11.93, 'datetime': '2018-10-09 19:57:23.327454', 'mgs': 0, 'volt': 0.8447, 'depth': 0.699, 'time': 7, 'pitch': 1.46, 'roll': -0.82, 'pres': 173}
{'lipoC2': 7.33, 'lipoC3S1': 3.83, 'temp': 26.69, 'lipoC3S3': 11.65, 'lipoC3S2': 7.69, 'rot1': 3, 'rot0': 3, 'rot3': 45, 'rot2': 37, 'state': 'normal', 'yaw': 12.8, 'datetime': '2018-10-09 19:57:23.347565', 'mgs': 0, 'volt': 0.8398, 'depth': 0.623, 'time': 7, 'pitch': 1.47, 'roll': -0.76, 'pres': 172}
{'lipoC2': 7.33, 'lipoC3S1': 3.83, 'temp': 26.69, 'lipoC3S3': 11.63, 'lipoC3S2': 7.67, 'rot1': 3, 'rot0': 3, 'rot3': 46, 'rot2': 38, 'state': 'normal', 'yaw': 13.58, 'datetime': '2018-10-09 19:57:23.357129', 'mgs': 0, 'volt': 0.8301, 'depth': 0.47, 'time': 7, 'pitch': 1.47, 'roll': -0.67, 'pres': 170}
{'lipoC2': 7.33, 'lipoC3S1': 3.85, 'temp': 26.56, 'lipoC3S3': 11.65, 'lipoC3S2': 7.71, 'rot1': 3, 'rot0': 3, 'rot3': 48, 'rot2': 39, 'state': 'normal', 'yaw': 14.33, 'datetime': '2018-10-09 19:57:23.386487', 'mgs': 0, 'volt': 0.8447, 'depth': 0.699, 'time': 7, 'pitch': 1.41, 'roll': -0.64, 'pres': 173}
{'lipoC2': 7.33, 'lipoC3S1': 3.82, 'temp': 26.56, 'lipoC3S3': 11.6, 'lipoC3S2': 7.55, 'rot1': 4, 'rot0': 4, 'rot3': 49, 'rot2': 40, 'state': 'normal', 'yaw': 15.11, 'datetime': '2018-10-09 19:57:23.490038', 'mgs': 0, 'volt': 0.8496, 'depth': 0.775, 'time': 7, 'pitch': 1.26, 'roll': -0.61, 'pres': 174}
{'lipoC2': 7.33, 'lipoC3S1': 3.83, 'temp': 26.69, 'lipoC3S3': 11.5, 'lipoC3S2': 7.67, 'rot1': 5, 'rot0': 5, 'rot3': 50, 'rot2': 40, 'state': 'normal', 'yaw': 15.58, 'datetime': '2018-10-09 19:57:23.593626', 'mgs': 0, 'volt': 0.8594, 'depth': 0.928, 'time': 7, 'pitch': 1.38, 'roll': -0.63, 'pres': 176}
{'lipoC2': 7.33, 'lipoC3S1': 3.82, 'temp': 26.69, 'lipoC3S3': 11.55, 'lipoC3S2': 7.64, 'rot1': 6, 'rot0': 6, 'rot3': 51, 'rot2': 41, 'state': 'normal', 'yaw': 15.79, 'datetime': '2018-10-09 19:57:23.697210', 'mgs': 0, 'volt': 0.8398, 'depth': 0.623, 'time': 7, 'pitch': 1.83, 'roll': -0.7, 'pres': 172}
{'lipoC2': 7.33, 'lipoC3S1': 3.85, 'temp': 26.69, 'lipoC3S3': 11.56, 'lipoC3S2': 7.63, 'rot1': 6, 'rot0': 7, 'rot3': 52, 'rot2': 42, 'state': 'normal', 'yaw': 15.71, 'datetime': '2018-10-09 19:57:23.800793', 'mgs': 0, 'volt': 0.8643, 'depth': 1.004, 'time': 7, 'pitch': 2.41, 'roll': -0.77, 'pres': 177}
{'lipoC2': 7.33, 'lipoC3S1': 3.85, 'temp': 26.69, 'lipoC3S3': 11.55, 'lipoC3S2': 7.68, 'rot1': 7, 'rot0': 8, 'rot3': 53, 'rot2': 43, 'state': 'normal', 'yaw': 15.32, 'datetime': '2018-10-09 19:57:23.904362', 'mgs': 0, 'volt': 0.8838, 'depth': 1.309, 'time': 8, 'pitch': 2.69, 'roll': -0.78, 'pres': 181}
{'lipoC2': 7.33, 'lipoC3S1': 3.82, 'temp': 26.69, 'lipoC3S3': 11.61, 'lipoC3S2': 7.69, 'rot1': 8, 'rot0': 9, 'rot3': 54, 'rot2': 43, 'state': 'normal', 'yaw': 14.65, 'datetime': '2018-10-09 19:57:24.007962', 'mgs': 0, 'volt': 0.8643, 'depth': 1.004, 'time': 8, 'pitch': 2.7, 'roll': -0.75, 'pres': 177}
{'lipoC2': 7.34, 'lipoC3S1': 3.83, 'temp': 26.69, 'lipoC3S3': 11.61, 'lipoC3S2': 7.57, 'rot1': 8, 'rot0': 10, 'rot3': 55, 'rot2': 44, 'state': 'normal', 'yaw': 13.61, 'datetime': '2018-10-09 19:57:24.112362', 'mgs': 0, 'volt': 0.874, 'depth': 1.157, 'time': 8, 'pitch': 2.67, 'roll': -0.66, 'pres': 179}
{'lipoC2': 7.33, 'lipoC3S1': 3.82, 'temp': 26.69, 'lipoC3S3': 11.47, 'lipoC3S2': 7.64, 'rot1': 9, 'rot0': 11, 'rot3': 56, 'rot2': 45, 'state': 'normal', 'yaw': 12.53, 'datetime': '2018-10-09 19:57:24.220409', 'mgs': 0, 'volt': 0.8545, 'depth': 0.851, 'time': 8, 'pitch': 2.71, 'roll': -0.54, 'pres': 175}
{'lipoC2': 7.34, 'lipoC3S1': 3.81, 'temp': 26.69, 'lipoC3S3': 11.54, 'lipoC3S2': 7.56, 'rot1': 10, 'rot0': 13, 'rot3': 57, 'rot2': 46, 'state': 'normal', 'yaw': 11.41, 'datetime': '2018-10-09 19:57:24.326158', 'mgs': 0, 'volt': 0.8789, 'depth': 1.233, 'time': 8, 'pitch': 2.96, 'roll': -0.55, 'pres': 180}
{'lipoC2': 7.33, 'lipoC3S1': 3.84, 'temp': 26.69, 'lipoC3S3': 11.55, 'lipoC3S2': 7.71, 'rot1': 11, 'rot0': 14, 'rot3': 57, 'rot2': 46, 'state': 'normal', 'yaw': 10.14, 'datetime': '2018-10-09 19:57:24.430107', 'mgs': 0, 'volt': 0.9277, 'depth': 1.996, 'time': 8, 'pitch': 3.36, 'roll': -0.64, 'pres': 190}
{'lipoC2': 7.34, 'lipoC3S1': 3.82, 'temp': 26.69, 'lipoC3S3': 11.6, 'lipoC3S2': 7.57, 'rot1': 12, 'rot0': 15, 'rot3': 58, 'rot2': 47, 'state': 'normal', 'yaw': 9.02, 'datetime': '2018-10-09 19:57:24.534776', 'mgs': 0, 'volt': 0.8887, 'depth': 1.385, 'time': 8, 'pitch': 3.8, 'roll': -0.86, 'pres': 182}
{'lipoC2': 7.34, 'lipoC3S1': 3.85, 'temp': 26.69, 'lipoC3S3': 11.58, 'lipoC3S2': 7.69, 'rot1': 13, 'rot0': 16, 'rot3': 59, 'rot2': 48, 'state': 'normal', 'yaw': 7.89, 'datetime': '2018-10-09 19:57:24.638754', 'mgs': 0, 'volt': 0.9131, 'depth': 1.767, 'time': 8, 'pitch': 4.28, 'roll': -1.14, 'pres': 187}
{'lipoC2': 7.34, 'lipoC3S1': 3.81, 'temp': 26.69, 'lipoC3S3': 11.61, 'lipoC3S2': 7.55, 'rot1': 14, 'rot0': 17, 'rot3': 60, 'rot2': 49, 'state': 'normal', 'yaw': 6.92, 'datetime': '2018-10-09 19:57:24.742676', 'mgs': 0, 'volt': 0.9033, 'depth': 1.614, 'time': 8, 'pitch': 4.59, 'roll': -1.29, 'pres': 185}
{'lipoC2': 7.33, 'lipoC3S1': 3.76, 'temp': 26.69, 'lipoC3S3': 11.61, 'lipoC3S2': 7.69, 'rot1': 15, 'rot0': 18, 'rot3': 61, 'rot2': 49, 'state': 'normal', 'yaw': 6.0, 'datetime': '2018-10-09 19:57:24.847822', 'mgs': 0, 'volt': 0.8936, 'depth': 1.462, 'time': 9, 'pitch': 4.79, 'roll': -1.39, 'pres': 183}
{'lipoC2': 7.33, 'lipoC3S1': 3.85, 'temp': 26.69, 'lipoC3S3': 11.46, 'lipoC3S2': 7.63, 'rot1': 16, 'rot0': 19, 'rot3': 62, 'rot2': 50, 'state': 'normal', 'yaw': 4.99, 'datetime': '2018-10-09 19:57:24.951619', 'mgs': 0, 'volt': 0.8887, 'depth': 1.385, 'time': 9, 'pitch': 4.92, 'roll': -1.42, 'pres': 182}
{'lipoC2': 7.33, 'lipoC3S1': 3.78, 'temp': 26.69, 'lipoC3S3': 11.6, 'lipoC3S2': 7.68, 'rot1': 17, 'rot0': 21, 'rot3': 63, 'rot2': 51, 'state': 'normal', 'yaw': 4.06, 'datetime': '2018-10-09 19:57:25.055552', 'mgs': 0, 'volt': 0.9131, 'depth': 1.767, 'time': 9, 'pitch': 5.02, 'roll': -1.31, 'pres': 187}
{'lipoC2': 7.33, 'lipoC3S1': 3.84, 'temp': 26.69, 'lipoC3S3': 11.54, 'lipoC3S2': 7.67, 'rot1': 18, 'rot0': 22, 'rot3': 64, 'rot2': 52, 'state': 'normal', 'yaw': 3.13, 'datetime': '2018-10-09 19:57:25.159592', 'mgs': 0, 'volt': 0.9473, 'depth': 2.301, 'time': 9, 'pitch': 5.12, 'roll': -1.19, 'pres': 194}
{'lipoC2': 7.34, 'lipoC3S1': 3.81, 'temp': 26.75, 'lipoC3S3': 11.63, 'lipoC3S2': 7.55, 'rot1': 19, 'rot0': 23, 'rot3': 65, 'rot2': 52, 'state': 'normal', 'yaw': 2.1, 'datetime': '2018-10-09 19:57:25.263578', 'mgs': 0, 'volt': 0.9033, 'depth': 1.614, 'time': 9, 'pitch': 5.16, 'roll': -1.04, 'pres': 185}
{'lipoC2': 7.32, 'lipoC3S1': 3.85, 'temp': 26.75, 'lipoC3S3': 11.56, 'lipoC3S2': 7.68, 'rot1': 20, 'rot0': 24, 'rot3': 65, 'rot2': 53, 'state': 'normal', 'yaw': 1.13, 'datetime': '2018-10-09 19:57:25.367434', 'mgs': 0, 'volt': 0.9375, 'depth': 2.148, 'time': 9, 'pitch': 5.12, 'roll': -0.91, 'pres': 192}
{'lipoC2': 7.34, 'lipoC3S1': 3.84, 'temp': 26.75, 'lipoC3S3': 11.61, 'lipoC3S2': 7.6, 'rot1': 21, 'rot0': 25, 'rot3': 66, 'rot2': 54, 'state': 'normal', 'yaw': 0.12, 'datetime': '2018-10-09 19:57:25.471205', 'mgs': 0, 'volt': 0.9033, 'depth': 1.614, 'time': 9, 'pitch': 5.08, 'roll': -0.75, 'pres': 185}
{'lipoC2': 7.32, 'lipoC3S1': 3.84, 'temp': 26.75, 'lipoC3S3': 11.55, 'lipoC3S2': 7.64, 'rot1': 23, 'rot0': 26, 'rot3': 67, 'rot2': 54, 'state': 'normal', 'yaw': -0.67, 'datetime': '2018-10-09 19:57:25.575124', 'mgs': 0, 'volt': 0.9131, 'depth': 1.767, 'time': 9, 'pitch': 4.93, 'roll': -0.62, 'pres': 187}
{'lipoC2': 7.34, 'lipoC3S1': 3.8, 'temp': 26.75, 'lipoC3S3': 11.63, 'lipoC3S2': 7.54, 'rot1': 24, 'rot0': 28, 'rot3': 68, 'rot2': 55, 'state': 'normal', 'yaw': -1.33, 'datetime': '2018-10-09 19:57:25.679188', 'mgs': 0, 'volt': 0.9424, 'depth': 2.225, 'time': 9, 'pitch': 4.7, 'roll': -0.55, 'pres': 193}
{'lipoC2': 7.33, 'lipoC3S1': 3.84, 'temp': 26.69, 'lipoC3S3': 11.56, 'lipoC3S2': 7.7, 'rot1': 25, 'rot0': 29, 'rot3': 69, 'rot2': 56, 'state': 'normal', 'yaw': -1.96, 'datetime': '2018-10-09 19:57:25.783075', 'mgs': 0, 'volt': 0.9521, 'depth': 2.377, 'time': 9, 'pitch': 4.44, 'roll': -0.61, 'pres': 195}
{'lipoC2': 7.33, 'lipoC3S1': 3.84, 'temp': 26.69, 'lipoC3S3': 11.42, 'lipoC3S2': 7.63, 'rot1': 26, 'rot0': 30, 'rot3': 69, 'rot2': 56, 'state': 'normal', 'yaw': -2.43, 'datetime': '2018-10-09 19:57:25.887544', 'mgs': 0, 'volt': 0.9277, 'depth': 1.996, 'time': 10, 'pitch': 4.2, 'roll': -0.7, 'pres': 190}
{'lipoC2': 7.33, 'lipoC3S1': 3.85, 'temp': 26.75, 'lipoC3S3': 11.6, 'lipoC3S2': 7.68, 'rot1': 27, 'rot0': 31, 'rot3': 70, 'rot2': 57, 'state': 'normal', 'yaw': -2.85, 'datetime': '2018-10-09 19:57:25.992183', 'mgs': 0, 'volt': 1.0059, 'depth': 3.217, 'time': 10, 'pitch': 4.01, 'roll': -0.75, 'pres': 206}
{'lipoC2': 7.33, 'lipoC3S1': 3.84, 'temp': 26.75, 'lipoC3S3': 11.38, 'lipoC3S2': 7.61, 'rot1': 28, 'rot0': 32, 'rot3': 71, 'rot2': 58, 'state': 'normal', 'yaw': -3.23, 'datetime': '2018-10-09 19:57:26.096240', 'mgs': 0, 'volt': 0.9326, 'depth': 2.072, 'time': 10, 'pitch': 3.94, 'roll': -0.82, 'pres': 191}
{'lipoC2': 7.34, 'lipoC3S1': 3.87, 'temp': 26.75, 'lipoC3S3': 11.44, 'lipoC3S2': 7.62, 'rot1': 29, 'rot0': 34, 'rot3': 72, 'rot2': 58, 'state': 'normal', 'yaw': -3.56, 'datetime': '2018-10-09 19:57:26.201499', 'mgs': 0, 'volt': 0.9375, 'depth': 2.148, 'time': 10, 'pitch': 3.9, 'roll': -0.93, 'pres': 192}
{'lipoC2': 7.34, 'lipoC3S1': 3.73, 'temp': 26.63, 'lipoC3S3': 11.61, 'lipoC3S2': 7.65, 'rot1': 30, 'rot0': 35, 'rot3': 73, 'rot2': 59, 'state': 'normal', 'yaw': -3.9, 'datetime': '2018-10-09 19:57:26.305743', 'mgs': 0, 'volt': 0.9619, 'depth': 2.53, 'time': 10, 'pitch': 3.93, 'roll': -1.04, 'pres': 197}
{'lipoC2': 7.3, 'lipoC3S1': 3.84, 'temp': 26.63, 'lipoC3S3': 11.51, 'lipoC3S2': 7.67, 'rot1': 31, 'rot0': 36, 'rot3': 73, 'rot2': 60, 'state': 'normal', 'yaw': -4.11, 'datetime': '2018-10-09 19:57:26.409551', 'mgs': 0, 'volt': 0.9863, 'depth': 2.911, 'time': 10, 'pitch': 3.99, 'roll': -1.15, 'pres': 202}
{'lipoC2': 7.33, 'lipoC3S1': 3.84, 'temp': 26.75, 'lipoC3S3': 11.38, 'lipoC3S2': 7.69, 'rot1': 33, 'rot0': 37, 'rot3': 74, 'rot2': 60, 'state': 'normal', 'yaw': -4.25, 'datetime': '2018-10-09 19:57:26.513899', 'mgs': 0, 'volt': 0.9473, 'depth': 2.301, 'time': 10, 'pitch': 4.05, 'roll': -1.25, 'pres': 194}
{'lipoC2': 7.34, 'lipoC3S1': 3.72, 'temp': 26.75, 'lipoC3S3': 11.61, 'lipoC3S2': 7.62, 'rot1': 34, 'rot0': 38, 'rot3': 75, 'rot2': 61, 'state': 'normal', 'yaw': -4.35, 'datetime': '2018-10-09 19:57:26.617823', 'mgs': 0, 'volt': 0.957, 'depth': 2.454, 'time': 10, 'pitch': 4.26, 'roll': -1.35, 'pres': 196}
{'lipoC2': 7.34, 'lipoC3S1': 3.85, 'temp': 26.69, 'lipoC3S3': 11.59, 'lipoC3S2': 7.68, 'rot1': 35, 'rot0': 39, 'rot3': 75, 'rot2': 61, 'state': 'normal', 'yaw': -4.45, 'datetime': '2018-10-09 19:57:26.721753', 'mgs': 0, 'volt': 1.0059, 'depth': 3.217, 'time': 10, 'pitch': 4.57, 'roll': -1.46, 'pres': 206}
{'lipoC2': 7.34, 'lipoC3S1': 3.84, 'temp': 26.69, 'lipoC3S3': 11.48, 'lipoC3S2': 7.62, 'rot1': 36, 'rot0': 40, 'rot3': 76, 'rot2': 62, 'state': 'normal', 'yaw': -4.6, 'datetime': '2018-10-09 19:57:26.825797', 'mgs': 0, 'volt': 0.9668, 'depth': 2.606, 'time': 11, 'pitch': 4.99, 'roll': -1.61, 'pres': 198}
{'lipoC2': 7.34, 'lipoC3S1': 3.78, 'temp': 26.69, 'lipoC3S3': 11.63, 'lipoC3S2': 7.7, 'rot1': 37, 'rot0': 41, 'rot3': 77, 'rot2': 63, 'state': 'normal', 'yaw': -4.68, 'datetime': '2018-10-09 19:57:26.929837', 'mgs': 0, 'volt': 0.9863, 'depth': 2.911, 'time': 11, 'pitch': 5.39, 'roll': -1.71, 'pres': 202}
{'lipoC2': 7.32, 'lipoC3S1': 3.85, 'temp': 26.75, 'lipoC3S3': 11.54, 'lipoC3S2': 7.68, 'rot1': 38, 'rot0': 43, 'rot3': 77, 'rot2': 63, 'state': 'normal', 'yaw': -4.63, 'datetime': '2018-10-09 19:57:27.034855', 'mgs': 0, 'volt': 0.9766, 'depth': 2.759, 'time': 11, 'pitch': 5.73, 'roll': -1.82, 'pres': 200}
{'lipoC2': 7.34, 'lipoC3S1': 3.81, 'temp': 26.75, 'lipoC3S3': 11.63, 'lipoC3S2': 7.55, 'rot1': 39, 'rot0': 44, 'rot3': 78, 'rot2': 64, 'state': 'normal', 'yaw': -4.38, 'datetime': '2018-10-09 19:57:27.138821', 'mgs': 0, 'volt': 0.9766, 'depth': 2.759, 'time': 11, 'pitch': 5.96, 'roll': -1.93, 'pres': 200}
{'lipoC2': 7.34, 'lipoC3S1': 3.81, 'temp': 26.69, 'lipoC3S3': 11.61, 'lipoC3S2': 7.59, 'rot1': 40, 'rot0': 45, 'rot3': 78, 'rot2': 64, 'state': 'normal', 'yaw': -4.06, 'datetime': '2018-10-09 19:57:27.244172', 'mgs': 0, 'volt': 0.9814, 'depth': 2.835, 'time': 11, 'pitch': 6.04, 'roll': -2.03, 'pres': 201}
{'lipoC2': 7.33, 'lipoC3S1': 3.85, 'temp': 26.69, 'lipoC3S3': 11.59, 'lipoC3S2': 7.68, 'rot1': 41, 'rot0': 46, 'rot3': 79, 'rot2': 65, 'state': 'normal', 'yaw': -3.76, 'datetime': '2018-10-09 19:57:27.348232', 'mgs': 0, 'volt': 1.0449, 'depth': 3.827, 'time': 11, 'pitch': 6.03, 'roll': -2.11, 'pres': 214}
{'lipoC2': 7.34, 'lipoC3S1': 3.83, 'temp': 26.75, 'lipoC3S3': 11.51, 'lipoC3S2': 7.47, 'rot1': 43, 'rot0': 47, 'rot3': 79, 'rot2': 65, 'state': 'normal', 'yaw': -3.55, 'datetime': '2018-10-09 19:57:27.453038', 'mgs': 0, 'volt': 0.9814, 'depth': 2.835, 'time': 11, 'pitch': 5.99, 'roll': -2.19, 'pres': 201}
{'lipoC2': 7.34, 'lipoC3S1': 3.84, 'temp': 26.75, 'lipoC3S3': 11.54, 'lipoC3S2': 7.54, 'rot1': 44, 'rot0': 48, 'rot3': 79, 'rot2': 65, 'state': 'normal', 'yaw': -3.34, 'datetime': '2018-10-09 19:57:27.557385', 'mgs': 0, 'volt': 0.9863, 'depth': 2.911, 'time': 11, 'pitch': 6.1, 'roll': -2.15, 'pres': 202}
{'lipoC2': 7.34, 'lipoC3S1': 3.8, 'temp': 26.75, 'lipoC3S3': 11.6, 'lipoC3S2': 7.68, 'rot1': 45, 'rot0': 49, 'rot3': 80, 'rot2': 66, 'state': 'normal', 'yaw': -3.15, 'datetime': '2018-10-09 19:57:27.661388', 'mgs': 0, 'volt': 1.0059, 'depth': 3.217, 'time': 11, 'pitch': 6.39, 'roll': -2.1, 'pres': 206}
{'lipoC2': 7.33, 'lipoC3S1': 3.84, 'temp': 26.69, 'lipoC3S3': 11.5, 'lipoC3S2': 7.66, 'rot1': 46, 'rot0': 50, 'rot3': 80, 'rot2': 66, 'state': 'normal', 'yaw': -2.97, 'datetime': '2018-10-09 19:57:27.765447', 'mgs': 0, 'volt': 0.9863, 'depth': 2.911, 'time': 11, 'pitch': 6.76, 'roll': -2.04, 'pres': 202}
{'lipoC2': 7.34, 'lipoC3S1': 3.82, 'temp': 26.69, 'lipoC3S3': 11.61, 'lipoC3S2': 7.6, 'rot1': 47, 'rot0': 52, 'rot3': 81, 'rot2': 66, 'state': 'normal', 'yaw': -2.78, 'datetime': '2018-10-09 19:57:27.869485', 'mgs': 0, 'volt': 0.9912, 'depth': 2.988, 'time': 12, 'pitch': 7.0, 'roll': -2.09, 'pres': 203}
{'lipoC2': 7.33, 'lipoC3S1': 3.85, 'temp': 26.69, 'lipoC3S3': 11.6, 'lipoC3S2': 7.68, 'rot1': 48, 'rot0': 53, 'rot3': 81, 'rot2': 67, 'state': 'normal', 'yaw': -2.58, 'datetime': '2018-10-09 19:57:27.973465', 'mgs': 0, 'volt': 1.0449, 'depth': 3.827, 'time': 12, 'pitch': 7.01, 'roll': -2.09, 'pres': 214}
{'lipoC2': 7.32, 'lipoC3S1': 3.84, 'temp': 26.69, 'lipoC3S3': 11.48, 'lipoC3S2': 7.66, 'rot1': 49, 'rot0': 54, 'rot3': 81, 'rot2': 67, 'state': 'normal', 'yaw': -2.39, 'datetime': '2018-10-09 19:57:28.077741', 'mgs': 0, 'volt': 1.0156, 'depth': 3.369, 'time': 12, 'pitch': 6.96, 'roll': -2.06, 'pres': 208}
{'lipoC2': 7.34, 'lipoC3S1': 3.79, 'temp': 26.75, 'lipoC3S3': 11.59, 'lipoC3S2': 7.52, 'rot1': 50, 'rot0': 55, 'rot3': 81, 'rot2': 67, 'state': 'normal', 'yaw': -2.21, 'datetime': '2018-10-09 19:57:28.176010', 'mgs': 0, 'volt': 0.9912, 'depth': 2.988, 'time': 12, 'pitch': 7.11, 'roll': -1.93, 'pres': 203}
{'lipoC2': 7.34, 'lipoC3S1': 3.82, 'temp': 26.75, 'lipoC3S3': 11.6, 'lipoC3S2': 7.68, 'rot1': 51, 'rot0': 56, 'rot3': 82, 'rot2': 68, 'state': 'normal', 'yaw': -2.1, 'datetime': '2018-10-09 19:57:28.280021', 'mgs': 0, 'volt': 1.0742, 'depth': 4.285, 'time': 12, 'pitch': 7.43, 'roll': -1.71, 'pres': 220}
{'lipoC2': 7.33, 'lipoC3S1': 3.84, 'temp': 26.75, 'lipoC3S3': 11.38, 'lipoC3S2': 7.67, 'rot1': 53, 'rot0': 58, 'rot3': 82, 'rot2': 69, 'state': 'normal', 'yaw': -2.05, 'datetime': '2018-10-09 19:57:28.384052', 'mgs': 0, 'volt': 0.9912, 'depth': 2.988, 'time': 12, 'pitch': 7.88, 'roll': -1.45, 'pres': 203}
{'lipoC2': 7.34, 'lipoC3S1': 3.69, 'temp': 26.69, 'lipoC3S3': 11.61, 'lipoC3S2': 7.61, 'rot1': 54, 'rot0': 59, 'rot3': 83, 'rot2': 69, 'state': 'normal', 'yaw': -2.04, 'datetime': '2018-10-09 19:57:28.488113', 'mgs': 0, 'volt': 0.9912, 'depth': 2.988, 'time': 12, 'pitch': 8.39, 'roll': -1.19, 'pres': 203}
{'lipoC2': 7.34, 'lipoC3S1': 3.8, 'temp': 26.69, 'lipoC3S3': 11.61, 'lipoC3S2': 7.56, 'rot1': 55, 'rot0': 60, 'rot3': 83, 'rot2': 70, 'state': 'normal', 'yaw': -1.96, 'datetime': '2018-10-09 19:57:28.593428', 'mgs': 0, 'volt': 0.9863, 'depth': 2.911, 'time': 12, 'pitch': 8.96, 'roll': -0.95, 'pres': 202}
{'lipoC2': 7.33, 'lipoC3S1': 3.84, 'temp': 26.75, 'lipoC3S3': 11.58, 'lipoC3S2': 7.67, 'rot1': 56, 'rot0': 61, 'rot3': 84, 'rot2': 70, 'state': 'normal', 'yaw': -1.83, 'datetime': '2018-10-09 19:57:28.697472', 'mgs': 0, 'volt': 1.0596, 'depth': 4.056, 'time': 12, 'pitch': 9.66, 'roll': -0.7, 'pres': 217}
{'lipoC2': 7.33, 'lipoC3S1': 3.84, 'temp': 26.75, 'lipoC3S3': 11.59, 'lipoC3S2': 7.68, 'rot1': 57, 'rot0': 62, 'rot3': 85, 'rot2': 71, 'state': 'normal', 'yaw': -1.7, 'datetime': '2018-10-09 19:57:28.802735', 'mgs': 0, 'volt': 1.04, 'depth': 3.751, 'time': 12, 'pitch': 10.03, 'roll': -0.65, 'pres': 213}
{'lipoC2': 7.34, 'lipoC3S1': 3.84, 'temp': 26.75, 'lipoC3S3': 11.44, 'lipoC3S2': 7.61, 'rot1': 58, 'rot0': 63, 'rot3': 86, 'rot2': 71, 'state': 'normal', 'yaw': -1.57, 'datetime': '2018-10-09 19:57:28.906754', 'mgs': 0, 'volt': 0.9863, 'depth': 2.911, 'time': 13, 'pitch': 10.11, 'roll': -0.62, 'pres': 202}
{'lipoC2': 7.34, 'lipoC3S1': 3.77, 'temp': 26.75, 'lipoC3S3': 11.6, 'lipoC3S2': 7.68, 'rot1': 59, 'rot0': 64, 'rot3': 86, 'rot2': 72, 'state': 'normal', 'yaw': -1.47, 'datetime': '2018-10-09 19:57:29.010774', 'mgs': 0, 'volt': 1.001, 'depth': 3.14, 'time': 13, 'pitch': 10.04, 'roll': -0.69, 'pres': 205}
{'lipoC2': 7.33, 'lipoC3S1': 3.83, 'temp': 26.75, 'lipoC3S3': 11.6, 'lipoC3S2': 7.68, 'rot1': 60, 'rot0': 66, 'rot3': 87, 'rot2': 72, 'state': 'normal', 'yaw': -1.38, 'datetime': '2018-10-09 19:57:29.115002', 'mgs': 0, 'volt': 1.0547, 'depth': 3.979, 'time': 13, 'pitch': 9.86, 'roll': -0.85, 'pres': 216}
{'lipoC2': 7.33, 'lipoC3S1': 3.84, 'temp': 26.69, 'lipoC3S3': 11.36, 'lipoC3S2': 7.62, 'rot1': 61, 'rot0': 67, 'rot3': 88, 'rot2': 73, 'state': 'normal', 'yaw': -1.22, 'datetime': '2018-10-09 19:57:29.218982', 'mgs': 0, 'volt': 0.9814, 'depth': 2.835, 'time': 13, 'pitch': 9.51, 'roll': -1.08, 'pres': 201}
{'lipoC2': 7.34, 'lipoC3S1': 3.8, 'temp': 26.69, 'lipoC3S3': 11.6, 'lipoC3S2': 7.65, 'rot1': 63, 'rot0': 68, 'rot3': 88, 'rot2': 74, 'state': 'normal', 'yaw': -1.02, 'datetime': '2018-10-09 19:57:29.322988', 'mgs': 0, 'volt': 0.9717, 'depth': 2.682, 'time': 13, 'pitch': 9.05, 'roll': -1.33, 'pres': 199}
{'lipoC2': 7.3, 'lipoC3S1': 3.84, 'temp': 26.69, 'lipoC3S3': 11.52, 'lipoC3S2': 7.67, 'rot1': 64, 'rot0': 69, 'rot3': 89, 'rot2': 74, 'state': 'normal', 'yaw': -0.79, 'datetime': '2018-10-09 19:57:29.426982', 'mgs': 0, 'volt': 1.0107, 'depth': 3.293, 'time': 13, 'pitch': 8.44, 'roll': -1.59, 'pres': 207}
{'lipoC2': 7.34, 'lipoC3S1': 3.8, 'temp': 26.69, 'lipoC3S3': 11.56, 'lipoC3S2': 7.52, 'rot1': 65, 'rot0': 70, 'rot3': 89, 'rot2': 75, 'state': 'normal', 'yaw': -0.59, 'datetime': '2018-10-09 19:57:29.531032', 'mgs': 0, 'volt': 0.9717, 'depth': 2.682, 'time': 13, 'pitch': 7.88, 'roll': -1.77, 'pres': 199}
{'lipoC2': 7.33, 'lipoC3S1': 3.81, 'temp': 26.75, 'lipoC3S3': 11.6, 'lipoC3S2': 7.68, 'rot1': 66, 'rot0': 71, 'rot3': 90, 'rot2': 75, 'state': 'normal', 'yaw': -0.43, 'datetime': '2018-10-09 19:57:29.635006', 'mgs': 0, 'volt': 0.9521, 'depth': 2.377, 'time': 13, 'pitch': 7.38, 'roll': -1.94, 'pres': 195}
{'lipoC2': 7.33, 'lipoC3S1': 3.84, 'temp': 26.75, 'lipoC3S3': 11.48, 'lipoC3S2': 7.6, 'rot1': 67, 'rot0': 72, 'rot3': 91, 'rot2': 76, 'state': 'normal', 'yaw': -0.3, 'datetime': '2018-10-09 19:57:29.739015', 'mgs': 0, 'volt': 0.9717, 'depth': 2.682, 'time': 13, 'pitch': 6.87, 'roll': -2.15, 'pres': 199}
{'lipoC2': 7.33, 'lipoC3S1': 3.84, 'temp': 26.75, 'lipoC3S3': 11.55, 'lipoC3S2': 7.67, 'rot1': 68, 'rot0': 73, 'rot3': 91, 'rot2': 77, 'state': 'normal', 'yaw': -0.24, 'datetime': '2018-10-09 19:57:29.843582', 'mgs': 0, 'volt': 0.9961, 'depth': 3.064, 'time': 14, 'pitch': 6.38, 'roll': -2.39, 'pres': 204}
{'lipoC2': 7.32, 'lipoC3S1': 3.84, 'temp': 26.75, 'lipoC3S3': 11.52, 'lipoC3S2': 7.67, 'rot1': 69, 'rot0': 75, 'rot3': 92, 'rot2': 77, 'state': 'normal', 'yaw': -0.21, 'datetime': '2018-10-09 19:57:29.947961', 'mgs': 0, 'volt': 0.9961, 'depth': 3.064, 'time': 14, 'pitch': 5.85, 'roll': -2.57, 'pres': 204}
{'lipoC2': 7.34, 'lipoC3S1': 3.81, 'temp': 26.75, 'lipoC3S3': 11.58, 'lipoC3S2': 7.51, 'rot1': 70, 'rot0': 76, 'rot3': 93, 'rot2': 78, 'state': 'normal', 'yaw': -0.19, 'datetime': '2018-10-09 19:57:30.051927', 'mgs': 0, 'volt': 0.9717, 'depth': 2.682, 'time': 14, 'pitch': 5.31, 'roll': -2.67, 'pres': 199}
{'lipoC2': 7.34, 'lipoC3S1': 3.8, 'temp': 26.75, 'lipoC3S3': 11.61, 'lipoC3S2': 7.57, 'rot1': 71, 'rot0': 77, 'rot3': 93, 'rot2': 78, 'state': 'normal', 'yaw': -0.26, 'datetime': '2018-10-09 19:57:30.157215', 'mgs': 0, 'volt': 0.9717, 'depth': 2.682, 'time': 14, 'pitch': 4.83, 'roll': -2.67, 'pres': 199}
{'lipoC2': 7.33, 'lipoC3S1': 3.84, 'temp': 26.75, 'lipoC3S3': 11.59, 'lipoC3S2': 7.67, 'rot1': 73, 'rot0': 78, 'rot3': 94, 'rot2': 79, 'state': 'normal', 'yaw': -0.35, 'datetime': '2018-10-09 19:57:30.261247', 'mgs': 0, 'volt': 1.0352, 'depth': 3.674, 'time': 14, 'pitch': 4.36, 'roll': -2.65, 'pres': 212}
{'lipoC2': 7.34, 'lipoC3S1': 3.84, 'temp': 26.75, 'lipoC3S3': 11.46, 'lipoC3S2': 7.61, 'rot1': 74, 'rot0': 79, 'rot3': 95, 'rot2': 79, 'state': 'normal', 'yaw': -0.39, 'datetime': '2018-10-09 19:57:30.370791', 'mgs': 0, 'volt': 0.9766, 'depth': 2.759, 'time': 14, 'pitch': 3.94, 'roll': -2.59, 'pres': 200}
{'lipoC2': 7.34, 'lipoC3S1': 3.8, 'temp': 26.75, 'lipoC3S3': 11.63, 'lipoC3S2': 7.52, 'rot1': 75, 'rot0': 80, 'rot3': 95, 'rot2': 80, 'state': 'normal', 'yaw': -0.44, 'datetime': '2018-10-09 19:57:30.470399', 'mgs': 0, 'volt': 0.9766, 'depth': 2.759, 'time': 14, 'pitch': 3.55, 'roll': -2.49, 'pres': 200}
{'lipoC2': 7.33, 'lipoC3S1': 3.85, 'temp': 26.75, 'lipoC3S3': 11.59, 'lipoC3S2': 7.67, 'rot1': 76, 'rot0': 81, 'rot3': 96, 'rot2': 81, 'state': 'normal', 'yaw': -0.54, 'datetime': '2018-10-09 19:57:30.574177', 'mgs': 0, 'volt': 1.0547, 'depth': 3.979, 'time': 14, 'pitch': 3.16, 'roll': -2.35, 'pres': 216}
{'lipoC2': 7.33, 'lipoC3S1': 3.84, 'temp': 26.69, 'lipoC3S3': 11.38, 'lipoC3S2': 7.61, 'rot1': 77, 'rot0': 82, 'rot3': 97, 'rot2': 81, 'state': 'normal', 'yaw': -0.62, 'datetime': '2018-10-09 19:57:30.681852', 'mgs': 0, 'volt': 0.9766, 'depth': 2.759, 'time': 14, 'pitch': 2.83, 'roll': -2.2, 'pres': 200}
{'lipoC2': 7.34, 'lipoC3S1': 3.74, 'temp': 26.69, 'lipoC3S3': 11.6, 'lipoC3S2': 7.66, 'rot1': 78, 'rot0': 84, 'rot3': 97, 'rot2': 82, 'state': 'normal', 'yaw': -0.63, 'datetime': '2018-10-09 19:57:30.787193', 'mgs': 0, 'volt': 1.0107, 'depth': 3.293, 'time': 14, 'pitch': 2.6, 'roll': -2.05, 'pres': 207}
{'lipoC2': 7.34, 'lipoC3S1': 3.8, 'temp': 26.75, 'lipoC3S3': 11.63, 'lipoC3S2': 7.7, 'rot1': 80, 'rot0': 85, 'rot3': 98, 'rot2': 82, 'state': 'normal', 'yaw': -0.62, 'datetime': '2018-10-09 19:57:30.891403', 'mgs': 0, 'volt': 0.9863, 'depth': 2.911, 'time': 15, 'pitch': 2.51, 'roll': -1.95, 'pres': 202}
{'lipoC2': 7.34, 'lipoC3S1': 3.85, 'temp': 26.75, 'lipoC3S3': 11.58, 'lipoC3S2': 7.55, 'rot1': 81, 'rot0': 86, 'rot3': 98, 'rot2': 82, 'state': 'normal', 'yaw': -0.56, 'datetime': '2018-10-09 19:57:30.996181', 'mgs': 0, 'volt': 0.9863, 'depth': 2.911, 'time': 15, 'pitch': 2.61, 'roll': -1.82, 'pres': 202}
{'lipoC2': 7.34, 'lipoC3S1': 3.82, 'temp': 26.75, 'lipoC3S3': 11.63, 'lipoC3S2': 7.7, 'rot1': 82, 'rot0': 87, 'rot3': 98, 'rot2': 82, 'state': 'normal', 'yaw': -0.46, 'datetime': '2018-10-09 19:57:31.100123', 'mgs': 0, 'volt': 0.9717, 'depth': 2.682, 'time': 15, 'pitch': 2.91, 'roll': -1.63, 'pres': 199}
{'lipoC2': 7.33, 'lipoC3S1': 3.84, 'temp': 26.75, 'lipoC3S3': 11.58, 'lipoC3S2': 7.67, 'rot1': 83, 'rot0': 88, 'rot3': 98, 'rot2': 83, 'state': 'normal', 'yaw': -0.43, 'datetime': '2018-10-09 19:57:31.205415', 'mgs': 0, 'volt': 1.0742, 'depth': 4.285, 'time': 15, 'pitch': 3.24, 'roll': -1.44, 'pres': 220}
{'lipoC2': 7.33, 'lipoC3S1': 3.84, 'temp': 26.75, 'lipoC3S3': 11.38, 'lipoC3S2': 7.61, 'rot1': 84, 'rot0': 89, 'rot3': 99, 'rot2': 83, 'state': 'normal', 'yaw': -0.43, 'datetime': '2018-10-09 19:57:31.309428', 'mgs': 0, 'volt': 0.9961, 'depth': 3.064, 'time': 15, 'pitch': 3.46, 'roll': -1.27, 'pres': 204}
{'lipoC2': 7.34, 'lipoC3S1': 3.84, 'temp': 26.75, 'lipoC3S3': 11.43, 'lipoC3S2': 7.62, 'rot1': 85, 'rot0': 90, 'rot3': 99, 'rot2': 84, 'state': 'normal', 'yaw': -0.43, 'datetime': '2018-10-09 19:57:31.414715', 'mgs': 0, 'volt': 0.9961, 'depth': 3.064, 'time': 15, 'pitch': 3.57, 'roll': -1.23, 'pres': 204}
{'lipoC2': 7.34, 'lipoC3S1': 3.75, 'temp': 26.75, 'lipoC3S3': 11.6, 'lipoC3S2': 7.7, 'rot1': 86, 'rot0': 92, 'rot3': 100, 'rot2': 84, 'state': 'normal', 'yaw': -0.45, 'datetime': '2018-10-09 19:57:31.518864', 'mgs': 0, 'volt': 1.0254, 'depth': 3.522, 'time': 15, 'pitch': 3.69, 'roll': -1.2, 'pres': 210}
{'lipoC2': 7.33, 'lipoC3S1': 3.84, 'temp': 26.75, 'lipoC3S3': 11.59, 'lipoC3S2': 7.67, 'rot1': 88, 'rot0': 93, 'rot3': 101, 'rot2': 85, 'state': 'normal', 'yaw': -0.48, 'datetime': '2018-10-09 19:57:31.622941', 'mgs': 0, 'volt': 1.0498, 'depth': 3.903, 'time': 15, 'pitch': 3.82, 'roll': -1.22, 'pres': 215}
{'lipoC2': 7.34, 'lipoC3S1': 3.86, 'temp': 26.75, 'lipoC3S3': 11.68, 'lipoC3S2': 7.72, 'rot1': 88, 'rot0': 94, 'rot3': 101, 'rot2': 85, 'state': 'normal', 'yaw': -0.5, 'datetime': '2018-10-09 19:57:37.185797', 'mgs': 0, 'volt': 1.0107, 'depth': 3.293, 'time': 15, 'pitch': 3.9, 'roll': -1.33, 'pres': 207}
{'lipoC2': 7.34, 'lipoC3S1': 3.86, 'temp': 26.75, 'lipoC3S3': 11.68, 'lipoC3S2': 7.72, 'rot1': 88, 'rot0': 94, 'rot3': 101, 'rot2': 85, 'state': 'normal', 'yaw': -0.54, 'datetime': '2018-10-09 19:57:37.216977', 'mgs': 0, 'volt': 1.0107, 'depth': 3.293, 'time': 15, 'pitch': 3.44, 'roll': -1.46, 'pres': 207}
{'lipoC2': 7.34, 'lipoC3S1': 3.86, 'temp': 26.75, 'lipoC3S3': 11.68, 'lipoC3S2': 7.72, 'rot1': 88, 'rot0': 94, 'rot3': 101, 'rot2': 85, 'state': 'normal', 'yaw': -0.52, 'datetime': '2018-10-09 19:57:37.237874', 'mgs': 0, 'volt': 1.0107, 'depth': 3.293, 'time': 16, 'pitch': 2.61, 'roll': -1.59, 'pres': 207}
{'lipoC2': 7.34, 'lipoC3S1': 3.87, 'temp': 26.75, 'lipoC3S3': 11.68, 'lipoC3S2': 7.72, 'rot1': 88, 'rot0': 94, 'rot3': 101, 'rot2': 85, 'state': 'normal', 'yaw': -0.49, 'datetime': '2018-10-09 19:57:37.254374', 'mgs': 0, 'volt': 1.0107, 'depth': 3.293, 'time': 16, 'pitch': 1.51, 'roll': -1.69, 'pres': 207}
{'lipoC2': 7.34, 'lipoC3S1': 3.87, 'temp': 26.75, 'lipoC3S3': 11.68, 'lipoC3S2': 7.72, 'rot1': 88, 'rot0': 94, 'rot3': 101, 'rot2': 85, 'state': 'normal', 'yaw': -0.45, 'datetime': '2018-10-09 19:57:37.270816', 'mgs': 0, 'volt': 1.0107, 'depth': 3.293, 'time': 16, 'pitch': 0.15, 'roll': -1.78, 'pres': 207}
{'lipoC2': 7.34, 'lipoC3S1': 3.85, 'temp': 26.75, 'lipoC3S3': 11.65, 'lipoC3S2': 7.63, 'rot1': 89, 'rot0': 94, 'rot3': 101, 'rot2': 85, 'state': 'normal', 'yaw': -0.41, 'datetime': '2018-10-09 19:57:37.287507', 'mgs': 0, 'volt': 1.0156, 'depth': 3.369, 'time': 16, 'pitch': -1.19, 'roll': -1.84, 'pres': 208}
{'lipoC2': 7.34, 'lipoC3S1': 3.85, 'temp': 26.75, 'lipoC3S3': 11.65, 'lipoC3S2': 7.71, 'rot1': 89, 'rot0': 95, 'rot3': 101, 'rot2': 85, 'state': 'normal', 'yaw': -0.36, 'datetime': '2018-10-09 19:57:37.303975', 'mgs': 0, 'volt': 1.0156, 'depth': 3.369, 'time': 16, 'pitch': -2.84, 'roll': -1.86, 'pres': 208}
{'lipoC2': 7.34, 'lipoC3S1': 3.86, 'temp': 26.75, 'lipoC3S3': 11.65, 'lipoC3S2': 7.71, 'rot1': 90, 'rot0': 96, 'rot3': 101, 'rot2': 85, 'state': 'normal', 'yaw': -0.32, 'datetime': '2018-10-09 19:57:37.320501', 'mgs': 0, 'volt': 1.04, 'depth': 3.751, 'time': 16, 'pitch': -4.28, 'roll': -1.84, 'pres': 213}
{'lipoC2': 7.34, 'lipoC3S1': 3.86, 'temp': 26.81, 'lipoC3S3': 11.67, 'lipoC3S2': 7.66, 'rot1': 91, 'rot0': 97, 'rot3': 101, 'rot2': 85, 'state': 'normal', 'yaw': -0.28, 'datetime': '2018-10-09 19:57:37.336961', 'mgs': 0, 'volt': 1.0107, 'depth': 3.293, 'time': 16, 'pitch': -5.56, 'roll': -1.83, 'pres': 207}
{'lipoC2': 7.34, 'lipoC3S1': 3.86, 'temp': 26.81, 'lipoC3S3': 11.65, 'lipoC3S2': 7.71, 'rot1': 92, 'rot0': 98, 'rot3': 101, 'rot2': 85, 'state': 'normal', 'yaw': -0.25, 'datetime': '2018-10-09 19:57:37.353458', 'mgs': 0, 'volt': 1.0107, 'depth': 3.293, 'time': 16, 'pitch': -6.78, 'roll': -1.81, 'pres': 207}
{'lipoC2': 7.34, 'lipoC3S1': 3.85, 'temp': 26.75, 'lipoC3S3': 11.67, 'lipoC3S2': 7.71, 'rot1': 93, 'rot0': 99, 'rot3': 101, 'rot2': 85, 'state': 'normal', 'yaw': -0.22, 'datetime': '2018-10-09 19:57:37.369908', 'mgs': 0, 'volt': 1.0156, 'depth': 3.369, 'time': 16, 'pitch': -7.73, 'roll': -1.77, 'pres': 208}
{'lipoC2': 7.33, 'lipoC3S1': 3.86, 'temp': 26.75, 'lipoC3S3': 11.65, 'lipoC3S2': 7.71, 'rot1': 94, 'rot0': 100, 'rot3': 101, 'rot2': 85, 'state': 'normal', 'yaw': -0.2, 'datetime': '2018-10-09 19:57:37.386405', 'mgs': 0, 'volt': 1.0107, 'depth': 3.293, 'time': 17, 'pitch': -8.56, 'roll': -1.73, 'pres': 207}
{'lipoC2': 7.34, 'lipoC3S1': 3.86, 'temp': 26.75, 'lipoC3S3': 11.54, 'lipoC3S2': 7.71, 'rot1': 95, 'rot0': 100, 'rot3': 101, 'rot2': 85, 'state': 'normal', 'yaw': -0.19, 'datetime': '2018-10-09 19:57:37.402953', 'mgs': 0, 'volt': 1.0156, 'depth': 3.369, 'time': 17, 'pitch': -9.13, 'roll': -1.68, 'pres': 208}
{'lipoC2': 7.34, 'lipoC3S1': 3.86, 'temp': 26.75, 'lipoC3S3': 11.67, 'lipoC3S2': 7.62, 'rot1': 96, 'rot0': 101, 'rot3': 101, 'rot2': 85, 'state': 'normal', 'yaw': -0.19, 'datetime': '2018-10-09 19:57:37.419406', 'mgs': 0, 'volt': 1.0156, 'depth': 3.369, 'time': 17, 'pitch': -9.51, 'roll': -1.64, 'pres': 208}
{'lipoC2': 7.34, 'lipoC3S1': 3.87, 'temp': 26.75, 'lipoC3S3': 11.68, 'lipoC3S2': 7.72, 'rot1': 97, 'rot0': 102, 'rot3': 101, 'rot2': 85, 'state': 'normal', 'yaw': -0.19, 'datetime': '2018-10-09 19:57:37.435957', 'mgs': 0, 'volt': 1.0156, 'depth': 3.369, 'time': 17, 'pitch': -9.62, 'roll': -1.62, 'pres': 208}
{'lipoC2': 7.33, 'lipoC3S1': 3.86, 'temp': 26.75, 'lipoC3S3': 11.63, 'lipoC3S2': 7.7, 'rot1': 97, 'rot0': 102, 'rot3': 101, 'rot2': 85, 'state': 'normal', 'yaw': -0.2, 'datetime': '2018-10-09 19:57:37.452568', 'mgs': 0, 'volt': 1.0303, 'depth': 3.598, 'time': 17, 'pitch': -9.38, 'roll': -1.58, 'pres': 211}
{'lipoC2': 7.33, 'lipoC3S1': 3.86, 'temp': 26.75, 'lipoC3S3': 11.59, 'lipoC3S2': 7.7, 'rot1': 97, 'rot0': 102, 'rot3': 102, 'rot2': 86, 'state': 'normal', 'yaw': -0.23, 'datetime': '2018-10-09 19:57:37.469112', 'mgs': 0, 'volt': 1.0205, 'depth': 3.445, 'time': 17, 'pitch': -8.42, 'roll': -1.44, 'pres': 209}
{'lipoC2': 7.34, 'lipoC3S1': 3.85, 'temp': 26.75, 'lipoC3S3': 11.61, 'lipoC3S2': 7.68, 'rot1': 97, 'rot0': 102, 'rot3': 103, 'rot2': 86, 'state': 'normal', 'yaw': -0.28, 'datetime': '2018-10-09 19:57:37.485744', 'mgs': 0, 'volt': 1.0205, 'depth': 3.445, 'time': 17, 'pitch': -7.15, 'roll': -1.27, 'pres': 209}
{'lipoC2': 7.34, 'lipoC3S1': 3.86, 'temp': 26.75, 'lipoC3S3': 11.6, 'lipoC3S2': 7.65, 'rot1': 97, 'rot0': 102, 'rot3': 104, 'rot2': 87, 'state': 'normal', 'yaw': -0.36, 'datetime': '2018-10-09 19:57:37.502437', 'mgs': 0, 'volt': 1.0205, 'depth': 3.445, 'time': 17, 'pitch': -5.5, 'roll': -1.1, 'pres': 209}
{'lipoC2': 7.34, 'lipoC3S1': 3.83, 'temp': 26.75, 'lipoC3S3': 11.63, 'lipoC3S2': 7.67, 'rot1': 97, 'rot0': 102, 'rot3': 104, 'rot2': 88, 'state': 'normal', 'yaw': -0.47, 'datetime': '2018-10-09 19:57:37.518899', 'mgs': 0, 'volt': 1.0205, 'depth': 3.445, 'time': 17, 'pitch': -3.91, 'roll': -0.94, 'pres': 209}
{'lipoC2': 7.34, 'lipoC3S1': 3.86, 'temp': 26.75, 'lipoC3S3': 11.6, 'lipoC3S2': 7.67, 'rot1': 97, 'rot0': 102, 'rot3': 105, 'rot2': 89, 'state': 'normal', 'yaw': -0.61, 'datetime': '2018-10-09 19:57:37.535409', 'mgs': 0, 'volt': 1.0205, 'depth': 3.445, 'time': 17, 'pitch': -2.34, 'roll': -0.77, 'pres': 209}
{'lipoC2': 7.34, 'lipoC3S1': 3.82, 'temp': 26.75, 'lipoC3S3': 11.64, 'lipoC3S2': 7.67, 'rot1': 97, 'rot0': 102, 'rot3': 106, 'rot2': 89, 'state': 'normal', 'yaw': -0.75, 'datetime': '2018-10-09 19:57:37.551762', 'mgs': 0, 'volt': 1.0205, 'depth': 3.445, 'time': 18, 'pitch': -0.73, 'roll': -0.58, 'pres': 209}
{'lipoC2': 7.34, 'lipoC3S1': 3.85, 'temp': 26.75, 'lipoC3S3': 11.6, 'lipoC3S2': 7.66, 'rot1': 97, 'rot0': 102, 'rot3': 107, 'rot2': 90, 'state': 'normal', 'yaw': -0.91, 'datetime': '2018-10-09 19:57:37.567765', 'mgs': 0, 'volt': 1.0205, 'depth': 3.445, 'time': 18, 'pitch': 0.59, 'roll': -0.44, 'pres': 209}
{'lipoC2': 7.34, 'lipoC3S1': 3.83, 'temp': 26.75, 'lipoC3S3': 11.65, 'lipoC3S2': 7.68, 'rot1': 97, 'rot0': 102, 'rot3': 108, 'rot2': 91, 'state': 'normal', 'yaw': -1.07, 'datetime': '2018-10-09 19:57:37.583810', 'mgs': 0, 'volt': 1.0156, 'depth': 3.369, 'time': 18, 'pitch': 1.79, 'roll': -0.35, 'pres': 208}
{'lipoC2': 7.34, 'lipoC3S1': 3.84, 'temp': 26.75, 'lipoC3S3': 11.64, 'lipoC3S2': 7.71, 'rot1': 97, 'rot0': 102, 'rot3': 108, 'rot2': 91, 'state': 'normal', 'yaw': -1.22, 'datetime': '2018-10-09 19:57:37.599879', 'mgs': 0, 'volt': 1.0352, 'depth': 3.674, 'time': 18, 'pitch': 2.63, 'roll': -0.36, 'pres': 212}
{'lipoC2': 7.33, 'lipoC3S1': 3.84, 'temp': 26.75, 'lipoC3S3': 11.64, 'lipoC3S2': 7.71, 'rot1': 97, 'rot0': 102, 'rot3': 109, 'rot2': 92, 'state': 'normal', 'yaw': -1.39, 'datetime': '2018-10-09 19:57:37.615954', 'mgs': 0, 'volt': 1.0303, 'depth': 3.598, 'time': 18, 'pitch': 3.21, 'roll': -0.37, 'pres': 211}
