{'lipoC2': 7.26, 'lipoC3S1': 4.15, 'temp': 27.63, 'lipoC3S3': 12.51, 'lipoC3S2': 8.28, 'rot1': 158, 'rot0': 176, 'rot3': 43, 'rot2': 64, 'state': 'normal', 'yaw': 153.58, 'datetime': '2018-10-03 17:39:37.267215', 'mgs': 0, 'volt': 0.8643, 'depth': 1.004, 'time': 48, 'pitch': -2.06, 'roll': 3.64, 'pres': 177}
{'lipoC2': 7.26, 'lipoC3S1': 4.14, 'temp': 27.63, 'lipoC3S3': 12.51, 'lipoC3S2': 8.28, 'rot1': 158, 'rot0': 176, 'rot3': 43, 'rot2': 64, 'state': 'normal', 'yaw': 152.19, 'datetime': '2018-10-03 17:39:37.289777', 'mgs': 0, 'volt': 0.8594, 'depth': 0.928, 'time': 48, 'pitch': -5.17, 'roll': 3.39, 'pres': 176}
{'lipoC2': 7.26, 'lipoC3S1': 4.14, 'temp': 27.75, 'lipoC3S3': 12.51, 'lipoC3S2': 8.28, 'rot1': 158, 'rot0': 176, 'rot3': 43, 'rot2': 64, 'state': 'normal', 'yaw': 151.1, 'datetime': '2018-10-03 17:39:37.311974', 'mgs': 0, 'volt': 0.8594, 'depth': 0.928, 'time': 48, 'pitch': -7.25, 'roll': 3.08, 'pres': 176}
{'lipoC2': 7.26, 'lipoC3S1': 4.14, 'temp': 27.75, 'lipoC3S3': 12.51, 'lipoC3S2': 8.28, 'rot1': 158, 'rot0': 176, 'rot3': 43, 'rot2': 64, 'state': 'normal', 'yaw': 149.99, 'datetime': '2018-10-03 17:39:37.334198', 'mgs': 0, 'volt': 0.8594, 'depth': 0.928, 'time': 48, 'pitch': -8.71, 'roll': 2.66, 'pres': 176}
{'lipoC2': 7.26, 'lipoC3S1': 4.14, 'temp': 27.75, 'lipoC3S3': 12.51, 'lipoC3S2': 8.28, 'rot1': 158, 'rot0': 176, 'rot3': 43, 'rot2': 64, 'state': 'normal', 'yaw': 149.05, 'datetime': '2018-10-03 17:39:37.356511', 'mgs': 0, 'volt': 0.8594, 'depth': 0.928, 'time': 49, 'pitch': -9.25, 'roll': 2.23, 'pres': 176}
{'lipoC2': 7.26, 'lipoC3S1': 4.14, 'temp': 27.69, 'lipoC3S3': 12.51, 'lipoC3S2': 8.28, 'rot1': 158, 'rot0': 176, 'rot3': 43, 'rot2': 64, 'state': 'normal', 'yaw': 148.31, 'datetime': '2018-10-03 17:39:37.378788', 'mgs': 0, 'volt': 0.8545, 'depth': 0.851, 'time': 49, 'pitch': -9.02, 'roll': 1.65, 'pres': 175}
{'lipoC2': 7.26, 'lipoC3S1': 4.15, 'temp': 27.69, 'lipoC3S3': 12.51, 'lipoC3S2': 8.28, 'rot1': 158, 'rot0': 176, 'rot3': 43, 'rot2': 64, 'state': 'normal', 'yaw': 147.86, 'datetime': '2018-10-03 17:39:37.388700', 'mgs': 0, 'volt': 0.8594, 'depth': 0.928, 'time': 49, 'pitch': -8.23, 'roll': 0.76, 'pres': 176}
{'lipoC2': 7.26, 'lipoC3S1': 4.14, 'temp': 27.69, 'lipoC3S3': 12.51, 'lipoC3S2': 8.28, 'rot1': 158, 'rot0': 176, 'rot3': 43, 'rot2': 64, 'state': 'normal', 'yaw': 147.78, 'datetime': '2018-10-03 17:39:37.398466', 'mgs': 0, 'volt': 0.8545, 'depth': 0.851, 'time': 49, 'pitch': -7.22, 'roll': -0.24, 'pres': 175}
{'lipoC2': 7.27, 'lipoC3S1': 4.15, 'temp': 27.69, 'lipoC3S3': 12.51, 'lipoC3S2': 8.28, 'rot1': 158, 'rot0': 176, 'rot3': 43, 'rot2': 64, 'state': 'normal', 'yaw': 147.93, 'datetime': '2018-10-03 17:39:37.408252', 'mgs': 0, 'volt': 0.8545, 'depth': 0.851, 'time': 49, 'pitch': -6.21, 'roll': -1.46, 'pres': 175}
{'lipoC2': 7.26, 'lipoC3S1': 4.14, 'temp': 27.69, 'lipoC3S3': 12.51, 'lipoC3S2': 8.28, 'rot1': 0, 'rot0': 0, 'rot3': 0, 'rot2': 0, 'state': 'normal', 'yaw': 0.0, 'datetime': '2018-10-03 17:39:37.417751', 'mgs': 0, 'volt': 0.8398, 'depth': 0.623, 'time': 1, 'pitch': -4.6, 'roll': -3.87, 'pres': 172}
{'lipoC2': 7.26, 'lipoC3S1': 4.14, 'temp': 27.69, 'lipoC3S3': 12.51, 'lipoC3S2': 8.28, 'rot1': 0, 'rot0': 0, 'rot3': 0, 'rot2': 0, 'state': 'normal', 'yaw': 0.0, 'datetime': '2018-10-03 17:39:37.427159', 'mgs': 0, 'volt': 0.8398, 'depth': 0.623, 'time': 1, 'pitch': -4.59, 'roll': -4.07, 'pres': 172}
{'lipoC2': 7.26, 'lipoC3S1': 4.14, 'temp': 27.69, 'lipoC3S3': 12.51, 'lipoC3S2': 8.28, 'rot1': 0, 'rot0': 0, 'rot3': 0, 'rot2': 0, 'state': 'normal', 'yaw': -0.02, 'datetime': '2018-10-03 17:39:37.454001', 'mgs': 0, 'volt': 0.8398, 'depth': 0.623, 'time': 1, 'pitch': -4.43, 'roll': -4.24, 'pres': 172}
{'lipoC2': 7.26, 'lipoC3S1': 4.14, 'temp': 27.69, 'lipoC3S3': 12.51, 'lipoC3S2': 8.28, 'rot1': 0, 'rot0': 0, 'rot3': 0, 'rot2': 0, 'state': 'normal', 'yaw': -0.17, 'datetime': '2018-10-03 17:39:37.557434', 'mgs': 0, 'volt': 0.8398, 'depth': 0.623, 'time': 1, 'pitch': -4.15, 'roll': -4.32, 'pres': 172}
{'lipoC2': 7.26, 'lipoC3S1': 4.14, 'temp': 27.69, 'lipoC3S3': 12.51, 'lipoC3S2': 8.27, 'rot1': 0, 'rot0': 0, 'rot3': 0, 'rot2': 0, 'state': 'normal', 'yaw': -0.51, 'datetime': '2018-10-03 17:39:37.660633', 'mgs': 0, 'volt': 0.8398, 'depth': 0.623, 'time': 1, 'pitch': -3.77, 'roll': -4.27, 'pres': 172}
{'lipoC2': 7.26, 'lipoC3S1': 4.14, 'temp': 27.63, 'lipoC3S3': 12.5, 'lipoC3S2': 8.28, 'rot1': 0, 'rot0': 0, 'rot3': 0, 'rot2': 0, 'state': 'normal', 'yaw': -0.97, 'datetime': '2018-10-03 17:39:37.763835', 'mgs': 0, 'volt': 0.8398, 'depth': 0.623, 'time': 1, 'pitch': -3.43, 'roll': -4.09, 'pres': 172}
{'lipoC2': 7.26, 'lipoC3S1': 4.14, 'temp': 27.63, 'lipoC3S3': 12.51, 'lipoC3S2': 8.28, 'rot1': 0, 'rot0': 0, 'rot3': 0, 'rot2': 0, 'state': 'normal', 'yaw': -1.51, 'datetime': '2018-10-03 17:39:37.868194', 'mgs': 0, 'volt': 0.8398, 'depth': 0.623, 'time': 1, 'pitch': -3.08, 'roll': -3.85, 'pres': 172}
{'lipoC2': 7.26, 'lipoC3S1': 4.14, 'temp': 27.63, 'lipoC3S3': 12.51, 'lipoC3S2': 8.28, 'rot1': 0, 'rot0': 0, 'rot3': 0, 'rot2': 0, 'state': 'normal', 'yaw': -2.18, 'datetime': '2018-10-03 17:39:37.971388', 'mgs': 0, 'volt': 0.8398, 'depth': 0.623, 'time': 1, 'pitch': -2.69, 'roll': -3.58, 'pres': 172}
{'lipoC2': 7.26, 'lipoC3S1': 4.14, 'temp': 27.63, 'lipoC3S3': 12.5, 'lipoC3S2': 8.28, 'rot1': 0, 'rot0': 0, 'rot3': 0, 'rot2': 0, 'state': 'normal', 'yaw': -2.79, 'datetime': '2018-10-03 17:39:38.075660', 'mgs': 0, 'volt': 0.8398, 'depth': 0.623, 'time': 2, 'pitch': -2.37, 'roll': -3.36, 'pres': 172}
{'lipoC2': 7.26, 'lipoC3S1': 4.14, 'temp': 27.69, 'lipoC3S3': 12.51, 'lipoC3S2': 8.28, 'rot1': 0, 'rot0': 0, 'rot3': 0, 'rot2': 0, 'state': 'normal', 'yaw': -3.41, 'datetime': '2018-10-03 17:39:38.180181', 'mgs': 0, 'volt': 0.8398, 'depth': 0.623, 'time': 2, 'pitch': -2.2, 'roll': -3.16, 'pres': 172}
{'lipoC2': 7.26, 'lipoC3S1': 4.14, 'temp': 27.69, 'lipoC3S3': 12.51, 'lipoC3S2': 8.28, 'rot1': 0, 'rot0': 0, 'rot3': 0, 'rot2': 0, 'state': 'normal', 'yaw': -4.07, 'datetime': '2018-10-03 17:39:38.283342', 'mgs': 0, 'volt': 0.8398, 'depth': 0.623, 'time': 2, 'pitch': -2.21, 'roll': -3.01, 'pres': 172}
{'lipoC2': 7.26, 'lipoC3S1': 4.14, 'temp': 27.69, 'lipoC3S3': 12.5, 'lipoC3S2': 8.28, 'rot1': 0, 'rot0': 0, 'rot3': 0, 'rot2': 0, 'state': 'normal', 'yaw': -4.66, 'datetime': '2018-10-03 17:39:38.387884', 'mgs': 0, 'volt': 0.8398, 'depth': 0.623, 'time': 2, 'pitch': -2.21, 'roll': -2.9, 'pres': 172}
{'lipoC2': 7.26, 'lipoC3S1': 4.14, 'temp': 27.63, 'lipoC3S3': 12.5, 'lipoC3S2': 8.28, 'rot1': 0, 'rot0': 0, 'rot3': 0, 'rot2': 0, 'state': 'normal', 'yaw': -5.27, 'datetime': '2018-10-03 17:39:38.491609', 'mgs': 0, 'volt': 0.8398, 'depth': 0.623, 'time': 2, 'pitch': -2.15, 'roll': -2.83, 'pres': 172}
{'lipoC2': 7.26, 'lipoC3S1': 4.14, 'temp': 27.63, 'lipoC3S3': 12.5, 'lipoC3S2': 8.28, 'rot1': 0, 'rot0': 0, 'rot3': 0, 'rot2': 0, 'state': 'normal', 'yaw': -5.96, 'datetime': '2018-10-03 17:39:38.594844', 'mgs': 0, 'volt': 0.8447, 'depth': 0.699, 'time': 2, 'pitch': -2.1, 'roll': -2.79, 'pres': 173}
{'lipoC2': 7.26, 'lipoC3S1': 4.14, 'temp': 27.63, 'lipoC3S3': 12.5, 'lipoC3S2': 8.28, 'rot1': 0, 'rot0': 0, 'rot3': 0, 'rot2': 0, 'state': 'normal', 'yaw': -6.59, 'datetime': '2018-10-03 17:39:38.701682', 'mgs': 0, 'volt': 0.8398, 'depth': 0.623, 'time': 2, 'pitch': -2.11, 'roll': -2.77, 'pres': 172}
{'lipoC2': 7.26, 'lipoC3S1': 4.14, 'temp': 27.63, 'lipoC3S3': 12.5, 'lipoC3S2': 8.28, 'rot1': 0, 'rot0': 0, 'rot3': 0, 'rot2': 0, 'state': 'normal', 'yaw': -7.17, 'datetime': '2018-10-03 17:39:38.807272', 'mgs': 0, 'volt': 0.8398, 'depth': 0.623, 'time': 2, 'pitch': -2.15, 'roll': -2.81, 'pres': 172}
{'lipoC2': 7.26, 'lipoC3S1': 4.14, 'temp': 27.63, 'lipoC3S3': 12.5, 'lipoC3S2': 8.28, 'rot1': 0, 'rot0': 0, 'rot3': 0, 'rot2': 0, 'state': 'normal', 'yaw': -7.77, 'datetime': '2018-10-03 17:39:38.910495', 'mgs': 0, 'volt': 0.8447, 'depth': 0.699, 'time': 2, 'pitch': -2.31, 'roll': -2.98, 'pres': 173}
{'lipoC2': 7.26, 'lipoC3S1': 4.14, 'temp': 27.63, 'lipoC3S3': 12.51, 'lipoC3S2': 8.28, 'rot1': 0, 'rot0': 0, 'rot3': 0, 'rot2': 0, 'state': 'normal', 'yaw': -8.36, 'datetime': '2018-10-03 17:39:39.007359', 'mgs': 0, 'volt': 0.8398, 'depth': 0.623, 'time': 3, 'pitch': -2.47, 'roll': -3.15, 'pres': 172}
{'lipoC2': 7.26, 'lipoC3S1': 4.14, 'temp': 27.63, 'lipoC3S3': 12.51, 'lipoC3S2': 8.28, 'rot1': 0, 'rot0': 0, 'rot3': 0, 'rot2': 0, 'state': 'normal', 'yaw': -8.99, 'datetime': '2018-10-03 17:39:39.110548', 'mgs': 0, 'volt': 0.8398, 'depth': 0.623, 'time': 3, 'pitch': -2.59, 'roll': -3.34, 'pres': 172}
{'lipoC2': 7.26, 'lipoC3S1': 4.14, 'temp': 27.63, 'lipoC3S3': 12.5, 'lipoC3S2': 8.28, 'rot1': 0, 'rot0': 0, 'rot3': 0, 'rot2': 0, 'state': 'normal', 'yaw': -9.7, 'datetime': '2018-10-03 17:39:39.213745', 'mgs': 0, 'volt': 0.8398, 'depth': 0.623, 'time': 3, 'pitch': -2.64, 'roll': -3.62, 'pres': 172}
{'lipoC2': 7.26, 'lipoC3S1': 4.14, 'temp': 27.63, 'lipoC3S3': 12.51, 'lipoC3S2': 8.28, 'rot1': 0, 'rot0': 0, 'rot3': 0, 'rot2': 0, 'state': 'normal', 'yaw': -10.39, 'datetime': '2018-10-03 17:39:39.316945', 'mgs': 0, 'volt': 0.8447, 'depth': 0.699, 'time': 3, 'pitch': -2.63, 'roll': -3.89, 'pres': 173}
{'lipoC2': 7.26, 'lipoC3S1': 4.14, 'temp': 27.63, 'lipoC3S3': 12.5, 'lipoC3S2': 8.28, 'rot1': 0, 'rot0': 0, 'rot3': 0, 'rot2': 0, 'state': 'normal', 'yaw': -11.07, 'datetime': '2018-10-03 17:39:39.421458', 'mgs': 0, 'volt': 0.8398, 'depth': 0.623, 'time': 3, 'pitch': -2.68, 'roll': -4.2, 'pres': 172}
{'lipoC2': 7.26, 'lipoC3S1': 4.14, 'temp': 27.63, 'lipoC3S3': 12.51, 'lipoC3S2': 8.28, 'rot1': 0, 'rot0': 0, 'rot3': 0, 'rot2': 0, 'state': 'normal', 'yaw': -11.78, 'datetime': '2018-10-03 17:39:39.524647', 'mgs': 0, 'volt': 0.8398, 'depth': 0.623, 'time': 3, 'pitch': -2.83, 'roll': -4.55, 'pres': 172}
{'lipoC2': 7.26, 'lipoC3S1': 4.14, 'temp': 27.63, 'lipoC3S3': 12.51, 'lipoC3S2': 8.28, 'rot1': 0, 'rot0': 0, 'rot3': 0, 'rot2': 0, 'state': 'normal', 'yaw': -12.37, 'datetime': '2018-10-03 17:39:39.627882', 'mgs': 0, 'volt': 0.8398, 'depth': 0.623, 'time': 3, 'pitch': -2.93, 'roll': -4.88, 'pres': 172}
{'lipoC2': 7.26, 'lipoC3S1': 4.14, 'temp': 27.63, 'lipoC3S3': 12.51, 'lipoC3S2': 8.28, 'rot1': 0, 'rot0': 0, 'rot3': 0, 'rot2': 0, 'state': 'normal', 'yaw': -12.88, 'datetime': '2018-10-03 17:39:39.738750', 'mgs': 0, 'volt': 0.8398, 'depth': 0.623, 'time': 3, 'pitch': -2.89, 'roll': -5.19, 'pres': 172}
{'lipoC2': 7.26, 'lipoC3S1': 4.14, 'temp': 27.63, 'lipoC3S3': 12.5, 'lipoC3S2': 8.28, 'rot1': 0, 'rot0': 0, 'rot3': 0, 'rot2': 0, 'state': 'normal', 'yaw': -13.42, 'datetime': '2018-10-03 17:39:39.842057', 'mgs': 0, 'volt': 0.8398, 'depth': 0.623, 'time': 3, 'pitch': -2.7, 'roll': -5.46, 'pres': 172}
{'lipoC2': 7.26, 'lipoC3S1': 4.14, 'temp': 27.63, 'lipoC3S3': 12.5, 'lipoC3S2': 8.28, 'rot1': 0, 'rot0': 0, 'rot3': 0, 'rot2': 0, 'state': 'normal', 'yaw': -13.94, 'datetime': '2018-10-03 17:39:39.945173', 'mgs': 0, 'volt': 0.8398, 'depth': 0.623, 'time': 3, 'pitch': -2.65, 'roll': -5.53, 'pres': 172}
{'lipoC2': 7.26, 'lipoC3S1': 4.14, 'temp': 27.63, 'lipoC3S3': 12.5, 'lipoC3S2': 8.28, 'rot1': 0, 'rot0': 0, 'rot3': 0, 'rot2': 0, 'state': 'normal', 'yaw': -14.52, 'datetime': '2018-10-03 17:39:40.043324', 'mgs': 0, 'volt': 0.8398, 'depth': 0.623, 'time': 4, 'pitch': -2.84, 'roll': -5.51, 'pres': 172}
{'lipoC2': 7.26, 'lipoC3S1': 4.14, 'temp': 27.63, 'lipoC3S3': 12.51, 'lipoC3S2': 8.28, 'rot1': 0, 'rot0': 0, 'rot3': 0, 'rot2': 0, 'state': 'normal', 'yaw': -15.16, 'datetime': '2018-10-03 17:39:40.146515', 'mgs': 0, 'volt': 0.8447, 'depth': 0.699, 'time': 4, 'pitch': -3.25, 'roll': -5.43, 'pres': 173}
{'lipoC2': 7.26, 'lipoC3S1': 4.14, 'temp': 27.63, 'lipoC3S3': 12.5, 'lipoC3S2': 8.28, 'rot1': 0, 'rot0': 0, 'rot3': 0, 'rot2': 0, 'state': 'normal', 'yaw': -15.82, 'datetime': '2018-10-03 17:39:40.249738', 'mgs': 0, 'volt': 0.8447, 'depth': 0.699, 'time': 4, 'pitch': -3.59, 'roll': -5.29, 'pres': 173}
{'lipoC2': 7.26, 'lipoC3S1': 4.14, 'temp': 27.63, 'lipoC3S3': 12.5, 'lipoC3S2': 8.28, 'rot1': 0, 'rot0': 0, 'rot3': 0, 'rot2': 0, 'state': 'normal', 'yaw': -16.5, 'datetime': '2018-10-03 17:39:40.352964', 'mgs': 0, 'volt': 0.8447, 'depth': 0.699, 'time': 4, 'pitch': -3.89, 'roll': -5.22, 'pres': 173}
{'lipoC2': 7.26, 'lipoC3S1': 4.14, 'temp': 27.63, 'lipoC3S3': 12.5, 'lipoC3S2': 8.28, 'rot1': 0, 'rot0': 0, 'rot3': 0, 'rot2': 0, 'state': 'normal', 'yaw': -17.12, 'datetime': '2018-10-03 17:39:40.456385', 'mgs': 0, 'volt': 0.8447, 'depth': 0.699, 'time': 4, 'pitch': -4.18, 'roll': -5.26, 'pres': 173}
{'lipoC2': 7.26, 'lipoC3S1': 4.14, 'temp': 27.63, 'lipoC3S3': 12.5, 'lipoC3S2': 8.28, 'rot1': 0, 'rot0': 0, 'rot3': 0, 'rot2': 0, 'state': 'normal', 'yaw': -17.7, 'datetime': '2018-10-03 17:39:40.559614', 'mgs': 0, 'volt': 0.8447, 'depth': 0.699, 'time': 4, 'pitch': -4.46, 'roll': -5.47, 'pres': 173}
{'lipoC2': 7.26, 'lipoC3S1': 4.14, 'temp': 27.63, 'lipoC3S3': 12.5, 'lipoC3S2': 8.28, 'rot1': 0, 'rot0': 0, 'rot3': 0, 'rot2': 0, 'state': 'normal', 'yaw': -18.18, 'datetime': '2018-10-03 17:39:40.662786', 'mgs': 0, 'volt': 0.8447, 'depth': 0.699, 'time': 4, 'pitch': -4.61, 'roll': -5.72, 'pres': 173}
{'lipoC2': 7.26, 'lipoC3S1': 4.14, 'temp': 27.63, 'lipoC3S3': 12.51, 'lipoC3S2': 8.28, 'rot1': 0, 'rot0': 0, 'rot3': 0, 'rot2': 0, 'state': 'normal', 'yaw': -18.64, 'datetime': '2018-10-03 17:39:40.772434', 'mgs': 0, 'volt': 0.8496, 'depth': 0.775, 'time': 4, 'pitch': -4.66, 'roll': -5.96, 'pres': 174}
{'lipoC2': 7.26, 'lipoC3S1': 4.14, 'temp': 27.63, 'lipoC3S3': 12.51, 'lipoC3S2': 8.28, 'rot1': 0, 'rot0': 0, 'rot3': 0, 'rot2': 0, 'state': 'normal', 'yaw': -19.15, 'datetime': '2018-10-03 17:39:40.875679', 'mgs': 0, 'volt': 0.8496, 'depth': 0.775, 'time': 4, 'pitch': -4.75, 'roll': -6.18, 'pres': 174}
{'lipoC2': 7.26, 'lipoC3S1': 4.14, 'temp': 27.63, 'lipoC3S3': 12.51, 'lipoC3S2': 8.28, 'rot1': 0, 'rot0': 0, 'rot3': 0, 'rot2': 0, 'state': 'normal', 'yaw': -19.6, 'datetime': '2018-10-03 17:39:40.972430', 'mgs': 0, 'volt': 0.8496, 'depth': 0.775, 'time': 4, 'pitch': -5.01, 'roll': -6.36, 'pres': 174}
{'lipoC2': 7.26, 'lipoC3S1': 4.14, 'temp': 27.69, 'lipoC3S3': 12.5, 'lipoC3S2': 8.28, 'rot1': 0, 'rot0': 0, 'rot3': 0, 'rot2': 0, 'state': 'normal', 'yaw': -20.07, 'datetime': '2018-10-03 17:39:41.076910', 'mgs': 0, 'volt': 0.8496, 'depth': 0.775, 'time': 5, 'pitch': -5.36, 'roll': -6.5, 'pres': 174}
{'lipoC2': 7.26, 'lipoC3S1': 4.14, 'temp': 27.69, 'lipoC3S3': 12.5, 'lipoC3S2': 8.28, 'rot1': 0, 'rot0': 0, 'rot3': 0, 'rot2': 0, 'state': 'normal', 'yaw': -20.63, 'datetime': '2018-10-03 17:39:41.180133', 'mgs': 0, 'volt': 0.8496, 'depth': 0.775, 'time': 5, 'pitch': -5.7, 'roll': -6.62, 'pres': 174}
{'lipoC2': 7.26, 'lipoC3S1': 4.14, 'temp': 27.69, 'lipoC3S3': 12.5, 'lipoC3S2': 8.28, 'rot1': 0, 'rot0': 0, 'rot3': 0, 'rot2': 0, 'state': 'normal', 'yaw': -21.2, 'datetime': '2018-10-03 17:39:41.283443', 'mgs': 0, 'volt': 0.8496, 'depth': 0.775, 'time': 5, 'pitch': -5.89, 'roll': -6.65, 'pres': 174}
{'lipoC2': 7.26, 'lipoC3S1': 4.14, 'temp': 27.63, 'lipoC3S3': 12.51, 'lipoC3S2': 8.28, 'rot1': 0, 'rot0': 0, 'rot3': 0, 'rot2': 0, 'state': 'normal', 'yaw': -21.8, 'datetime': '2018-10-03 17:39:41.387969', 'mgs': 0, 'volt': 0.8496, 'depth': 0.775, 'time': 5, 'pitch': -5.89, 'roll': -6.68, 'pres': 174}
{'lipoC2': 7.26, 'lipoC3S1': 4.14, 'temp': 27.63, 'lipoC3S3': 12.5, 'lipoC3S2': 8.28, 'rot1': 0, 'rot0': 0, 'rot3': 0, 'rot2': 0, 'state': 'normal', 'yaw': -22.41, 'datetime': '2018-10-03 17:39:41.491177', 'mgs': 0, 'volt': 0.8496, 'depth': 0.775, 'time': 5, 'pitch': -5.64, 'roll': -6.73, 'pres': 174}
{'lipoC2': 7.26, 'lipoC3S1': 4.14, 'temp': 27.63, 'lipoC3S3': 12.51, 'lipoC3S2': 8.28, 'rot1': 0, 'rot0': 0, 'rot3': 0, 'rot2': 0, 'state': 'normal', 'yaw': -22.87, 'datetime': '2018-10-03 17:39:41.594825', 'mgs': 0, 'volt': 0.8496, 'depth': 0.775, 'time': 5, 'pitch': -5.4, 'roll': -6.88, 'pres': 174}
{'lipoC2': 7.26, 'lipoC3S1': 4.14, 'temp': 27.63, 'lipoC3S3': 12.5, 'lipoC3S2': 8.28, 'rot1': 0, 'rot0': 0, 'rot3': 0, 'rot2': 0, 'state': 'normal', 'yaw': -23.21, 'datetime': '2018-10-03 17:39:41.700279', 'mgs': 0, 'volt': 0.8496, 'depth': 0.775, 'time': 5, 'pitch': -5.26, 'roll': -7.14, 'pres': 174}
{'lipoC2': 7.26, 'lipoC3S1': 4.14, 'temp': 27.63, 'lipoC3S3': 12.5, 'lipoC3S2': 8.28, 'rot1': 0, 'rot0': 0, 'rot3': 0, 'rot2': 0, 'state': 'normal', 'yaw': -23.52, 'datetime': '2018-10-03 17:39:41.803467', 'mgs': 0, 'volt': 0.8496, 'depth': 0.775, 'time': 5, 'pitch': -5.23, 'roll': -7.48, 'pres': 174}
{'lipoC2': 7.26, 'lipoC3S1': 4.14, 'temp': 27.63, 'lipoC3S3': 12.51, 'lipoC3S2': 8.28, 'rot1': 0, 'rot0': 0, 'rot3': 0, 'rot2': 0, 'state': 'normal', 'yaw': -23.81, 'datetime': '2018-10-03 17:39:41.906725', 'mgs': 0, 'volt': 0.8496, 'depth': 0.775, 'time': 5, 'pitch': -5.27, 'roll': -7.78, 'pres': 174}
{'lipoC2': 7.26, 'lipoC3S1': 4.14, 'temp': 27.63, 'lipoC3S3': 12.5, 'lipoC3S2': 8.28, 'rot1': 0, 'rot0': 0, 'rot3': 0, 'rot2': 0, 'state': 'normal', 'yaw': -24.18, 'datetime': '2018-10-03 17:39:42.009928', 'mgs': 0, 'volt': 0.8496, 'depth': 0.775, 'time': 6, 'pitch': -5.33, 'roll': -7.96, 'pres': 174}
{'lipoC2': 7.26, 'lipoC3S1': 4.14, 'temp': 27.63, 'lipoC3S3': 12.5, 'lipoC3S2': 8.28, 'rot1': 0, 'rot0': 0, 'rot3': 0, 'rot2': 0, 'state': 'normal', 'yaw': -24.72, 'datetime': '2018-10-03 17:39:42.113171', 'mgs': 0, 'volt': 0.8496, 'depth': 0.775, 'time': 6, 'pitch': -5.38, 'roll': -8.02, 'pres': 174}
{'lipoC2': 7.26, 'lipoC3S1': 4.14, 'temp': 27.63, 'lipoC3S3': 12.5, 'lipoC3S2': 8.28, 'rot1': 0, 'rot0': 0, 'rot3': 0, 'rot2': 0, 'state': 'normal', 'yaw': -25.25, 'datetime': '2018-10-03 17:39:42.217464', 'mgs': 0, 'volt': 0.8496, 'depth': 0.775, 'time': 6, 'pitch': -5.53, 'roll': -8.07, 'pres': 174}
{'lipoC2': 7.26, 'lipoC3S1': 4.14, 'temp': 27.69, 'lipoC3S3': 12.51, 'lipoC3S2': 8.28, 'rot1': 0, 'rot0': 0, 'rot3': 0, 'rot2': 0, 'state': 'normal', 'yaw': -25.79, 'datetime': '2018-10-03 17:39:42.327768', 'mgs': 0, 'volt': 0.8496, 'depth': 0.775, 'time': 6, 'pitch': -5.68, 'roll': -8.06, 'pres': 174}
{'lipoC2': 7.26, 'lipoC3S1': 4.14, 'temp': 27.69, 'lipoC3S3': 12.51, 'lipoC3S2': 8.28, 'rot1': 0, 'rot0': 0, 'rot3': 0, 'rot2': 0, 'state': 'normal', 'yaw': -26.43, 'datetime': '2018-10-03 17:39:42.428843', 'mgs': 0, 'volt': 0.8496, 'depth': 0.775, 'time': 6, 'pitch': -5.66, 'roll': -7.83, 'pres': 174}
{'lipoC2': 7.26, 'lipoC3S1': 4.14, 'temp': 27.69, 'lipoC3S3': 12.51, 'lipoC3S2': 8.28, 'rot1': 0, 'rot0': 0, 'rot3': 0, 'rot2': 0, 'state': 'normal', 'yaw': -27.19, 'datetime': '2018-10-03 17:39:42.532176', 'mgs': 0, 'volt': 0.8496, 'depth': 0.775, 'time': 6, 'pitch': -5.57, 'roll': -7.15, 'pres': 174}
{'lipoC2': 7.26, 'lipoC3S1': 4.14, 'temp': 27.63, 'lipoC3S3': 12.5, 'lipoC3S2': 8.28, 'rot1': 0, 'rot0': 0, 'rot3': 0, 'rot2': 0, 'state': 'normal', 'yaw': -27.74, 'datetime': '2018-10-03 17:39:42.635841', 'mgs': 0, 'volt': 0.8545, 'depth': 0.851, 'time': 6, 'pitch': -5.37, 'roll': -6.28, 'pres': 175}
{'lipoC2': 7.26, 'lipoC3S1': 4.14, 'temp': 27.63, 'lipoC3S3': 12.51, 'lipoC3S2': 8.28, 'rot1': 0, 'rot0': 0, 'rot3': 0, 'rot2': 0, 'state': 'normal', 'yaw': -27.96, 'datetime': '2018-10-03 17:39:42.733915', 'mgs': 0, 'volt': 0.8496, 'depth': 0.775, 'time': 6, 'pitch': -5.04, 'roll': -5.58, 'pres': 174}
{'lipoC2': 7.26, 'lipoC3S1': 4.14, 'temp': 27.69, 'lipoC3S3': 12.51, 'lipoC3S2': 8.28, 'rot1': 0, 'rot0': 0, 'rot3': 0, 'rot2': 0, 'state': 'normal', 'yaw': -27.87, 'datetime': '2018-10-03 17:39:42.837096', 'mgs': 0, 'volt': 0.8545, 'depth': 0.851, 'time': 6, 'pitch': -4.8, 'roll': -5.21, 'pres': 175}
{'lipoC2': 7.26, 'lipoC3S1': 4.14, 'temp': 27.69, 'lipoC3S3': 12.51, 'lipoC3S2': 8.28, 'rot1': 0, 'rot0': 0, 'rot3': 0, 'rot2': 0, 'state': 'normal', 'yaw': -27.58, 'datetime': '2018-10-03 17:39:42.941406', 'mgs': 0, 'volt': 0.8545, 'depth': 0.851, 'time': 6, 'pitch': -4.86, 'roll': -5.16, 'pres': 175}
{'lipoC2': 7.26, 'lipoC3S1': 4.14, 'temp': 27.75, 'lipoC3S3': 12.51, 'lipoC3S2': 8.28, 'rot1': 0, 'rot0': 0, 'rot3': 0, 'rot2': 0, 'state': 'normal', 'yaw': -27.23, 'datetime': '2018-10-03 17:39:43.045298', 'mgs': 0, 'volt': 0.8545, 'depth': 0.851, 'time': 7, 'pitch': -5.06, 'roll': -5.25, 'pres': 175}
{'lipoC2': 7.26, 'lipoC3S1': 4.14, 'temp': 27.75, 'lipoC3S3': 12.51, 'lipoC3S2': 8.28, 'rot1': 0, 'rot0': 0, 'rot3': 0, 'rot2': 0, 'state': 'normal', 'yaw': -26.88, 'datetime': '2018-10-03 17:39:43.148218', 'mgs': 0, 'volt': 0.8545, 'depth': 0.851, 'time': 7, 'pitch': -5.23, 'roll': -5.39, 'pres': 175}
{'lipoC2': 7.26, 'lipoC3S1': 4.14, 'temp': 27.75, 'lipoC3S3': 12.51, 'lipoC3S2': 8.28, 'rot1': 0, 'rot0': 0, 'rot3': 0, 'rot2': 0, 'state': 'normal', 'yaw': -26.8, 'datetime': '2018-10-03 17:39:43.252691', 'mgs': 0, 'volt': 0.8496, 'depth': 0.775, 'time': 7, 'pitch': -5.33, 'roll': -5.09, 'pres': 174}
{'lipoC2': 7.26, 'lipoC3S1': 4.14, 'temp': 27.69, 'lipoC3S3': 12.51, 'lipoC3S2': 8.28, 'rot1': 0, 'rot0': 0, 'rot3': 0, 'rot2': 0, 'state': 'normal', 'yaw': -26.98, 'datetime': '2018-10-03 17:39:43.356165', 'mgs': 0, 'volt': 0.8545, 'depth': 0.851, 'time': 7, 'pitch': -5.34, 'roll': -4.13, 'pres': 175}
{'lipoC2': 7.26, 'lipoC3S1': 4.14, 'temp': 27.69, 'lipoC3S3': 12.51, 'lipoC3S2': 8.28, 'rot1': 0, 'rot0': 0, 'rot3': 0, 'rot2': 0, 'state': 'normal', 'yaw': -27.03, 'datetime': '2018-10-03 17:39:43.459359', 'mgs': 0, 'volt': 0.8545, 'depth': 0.851, 'time': 7, 'pitch': -5.3, 'roll': -2.9, 'pres': 175}
{'lipoC2': 7.26, 'lipoC3S1': 4.14, 'temp': 27.69, 'lipoC3S3': 12.5, 'lipoC3S2': 8.28, 'rot1': 0, 'rot0': 0, 'rot3': 0, 'rot2': 0, 'state': 'normal', 'yaw': -26.75, 'datetime': '2018-10-03 17:39:43.562594', 'mgs': 0, 'volt': 0.8545, 'depth': 0.851, 'time': 7, 'pitch': -5.19, 'roll': -1.65, 'pres': 175}
{'lipoC2': 7.26, 'lipoC3S1': 4.14, 'temp': 27.69, 'lipoC3S3': 12.5, 'lipoC3S2': 8.28, 'rot1': 0, 'rot0': 0, 'rot3': 0, 'rot2': 0, 'state': 'normal', 'yaw': -26.05, 'datetime': '2018-10-03 17:39:43.666039', 'mgs': 0, 'volt': 0.8545, 'depth': 0.851, 'time': 7, 'pitch': -5.1, 'roll': -0.58, 'pres': 175}
{'lipoC2': 7.26, 'lipoC3S1': 4.14, 'temp': 27.69, 'lipoC3S3': 12.51, 'lipoC3S2': 8.28, 'rot1': 0, 'rot0': 0, 'rot3': 0, 'rot2': 0, 'state': 'normal', 'yaw': -25.03, 'datetime': '2018-10-03 17:39:43.769195', 'mgs': 0, 'volt': 0.8545, 'depth': 0.851, 'time': 7, 'pitch': -5.13, 'roll': 0.4, 'pres': 175}
{'lipoC2': 7.26, 'lipoC3S1': 4.14, 'temp': 27.69, 'lipoC3S3': 12.5, 'lipoC3S2': 8.28, 'rot1': 0, 'rot0': 0, 'rot3': 0, 'rot2': 0, 'state': 'normal', 'yaw': -24.02, 'datetime': '2018-10-03 17:39:43.872435', 'mgs': 0, 'volt': 0.8545, 'depth': 0.851, 'time': 7, 'pitch': -5.31, 'roll': 1.08, 'pres': 175}
{'lipoC2': 7.26, 'lipoC3S1': 4.14, 'temp': 27.69, 'lipoC3S3': 12.51, 'lipoC3S2': 8.28, 'rot1': 0, 'rot0': 0, 'rot3': 0, 'rot2': 0, 'state': 'normal', 'yaw': -23.05, 'datetime': '2018-10-03 17:39:43.975596', 'mgs': 0, 'volt': 0.8496, 'depth': 0.775, 'time': 7, 'pitch': -5.46, 'roll': 1.53, 'pres': 174}
{'lipoC2': 7.26, 'lipoC3S1': 4.14, 'temp': 27.69, 'lipoC3S3': 12.5, 'lipoC3S2': 8.28, 'rot1': 0, 'rot0': 0, 'rot3': 0, 'rot2': 0, 'state': 'normal', 'yaw': -22.16, 'datetime': '2018-10-03 17:39:44.078830', 'mgs': 0, 'volt': 0.8496, 'depth': 0.775, 'time': 8, 'pitch': -5.48, 'roll': 1.83, 'pres': 174}
{'lipoC2': 7.26, 'lipoC3S1': 4.14, 'temp': 27.69, 'lipoC3S3': 12.51, 'lipoC3S2': 8.28, 'rot1': 0, 'rot0': 0, 'rot3': 0, 'rot2': 0, 'state': 'normal', 'yaw': -21.56, 'datetime': '2018-10-03 17:39:44.182287', 'mgs': 0, 'volt': 0.8496, 'depth': 0.775, 'time': 8, 'pitch': -5.36, 'roll': 1.94, 'pres': 174}
{'lipoC2': 7.26, 'lipoC3S1': 4.14, 'temp': 27.63, 'lipoC3S3': 12.5, 'lipoC3S2': 8.28, 'rot1': 0, 'rot0': 0, 'rot3': 0, 'rot2': 0, 'state': 'normal', 'yaw': -21.2, 'datetime': '2018-10-03 17:39:44.286558', 'mgs': 0, 'volt': 0.8496, 'depth': 0.775, 'time': 8, 'pitch': -5.25, 'roll': 1.95, 'pres': 174}
{'lipoC2': 7.26, 'lipoC3S1': 4.14, 'temp': 27.63, 'lipoC3S3': 12.5, 'lipoC3S2': 8.28, 'rot1': 0, 'rot0': 0, 'rot3': 0, 'rot2': 0, 'state': 'normal', 'yaw': -21.0, 'datetime': '2018-10-03 17:39:44.389736', 'mgs': 0, 'volt': 0.8496, 'depth': 0.775, 'time': 8, 'pitch': -5.32, 'roll': 1.84, 'pres': 174}
{'lipoC2': 7.26, 'lipoC3S1': 4.14, 'temp': 27.63, 'lipoC3S3': 12.5, 'lipoC3S2': 8.28, 'rot1': 0, 'rot0': 0, 'rot3': 0, 'rot2': 0, 'state': 'normal', 'yaw': -20.97, 'datetime': '2018-10-03 17:39:44.492916', 'mgs': 0, 'volt': 0.8496, 'depth': 0.775, 'time': 8, 'pitch': -5.54, 'roll': 1.64, 'pres': 174}
{'lipoC2': 7.26, 'lipoC3S1': 4.14, 'temp': 27.63, 'lipoC3S3': 12.51, 'lipoC3S2': 8.27, 'rot1': 0, 'rot0': 0, 'rot3': 0, 'rot2': 0, 'state': 'normal', 'yaw': -21.13, 'datetime': '2018-10-03 17:39:44.597429', 'mgs': 0, 'volt': 0.8496, 'depth': 0.775, 'time': 8, 'pitch': -5.88, 'roll': 1.41, 'pres': 174}
{'lipoC2': 7.26, 'lipoC3S1': 4.14, 'temp': 27.63, 'lipoC3S3': 12.51, 'lipoC3S2': 8.28, 'rot1': 0, 'rot0': 0, 'rot3': 0, 'rot2': 0, 'state': 'normal', 'yaw': -21.53, 'datetime': '2018-10-03 17:39:44.700621', 'mgs': 0, 'volt': 0.8447, 'depth': 0.699, 'time': 8, 'pitch': -6.2, 'roll': 1.18, 'pres': 173}
{'lipoC2': 7.26, 'lipoC3S1': 4.14, 'temp': 27.69, 'lipoC3S3': 12.51, 'lipoC3S2': 8.28, 'rot1': 0, 'rot0': 0, 'rot3': 0, 'rot2': 0, 'state': 'normal', 'yaw': -21.96, 'datetime': '2018-10-03 17:39:44.803853', 'mgs': 0, 'volt': 0.8447, 'depth': 0.699, 'time': 8, 'pitch': -6.44, 'roll': 0.92, 'pres': 173}
{'lipoC2': 7.26, 'lipoC3S1': 4.14, 'temp': 27.69, 'lipoC3S3': 12.5, 'lipoC3S2': 8.28, 'rot1': 0, 'rot0': 0, 'rot3': 0, 'rot2': 0, 'state': 'normal', 'yaw': -22.33, 'datetime': '2018-10-03 17:39:44.908396', 'mgs': 0, 'volt': 0.8447, 'depth': 0.699, 'time': 8, 'pitch': -6.58, 'roll': 0.57, 'pres': 173}
{'lipoC2': 7.26, 'lipoC3S1': 4.14, 'temp': 27.63, 'lipoC3S3': 12.51, 'lipoC3S2': 8.28, 'rot1': 0, 'rot0': 0, 'rot3': 0, 'rot2': 0, 'state': 'normal', 'yaw': -22.55, 'datetime': '2018-10-03 17:39:45.011568', 'mgs': 0, 'volt': 0.8496, 'depth': 0.775, 'time': 9, 'pitch': -6.53, 'roll': 0.05, 'pres': 174}
{'lipoC2': 7.26, 'lipoC3S1': 4.14, 'temp': 27.63, 'lipoC3S3': 12.51, 'lipoC3S2': 8.28, 'rot1': 0, 'rot0': 0, 'rot3': 0, 'rot2': 0, 'state': 'normal', 'yaw': -22.5, 'datetime': '2018-10-03 17:39:45.114770', 'mgs': 0, 'volt': 0.8447, 'depth': 0.699, 'time': 9, 'pitch': -6.38, 'roll': -0.53, 'pres': 173}
{'lipoC2': 7.26, 'lipoC3S1': 4.14, 'temp': 27.63, 'lipoC3S3': 12.51, 'lipoC3S2': 8.28, 'rot1': 0, 'rot0': 0, 'rot3': 0, 'rot2': 0, 'state': 'normal', 'yaw': -22.18, 'datetime': '2018-10-03 17:39:45.217971', 'mgs': 0, 'volt': 0.8447, 'depth': 0.699, 'time': 9, 'pitch': -6.21, 'roll': -1.2, 'pres': 173}
{'lipoC2': 7.26, 'lipoC3S1': 4.14, 'temp': 27.63, 'lipoC3S3': 12.5, 'lipoC3S2': 8.28, 'rot1': 0, 'rot0': 0, 'rot3': 0, 'rot2': 0, 'state': 'normal', 'yaw': -21.5, 'datetime': '2018-10-03 17:39:45.321403', 'mgs': 0, 'volt': 0.8447, 'depth': 0.699, 'time': 9, 'pitch': -6.09, 'roll': -1.93, 'pres': 173}
{'lipoC2': 7.26, 'lipoC3S1': 4.14, 'temp': 27.63, 'lipoC3S3': 12.51, 'lipoC3S2': 8.28, 'rot1': 0, 'rot0': 0, 'rot3': 0, 'rot2': 0, 'state': 'normal', 'yaw': -20.47, 'datetime': '2018-10-03 17:39:45.424619', 'mgs': 0, 'volt': 0.8398, 'depth': 0.623, 'time': 9, 'pitch': -5.93, 'roll': -2.58, 'pres': 172}
{'lipoC2': 7.26, 'lipoC3S1': 4.14, 'temp': 27.69, 'lipoC3S3': 12.51, 'lipoC3S2': 8.28, 'rot1': 0, 'rot0': 0, 'rot3': 0, 'rot2': 0, 'state': 'normal', 'yaw': -19.59, 'datetime': '2018-10-03 17:39:45.527859', 'mgs': 0, 'volt': 0.8398, 'depth': 0.623, 'time': 9, 'pitch': -5.59, 'roll': -2.71, 'pres': 172}
{'lipoC2': 7.26, 'lipoC3S1': 4.14, 'temp': 27.69, 'lipoC3S3': 12.51, 'lipoC3S2': 8.28, 'rot1': 0, 'rot0': 0, 'rot3': 0, 'rot2': 0, 'state': 'normal', 'yaw': -18.92, 'datetime': '2018-10-03 17:39:45.631022', 'mgs': 0, 'volt': 0.8398, 'depth': 0.623, 'time': 9, 'pitch': -5.16, 'roll': -2.3, 'pres': 172}
{'lipoC2': 7.26, 'lipoC3S1': 4.14, 'temp': 27.63, 'lipoC3S3': 12.51, 'lipoC3S2': 8.28, 'rot1': 0, 'rot0': 0, 'rot3': 0, 'rot2': 0, 'state': 'normal', 'yaw': -18.28, 'datetime': '2018-10-03 17:39:45.734252', 'mgs': 0, 'volt': 0.8398, 'depth': 0.623, 'time': 9, 'pitch': -4.56, 'roll': -1.58, 'pres': 172}
{'lipoC2': 7.26, 'lipoC3S1': 4.14, 'temp': 27.63, 'lipoC3S3': 12.51, 'lipoC3S2': 8.28, 'rot1': 0, 'rot0': 0, 'rot3': 0, 'rot2': 0, 'state': 'normal', 'yaw': -17.55, 'datetime': '2018-10-03 17:39:45.837457', 'mgs': 0, 'volt': 0.835, 'depth': 0.546, 'time': 9, 'pitch': -3.87, 'roll': -1.07, 'pres': 171}
{'lipoC2': 7.26, 'lipoC3S1': 4.14, 'temp': 27.63, 'lipoC3S3': 12.51, 'lipoC3S2': 8.28, 'rot1': 0, 'rot0': 0, 'rot3': 0, 'rot2': 0, 'state': 'normal', 'yaw': -16.61, 'datetime': '2018-10-03 17:39:45.941933', 'mgs': 0, 'volt': 0.835, 'depth': 0.546, 'time': 9, 'pitch': -3.13, 'roll': -0.72, 'pres': 171}
{'lipoC2': 7.26, 'lipoC3S1': 4.14, 'temp': 27.63, 'lipoC3S3': 12.5, 'lipoC3S2': 8.28, 'rot1': 0, 'rot0': 0, 'rot3': 0, 'rot2': 0, 'state': 'normal', 'yaw': -15.51, 'datetime': '2018-10-03 17:39:46.045295', 'mgs': 0, 'volt': 0.8301, 'depth': 0.47, 'time': 10, 'pitch': -2.39, 'roll': -0.36, 'pres': 170}
{'lipoC2': 7.26, 'lipoC3S1': 4.14, 'temp': 27.63, 'lipoC3S3': 12.51, 'lipoC3S2': 8.28, 'rot1': 0, 'rot0': 0, 'rot3': 0, 'rot2': 0, 'state': 'normal', 'yaw': -14.73, 'datetime': '2018-10-03 17:39:46.148636', 'mgs': 0, 'volt': 0.8301, 'depth': 0.47, 'time': 10, 'pitch': -1.79, 'roll': -0.0, 'pres': 170}
{'lipoC2': 7.26, 'lipoC3S1': 4.14, 'temp': 27.63, 'lipoC3S3': 12.5, 'lipoC3S2': 8.28, 'rot1': 0, 'rot0': 0, 'rot3': 0, 'rot2': 0, 'state': 'normal', 'yaw': -14.28, 'datetime': '2018-10-03 17:39:46.253214', 'mgs': 0, 'volt': 0.8301, 'depth': 0.47, 'time': 10, 'pitch': -1.18, 'roll': 0.34, 'pres': 170}
{'lipoC2': 7.26, 'lipoC3S1': 4.14, 'temp': 27.63, 'lipoC3S3': 12.51, 'lipoC3S2': 8.28, 'rot1': 0, 'rot0': 0, 'rot3': 0, 'rot2': 0, 'state': 'normal', 'yaw': -14.19, 'datetime': '2018-10-03 17:39:46.356589', 'mgs': 0, 'volt': 0.8301, 'depth': 0.47, 'time': 10, 'pitch': -0.49, 'roll': 0.58, 'pres': 170}
{'lipoC2': 7.26, 'lipoC3S1': 4.14, 'temp': 27.63, 'lipoC3S3': 12.51, 'lipoC3S2': 8.28, 'rot1': 0, 'rot0': 0, 'rot3': 0, 'rot2': 0, 'state': 'normal', 'yaw': -14.27, 'datetime': '2018-10-03 17:39:46.460943', 'mgs': 0, 'volt': 0.8301, 'depth': 0.47, 'time': 10, 'pitch': 0.08, 'roll': 0.49, 'pres': 170}
{'lipoC2': 7.26, 'lipoC3S1': 4.14, 'temp': 27.63, 'lipoC3S3': 12.51, 'lipoC3S2': 8.28, 'rot1': 0, 'rot0': 0, 'rot3': 0, 'rot2': 0, 'state': 'normal', 'yaw': -14.37, 'datetime': '2018-10-03 17:39:46.565122', 'mgs': 0, 'volt': 0.8301, 'depth': 0.47, 'time': 10, 'pitch': 0.48, 'roll': 0.0, 'pres': 170}
{'lipoC2': 7.26, 'lipoC3S1': 4.14, 'temp': 27.69, 'lipoC3S3': 12.51, 'lipoC3S2': 8.28, 'rot1': 0, 'rot0': 0, 'rot3': 0, 'rot2': 0, 'state': 'normal', 'yaw': -14.38, 'datetime': '2018-10-03 17:39:46.668493', 'mgs': 0, 'volt': 0.8252, 'depth': 0.394, 'time': 10, 'pitch': 0.68, 'roll': -0.84, 'pres': 169}
{'lipoC2': 7.26, 'lipoC3S1': 4.14, 'temp': 27.69, 'lipoC3S3': 12.51, 'lipoC3S2': 8.28, 'rot1': 0, 'rot0': 0, 'rot3': 0, 'rot2': 0, 'state': 'normal', 'yaw': -14.42, 'datetime': '2018-10-03 17:39:46.771759', 'mgs': 0, 'volt': 0.8252, 'depth': 0.394, 'time': 10, 'pitch': 0.67, 'roll': -1.64, 'pres': 169}
{'lipoC2': 7.26, 'lipoC3S1': 4.14, 'temp': 27.69, 'lipoC3S3': 12.51, 'lipoC3S2': 8.28, 'rot1': 0, 'rot0': 0, 'rot3': 0, 'rot2': 0, 'state': 'normal', 'yaw': -14.64, 'datetime': '2018-10-03 17:39:46.875309', 'mgs': 0, 'volt': 0.8203, 'depth': 0.317, 'time': 10, 'pitch': 0.57, 'roll': -2.25, 'pres': 168}
{'lipoC2': 7.26, 'lipoC3S1': 4.14, 'temp': 27.63, 'lipoC3S3': 12.5, 'lipoC3S2': 8.28, 'rot1': 0, 'rot0': 0, 'rot3': 0, 'rot2': 0, 'state': 'normal', 'yaw': -15.01, 'datetime': '2018-10-03 17:39:46.978690', 'mgs': 0, 'volt': 0.8203, 'depth': 0.317, 'time': 10, 'pitch': 0.39, 'roll': -2.68, 'pres': 168}
{'lipoC2': 7.26, 'lipoC3S1': 4.14, 'temp': 27.63, 'lipoC3S3': 12.51, 'lipoC3S2': 8.28, 'rot1': 0, 'rot0': 0, 'rot3': 0, 'rot2': 0, 'state': 'normal', 'yaw': -15.36, 'datetime': '2018-10-03 17:39:47.081958', 'mgs': 0, 'volt': 0.8203, 'depth': 0.317, 'time': 11, 'pitch': 0.28, 'roll': -2.93, 'pres': 168}
{'lipoC2': 7.26, 'lipoC3S1': 4.14, 'temp': 27.63, 'lipoC3S3': 12.51, 'lipoC3S2': 8.28, 'rot1': 0, 'rot0': 0, 'rot3': 0, 'rot2': 0, 'state': 'normal', 'yaw': -15.61, 'datetime': '2018-10-03 17:39:47.185285', 'mgs': 0, 'volt': 0.8203, 'depth': 0.317, 'time': 11, 'pitch': 0.25, 'roll': -3.06, 'pres': 168}
{'lipoC2': 7.26, 'lipoC3S1': 4.14, 'temp': 27.63, 'lipoC3S3': 12.51, 'lipoC3S2': 8.28, 'rot1': 0, 'rot0': 0, 'rot3': 0, 'rot2': 0, 'state': 'normal', 'yaw': -15.74, 'datetime': '2018-10-03 17:39:47.288589', 'mgs': 0, 'volt': 0.8203, 'depth': 0.317, 'time': 11, 'pitch': 0.32, 'roll': -3.02, 'pres': 168}
{'lipoC2': 7.26, 'lipoC3S1': 4.14, 'temp': 27.63, 'lipoC3S3': 12.51, 'lipoC3S2': 8.28, 'rot1': 0, 'rot0': 0, 'rot3': 0, 'rot2': 0, 'state': 'normal', 'yaw': -15.73, 'datetime': '2018-10-03 17:39:47.391852', 'mgs': 0, 'volt': 0.8154, 'depth': 0.241, 'time': 11, 'pitch': 0.34, 'roll': -2.74, 'pres': 167}
{'lipoC2': 7.26, 'lipoC3S1': 4.14, 'temp': 27.63, 'lipoC3S3': 12.5, 'lipoC3S2': 8.28, 'rot1': 0, 'rot0': 0, 'rot3': 0, 'rot2': 0, 'state': 'normal', 'yaw': -15.6, 'datetime': '2018-10-03 17:39:47.496517', 'mgs': 0, 'volt': 0.8203, 'depth': 0.317, 'time': 11, 'pitch': 0.5, 'roll': -2.23, 'pres': 168}
{'lipoC2': 7.26, 'lipoC3S1': 4.14, 'temp': 27.63, 'lipoC3S3': 12.51, 'lipoC3S2': 8.28, 'rot1': 0, 'rot0': 0, 'rot3': 0, 'rot2': 0, 'state': 'normal', 'yaw': -15.24, 'datetime': '2018-10-03 17:39:47.599844', 'mgs': 0, 'volt': 0.8203, 'depth': 0.317, 'time': 11, 'pitch': 0.8, 'roll': -1.54, 'pres': 168}
{'lipoC2': 7.26, 'lipoC3S1': 4.14, 'temp': 27.63, 'lipoC3S3': 12.51, 'lipoC3S2': 8.28, 'rot1': 0, 'rot0': 0, 'rot3': 0, 'rot2': 0, 'state': 'normal', 'yaw': -14.76, 'datetime': '2018-10-03 17:39:47.703793', 'mgs': 0, 'volt': 0.8203, 'depth': 0.317, 'time': 11, 'pitch': 0.96, 'roll': -0.86, 'pres': 168}
{'lipoC2': 7.26, 'lipoC3S1': 4.14, 'temp': 27.63, 'lipoC3S3': 12.51, 'lipoC3S2': 8.28, 'rot1': 0, 'rot0': 0, 'rot3': 0, 'rot2': 0, 'state': 'normal', 'yaw': -14.25, 'datetime': '2018-10-03 17:39:47.808245', 'mgs': 0, 'volt': 0.8203, 'depth': 0.317, 'time': 11, 'pitch': 0.76, 'roll': -0.2, 'pres': 168}
{'lipoC2': 7.26, 'lipoC3S1': 4.14, 'temp': 27.63, 'lipoC3S3': 12.51, 'lipoC3S2': 8.28, 'rot1': 0, 'rot0': 0, 'rot3': 0, 'rot2': 0, 'state': 'normal', 'yaw': -13.79, 'datetime': '2018-10-03 17:39:47.911516', 'mgs': 0, 'volt': 0.8203, 'depth': 0.317, 'time': 11, 'pitch': 0.29, 'roll': 0.46, 'pres': 168}
{'lipoC2': 7.26, 'lipoC3S1': 4.14, 'temp': 27.63, 'lipoC3S3': 12.51, 'lipoC3S2': 8.28, 'rot1': 0, 'rot0': 0, 'rot3': 0, 'rot2': 0, 'state': 'normal', 'yaw': -13.54, 'datetime': '2018-10-03 17:39:48.016107', 'mgs': 0, 'volt': 0.8203, 'depth': 0.317, 'time': 12, 'pitch': -0.12, 'roll': 0.96, 'pres': 168}
{'lipoC2': 7.26, 'lipoC3S1': 4.14, 'temp': 27.69, 'lipoC3S3': 12.51, 'lipoC3S2': 8.28, 'rot1': 0, 'rot0': 0, 'rot3': 0, 'rot2': 0, 'state': 'normal', 'yaw': -13.49, 'datetime': '2018-10-03 17:39:48.119971', 'mgs': 0, 'volt': 0.8203, 'depth': 0.317, 'time': 12, 'pitch': -0.4, 'roll': 1.35, 'pres': 168}
{'lipoC2': 7.26, 'lipoC3S1': 4.14, 'temp': 27.69, 'lipoC3S3': 12.5, 'lipoC3S2': 8.28, 'rot1': 0, 'rot0': 0, 'rot3': 0, 'rot2': 0, 'state': 'normal', 'yaw': -13.59, 'datetime': '2018-10-03 17:39:48.223323', 'mgs': 0, 'volt': 0.8203, 'depth': 0.317, 'time': 12, 'pitch': -0.6, 'roll': 1.63, 'pres': 168}
{'lipoC2': 7.26, 'lipoC3S1': 4.14, 'temp': 27.69, 'lipoC3S3': 12.51, 'lipoC3S2': 8.28, 'rot1': 0, 'rot0': 0, 'rot3': 0, 'rot2': 0, 'state': 'normal', 'yaw': -13.74, 'datetime': '2018-10-03 17:39:48.326576', 'mgs': 0, 'volt': 0.8252, 'depth': 0.394, 'time': 12, 'pitch': -0.84, 'roll': 1.69, 'pres': 169}
{'lipoC2': 7.26, 'lipoC3S1': 4.14, 'temp': 27.63, 'lipoC3S3': 12.5, 'lipoC3S2': 8.28, 'rot1': 0, 'rot0': 0, 'rot3': 0, 'rot2': 0, 'state': 'normal', 'yaw': -13.88, 'datetime': '2018-10-03 17:39:48.430124', 'mgs': 0, 'volt': 0.8252, 'depth': 0.394, 'time': 12, 'pitch': -1.15, 'roll': 1.6, 'pres': 169}
{'lipoC2': 7.26, 'lipoC3S1': 4.14, 'temp': 27.63, 'lipoC3S3': 12.51, 'lipoC3S2': 8.28, 'rot1': 0, 'rot0': 0, 'rot3': 0, 'rot2': 0, 'state': 'normal', 'yaw': -14.05, 'datetime': '2018-10-03 17:39:48.533432', 'mgs': 0, 'volt': 0.8252, 'depth': 0.394, 'time': 12, 'pitch': -1.4, 'roll': 1.38, 'pres': 169}
{'lipoC2': 7.26, 'lipoC3S1': 4.14, 'temp': 27.63, 'lipoC3S3': 12.5, 'lipoC3S2': 8.28, 'rot1': 0, 'rot0': 0, 'rot3': 0, 'rot2': 0, 'state': 'normal', 'yaw': -14.26, 'datetime': '2018-10-03 17:39:48.636771', 'mgs': 0, 'volt': 0.8252, 'depth': 0.394, 'time': 12, 'pitch': -1.53, 'roll': 1.16, 'pres': 169}
{'lipoC2': 7.26, 'lipoC3S1': 4.14, 'temp': 27.63, 'lipoC3S3': 12.5, 'lipoC3S2': 8.28, 'rot1': 0, 'rot0': 0, 'rot3': 0, 'rot2': 0, 'state': 'normal', 'yaw': -14.5, 'datetime': '2018-10-03 17:39:48.740068', 'mgs': 0, 'volt': 0.8252, 'depth': 0.394, 'time': 12, 'pitch': -1.6, 'roll': 0.94, 'pres': 169}
{'lipoC2': 7.26, 'lipoC3S1': 4.14, 'temp': 27.69, 'lipoC3S3': 12.5, 'lipoC3S2': 8.28, 'rot1': 0, 'rot0': 0, 'rot3': 0, 'rot2': 0, 'state': 'normal', 'yaw': -14.67, 'datetime': '2018-10-03 17:39:48.843454', 'mgs': 0, 'volt': 0.8252, 'depth': 0.394, 'time': 12, 'pitch': -1.65, 'roll': 0.64, 'pres': 169}
{'lipoC2': 7.26, 'lipoC3S1': 4.14, 'temp': 27.69, 'lipoC3S3': 12.5, 'lipoC3S2': 8.28, 'rot1': 0, 'rot0': 0, 'rot3': 0, 'rot2': 0, 'state': 'normal', 'yaw': -14.7, 'datetime': '2018-10-03 17:39:48.946772', 'mgs': 0, 'volt': 0.8252, 'depth': 0.394, 'time': 12, 'pitch': -1.65, 'roll': 0.28, 'pres': 169}
{'lipoC2': 7.26, 'lipoC3S1': 4.14, 'temp': 27.69, 'lipoC3S3': 12.51, 'lipoC3S2': 8.28, 'rot1': 0, 'rot0': 0, 'rot3': 0, 'rot2': 0, 'state': 'normal', 'yaw': -14.7, 'datetime': '2018-10-03 17:39:49.051432', 'mgs': 0, 'volt': 0.8252, 'depth': 0.394, 'time': 13, 'pitch': -1.55, 'roll': -0.06, 'pres': 169}
{'lipoC2': 7.26, 'lipoC3S1': 4.14, 'temp': 27.69, 'lipoC3S3': 12.51, 'lipoC3S2': 8.28, 'rot1': 0, 'rot0': 0, 'rot3': 0, 'rot2': 0, 'state': 'normal', 'yaw': -14.7, 'datetime': '2018-10-03 17:39:49.154716', 'mgs': 0, 'volt': 0.8252, 'depth': 0.394, 'time': 13, 'pitch': -1.41, 'roll': -0.35, 'pres': 169}
{'lipoC2': 7.26, 'lipoC3S1': 4.14, 'temp': 27.69, 'lipoC3S3': 12.5, 'lipoC3S2': 8.28, 'rot1': 0, 'rot0': 0, 'rot3': 0, 'rot2': 0, 'state': 'normal', 'yaw': -14.7, 'datetime': '2018-10-03 17:39:49.258708', 'mgs': 0, 'volt': 0.8252, 'depth': 0.394, 'time': 13, 'pitch': -1.38, 'roll': -0.43, 'pres': 169}
{'lipoC2': 7.26, 'lipoC3S1': 4.14, 'temp': 27.63, 'lipoC3S3': 12.51, 'lipoC3S2': 8.28, 'rot1': 0, 'rot0': 0, 'rot3': 0, 'rot2': 0, 'state': 'normal', 'yaw': -14.7, 'datetime': '2018-10-03 17:39:49.362973', 'mgs': 0, 'volt': 0.8252, 'depth': 0.394, 'time': 13, 'pitch': -1.52, 'roll': -0.37, 'pres': 169}
{'lipoC2': 7.26, 'lipoC3S1': 4.14, 'temp': 27.63, 'lipoC3S3': 12.51, 'lipoC3S2': 8.28, 'rot1': 0, 'rot0': 0, 'rot3': 0, 'rot2': 0, 'state': 'normal', 'yaw': -14.68, 'datetime': '2018-10-03 17:39:49.466261', 'mgs': 1, 'volt': 0.8252, 'depth': 0.394, 'time': 13, 'pitch': -1.75, 'roll': -0.14, 'pres': 169}
{'lipoC2': 7.26, 'lipoC3S1': 4.14, 'temp': 27.63, 'lipoC3S3': 12.51, 'lipoC3S2': 8.28, 'rot1': 0, 'rot0': 0, 'rot3': 0, 'rot2': 0, 'state': 'normal', 'yaw': 0.0, 'datetime': '2018-10-03 17:39:55.497581', 'mgs': 0, 'volt': 0.8252, 'depth': 0.394, 'time': 1, 'pitch': -2.45, 'roll': -1.17, 'pres': 169}
{'lipoC2': 7.26, 'lipoC3S1': 4.14, 'temp': 27.63, 'lipoC3S3': 12.51, 'lipoC3S2': 8.28, 'rot1': 0, 'rot0': 0, 'rot3': 0, 'rot2': 0, 'state': 'normal', 'yaw': -0.34, 'datetime': '2018-10-03 17:39:58.526837', 'mgs': 0, 'volt': 0.8252, 'depth': 0.394, 'time': 1, 'pitch': -2.61, 'roll': -2.21, 'pres': 169}
{'lipoC2': 7.26, 'lipoC3S1': 4.14, 'temp': 27.63, 'lipoC3S3': 12.51, 'lipoC3S2': 8.28, 'rot1': 0, 'rot0': 0, 'rot3': 0, 'rot2': 0, 'state': 'normal', 'yaw': -0.55, 'datetime': '2018-10-03 17:39:58.543113', 'mgs': 0, 'volt': 0.8252, 'depth': 0.394, 'time': 1, 'pitch': -2.75, 'roll': -3.38, 'pres': 169}
{'lipoC2': 7.26, 'lipoC3S1': 4.14, 'temp': 27.63, 'lipoC3S3': 12.51, 'lipoC3S2': 8.28, 'rot1': 0, 'rot0': 0, 'rot3': 0, 'rot2': 0, 'state': 'normal', 'yaw': -0.67, 'datetime': '2018-10-03 17:39:58.563505', 'mgs': 0, 'volt': 0.8252, 'depth': 0.394, 'time': 1, 'pitch': -2.89, 'roll': -4.68, 'pres': 169}
{'lipoC2': 7.26, 'lipoC3S1': 4.14, 'temp': 27.63, 'lipoC3S3': 12.51, 'lipoC3S2': 8.28, 'rot1': 0, 'rot0': 0, 'rot3': 0, 'rot2': 0, 'state': 'normal', 'yaw': -0.78, 'datetime': '2018-10-03 17:39:58.573510', 'mgs': 0, 'volt': 0.8252, 'depth': 0.394, 'time': 1, 'pitch': -2.92, 'roll': -6.11, 'pres': 169}
{'lipoC2': 7.26, 'lipoC3S1': 4.14, 'temp': 27.56, 'lipoC3S3': 12.51, 'lipoC3S2': 8.28, 'rot1': 0, 'rot0': 0, 'rot3': 0, 'rot2': 0, 'state': 'normal', 'yaw': -0.93, 'datetime': '2018-10-03 17:39:58.589548', 'mgs': 0, 'volt': 0.8252, 'depth': 0.394, 'time': 1, 'pitch': -2.9, 'roll': -7.31, 'pres': 169}
{'lipoC2': 7.26, 'lipoC3S1': 4.15, 'temp': 27.56, 'lipoC3S3': 12.51, 'lipoC3S2': 8.28, 'rot1': 0, 'rot0': 0, 'rot3': 0, 'rot2': 0, 'state': 'normal', 'yaw': -1.14, 'datetime': '2018-10-03 17:39:58.608405', 'mgs': 0, 'volt': 0.8301, 'depth': 0.47, 'time': 1, 'pitch': -2.93, 'roll': -8.29, 'pres': 170}
{'lipoC2': 7.26, 'lipoC3S1': 4.14, 'temp': 27.63, 'lipoC3S3': 12.51, 'lipoC3S2': 8.28, 'rot1': 0, 'rot0': 0, 'rot3': 0, 'rot2': 0, 'state': 'normal', 'yaw': -1.44, 'datetime': '2018-10-03 17:39:58.618494', 'mgs': 0, 'volt': 0.8301, 'depth': 0.47, 'time': 1, 'pitch': -3.1, 'roll': -9.08, 'pres': 170}
{'lipoC2': 7.26, 'lipoC3S1': 4.14, 'temp': 27.63, 'lipoC3S3': 12.51, 'lipoC3S2': 8.28, 'rot1': 0, 'rot0': 0, 'rot3': 0, 'rot2': 0, 'state': 'normal', 'yaw': -1.81, 'datetime': '2018-10-03 17:39:58.634643', 'mgs': 0, 'volt': 0.8301, 'depth': 0.47, 'time': 2, 'pitch': -3.18, 'roll': -9.56, 'pres': 170}
{'lipoC2': 7.26, 'lipoC3S1': 4.14, 'temp': 27.63, 'lipoC3S3': 12.51, 'lipoC3S2': 8.28, 'rot1': 0, 'rot0': 0, 'rot3': 0, 'rot2': 0, 'state': 'normal', 'yaw': -2.26, 'datetime': '2018-10-03 17:39:58.653478', 'mgs': 0, 'volt': 0.8301, 'depth': 0.47, 'time': 2, 'pitch': -3.25, 'roll': -9.81, 'pres': 170}
{'lipoC2': 7.26, 'lipoC3S1': 4.14, 'temp': 27.63, 'lipoC3S3': 12.5, 'lipoC3S2': 8.28, 'rot1': 0, 'rot0': 0, 'rot3': 0, 'rot2': 0, 'state': 'normal', 'yaw': -2.73, 'datetime': '2018-10-03 17:39:58.663565', 'mgs': 0, 'volt': 0.835, 'depth': 0.546, 'time': 2, 'pitch': -3.44, 'roll': -9.89, 'pres': 171}
{'lipoC2': 7.26, 'lipoC3S1': 4.14, 'temp': 27.63, 'lipoC3S3': 12.51, 'lipoC3S2': 8.28, 'rot1': 0, 'rot0': 0, 'rot3': 0, 'rot2': 0, 'state': 'normal', 'yaw': -3.04, 'datetime': '2018-10-03 17:39:58.679588', 'mgs': 0, 'volt': 0.835, 'depth': 0.546, 'time': 2, 'pitch': -3.72, 'roll': -9.85, 'pres': 171}
{'lipoC2': 7.26, 'lipoC3S1': 4.15, 'temp': 27.56, 'lipoC3S3': 12.51, 'lipoC3S2': 8.28, 'rot1': 0, 'rot0': 0, 'rot3': 0, 'rot2': 0, 'state': 'normal', 'yaw': -3.15, 'datetime': '2018-10-03 17:39:58.698441', 'mgs': 0, 'volt': 0.8398, 'depth': 0.623, 'time': 2, 'pitch': -4.01, 'roll': -9.71, 'pres': 172}
{'lipoC2': 7.26, 'lipoC3S1': 4.15, 'temp': 27.56, 'lipoC3S3': 12.51, 'lipoC3S2': 8.28, 'rot1': 0, 'rot0': 0, 'rot3': 0, 'rot2': 0, 'state': 'normal', 'yaw': -3.01, 'datetime': '2018-10-03 17:39:58.708554', 'mgs': 0, 'volt': 0.8398, 'depth': 0.623, 'time': 2, 'pitch': -4.32, 'roll': -9.51, 'pres': 172}
{'lipoC2': 7.26, 'lipoC3S1': 4.14, 'temp': 27.63, 'lipoC3S3': 12.51, 'lipoC3S2': 8.28, 'rot1': 0, 'rot0': 0, 'rot3': 0, 'rot2': 0, 'state': 'normal', 'yaw': -2.63, 'datetime': '2018-10-03 17:39:58.724555', 'mgs': 0, 'volt': 0.8447, 'depth': 0.699, 'time': 2, 'pitch': -4.62, 'roll': -9.32, 'pres': 173}
{'lipoC2': 7.26, 'lipoC3S1': 4.15, 'temp': 27.63, 'lipoC3S3': 12.51, 'lipoC3S2': 8.28, 'rot1': 0, 'rot0': 0, 'rot3': 0, 'rot2': 0, 'state': 'normal', 'yaw': -2.13, 'datetime': '2018-10-03 17:39:58.743343', 'mgs': 0, 'volt': 0.8447, 'depth': 0.699, 'time': 2, 'pitch': -4.94, 'roll': -9.09, 'pres': 173}
{'lipoC2': 7.26, 'lipoC3S1': 4.15, 'temp': 27.56, 'lipoC3S3': 12.51, 'lipoC3S2': 8.28, 'rot1': 0, 'rot0': 0, 'rot3': 0, 'rot2': 0, 'state': 'normal', 'yaw': -1.54, 'datetime': '2018-10-03 17:39:58.753413', 'mgs': 0, 'volt': 0.8496, 'depth': 0.775, 'time': 2, 'pitch': -5.29, 'roll': -8.81, 'pres': 174}
{'lipoC2': 7.26, 'lipoC3S1': 4.14, 'temp': 27.56, 'lipoC3S3': 12.5, 'lipoC3S2': 8.28, 'rot1': 0, 'rot0': 0, 'rot3': 0, 'rot2': 0, 'state': 'normal', 'yaw': -0.93, 'datetime': '2018-10-03 17:39:58.769395', 'mgs': 0, 'volt': 0.8496, 'depth': 0.775, 'time': 3, 'pitch': -5.66, 'roll': -8.42, 'pres': 174}
{'lipoC2': 7.26, 'lipoC3S1': 4.14, 'temp': 27.56, 'lipoC3S3': 12.51, 'lipoC3S2': 8.28, 'rot1': 0, 'rot0': 0, 'rot3': 0, 'rot2': 0, 'state': 'normal', 'yaw': -0.5, 'datetime': '2018-10-03 17:39:58.788199', 'mgs': 0, 'volt': 0.8496, 'depth': 0.775, 'time': 3, 'pitch': -5.93, 'roll': -7.95, 'pres': 174}
{'lipoC2': 7.26, 'lipoC3S1': 4.14, 'temp': 27.63, 'lipoC3S3': 12.5, 'lipoC3S2': 8.28, 'rot1': 0, 'rot0': 0, 'rot3': 0, 'rot2': 0, 'state': 'normal', 'yaw': -0.18, 'datetime': '2018-10-03 17:39:58.798271', 'mgs': 0, 'volt': 0.8545, 'depth': 0.851, 'time': 3, 'pitch': -6.14, 'roll': -7.37, 'pres': 175}
{'lipoC2': 7.26, 'lipoC3S1': 4.14, 'temp': 27.63, 'lipoC3S3': 12.5, 'lipoC3S2': 8.28, 'rot1': 0, 'rot0': 0, 'rot3': 0, 'rot2': 0, 'state': 'normal', 'yaw': 0.09, 'datetime': '2018-10-03 17:39:58.814302', 'mgs': 0, 'volt': 0.8545, 'depth': 0.851, 'time': 3, 'pitch': -6.3, 'roll': -6.67, 'pres': 175}
{'lipoC2': 7.26, 'lipoC3S1': 4.15, 'temp': 27.63, 'lipoC3S3': 12.51, 'lipoC3S2': 8.28, 'rot1': 0, 'rot0': 0, 'rot3': 0, 'rot2': 0, 'state': 'normal', 'yaw': 0.28, 'datetime': '2018-10-03 17:39:58.833220', 'mgs': 0, 'volt': 0.8594, 'depth': 0.928, 'time': 3, 'pitch': -6.28, 'roll': -6.01, 'pres': 176}
{'lipoC2': 7.26, 'lipoC3S1': 4.15, 'temp': 27.63, 'lipoC3S3': 12.51, 'lipoC3S2': 8.28, 'rot1': 0, 'rot0': 0, 'rot3': 0, 'rot2': 0, 'state': 'normal', 'yaw': 0.44, 'datetime': '2018-10-03 17:39:58.843350', 'mgs': 0, 'volt': 0.8594, 'depth': 0.928, 'time': 3, 'pitch': -6.22, 'roll': -5.37, 'pres': 176}
{'lipoC2': 7.26, 'lipoC3S1': 4.14, 'temp': 27.63, 'lipoC3S3': 12.51, 'lipoC3S2': 8.28, 'rot1': 0, 'rot0': 0, 'rot3': 0, 'rot2': 0, 'state': 'normal', 'yaw': 0.52, 'datetime': '2018-10-03 17:39:58.859362', 'mgs': 0, 'volt': 0.8643, 'depth': 1.004, 'time': 3, 'pitch': -6.34, 'roll': -4.75, 'pres': 177}
{'lipoC2': 7.26, 'lipoC3S1': 4.15, 'temp': 27.63, 'lipoC3S3': 12.51, 'lipoC3S2': 8.28, 'rot1': 0, 'rot0': 0, 'rot3': 0, 'rot2': 0, 'state': 'normal', 'yaw': 0.54, 'datetime': '2018-10-03 17:39:58.878155', 'mgs': 0, 'volt': 0.8643, 'depth': 1.004, 'time': 3, 'pitch': -6.65, 'roll': -4.3, 'pres': 177}
{'lipoC2': 7.26, 'lipoC3S1': 4.15, 'temp': 27.63, 'lipoC3S3': 12.51, 'lipoC3S2': 8.28, 'rot1': 0, 'rot0': 0, 'rot3': 0, 'rot2': 0, 'state': 'normal', 'yaw': 0.57, 'datetime': '2018-10-03 17:39:58.888259', 'mgs': 0, 'volt': 0.8643, 'depth': 1.004, 'time': 3, 'pitch': -7.05, 'roll': -4.04, 'pres': 177}
{'lipoC2': 7.26, 'lipoC3S1': 4.14, 'temp': 27.56, 'lipoC3S3': 12.51, 'lipoC3S2': 8.28, 'rot1': 0, 'rot0': 0, 'rot3': 0, 'rot2': 0, 'state': 'normal', 'yaw': 0.6, 'datetime': '2018-10-03 17:39:58.904221', 'mgs': 0, 'volt': 0.8643, 'depth': 1.004, 'time': 3, 'pitch': -7.44, 'roll': -4.01, 'pres': 177}
{'lipoC2': 7.26, 'lipoC3S1': 4.14, 'temp': 27.56, 'lipoC3S3': 12.5, 'lipoC3S2': 8.28, 'rot1': 0, 'rot0': 0, 'rot3': 0, 'rot2': 0, 'state': 'normal', 'yaw': 0.62, 'datetime': '2018-10-03 17:39:58.923094', 'mgs': 0, 'volt': 0.8691, 'depth': 1.08, 'time': 4, 'pitch': -7.65, 'roll': -4.17, 'pres': 178}
{'lipoC2': 7.26, 'lipoC3S1': 4.14, 'temp': 27.63, 'lipoC3S3': 12.51, 'lipoC3S2': 8.28, 'rot1': 0, 'rot0': 0, 'rot3': 0, 'rot2': 0, 'state': 'normal', 'yaw': 0.61, 'datetime': '2018-10-03 17:39:58.933086', 'mgs': 0, 'volt': 0.8691, 'depth': 1.08, 'time': 4, 'pitch': -7.8, 'roll': -4.44, 'pres': 178}
{'lipoC2': 7.26, 'lipoC3S1': 4.14, 'temp': 27.63, 'lipoC3S3': 12.51, 'lipoC3S2': 8.28, 'rot1': 0, 'rot0': 0, 'rot3': 0, 'rot2': 0, 'state': 'normal', 'yaw': 0.46, 'datetime': '2018-10-03 17:39:58.948941', 'mgs': 0, 'volt': 0.8691, 'depth': 1.08, 'time': 4, 'pitch': -7.99, 'roll': -4.85, 'pres': 178}
{'lipoC2': 7.26, 'lipoC3S1': 4.14, 'temp': 27.63, 'lipoC3S3': 12.51, 'lipoC3S2': 8.28, 'rot1': 0, 'rot0': 0, 'rot3': 0, 'rot2': 0, 'state': 'normal', 'yaw': 0.22, 'datetime': '2018-10-03 17:39:58.967510', 'mgs': 0, 'volt': 0.8691, 'depth': 1.08, 'time': 4, 'pitch': -8.07, 'roll': -5.28, 'pres': 178}
{'lipoC2': 7.26, 'lipoC3S1': 4.15, 'temp': 27.63, 'lipoC3S3': 12.51, 'lipoC3S2': 8.28, 'rot1': 0, 'rot0': 0, 'rot3': 0, 'rot2': 0, 'state': 'normal', 'yaw': -0.07, 'datetime': '2018-10-03 17:39:58.977479', 'mgs': 0, 'volt': 0.874, 'depth': 1.157, 'time': 4, 'pitch': -7.8, 'roll': -5.7, 'pres': 179}
{'lipoC2': 7.26, 'lipoC3S1': 4.15, 'temp': 27.63, 'lipoC3S3': 12.51, 'lipoC3S2': 8.28, 'rot1': 0, 'rot0': 0, 'rot3': 0, 'rot2': 0, 'state': 'normal', 'yaw': -0.39, 'datetime': '2018-10-03 17:39:58.993251', 'mgs': 0, 'volt': 0.874, 'depth': 1.157, 'time': 4, 'pitch': -7.15, 'roll': -6.13, 'pres': 179}
{'lipoC2': 7.26, 'lipoC3S1': 4.15, 'temp': 27.63, 'lipoC3S3': 12.51, 'lipoC3S2': 8.28, 'rot1': 0, 'rot0': 0, 'rot3': 0, 'rot2': 0, 'state': 'normal', 'yaw': -0.79, 'datetime': '2018-10-03 17:39:59.011808', 'mgs': 0, 'volt': 0.874, 'depth': 1.157, 'time': 4, 'pitch': -6.15, 'roll': -6.55, 'pres': 179}
{'lipoC2': 7.26, 'lipoC3S1': 4.15, 'temp': 27.63, 'lipoC3S3': 12.51, 'lipoC3S2': 8.28, 'rot1': 0, 'rot0': 0, 'rot3': 0, 'rot2': 0, 'state': 'normal', 'yaw': -1.17, 'datetime': '2018-10-03 17:39:59.021735', 'mgs': 0, 'volt': 0.8789, 'depth': 1.233, 'time': 4, 'pitch': -5.12, 'roll': -6.87, 'pres': 180}
{'lipoC2': 7.26, 'lipoC3S1': 4.14, 'temp': 27.56, 'lipoC3S3': 12.51, 'lipoC3S2': 8.28, 'rot1': 0, 'rot0': 0, 'rot3': 0, 'rot2': 0, 'state': 'normal', 'yaw': -1.56, 'datetime': '2018-10-03 17:39:59.037645', 'mgs': 0, 'volt': 0.8838, 'depth': 1.309, 'time': 4, 'pitch': -4.07, 'roll': -7.14, 'pres': 181}
{'lipoC2': 7.26, 'lipoC3S1': 4.14, 'temp': 27.56, 'lipoC3S3': 12.51, 'lipoC3S2': 8.28, 'rot1': 0, 'rot0': 0, 'rot3': 0, 'rot2': 0, 'state': 'normal', 'yaw': -2.0, 'datetime': '2018-10-03 17:39:59.056280', 'mgs': 0, 'volt': 0.8838, 'depth': 1.309, 'time': 4, 'pitch': -2.96, 'roll': -7.37, 'pres': 181}
{'lipoC2': 7.26, 'lipoC3S1': 4.14, 'temp': 27.63, 'lipoC3S3': 12.51, 'lipoC3S2': 8.28, 'rot1': 0, 'rot0': 0, 'rot3': 0, 'rot2': 0, 'state': 'normal', 'yaw': -2.41, 'datetime': '2018-10-03 17:39:59.066219', 'mgs': 0, 'volt': 0.8838, 'depth': 1.309, 'time': 5, 'pitch': -2.03, 'roll': -7.52, 'pres': 181}
{'lipoC2': 7.26, 'lipoC3S1': 4.14, 'temp': 27.63, 'lipoC3S3': 12.51, 'lipoC3S2': 8.28, 'rot1': 0, 'rot0': 0, 'rot3': 0, 'rot2': 0, 'state': 'normal', 'yaw': -2.81, 'datetime': '2018-10-03 17:39:59.081966', 'mgs': 0, 'volt': 0.8887, 'depth': 1.385, 'time': 5, 'pitch': -1.22, 'roll': -7.57, 'pres': 182}
{'lipoC2': 7.26, 'lipoC3S1': 4.14, 'temp': 27.63, 'lipoC3S3': 12.51, 'lipoC3S2': 8.28, 'rot1': 0, 'rot0': 0, 'rot3': 0, 'rot2': 0, 'state': 'normal', 'yaw': -3.25, 'datetime': '2018-10-03 17:39:59.100544', 'mgs': 0, 'volt': 0.8936, 'depth': 1.462, 'time': 5, 'pitch': -0.46, 'roll': -7.55, 'pres': 183}
{'lipoC2': 7.26, 'lipoC3S1': 4.14, 'temp': 27.56, 'lipoC3S3': 12.51, 'lipoC3S2': 8.28, 'rot1': 0, 'rot0': 0, 'rot3': 0, 'rot2': 0, 'state': 'normal', 'yaw': -3.64, 'datetime': '2018-10-03 17:39:59.110468', 'mgs': 0, 'volt': 0.8936, 'depth': 1.462, 'time': 5, 'pitch': 0.07, 'roll': -7.44, 'pres': 183}
{'lipoC2': 7.26, 'lipoC3S1': 4.15, 'temp': 27.56, 'lipoC3S3': 12.51, 'lipoC3S2': 8.28, 'rot1': 0, 'rot0': 0, 'rot3': 0, 'rot2': 0, 'state': 'normal', 'yaw': -4.01, 'datetime': '2018-10-03 17:39:59.126244', 'mgs': 0, 'volt': 0.8984, 'depth': 1.538, 'time': 5, 'pitch': 0.46, 'roll': -7.26, 'pres': 184}
{'lipoC2': 7.26, 'lipoC3S1': 4.15, 'temp': 27.63, 'lipoC3S3': 12.51, 'lipoC3S2': 8.28, 'rot1': 0, 'rot0': 0, 'rot3': 0, 'rot2': 0, 'state': 'normal', 'yaw': -4.41, 'datetime': '2018-10-03 17:39:59.144822', 'mgs': 0, 'volt': 0.8984, 'depth': 1.538, 'time': 5, 'pitch': 0.65, 'roll': -6.99, 'pres': 184}
{'lipoC2': 7.26, 'lipoC3S1': 4.15, 'temp': 27.63, 'lipoC3S3': 12.51, 'lipoC3S2': 8.28, 'rot1': 0, 'rot0': 0, 'rot3': 0, 'rot2': 0, 'state': 'normal', 'yaw': -4.76, 'datetime': '2018-10-03 17:39:59.154767', 'mgs': 0, 'volt': 0.8984, 'depth': 1.538, 'time': 5, 'pitch': 0.62, 'roll': -6.75, 'pres': 184}
{'lipoC2': 7.26, 'lipoC3S1': 4.15, 'temp': 27.63, 'lipoC3S3': 12.51, 'lipoC3S2': 8.28, 'rot1': 0, 'rot0': 0, 'rot3': 0, 'rot2': 0, 'state': 'normal', 'yaw': -5.05, 'datetime': '2018-10-03 17:39:59.170541', 'mgs': 0, 'volt': 0.9033, 'depth': 1.614, 'time': 5, 'pitch': 0.35, 'roll': -6.51, 'pres': 185}
{'lipoC2': 7.26, 'lipoC3S1': 4.15, 'temp': 27.63, 'lipoC3S3': 12.51, 'lipoC3S2': 8.28, 'rot1': 0, 'rot0': 0, 'rot3': 0, 'rot2': 0, 'state': 'normal', 'yaw': -5.35, 'datetime': '2018-10-03 17:39:59.189139', 'mgs': 0, 'volt': 0.9033, 'depth': 1.614, 'time': 5, 'pitch': -0.21, 'roll': -6.29, 'pres': 185}
{'lipoC2': 7.25, 'lipoC3S1': 4.11, 'temp': 27.63, 'lipoC3S3': 12.33, 'lipoC3S2': 8.14, 'rot1': 0, 'rot0': 0, 'rot3': 0, 'rot2': 0, 'state': 'normal', 'yaw': -5.56, 'datetime': '2018-10-03 17:39:59.199128', 'mgs': 0, 'volt': 0.9131, 'depth': 1.767, 'time': 6, 'pitch': -0.91, 'roll': -6.14, 'pres': 187}
{'lipoC2': 7.26, 'lipoC3S1': 4.1, 'temp': 27.63, 'lipoC3S3': 12.37, 'lipoC3S2': 8.22, 'rot1': 0, 'rot0': 0, 'rot3': 1, 'rot2': 1, 'state': 'normal', 'yaw': -5.77, 'datetime': '2018-10-03 17:39:59.214930', 'mgs': 0, 'volt': 0.9131, 'depth': 1.767, 'time': 6, 'pitch': -1.56, 'roll': -6.18, 'pres': 187}
{'lipoC2': 7.26, 'lipoC3S1': 4.1, 'temp': 27.63, 'lipoC3S3': 12.45, 'lipoC3S2': 8.21, 'rot1': 0, 'rot0': 0, 'rot3': 2, 'rot2': 2, 'state': 'normal', 'yaw': -6.02, 'datetime': '2018-10-03 17:39:59.233628', 'mgs': 0, 'volt': 0.9229, 'depth': 1.92, 'time': 6, 'pitch': -1.99, 'roll': -6.11, 'pres': 189}
{'lipoC2': 7.26, 'lipoC3S1': 4.09, 'temp': 27.69, 'lipoC3S3': 12.41, 'lipoC3S2': 8.19, 'rot1': 0, 'rot0': 0, 'rot3': 3, 'rot2': 2, 'state': 'normal', 'yaw': -6.32, 'datetime': '2018-10-03 17:39:59.243609', 'mgs': 0, 'volt': 0.8887, 'depth': 1.385, 'time': 6, 'pitch': -2.21, 'roll': -5.99, 'pres': 182}
{'lipoC2': 7.25, 'lipoC3S1': 4.12, 'temp': 27.69, 'lipoC3S3': 12.37, 'lipoC3S2': 8.15, 'rot1': 0, 'rot0': 0, 'rot3': 4, 'rot2': 3, 'state': 'normal', 'yaw': -6.59, 'datetime': '2018-10-03 17:39:59.259391', 'mgs': 0, 'volt': 0.9131, 'depth': 1.767, 'time': 6, 'pitch': -2.25, 'roll': -5.9, 'pres': 187}
{'lipoC2': 7.26, 'lipoC3S1': 4.1, 'temp': 27.69, 'lipoC3S3': 12.42, 'lipoC3S2': 8.21, 'rot1': 0, 'rot0': 0, 'rot3': 5, 'rot2': 4, 'state': 'normal', 'yaw': -6.77, 'datetime': '2018-10-03 17:39:59.278004', 'mgs': 0, 'volt': 0.9082, 'depth': 1.691, 'time': 6, 'pitch': -2.21, 'roll': -6.23, 'pres': 186}
{'lipoC2': 7.26, 'lipoC3S1': 4.09, 'temp': 27.63, 'lipoC3S3': 12.41, 'lipoC3S2': 8.18, 'rot1': 0, 'rot0': 0, 'rot3': 6, 'rot2': 5, 'state': 'normal', 'yaw': -6.99, 'datetime': '2018-10-03 17:39:59.287925', 'mgs': 0, 'volt': 0.9131, 'depth': 1.767, 'time': 6, 'pitch': -2.08, 'roll': -6.42, 'pres': 187}
{'lipoC2': 7.26, 'lipoC3S1': 4.1, 'temp': 27.63, 'lipoC3S3': 12.43, 'lipoC3S2': 8.21, 'rot1': 0, 'rot0': 0, 'rot3': 7, 'rot2': 6, 'state': 'normal', 'yaw': -7.28, 'datetime': '2018-10-03 17:39:59.303731', 'mgs': 0, 'volt': 0.8984, 'depth': 1.538, 'time': 6, 'pitch': -1.89, 'roll': -6.58, 'pres': 184}
{'lipoC2': 7.26, 'lipoC3S1': 4.1, 'temp': 27.63, 'lipoC3S3': 12.41, 'lipoC3S2': 8.2, 'rot1': 0, 'rot0': 0, 'rot3': 8, 'rot2': 7, 'state': 'normal', 'yaw': -7.62, 'datetime': '2018-10-03 17:39:59.322281', 'mgs': 0, 'volt': 0.8984, 'depth': 1.538, 'time': 6, 'pitch': -1.72, 'roll': -6.68, 'pres': 184}
{'lipoC2': 7.26, 'lipoC3S1': 4.12, 'temp': 27.63, 'lipoC3S3': 12.38, 'lipoC3S2': 8.17, 'rot1': 0, 'rot0': 0, 'rot3': 9, 'rot2': 8, 'state': 'normal', 'yaw': -7.93, 'datetime': '2018-10-03 17:39:59.332211', 'mgs': 0, 'volt': 0.8789, 'depth': 1.233, 'time': 6, 'pitch': -1.63, 'roll': -6.68, 'pres': 180}
{'lipoC2': 7.26, 'lipoC3S1': 4.09, 'temp': 27.63, 'lipoC3S3': 12.38, 'lipoC3S2': 8.18, 'rot1': 0, 'rot0': 0, 'rot3': 10, 'rot2': 9, 'state': 'normal', 'yaw': -8.23, 'datetime': '2018-10-03 17:39:59.348038', 'mgs': 0, 'volt': 0.8594, 'depth': 0.928, 'time': 7, 'pitch': -1.53, 'roll': -6.63, 'pres': 176}
{'lipoC2': 7.25, 'lipoC3S1': 4.1, 'temp': 27.63, 'lipoC3S3': 12.35, 'lipoC3S2': 8.22, 'rot1': 0, 'rot0': 0, 'rot3': 11, 'rot2': 10, 'state': 'normal', 'yaw': -8.54, 'datetime': '2018-10-03 17:39:59.366718', 'mgs': 0, 'volt': 0.8887, 'depth': 1.385, 'time': 7, 'pitch': -1.34, 'roll': -6.5, 'pres': 182}
{'lipoC2': 7.26, 'lipoC3S1': 4.12, 'temp': 27.63, 'lipoC3S3': 12.37, 'lipoC3S2': 8.17, 'rot1': 0, 'rot0': 0, 'rot3': 12, 'rot2': 10, 'state': 'normal', 'yaw': -8.79, 'datetime': '2018-10-03 17:39:59.376721', 'mgs': 0, 'volt': 0.8691, 'depth': 1.08, 'time': 7, 'pitch': -1.08, 'roll': -6.39, 'pres': 178}
{'lipoC2': 7.25, 'lipoC3S1': 4.1, 'temp': 27.63, 'lipoC3S3': 12.45, 'lipoC3S2': 8.21, 'rot1': 0, 'rot0': 0, 'rot3': 13, 'rot2': 11, 'state': 'normal', 'yaw': -9.03, 'datetime': '2018-10-03 17:39:59.392607', 'mgs': 0, 'volt': 0.874, 'depth': 1.157, 'time': 7, 'pitch': -0.79, 'roll': -6.26, 'pres': 179}
{'lipoC2': 7.26, 'lipoC3S1': 4.12, 'temp': 27.63, 'lipoC3S3': 12.37, 'lipoC3S2': 8.17, 'rot1': 0, 'rot0': 0, 'rot3': 14, 'rot2': 12, 'state': 'normal', 'yaw': -9.29, 'datetime': '2018-10-03 17:39:59.411265', 'mgs': 0, 'volt': 0.8594, 'depth': 0.928, 'time': 7, 'pitch': -0.47, 'roll': -6.07, 'pres': 176}
{'lipoC2': 7.26, 'lipoC3S1': 4.09, 'temp': 27.63, 'lipoC3S3': 12.39, 'lipoC3S2': 8.18, 'rot1': 0, 'rot0': 0, 'rot3': 15, 'rot2': 13, 'state': 'normal', 'yaw': -9.51, 'datetime': '2018-10-03 17:39:59.421234', 'mgs': 0, 'volt': 0.8691, 'depth': 1.08, 'time': 7, 'pitch': -0.18, 'roll': -5.9, 'pres': 178}
{'lipoC2': 7.26, 'lipoC3S1': 4.09, 'temp': 27.63, 'lipoC3S3': 12.42, 'lipoC3S2': 8.21, 'rot1': 0, 'rot0': 0, 'rot3': 16, 'rot2': 14, 'state': 'normal', 'yaw': -9.76, 'datetime': '2018-10-03 17:39:59.437184', 'mgs': 0, 'volt': 0.8643, 'depth': 1.004, 'time': 7, 'pitch': 0.13, 'roll': -5.73, 'pres': 177}
{'lipoC2': 7.26, 'lipoC3S1': 4.12, 'temp': 27.63, 'lipoC3S3': 12.37, 'lipoC3S2': 8.22, 'rot1': 0, 'rot0': 0, 'rot3': 17, 'rot2': 15, 'state': 'normal', 'yaw': -10.07, 'datetime': '2018-10-03 17:39:59.455968', 'mgs': 0, 'volt': 0.8545, 'depth': 0.851, 'time': 7, 'pitch': 0.5, 'roll': -5.51, 'pres': 175}
{'lipoC2': 7.26, 'lipoC3S1': 4.09, 'temp': 27.63, 'lipoC3S3': 12.39, 'lipoC3S2': 8.18, 'rot1': 0, 'rot0': 0, 'rot3': 18, 'rot2': 16, 'state': 'normal', 'yaw': -10.36, 'datetime': '2018-10-03 17:39:59.465940', 'mgs': 0, 'volt': 0.8545, 'depth': 0.851, 'time': 7, 'pitch': 0.8, 'roll': -5.4, 'pres': 175}
{'lipoC2': 7.26, 'lipoC3S1': 4.1, 'temp': 27.63, 'lipoC3S3': 12.43, 'lipoC3S2': 8.2, 'rot1': 0, 'rot0': 0, 'rot3': 19, 'rot2': 16, 'state': 'normal', 'yaw': -10.6, 'datetime': '2018-10-03 17:39:59.481756', 'mgs': 0, 'volt': 0.8545, 'depth': 0.851, 'time': 7, 'pitch': 0.95, 'roll': -5.48, 'pres': 175}
{'lipoC2': 7.25, 'lipoC3S1': 4.11, 'temp': 27.69, 'lipoC3S3': 12.38, 'lipoC3S2': 8.22, 'rot1': 0, 'rot0': 0, 'rot3': 20, 'rot2': 17, 'state': 'normal', 'yaw': -10.67, 'datetime': '2018-10-03 17:39:59.500433', 'mgs': 0, 'volt': 0.835, 'depth': 0.546, 'time': 8, 'pitch': 0.84, 'roll': -5.78, 'pres': 171}
{'lipoC2': 7.26, 'lipoC3S1': 4.12, 'temp': 27.69, 'lipoC3S3': 12.41, 'lipoC3S2': 8.19, 'rot1': 0, 'rot0': 0, 'rot3': 21, 'rot2': 18, 'state': 'normal', 'yaw': -10.58, 'datetime': '2018-10-03 17:39:59.510564', 'mgs': 0, 'volt': 0.8252, 'depth': 0.394, 'time': 8, 'pitch': 0.56, 'roll': -6.22, 'pres': 169}
{'lipoC2': 7.26, 'lipoC3S1': 4.11, 'temp': 27.69, 'lipoC3S3': 12.39, 'lipoC3S2': 8.23, 'rot1': 0, 'rot0': 0, 'rot3': 23, 'rot2': 19, 'state': 'normal', 'yaw': -10.41, 'datetime': '2018-10-03 17:39:59.525969', 'mgs': 0, 'volt': 0.8301, 'depth': 0.47, 'time': 8, 'pitch': 0.15, 'roll': -6.64, 'pres': 170}
{'lipoC2': 7.26, 'lipoC3S1': 4.14, 'temp': 27.69, 'lipoC3S3': 12.42, 'lipoC3S2': 8.2, 'rot1': 0, 'rot0': 0, 'rot3': 24, 'rot2': 20, 'state': 'normal', 'yaw': -10.21, 'datetime': '2018-10-03 17:39:59.544068', 'mgs': 0, 'volt': 0.8154, 'depth': 0.241, 'time': 8, 'pitch': -0.37, 'roll': -6.89, 'pres': 167}
