{'lipoC2': 7.34, 'lipoC3S1': 3.92, 'temp': 29.94, 'lipoC3S3': 11.84, 'lipoC3S2': 7.84, 'rot1': 0, 'rot0': 0, 'rot3': 0, 'rot2': 0, 'state': 'normal', 'yaw': 0.0, 'datetime': '2018-10-09 23:22:23.490611', 'mgs': 0, 'volt': 0.8691, 'depth': 1.08, 'time': 1, 'pitch': 7.9, 'roll': 0.7, 'pres': 178}
{'lipoC2': 7.35, 'lipoC3S1': 3.92, 'temp': 29.94, 'lipoC3S3': 11.84, 'lipoC3S2': 7.84, 'rot1': 0, 'rot0': 0, 'rot3': 0, 'rot2': 0, 'state': 'normal', 'yaw': -0.16, 'datetime': '2018-10-09 23:22:23.517175', 'mgs': 0, 'volt': 0.8691, 'depth': 1.08, 'time': 1, 'pitch': 7.57, 'roll': 0.08, 'pres': 178}
{'lipoC2': 7.35, 'lipoC3S1': 3.92, 'temp': 30.0, 'lipoC3S3': 11.84, 'lipoC3S2': 7.84, 'rot1': 0, 'rot0': 0, 'rot3': 0, 'rot2': 0, 'state': 'normal', 'yaw': -0.27, 'datetime': '2018-10-09 23:22:23.539332', 'mgs': 0, 'volt': 0.8691, 'depth': 1.08, 'time': 1, 'pitch': 7.71, 'roll': -0.51, 'pres': 178}
{'lipoC2': 7.35, 'lipoC3S1': 3.92, 'temp': 30.0, 'lipoC3S3': 11.84, 'lipoC3S2': 7.84, 'rot1': 0, 'rot0': 0, 'rot3': 0, 'rot2': 0, 'state': 'normal', 'yaw': -0.42, 'datetime': '2018-10-09 23:22:23.561091', 'mgs': 0, 'volt': 0.8691, 'depth': 1.08, 'time': 1, 'pitch': 8.19, 'roll': -1.03, 'pres': 178}
{'lipoC2': 7.35, 'lipoC3S1': 3.92, 'temp': 30.0, 'lipoC3S3': 11.84, 'lipoC3S2': 7.84, 'rot1': 0, 'rot0': 0, 'rot3': 0, 'rot2': 0, 'state': 'normal', 'yaw': -0.75, 'datetime': '2018-10-09 23:22:23.582930', 'mgs': 0, 'volt': 0.874, 'depth': 1.157, 'time': 1, 'pitch': 8.87, 'roll': -1.39, 'pres': 179}
{'lipoC2': 7.35, 'lipoC3S1': 3.92, 'temp': 30.0, 'lipoC3S3': 11.84, 'lipoC3S2': 7.84, 'rot1': 0, 'rot0': 0, 'rot3': 0, 'rot2': 0, 'state': 'normal', 'yaw': -1.13, 'datetime': '2018-10-09 23:22:23.604893', 'mgs': 0, 'volt': 0.874, 'depth': 1.157, 'time': 1, 'pitch': 9.39, 'roll': -1.42, 'pres': 179}
{'lipoC2': 7.35, 'lipoC3S1': 3.92, 'temp': 30.0, 'lipoC3S3': 11.84, 'lipoC3S2': 7.84, 'rot1': 0, 'rot0': 0, 'rot3': 0, 'rot2': 0, 'state': 'normal', 'yaw': -1.36, 'datetime': '2018-10-09 23:22:23.616257', 'mgs': 0, 'volt': 0.874, 'depth': 1.157, 'time': 1, 'pitch': 9.68, 'roll': -1.34, 'pres': 179}
{'lipoC2': 7.35, 'lipoC3S1': 3.92, 'temp': 30.0, 'lipoC3S3': 11.84, 'lipoC3S2': 7.84, 'rot1': 0, 'rot0': 0, 'rot3': 0, 'rot2': 0, 'state': 'normal', 'yaw': -1.46, 'datetime': '2018-10-09 23:22:23.625895', 'mgs': 0, 'volt': 0.874, 'depth': 1.157, 'time': 1, 'pitch': 9.58, 'roll': -1.25, 'pres': 179}
{'lipoC2': 7.35, 'lipoC3S1': 3.92, 'temp': 30.0, 'lipoC3S3': 11.84, 'lipoC3S2': 7.84, 'rot1': 0, 'rot0': 0, 'rot3': 0, 'rot2': 0, 'state': 'normal', 'yaw': -1.43, 'datetime': '2018-10-09 23:22:23.635432', 'mgs': 0, 'volt': 0.874, 'depth': 1.157, 'time': 2, 'pitch': 9.35, 'roll': -0.98, 'pres': 179}
{'lipoC2': 7.35, 'lipoC3S1': 3.92, 'temp': 30.0, 'lipoC3S3': 11.84, 'lipoC3S2': 7.84, 'rot1': 0, 'rot0': 0, 'rot3': 0, 'rot2': 0, 'state': 'normal', 'yaw': -1.25, 'datetime': '2018-10-09 23:22:23.644849', 'mgs': 0, 'volt': 0.8789, 'depth': 1.233, 'time': 2, 'pitch': 9.31, 'roll': -0.53, 'pres': 180}
{'lipoC2': 7.35, 'lipoC3S1': 3.92, 'temp': 30.0, 'lipoC3S3': 11.84, 'lipoC3S2': 7.84, 'rot1': 0, 'rot0': 0, 'rot3': 0, 'rot2': 0, 'state': 'normal', 'yaw': -0.83, 'datetime': '2018-10-09 23:22:23.654322', 'mgs': 0, 'volt': 0.8789, 'depth': 1.233, 'time': 2, 'pitch': 9.64, 'roll': -0.09, 'pres': 180}
{'lipoC2': 7.35, 'lipoC3S1': 3.92, 'temp': 30.0, 'lipoC3S3': 11.84, 'lipoC3S2': 7.84, 'rot1': 0, 'rot0': 0, 'rot3': 0, 'rot2': 0, 'state': 'normal', 'yaw': -0.38, 'datetime': '2018-10-09 23:22:23.663835', 'mgs': 0, 'volt': 0.8789, 'depth': 1.233, 'time': 2, 'pitch': 10.14, 'roll': 0.08, 'pres': 180}
{'lipoC2': 7.35, 'lipoC3S1': 3.92, 'temp': 29.94, 'lipoC3S3': 11.84, 'lipoC3S2': 7.84, 'rot1': 0, 'rot0': 0, 'rot3': 0, 'rot2': 0, 'state': 'normal', 'yaw': 0.02, 'datetime': '2018-10-09 23:22:23.673298', 'mgs': 0, 'volt': 0.8789, 'depth': 1.233, 'time': 2, 'pitch': 10.43, 'roll': -0.01, 'pres': 180}
{'lipoC2': 7.35, 'lipoC3S1': 3.92, 'temp': 29.94, 'lipoC3S3': 11.84, 'lipoC3S2': 7.84, 'rot1': 0, 'rot0': 0, 'rot3': 0, 'rot2': 0, 'state': 'normal', 'yaw': 0.54, 'datetime': '2018-10-09 23:22:23.682825', 'mgs': 0, 'volt': 0.8838, 'depth': 1.309, 'time': 2, 'pitch': 10.44, 'roll': -0.2, 'pres': 181}
{'lipoC2': 7.35, 'lipoC3S1': 3.92, 'temp': 30.0, 'lipoC3S3': 11.84, 'lipoC3S2': 7.84, 'rot1': 0, 'rot0': 0, 'rot3': 0, 'rot2': 0, 'state': 'normal', 'yaw': 1.18, 'datetime': '2018-10-09 23:22:23.731837', 'mgs': 0, 'volt': 0.8838, 'depth': 1.309, 'time': 2, 'pitch': 10.33, 'roll': -0.22, 'pres': 181}
{'lipoC2': 7.35, 'lipoC3S1': 3.92, 'temp': 30.0, 'lipoC3S3': 11.84, 'lipoC3S2': 7.84, 'rot1': 0, 'rot0': 0, 'rot3': 0, 'rot2': 0, 'state': 'normal', 'yaw': 2.06, 'datetime': '2018-10-09 23:22:23.835893', 'mgs': 0, 'volt': 0.8887, 'depth': 1.385, 'time': 2, 'pitch': 10.08, 'roll': -0.16, 'pres': 182}
{'lipoC2': 7.34, 'lipoC3S1': 3.92, 'temp': 30.0, 'lipoC3S3': 11.84, 'lipoC3S2': 7.84, 'rot1': 0, 'rot0': 0, 'rot3': 0, 'rot2': 0, 'state': 'normal', 'yaw': 2.83, 'datetime': '2018-10-09 23:22:23.939318', 'mgs': 0, 'volt': 0.8887, 'depth': 1.385, 'time': 2, 'pitch': 9.59, 'roll': 0.06, 'pres': 182}
{'lipoC2': 7.34, 'lipoC3S1': 3.92, 'temp': 30.0, 'lipoC3S3': 11.84, 'lipoC3S2': 7.84, 'rot1': 0, 'rot0': 0, 'rot3': 0, 'rot2': 0, 'state': 'normal', 'yaw': 3.21, 'datetime': '2018-10-09 23:22:24.042558', 'mgs': 0, 'volt': 0.8838, 'depth': 1.309, 'time': 3, 'pitch': 9.15, 'roll': 0.45, 'pres': 181}
{'lipoC2': 7.35, 'lipoC3S1': 3.92, 'temp': 30.0, 'lipoC3S3': 11.84, 'lipoC3S2': 7.84, 'rot1': 0, 'rot0': 0, 'rot3': 0, 'rot2': 0, 'state': 'normal', 'yaw': 3.27, 'datetime': '2018-10-09 23:22:24.145775', 'mgs': 0, 'volt': 0.8887, 'depth': 1.385, 'time': 3, 'pitch': 8.74, 'roll': 1.03, 'pres': 182}
{'lipoC2': 7.35, 'lipoC3S1': 3.92, 'temp': 29.94, 'lipoC3S3': 11.85, 'lipoC3S2': 7.84, 'rot1': 0, 'rot0': 0, 'rot3': 0, 'rot2': 0, 'state': 'normal', 'yaw': 3.25, 'datetime': '2018-10-09 23:22:24.249166', 'mgs': 0, 'volt': 0.8887, 'depth': 1.385, 'time': 3, 'pitch': 8.46, 'roll': 1.65, 'pres': 182}
{'lipoC2': 7.34, 'lipoC3S1': 3.92, 'temp': 29.94, 'lipoC3S3': 11.84, 'lipoC3S2': 7.84, 'rot1': 0, 'rot0': 0, 'rot3': 0, 'rot2': 0, 'state': 'normal', 'yaw': 3.22, 'datetime': '2018-10-09 23:22:24.356760', 'mgs': 0, 'volt': 0.8887, 'depth': 1.385, 'time': 3, 'pitch': 8.3, 'roll': 2.37, 'pres': 182}
{'lipoC2': 7.35, 'lipoC3S1': 3.92, 'temp': 30.06, 'lipoC3S3': 11.84, 'lipoC3S2': 7.84, 'rot1': 0, 'rot0': 0, 'rot3': 0, 'rot2': 0, 'state': 'normal', 'yaw': 3.31, 'datetime': '2018-10-09 23:22:24.462085', 'mgs': 0, 'volt': 0.8887, 'depth': 1.385, 'time': 3, 'pitch': 8.08, 'roll': 2.91, 'pres': 182}
{'lipoC2': 7.35, 'lipoC3S1': 3.92, 'temp': 30.06, 'lipoC3S3': 11.84, 'lipoC3S2': 7.84, 'rot1': 0, 'rot0': 0, 'rot3': 0, 'rot2': 0, 'state': 'normal', 'yaw': 3.57, 'datetime': '2018-10-09 23:22:24.565315', 'mgs': 0, 'volt': 0.8936, 'depth': 1.462, 'time': 3, 'pitch': 7.78, 'roll': 3.26, 'pres': 183}
{'lipoC2': 7.35, 'lipoC3S1': 3.92, 'temp': 30.06, 'lipoC3S3': 11.84, 'lipoC3S2': 7.84, 'rot1': 0, 'rot0': 0, 'rot3': 0, 'rot2': 0, 'state': 'normal', 'yaw': 3.9, 'datetime': '2018-10-09 23:22:24.668661', 'mgs': 0, 'volt': 0.8936, 'depth': 1.462, 'time': 3, 'pitch': 7.92, 'roll': 3.53, 'pres': 183}
{'lipoC2': 7.35, 'lipoC3S1': 3.92, 'temp': 30.06, 'lipoC3S3': 11.84, 'lipoC3S2': 7.84, 'rot1': 0, 'rot0': 0, 'rot3': 0, 'rot2': 0, 'state': 'normal', 'yaw': 4.25, 'datetime': '2018-10-09 23:22:24.771841', 'mgs': 0, 'volt': 0.8984, 'depth': 1.538, 'time': 3, 'pitch': 8.47, 'roll': 3.69, 'pres': 184}
{'lipoC2': 7.35, 'lipoC3S1': 3.92, 'temp': 30.06, 'lipoC3S3': 11.84, 'lipoC3S2': 7.84, 'rot1': 0, 'rot0': 0, 'rot3': 0, 'rot2': 0, 'state': 'normal', 'yaw': 4.6, 'datetime': '2018-10-09 23:22:24.875047', 'mgs': 0, 'volt': 0.8984, 'depth': 1.538, 'time': 3, 'pitch': 9.44, 'roll': 3.74, 'pres': 184}
{'lipoC2': 7.35, 'lipoC3S1': 3.92, 'temp': 30.06, 'lipoC3S3': 11.84, 'lipoC3S2': 7.84, 'rot1': 0, 'rot0': 0, 'rot3': 0, 'rot2': 0, 'state': 'normal', 'yaw': 4.99, 'datetime': '2018-10-09 23:22:24.978345', 'mgs': 0, 'volt': 0.8984, 'depth': 1.538, 'time': 3, 'pitch': 10.37, 'roll': 3.59, 'pres': 184}
{'lipoC2': 7.35, 'lipoC3S1': 3.92, 'temp': 30.06, 'lipoC3S3': 11.84, 'lipoC3S2': 7.84, 'rot1': 0, 'rot0': 0, 'rot3': 0, 'rot2': 0, 'state': 'normal', 'yaw': 5.27, 'datetime': '2018-10-09 23:22:25.081530', 'mgs': 0, 'volt': 0.8984, 'depth': 1.538, 'time': 4, 'pitch': 10.56, 'roll': 3.36, 'pres': 184}
{'lipoC2': 7.35, 'lipoC3S1': 3.92, 'temp': 30.0, 'lipoC3S3': 11.84, 'lipoC3S2': 7.84, 'rot1': 0, 'rot0': 0, 'rot3': 0, 'rot2': 0, 'state': 'normal', 'yaw': 5.64, 'datetime': '2018-10-09 23:22:25.186235', 'mgs': 0, 'volt': 0.8984, 'depth': 1.538, 'time': 4, 'pitch': 9.94, 'roll': 3.06, 'pres': 184}
{'lipoC2': 7.35, 'lipoC3S1': 3.92, 'temp': 30.0, 'lipoC3S3': 11.84, 'lipoC3S2': 7.84, 'rot1': 0, 'rot0': 0, 'rot3': 0, 'rot2': 0, 'state': 'normal', 'yaw': 6.07, 'datetime': '2018-10-09 23:22:25.290498', 'mgs': 0, 'volt': 0.8984, 'depth': 1.538, 'time': 4, 'pitch': 8.15, 'roll': 2.56, 'pres': 184}
{'lipoC2': 7.35, 'lipoC3S1': 3.92, 'temp': 30.0, 'lipoC3S3': 11.84, 'lipoC3S2': 7.84, 'rot1': 0, 'rot0': 0, 'rot3': 0, 'rot2': 0, 'state': 'normal', 'yaw': 6.28, 'datetime': '2018-10-09 23:22:25.391481', 'mgs': 0, 'volt': 0.8984, 'depth': 1.538, 'time': 4, 'pitch': 6.21, 'roll': 2.18, 'pres': 184}
{'lipoC2': 7.34, 'lipoC3S1': 3.92, 'temp': 30.0, 'lipoC3S3': 11.84, 'lipoC3S2': 7.84, 'rot1': 0, 'rot0': 0, 'rot3': 0, 'rot2': 0, 'state': 'normal', 'yaw': 6.04, 'datetime': '2018-10-09 23:22:25.497213', 'mgs': 0, 'volt': 0.9033, 'depth': 1.614, 'time': 4, 'pitch': 5.02, 'roll': 2.24, 'pres': 185}
{'lipoC2': 7.35, 'lipoC3S1': 3.92, 'temp': 30.0, 'lipoC3S3': 11.84, 'lipoC3S2': 7.84, 'rot1': 0, 'rot0': 0, 'rot3': 0, 'rot2': 0, 'state': 'normal', 'yaw': 5.4, 'datetime': '2018-10-09 23:22:25.600226', 'mgs': 0, 'volt': 0.8984, 'depth': 1.538, 'time': 4, 'pitch': 4.99, 'roll': 2.72, 'pres': 184}
{'lipoC2': 7.35, 'lipoC3S1': 3.92, 'temp': 30.06, 'lipoC3S3': 11.84, 'lipoC3S2': 7.84, 'rot1': 0, 'rot0': 0, 'rot3': 0, 'rot2': 0, 'state': 'normal', 'yaw': 4.69, 'datetime': '2018-10-09 23:22:25.703521', 'mgs': 0, 'volt': 0.9033, 'depth': 1.614, 'time': 4, 'pitch': 5.76, 'roll': 3.28, 'pres': 185}
{'lipoC2': 7.35, 'lipoC3S1': 3.92, 'temp': 30.06, 'lipoC3S3': 11.84, 'lipoC3S2': 7.84, 'rot1': 0, 'rot0': 0, 'rot3': 0, 'rot2': 0, 'state': 'normal', 'yaw': 4.1, 'datetime': '2018-10-09 23:22:25.806646', 'mgs': 0, 'volt': 0.9033, 'depth': 1.614, 'time': 4, 'pitch': 6.72, 'roll': 3.76, 'pres': 185}
{'lipoC2': 7.34, 'lipoC3S1': 3.92, 'temp': 30.0, 'lipoC3S3': 11.84, 'lipoC3S2': 7.84, 'rot1': 0, 'rot0': 0, 'rot3': 0, 'rot2': 0, 'state': 'normal', 'yaw': 3.7, 'datetime': '2018-10-09 23:22:25.909909', 'mgs': 0, 'volt': 0.9033, 'depth': 1.614, 'time': 4, 'pitch': 7.39, 'roll': 4.09, 'pres': 185}
{'lipoC2': 7.35, 'lipoC3S1': 3.92, 'temp': 30.0, 'lipoC3S3': 11.84, 'lipoC3S2': 7.84, 'rot1': 0, 'rot0': 0, 'rot3': 0, 'rot2': 0, 'state': 'normal', 'yaw': 3.62, 'datetime': '2018-10-09 23:22:26.013121', 'mgs': 0, 'volt': 0.8984, 'depth': 1.538, 'time': 4, 'pitch': 7.41, 'roll': 4.19, 'pres': 184}
{'lipoC2': 7.35, 'lipoC3S1': 3.92, 'temp': 30.0, 'lipoC3S3': 11.84, 'lipoC3S2': 7.84, 'rot1': 0, 'rot0': 0, 'rot3': 0, 'rot2': 0, 'state': 'normal', 'yaw': 3.79, 'datetime': '2018-10-09 23:22:26.116315', 'mgs': 0, 'volt': 0.9033, 'depth': 1.614, 'time': 5, 'pitch': 6.76, 'roll': 4.03, 'pres': 185}
{'lipoC2': 7.35, 'lipoC3S1': 3.92, 'temp': 30.0, 'lipoC3S3': 11.84, 'lipoC3S2': 7.84, 'rot1': 0, 'rot0': 0, 'rot3': 0, 'rot2': 0, 'state': 'normal', 'yaw': 4.01, 'datetime': '2018-10-09 23:22:26.219888', 'mgs': 0, 'volt': 0.9033, 'depth': 1.614, 'time': 5, 'pitch': 5.78, 'roll': 3.71, 'pres': 185}
{'lipoC2': 7.34, 'lipoC3S1': 3.92, 'temp': 30.0, 'lipoC3S3': 11.84, 'lipoC3S2': 7.84, 'rot1': 0, 'rot0': 0, 'rot3': 0, 'rot2': 0, 'state': 'normal', 'yaw': 4.12, 'datetime': '2018-10-09 23:22:26.322923', 'mgs': 0, 'volt': 0.9033, 'depth': 1.614, 'time': 5, 'pitch': 4.91, 'roll': 3.31, 'pres': 185}
{'lipoC2': 7.34, 'lipoC3S1': 3.92, 'temp': 30.06, 'lipoC3S3': 11.84, 'lipoC3S2': 7.84, 'rot1': 0, 'rot0': 0, 'rot3': 0, 'rot2': 0, 'state': 'normal', 'yaw': 4.1, 'datetime': '2018-10-09 23:22:26.426228', 'mgs': 0, 'volt': 0.9033, 'depth': 1.614, 'time': 5, 'pitch': 4.83, 'roll': 3.01, 'pres': 185}
{'lipoC2': 7.35, 'lipoC3S1': 3.92, 'temp': 30.06, 'lipoC3S3': 11.84, 'lipoC3S2': 7.84, 'rot1': 0, 'rot0': 0, 'rot3': 0, 'rot2': 0, 'state': 'normal', 'yaw': 4.09, 'datetime': '2018-10-09 23:22:26.530660', 'mgs': 0, 'volt': 0.9033, 'depth': 1.614, 'time': 5, 'pitch': 5.39, 'roll': 2.78, 'pres': 185}
{'lipoC2': 7.35, 'lipoC3S1': 3.92, 'temp': 30.0, 'lipoC3S3': 11.84, 'lipoC3S2': 7.84, 'rot1': 0, 'rot0': 0, 'rot3': 0, 'rot2': 0, 'state': 'normal', 'yaw': 4.15, 'datetime': '2018-10-09 23:22:26.633850', 'mgs': 0, 'volt': 0.9033, 'depth': 1.614, 'time': 5, 'pitch': 6.17, 'roll': 2.6, 'pres': 185}
{'lipoC2': 7.35, 'lipoC3S1': 3.92, 'temp': 30.0, 'lipoC3S3': 11.84, 'lipoC3S2': 7.84, 'rot1': 0, 'rot0': 0, 'rot3': 0, 'rot2': 0, 'state': 'normal', 'yaw': 4.3, 'datetime': '2018-10-09 23:22:26.737790', 'mgs': 0, 'volt': 0.9033, 'depth': 1.614, 'time': 5, 'pitch': 6.42, 'roll': 2.39, 'pres': 185}
{'lipoC2': 7.35, 'lipoC3S1': 3.92, 'temp': 30.0, 'lipoC3S3': 11.84, 'lipoC3S2': 7.84, 'rot1': 0, 'rot0': 0, 'rot3': 0, 'rot2': 0, 'state': 'normal', 'yaw': 4.26, 'datetime': '2018-10-09 23:22:26.841648', 'mgs': 0, 'volt': 0.9033, 'depth': 1.614, 'time': 5, 'pitch': 5.95, 'roll': 2.25, 'pres': 185}
{'lipoC2': 7.35, 'lipoC3S1': 3.92, 'temp': 30.0, 'lipoC3S3': 11.84, 'lipoC3S2': 7.84, 'rot1': 0, 'rot0': 0, 'rot3': 0, 'rot2': 0, 'state': 'normal', 'yaw': 3.91, 'datetime': '2018-10-09 23:22:26.944919', 'mgs': 0, 'volt': 0.9033, 'depth': 1.614, 'time': 5, 'pitch': 4.7, 'roll': 2.23, 'pres': 185}
{'lipoC2': 7.34, 'lipoC3S1': 3.92, 'temp': 30.0, 'lipoC3S3': 11.84, 'lipoC3S2': 7.84, 'rot1': 0, 'rot0': 0, 'rot3': 0, 'rot2': 0, 'state': 'normal', 'yaw': 3.37, 'datetime': '2018-10-09 23:22:27.048085', 'mgs': 0, 'volt': 0.9033, 'depth': 1.614, 'time': 6, 'pitch': 3.57, 'roll': 2.4, 'pres': 185}
{'lipoC2': 7.34, 'lipoC3S1': 3.92, 'temp': 30.0, 'lipoC3S3': 11.84, 'lipoC3S2': 7.84, 'rot1': 0, 'rot0': 0, 'rot3': 0, 'rot2': 0, 'state': 'normal', 'yaw': 2.8, 'datetime': '2018-10-09 23:22:27.152692', 'mgs': 0, 'volt': 0.9033, 'depth': 1.614, 'time': 6, 'pitch': 3.07, 'roll': 2.71, 'pres': 185}
{'lipoC2': 7.35, 'lipoC3S1': 3.92, 'temp': 30.0, 'lipoC3S3': 11.84, 'lipoC3S2': 7.84, 'rot1': 0, 'rot0': 0, 'rot3': 0, 'rot2': 0, 'state': 'normal', 'yaw': 2.21, 'datetime': '2018-10-09 23:22:27.255614', 'mgs': 0, 'volt': 0.9033, 'depth': 1.614, 'time': 6, 'pitch': 3.09, 'roll': 3.15, 'pres': 185}
{'lipoC2': 7.35, 'lipoC3S1': 3.92, 'temp': 30.0, 'lipoC3S3': 11.84, 'lipoC3S2': 7.84, 'rot1': 0, 'rot0': 0, 'rot3': 0, 'rot2': 0, 'state': 'normal', 'yaw': 2.02, 'datetime': '2018-10-09 23:22:27.358789', 'mgs': 0, 'volt': 0.8984, 'depth': 1.538, 'time': 6, 'pitch': 3.22, 'roll': 3.37, 'pres': 184}
{'lipoC2': 7.35, 'lipoC3S1': 3.92, 'temp': 30.0, 'lipoC3S3': 11.84, 'lipoC3S2': 7.84, 'rot1': 0, 'rot0': 0, 'rot3': 0, 'rot2': 0, 'state': 'normal', 'yaw': 2.16, 'datetime': '2018-10-09 23:22:27.462005', 'mgs': 0, 'volt': 0.8984, 'depth': 1.538, 'time': 6, 'pitch': 2.91, 'roll': 3.35, 'pres': 184}
{'lipoC2': 7.35, 'lipoC3S1': 3.92, 'temp': 30.0, 'lipoC3S3': 11.84, 'lipoC3S2': 7.84, 'rot1': 0, 'rot0': 0, 'rot3': 0, 'rot2': 0, 'state': 'normal', 'yaw': 2.52, 'datetime': '2018-10-09 23:22:27.565206', 'mgs': 0, 'volt': 0.8936, 'depth': 1.462, 'time': 6, 'pitch': 1.83, 'roll': 3.02, 'pres': 183}
{'lipoC2': 7.35, 'lipoC3S1': 3.92, 'temp': 30.0, 'lipoC3S3': 11.84, 'lipoC3S2': 7.84, 'rot1': 0, 'rot0': 0, 'rot3': 0, 'rot2': 0, 'state': 'normal', 'yaw': 2.55, 'datetime': '2018-10-09 23:22:27.668448', 'mgs': 0, 'volt': 0.8936, 'depth': 1.462, 'time': 6, 'pitch': 0.35, 'roll': 2.82, 'pres': 183}
{'lipoC2': 7.35, 'lipoC3S1': 3.92, 'temp': 30.0, 'lipoC3S3': 11.84, 'lipoC3S2': 7.84, 'rot1': 0, 'rot0': 0, 'rot3': 0, 'rot2': 0, 'state': 'normal', 'yaw': 2.42, 'datetime': '2018-10-09 23:22:27.771670', 'mgs': 0, 'volt': 0.8887, 'depth': 1.385, 'time': 6, 'pitch': -0.8, 'roll': 2.72, 'pres': 182}
{'lipoC2': 7.35, 'lipoC3S1': 3.92, 'temp': 30.0, 'lipoC3S3': 11.84, 'lipoC3S2': 7.84, 'rot1': 0, 'rot0': 0, 'rot3': 0, 'rot2': 0, 'state': 'normal', 'yaw': 2.21, 'datetime': '2018-10-09 23:22:27.874811', 'mgs': 0, 'volt': 0.8887, 'depth': 1.385, 'time': 6, 'pitch': -1.33, 'roll': 2.71, 'pres': 182}
{'lipoC2': 7.34, 'lipoC3S1': 3.92, 'temp': 30.0, 'lipoC3S3': 11.84, 'lipoC3S2': 7.84, 'rot1': 0, 'rot0': 0, 'rot3': 0, 'rot2': 0, 'state': 'normal', 'yaw': 2.14, 'datetime': '2018-10-09 23:22:27.976155', 'mgs': 0, 'volt': 0.8887, 'depth': 1.385, 'time': 6, 'pitch': -1.23, 'roll': 2.71, 'pres': 182}
{'lipoC2': 7.35, 'lipoC3S1': 3.92, 'temp': 30.0, 'lipoC3S3': 11.84, 'lipoC3S2': 7.84, 'rot1': 0, 'rot0': 0, 'rot3': 0, 'rot2': 0, 'state': 'normal', 'yaw': 2.12, 'datetime': '2018-10-09 23:22:28.081383', 'mgs': 0, 'volt': 0.8838, 'depth': 1.309, 'time': 7, 'pitch': -0.85, 'roll': 2.81, 'pres': 181}
{'lipoC2': 7.35, 'lipoC3S1': 3.92, 'temp': 30.0, 'lipoC3S3': 11.84, 'lipoC3S2': 7.84, 'rot1': 0, 'rot0': 0, 'rot3': 0, 'rot2': 0, 'state': 'normal', 'yaw': 2.22, 'datetime': '2018-10-09 23:22:28.185111', 'mgs': 0, 'volt': 0.8838, 'depth': 1.309, 'time': 7, 'pitch': -0.43, 'roll': 2.95, 'pres': 181}
{'lipoC2': 7.35, 'lipoC3S1': 3.92, 'temp': 30.0, 'lipoC3S3': 11.84, 'lipoC3S2': 7.84, 'rot1': 0, 'rot0': 0, 'rot3': 0, 'rot2': 0, 'state': 'normal', 'yaw': 2.03, 'datetime': '2018-10-09 23:22:28.288599', 'mgs': 0, 'volt': 0.874, 'depth': 1.157, 'time': 7, 'pitch': -0.24, 'roll': 3.35, 'pres': 179}
{'lipoC2': 7.35, 'lipoC3S1': 3.92, 'temp': 30.0, 'lipoC3S3': 11.84, 'lipoC3S2': 7.84, 'rot1': 0, 'rot0': 0, 'rot3': 0, 'rot2': 0, 'state': 'normal', 'yaw': 1.46, 'datetime': '2018-10-09 23:22:28.392642', 'mgs': 0, 'volt': 0.874, 'depth': 1.157, 'time': 7, 'pitch': -0.55, 'roll': 3.87, 'pres': 179}
{'lipoC2': 7.35, 'lipoC3S1': 3.92, 'temp': 30.0, 'lipoC3S3': 11.84, 'lipoC3S2': 7.84, 'rot1': 0, 'rot0': 0, 'rot3': 0, 'rot2': 0, 'state': 'normal', 'yaw': 0.57, 'datetime': '2018-10-09 23:22:28.496219', 'mgs': 0, 'volt': 0.874, 'depth': 1.157, 'time': 7, 'pitch': -1.61, 'roll': 4.32, 'pres': 179}
{'lipoC2': 7.35, 'lipoC3S1': 3.92, 'temp': 30.0, 'lipoC3S3': 11.84, 'lipoC3S2': 7.84, 'rot1': 0, 'rot0': 0, 'rot3': 0, 'rot2': 0, 'state': 'normal', 'yaw': -0.21, 'datetime': '2018-10-09 23:22:28.599190', 'mgs': 0, 'volt': 0.8691, 'depth': 1.08, 'time': 7, 'pitch': -2.5, 'roll': 4.41, 'pres': 178}
{'lipoC2': 7.34, 'lipoC3S1': 3.92, 'temp': 30.0, 'lipoC3S3': 11.84, 'lipoC3S2': 7.84, 'rot1': 0, 'rot0': 0, 'rot3': 0, 'rot2': 0, 'state': 'normal', 'yaw': -0.91, 'datetime': '2018-10-09 23:22:28.703585', 'mgs': 0, 'volt': 0.8643, 'depth': 1.004, 'time': 7, 'pitch': -2.62, 'roll': 4.18, 'pres': 177}
{'lipoC2': 7.35, 'lipoC3S1': 3.92, 'temp': 30.0, 'lipoC3S3': 11.84, 'lipoC3S2': 7.84, 'rot1': 0, 'rot0': 0, 'rot3': 0, 'rot2': 0, 'state': 'normal', 'yaw': -1.32, 'datetime': '2018-10-09 23:22:28.807056', 'mgs': 0, 'volt': 0.8594, 'depth': 0.928, 'time': 7, 'pitch': -1.85, 'roll': 3.37, 'pres': 176}
{'lipoC2': 7.35, 'lipoC3S1': 3.92, 'temp': 30.0, 'lipoC3S3': 11.84, 'lipoC3S2': 7.84, 'rot1': 0, 'rot0': 0, 'rot3': 0, 'rot2': 0, 'state': 'normal', 'yaw': -1.33, 'datetime': '2018-10-09 23:22:28.922642', 'mgs': 0, 'volt': 0.8545, 'depth': 0.851, 'time': 7, 'pitch': -0.67, 'roll': 2.19, 'pres': 175}
{'lipoC2': 7.35, 'lipoC3S1': 3.92, 'temp': 30.0, 'lipoC3S3': 11.84, 'lipoC3S2': 7.84, 'rot1': 0, 'rot0': 0, 'rot3': 0, 'rot2': 0, 'state': 'normal', 'yaw': -1.45, 'datetime': '2018-10-09 23:22:29.007036', 'mgs': 0, 'volt': 0.8447, 'depth': 0.699, 'time': 7, 'pitch': 0.64, 'roll': 0.91, 'pres': 173}
{'lipoC2': 7.34, 'lipoC3S1': 3.92, 'temp': 30.0, 'lipoC3S3': 11.84, 'lipoC3S2': 7.84, 'rot1': 0, 'rot0': 0, 'rot3': 0, 'rot2': 0, 'state': 'normal', 'yaw': -1.86, 'datetime': '2018-10-09 23:22:29.110425', 'mgs': 0, 'volt': 0.8398, 'depth': 0.623, 'time': 8, 'pitch': 1.29, 'roll': -0.15, 'pres': 172}
{'lipoC2': 7.35, 'lipoC3S1': 3.92, 'temp': 30.0, 'lipoC3S3': 11.84, 'lipoC3S2': 7.84, 'rot1': 0, 'rot0': 0, 'rot3': 0, 'rot2': 0, 'state': 'normal', 'yaw': -2.49, 'datetime': '2018-10-09 23:22:29.213667', 'mgs': 0, 'volt': 0.835, 'depth': 0.546, 'time': 8, 'pitch': 0.81, 'roll': -0.81, 'pres': 171}
{'lipoC2': 7.34, 'lipoC3S1': 3.92, 'temp': 30.06, 'lipoC3S3': 11.84, 'lipoC3S2': 7.84, 'rot1': 0, 'rot0': 0, 'rot3': 0, 'rot2': 0, 'state': 'normal', 'yaw': -3.34, 'datetime': '2018-10-09 23:22:29.316848', 'mgs': 0, 'volt': 0.835, 'depth': 0.546, 'time': 8, 'pitch': -0.22, 'roll': -0.71, 'pres': 171}
{'lipoC2': 7.35, 'lipoC3S1': 3.92, 'temp': 30.06, 'lipoC3S3': 11.84, 'lipoC3S2': 7.84, 'rot1': 0, 'rot0': 0, 'rot3': 0, 'rot2': 0, 'state': 'normal', 'yaw': -4.55, 'datetime': '2018-10-09 23:22:29.432414', 'mgs': 0, 'volt': 0.835, 'depth': 0.546, 'time': 8, 'pitch': -1.12, 'roll': 0.18, 'pres': 171}
{'lipoC2': 7.35, 'lipoC3S1': 3.92, 'temp': 30.06, 'lipoC3S3': 11.84, 'lipoC3S2': 7.84, 'rot1': 0, 'rot0': 0, 'rot3': 0, 'rot2': 0, 'state': 'normal', 'yaw': -6.01, 'datetime': '2018-10-09 23:22:29.523292', 'mgs': 0, 'volt': 0.835, 'depth': 0.546, 'time': 8, 'pitch': -1.48, 'roll': 1.7, 'pres': 171}
{'lipoC2': 7.35, 'lipoC3S1': 3.92, 'temp': 30.06, 'lipoC3S3': 11.84, 'lipoC3S2': 7.84, 'rot1': 0, 'rot0': 0, 'rot3': 0, 'rot2': 0, 'state': 'normal', 'yaw': -6.89, 'datetime': '2018-10-09 23:22:29.626899', 'mgs': 0, 'volt': 0.835, 'depth': 0.546, 'time': 8, 'pitch': -1.04, 'roll': 2.87, 'pres': 171}
{'lipoC2': 7.35, 'lipoC3S1': 3.92, 'temp': 30.06, 'lipoC3S3': 11.84, 'lipoC3S2': 7.84, 'rot1': 0, 'rot0': 0, 'rot3': 0, 'rot2': 0, 'state': 'normal', 'yaw': -7.35, 'datetime': '2018-10-09 23:22:29.733793', 'mgs': 0, 'volt': 0.835, 'depth': 0.546, 'time': 8, 'pitch': 0.06, 'roll': 3.47, 'pres': 171}
{'lipoC2': 7.35, 'lipoC3S1': 3.92, 'temp': 30.0, 'lipoC3S3': 11.84, 'lipoC3S2': 7.84, 'rot1': 0, 'rot0': 0, 'rot3': 0, 'rot2': 0, 'state': 'normal', 'yaw': -7.74, 'datetime': '2018-10-09 23:22:29.839430', 'mgs': 0, 'volt': 0.835, 'depth': 0.546, 'time': 8, 'pitch': 1.85, 'roll': 3.55, 'pres': 171}
{'lipoC2': 7.34, 'lipoC3S1': 3.92, 'temp': 30.0, 'lipoC3S3': 11.84, 'lipoC3S2': 7.84, 'rot1': 0, 'rot0': 0, 'rot3': 0, 'rot2': 0, 'state': 'normal', 'yaw': -8.13, 'datetime': '2018-10-09 23:22:29.942604', 'mgs': 0, 'volt': 0.835, 'depth': 0.546, 'time': 8, 'pitch': 3.12, 'roll': 3.19, 'pres': 171}
{'lipoC2': 7.35, 'lipoC3S1': 3.92, 'temp': 30.0, 'lipoC3S3': 11.84, 'lipoC3S2': 7.84, 'rot1': 0, 'rot0': 0, 'rot3': 0, 'rot2': 0, 'state': 'normal', 'yaw': -8.66, 'datetime': '2018-10-09 23:22:30.047192', 'mgs': 0, 'volt': 0.8301, 'depth': 0.47, 'time': 9, 'pitch': 3.17, 'roll': 2.61, 'pres': 170}
{'lipoC2': 7.35, 'lipoC3S1': 3.92, 'temp': 30.0, 'lipoC3S3': 11.84, 'lipoC3S2': 7.84, 'rot1': 0, 'rot0': 0, 'rot3': 0, 'rot2': 0, 'state': 'normal', 'yaw': -9.27, 'datetime': '2018-10-09 23:22:30.150480', 'mgs': 0, 'volt': 0.835, 'depth': 0.546, 'time': 9, 'pitch': 1.83, 'roll': 2.18, 'pres': 171}
{'lipoC2': 7.35, 'lipoC3S1': 3.92, 'temp': 30.06, 'lipoC3S3': 11.84, 'lipoC3S2': 7.84, 'rot1': 0, 'rot0': 0, 'rot3': 0, 'rot2': 0, 'state': 'normal', 'yaw': -9.7, 'datetime': '2018-10-09 23:22:30.253431', 'mgs': 0, 'volt': 0.8301, 'depth': 0.47, 'time': 9, 'pitch': 0.33, 'roll': 2.11, 'pres': 170}
{'lipoC2': 7.35, 'lipoC3S1': 3.92, 'temp': 30.06, 'lipoC3S3': 11.84, 'lipoC3S2': 7.84, 'rot1': 0, 'rot0': 0, 'rot3': 0, 'rot2': 0, 'state': 'normal', 'yaw': -10.07, 'datetime': '2018-10-09 23:22:30.357641', 'mgs': 0, 'volt': 0.8301, 'depth': 0.47, 'time': 9, 'pitch': -0.95, 'roll': 2.46, 'pres': 170}
{'lipoC2': 7.34, 'lipoC3S1': 3.92, 'temp': 30.06, 'lipoC3S3': 11.84, 'lipoC3S2': 7.84, 'rot1': 0, 'rot0': 0, 'rot3': 0, 'rot2': 0, 'state': 'normal', 'yaw': -10.12, 'datetime': '2018-10-09 23:22:30.460902', 'mgs': 0, 'volt': 0.8252, 'depth': 0.394, 'time': 9, 'pitch': -1.77, 'roll': 2.88, 'pres': 169}
{'lipoC2': 7.35, 'lipoC3S1': 3.92, 'temp': 30.06, 'lipoC3S3': 11.84, 'lipoC3S2': 7.84, 'rot1': 0, 'rot0': 0, 'rot3': 0, 'rot2': 0, 'state': 'normal', 'yaw': -10.0, 'datetime': '2018-10-09 23:22:30.564143', 'mgs': 0, 'volt': 0.8252, 'depth': 0.394, 'time': 9, 'pitch': -2.05, 'roll': 3.15, 'pres': 169}
{'lipoC2': 7.34, 'lipoC3S1': 3.92, 'temp': 30.06, 'lipoC3S3': 11.84, 'lipoC3S2': 7.84, 'rot1': 0, 'rot0': 0, 'rot3': 0, 'rot2': 0, 'state': 'normal', 'yaw': -9.8, 'datetime': '2018-10-09 23:22:30.667455', 'mgs': 0, 'volt': 0.8301, 'depth': 0.47, 'time': 9, 'pitch': -1.93, 'roll': 3.15, 'pres': 170}
{'lipoC2': 7.35, 'lipoC3S1': 3.92, 'temp': 30.0, 'lipoC3S3': 11.84, 'lipoC3S2': 7.84, 'rot1': 0, 'rot0': 0, 'rot3': 0, 'rot2': 0, 'state': 'normal', 'yaw': -9.61, 'datetime': '2018-10-09 23:22:30.770783', 'mgs': 0, 'volt': 0.8301, 'depth': 0.47, 'time': 9, 'pitch': -1.49, 'roll': 2.93, 'pres': 170}
{'lipoC2': 7.35, 'lipoC3S1': 3.92, 'temp': 30.0, 'lipoC3S3': 11.84, 'lipoC3S2': 7.84, 'rot1': 0, 'rot0': 0, 'rot3': 0, 'rot2': 0, 'state': 'normal', 'yaw': -9.23, 'datetime': '2018-10-09 23:22:30.874069', 'mgs': 0, 'volt': 0.8252, 'depth': 0.394, 'time': 9, 'pitch': -1.21, 'roll': 2.52, 'pres': 169}
{'lipoC2': 7.35, 'lipoC3S1': 3.92, 'temp': 30.0, 'lipoC3S3': 11.84, 'lipoC3S2': 7.84, 'rot1': 0, 'rot0': 0, 'rot3': 0, 'rot2': 0, 'state': 'normal', 'yaw': -8.69, 'datetime': '2018-10-09 23:22:30.977265', 'mgs': 0, 'volt': 0.8252, 'depth': 0.394, 'time': 9, 'pitch': -1.36, 'roll': 2.23, 'pres': 169}
{'lipoC2': 7.34, 'lipoC3S1': 3.92, 'temp': 30.0, 'lipoC3S3': 11.84, 'lipoC3S2': 7.84, 'rot1': 0, 'rot0': 0, 'rot3': 0, 'rot2': 0, 'state': 'normal', 'yaw': -8.15, 'datetime': '2018-10-09 23:22:31.080634', 'mgs': 0, 'volt': 0.8252, 'depth': 0.394, 'time': 10, 'pitch': -1.89, 'roll': 2.38, 'pres': 169}
{'lipoC2': 7.35, 'lipoC3S1': 3.92, 'temp': 30.0, 'lipoC3S3': 11.84, 'lipoC3S2': 7.84, 'rot1': 0, 'rot0': 0, 'rot3': 0, 'rot2': 0, 'state': 'normal', 'yaw': -7.71, 'datetime': '2018-10-09 23:22:31.183936', 'mgs': 0, 'volt': 0.8252, 'depth': 0.394, 'time': 10, 'pitch': -2.59, 'roll': 3.13, 'pres': 169}
{'lipoC2': 7.35, 'lipoC3S1': 3.92, 'temp': 30.0, 'lipoC3S3': 11.84, 'lipoC3S2': 7.84, 'rot1': 0, 'rot0': 0, 'rot3': 0, 'rot2': 0, 'state': 'normal', 'yaw': -7.68, 'datetime': '2018-10-09 23:22:31.287346', 'mgs': 0, 'volt': 0.8252, 'depth': 0.394, 'time': 10, 'pitch': -3.19, 'roll': 4.31, 'pres': 169}
{'lipoC2': 7.35, 'lipoC3S1': 3.92, 'temp': 30.0, 'lipoC3S3': 11.84, 'lipoC3S2': 7.84, 'rot1': 0, 'rot0': 0, 'rot3': 0, 'rot2': 0, 'state': 'normal', 'yaw': -8.18, 'datetime': '2018-10-09 23:22:31.390586', 'mgs': 0, 'volt': 0.8252, 'depth': 0.394, 'time': 10, 'pitch': -3.88, 'roll': 5.68, 'pres': 169}
{'lipoC2': 7.35, 'lipoC3S1': 3.92, 'temp': 30.06, 'lipoC3S3': 11.84, 'lipoC3S2': 7.84, 'rot1': 0, 'rot0': 0, 'rot3': 0, 'rot2': 0, 'state': 'normal', 'yaw': -9.15, 'datetime': '2018-10-09 23:22:31.494835', 'mgs': 0, 'volt': 0.8252, 'depth': 0.394, 'time': 10, 'pitch': -4.58, 'roll': 6.89, 'pres': 169}
{'lipoC2': 7.34, 'lipoC3S1': 3.92, 'temp': 30.06, 'lipoC3S3': 11.84, 'lipoC3S2': 7.84, 'rot1': 0, 'rot0': 0, 'rot3': 0, 'rot2': 0, 'state': 'normal', 'yaw': -10.04, 'datetime': '2018-10-09 23:22:31.597426', 'mgs': 0, 'volt': 0.8252, 'depth': 0.394, 'time': 10, 'pitch': -4.91, 'roll': 7.19, 'pres': 169}
{'lipoC2': 7.35, 'lipoC3S1': 3.92, 'temp': 30.06, 'lipoC3S3': 11.84, 'lipoC3S2': 7.84, 'rot1': 0, 'rot0': 0, 'rot3': 0, 'rot2': 0, 'state': 'normal', 'yaw': -10.72, 'datetime': '2018-10-09 23:22:31.702093', 'mgs': 0, 'volt': 0.8252, 'depth': 0.394, 'time': 10, 'pitch': -4.6, 'roll': 6.57, 'pres': 169}
{'lipoC2': 7.35, 'lipoC3S1': 3.92, 'temp': 30.06, 'lipoC3S3': 11.84, 'lipoC3S2': 7.84, 'rot1': 0, 'rot0': 0, 'rot3': 0, 'rot2': 0, 'state': 'normal', 'yaw': -11.37, 'datetime': '2018-10-09 23:22:31.805341', 'mgs': 0, 'volt': 0.8301, 'depth': 0.47, 'time': 10, 'pitch': -3.62, 'roll': 5.35, 'pres': 170}
{'lipoC2': 7.35, 'lipoC3S1': 3.92, 'temp': 30.06, 'lipoC3S3': 11.84, 'lipoC3S2': 7.84, 'rot1': 0, 'rot0': 0, 'rot3': 0, 'rot2': 0, 'state': 'normal', 'yaw': -11.95, 'datetime': '2018-10-09 23:22:31.908673', 'mgs': 0, 'volt': 0.8252, 'depth': 0.394, 'time': 10, 'pitch': -2.6, 'roll': 4.21, 'pres': 169}
{'lipoC2': 7.35, 'lipoC3S1': 3.92, 'temp': 30.0, 'lipoC3S3': 11.84, 'lipoC3S2': 7.84, 'rot1': 0, 'rot0': 0, 'rot3': 0, 'rot2': 0, 'state': 'normal', 'yaw': -12.41, 'datetime': '2018-10-09 23:22:32.013257', 'mgs': 0, 'volt': 0.8301, 'depth': 0.47, 'time': 10, 'pitch': -1.91, 'roll': 3.27, 'pres': 170}
{'lipoC2': 7.35, 'lipoC3S1': 3.92, 'temp': 30.0, 'lipoC3S3': 11.84, 'lipoC3S2': 7.84, 'rot1': 0, 'rot0': 0, 'rot3': 0, 'rot2': 0, 'state': 'normal', 'yaw': -12.55, 'datetime': '2018-10-09 23:22:32.116581', 'mgs': 0, 'volt': 0.8252, 'depth': 0.394, 'time': 11, 'pitch': -1.73, 'roll': 2.35, 'pres': 169}
{'lipoC2': 7.35, 'lipoC3S1': 3.92, 'temp': 30.0, 'lipoC3S3': 11.84, 'lipoC3S2': 7.84, 'rot1': 0, 'rot0': 0, 'rot3': 0, 'rot2': 0, 'state': 'normal', 'yaw': -12.68, 'datetime': '2018-10-09 23:22:32.220678', 'mgs': 0, 'volt': 0.8252, 'depth': 0.394, 'time': 11, 'pitch': -2.27, 'roll': 1.66, 'pres': 169}
{'lipoC2': 7.35, 'lipoC3S1': 3.92, 'temp': 30.0, 'lipoC3S3': 11.84, 'lipoC3S2': 7.84, 'rot1': 0, 'rot0': 0, 'rot3': 0, 'rot2': 0, 'state': 'normal', 'yaw': -12.76, 'datetime': '2018-10-09 23:22:32.323264', 'mgs': 0, 'volt': 0.8252, 'depth': 0.394, 'time': 11, 'pitch': -3.17, 'roll': 1.13, 'pres': 169}
{'lipoC2': 7.35, 'lipoC3S1': 3.92, 'temp': 30.0, 'lipoC3S3': 11.84, 'lipoC3S2': 7.84, 'rot1': 0, 'rot0': 0, 'rot3': 0, 'rot2': 0, 'state': 'normal', 'yaw': -13.05, 'datetime': '2018-10-09 23:22:32.426568', 'mgs': 0, 'volt': 0.8252, 'depth': 0.394, 'time': 11, 'pitch': -3.79, 'roll': 0.75, 'pres': 169}
{'lipoC2': 7.35, 'lipoC3S1': 3.92, 'temp': 30.0, 'lipoC3S3': 11.84, 'lipoC3S2': 7.84, 'rot1': 0, 'rot0': 0, 'rot3': 0, 'rot2': 0, 'state': 'normal', 'yaw': -13.65, 'datetime': '2018-10-09 23:22:32.530011', 'mgs': 0, 'volt': 0.8252, 'depth': 0.394, 'time': 11, 'pitch': -3.85, 'roll': 0.71, 'pres': 169}
{'lipoC2': 7.35, 'lipoC3S1': 3.92, 'temp': 30.0, 'lipoC3S3': 11.84, 'lipoC3S2': 7.84, 'rot1': 0, 'rot0': 0, 'rot3': 0, 'rot2': 0, 'state': 'normal', 'yaw': -14.31, 'datetime': '2018-10-09 23:22:32.633244', 'mgs': 0, 'volt': 0.8252, 'depth': 0.394, 'time': 11, 'pitch': -3.57, 'roll': 0.96, 'pres': 169}
{'lipoC2': 7.35, 'lipoC3S1': 3.92, 'temp': 30.0, 'lipoC3S3': 11.84, 'lipoC3S2': 7.84, 'rot1': 0, 'rot0': 0, 'rot3': 0, 'rot2': 0, 'state': 'normal', 'yaw': -14.81, 'datetime': '2018-10-09 23:22:32.736606', 'mgs': 0, 'volt': 0.8252, 'depth': 0.394, 'time': 11, 'pitch': -2.85, 'roll': 1.54, 'pres': 169}
{'lipoC2': 7.35, 'lipoC3S1': 3.92, 'temp': 30.0, 'lipoC3S3': 11.84, 'lipoC3S2': 7.84, 'rot1': 0, 'rot0': 0, 'rot3': 0, 'rot2': 0, 'state': 'normal', 'yaw': -14.99, 'datetime': '2018-10-09 23:22:32.839966', 'mgs': 1, 'volt': 0.8252, 'depth': 0.394, 'time': 11, 'pitch': -2.12, 'roll': 2.32, 'pres': 169}
{'lipoC2': 7.34, 'lipoC3S1': 3.92, 'temp': 30.0, 'lipoC3S3': 11.84, 'lipoC3S2': 7.84, 'rot1': 0, 'rot0': 0, 'rot3': 0, 'rot2': 0, 'state': 'normal', 'yaw': 0.0, 'datetime': '2018-10-09 23:22:37.369867', 'mgs': 0, 'volt': 0.8301, 'depth': 0.47, 'time': 1, 'pitch': -4.79, 'roll': 5.78, 'pres': 170}
{'lipoC2': 7.35, 'lipoC3S1': 3.92, 'temp': 30.0, 'lipoC3S3': 11.84, 'lipoC3S2': 7.84, 'rot1': 0, 'rot0': 0, 'rot3': 0, 'rot2': 0, 'state': 'normal', 'yaw': 0.11, 'datetime': '2018-10-09 23:22:40.424081', 'mgs': 0, 'volt': 0.835, 'depth': 0.546, 'time': 1, 'pitch': -4.1, 'roll': 5.09, 'pres': 171}
{'lipoC2': 7.35, 'lipoC3S1': 3.92, 'temp': 30.0, 'lipoC3S3': 11.84, 'lipoC3S2': 7.84, 'rot1': 0, 'rot0': 0, 'rot3': 0, 'rot2': 0, 'state': 'normal', 'yaw': -0.02, 'datetime': '2018-10-09 23:22:40.460416', 'mgs': 0, 'volt': 0.8301, 'depth': 0.47, 'time': 1, 'pitch': -3.38, 'roll': 4.91, 'pres': 170}
{'lipoC2': 7.35, 'lipoC3S1': 3.92, 'temp': 30.0, 'lipoC3S3': 11.84, 'lipoC3S2': 7.84, 'rot1': 0, 'rot0': 0, 'rot3': 0, 'rot2': 0, 'state': 'normal', 'yaw': -0.2, 'datetime': '2018-10-09 23:22:40.478429', 'mgs': 0, 'volt': 0.835, 'depth': 0.546, 'time': 1, 'pitch': -3.13, 'roll': 5.11, 'pres': 171}
{'lipoC2': 7.34, 'lipoC3S1': 3.92, 'temp': 30.0, 'lipoC3S3': 11.84, 'lipoC3S2': 7.84, 'rot1': 0, 'rot0': 0, 'rot3': 0, 'rot2': 0, 'state': 'normal', 'yaw': -0.49, 'datetime': '2018-10-09 23:22:40.495847', 'mgs': 0, 'volt': 0.8398, 'depth': 0.623, 'time': 1, 'pitch': -3.4, 'roll': 5.58, 'pres': 172}
{'lipoC2': 7.35, 'lipoC3S1': 3.92, 'temp': 30.0, 'lipoC3S3': 11.84, 'lipoC3S2': 7.84, 'rot1': 0, 'rot0': 0, 'rot3': 0, 'rot2': 0, 'state': 'normal', 'yaw': -0.76, 'datetime': '2018-10-09 23:22:40.512319', 'mgs': 0, 'volt': 0.8398, 'depth': 0.623, 'time': 1, 'pitch': -3.76, 'roll': 6.32, 'pres': 172}
{'lipoC2': 7.34, 'lipoC3S1': 3.92, 'temp': 30.0, 'lipoC3S3': 11.84, 'lipoC3S2': 7.84, 'rot1': 0, 'rot0': 0, 'rot3': 0, 'rot2': 0, 'state': 'normal', 'yaw': -0.78, 'datetime': '2018-10-09 23:22:40.522749', 'mgs': 0, 'volt': 0.8398, 'depth': 0.623, 'time': 1, 'pitch': -4.1, 'roll': 6.86, 'pres': 172}
{'lipoC2': 7.35, 'lipoC3S1': 3.92, 'temp': 30.0, 'lipoC3S3': 11.85, 'lipoC3S2': 7.84, 'rot1': 0, 'rot0': 0, 'rot3': 0, 'rot2': 0, 'state': 'normal', 'yaw': -0.38, 'datetime': '2018-10-09 23:22:40.539816', 'mgs': 0, 'volt': 0.8398, 'depth': 0.623, 'time': 1, 'pitch': -4.34, 'roll': 7.05, 'pres': 172}
{'lipoC2': 7.35, 'lipoC3S1': 3.92, 'temp': 30.0, 'lipoC3S3': 11.84, 'lipoC3S2': 7.84, 'rot1': 0, 'rot0': 0, 'rot3': 0, 'rot2': 0, 'state': 'normal', 'yaw': 0.35, 'datetime': '2018-10-09 23:22:40.556706', 'mgs': 0, 'volt': 0.835, 'depth': 0.546, 'time': 2, 'pitch': -4.23, 'roll': 6.86, 'pres': 171}
{'lipoC2': 7.35, 'lipoC3S1': 3.92, 'temp': 30.0, 'lipoC3S3': 11.84, 'lipoC3S2': 7.84, 'rot1': 0, 'rot0': 0, 'rot3': 0, 'rot2': 0, 'state': 'normal', 'yaw': 1.2, 'datetime': '2018-10-09 23:22:40.567511', 'mgs': 0, 'volt': 0.8398, 'depth': 0.623, 'time': 2, 'pitch': -3.59, 'roll': 6.21, 'pres': 172}
{'lipoC2': 7.35, 'lipoC3S1': 3.92, 'temp': 30.0, 'lipoC3S3': 11.84, 'lipoC3S2': 7.84, 'rot1': 0, 'rot0': 0, 'rot3': 0, 'rot2': 0, 'state': 'normal', 'yaw': 1.6, 'datetime': '2018-10-09 23:22:40.584784', 'mgs': 0, 'volt': 0.835, 'depth': 0.546, 'time': 2, 'pitch': -2.49, 'roll': 5.63, 'pres': 171}
{'lipoC2': 7.35, 'lipoC3S1': 3.93, 'temp': 30.0, 'lipoC3S3': 11.84, 'lipoC3S2': 7.84, 'rot1': 0, 'rot0': 0, 'rot3': 0, 'rot2': 0, 'state': 'normal', 'yaw': 1.61, 'datetime': '2018-10-09 23:22:40.602320', 'mgs': 0, 'volt': 0.8398, 'depth': 0.623, 'time': 2, 'pitch': -1.78, 'roll': 5.52, 'pres': 172}
{'lipoC2': 7.35, 'lipoC3S1': 3.92, 'temp': 30.06, 'lipoC3S3': 11.84, 'lipoC3S2': 7.84, 'rot1': 0, 'rot0': 0, 'rot3': 0, 'rot2': 0, 'state': 'normal', 'yaw': 1.43, 'datetime': '2018-10-09 23:22:40.613133', 'mgs': 0, 'volt': 0.835, 'depth': 0.546, 'time': 2, 'pitch': -1.89, 'roll': 6.2, 'pres': 171}
{'lipoC2': 7.35, 'lipoC3S1': 3.92, 'temp': 30.06, 'lipoC3S3': 11.84, 'lipoC3S2': 7.84, 'rot1': 0, 'rot0': 0, 'rot3': 0, 'rot2': 0, 'state': 'normal', 'yaw': 1.5, 'datetime': '2018-10-09 23:22:40.630188', 'mgs': 0, 'volt': 0.8398, 'depth': 0.623, 'time': 2, 'pitch': -2.45, 'roll': 7.09, 'pres': 172}
{'lipoC2': 7.34, 'lipoC3S1': 3.92, 'temp': 30.0, 'lipoC3S3': 11.84, 'lipoC3S2': 7.84, 'rot1': 0, 'rot0': 0, 'rot3': 0, 'rot2': 0, 'state': 'normal', 'yaw': 1.78, 'datetime': '2018-10-09 23:22:40.646996', 'mgs': 0, 'volt': 0.8398, 'depth': 0.623, 'time': 2, 'pitch': -2.86, 'roll': 8.04, 'pres': 172}
{'lipoC2': 7.35, 'lipoC3S1': 3.92, 'temp': 30.0, 'lipoC3S3': 11.84, 'lipoC3S2': 7.84, 'rot1': 0, 'rot0': 0, 'rot3': 0, 'rot2': 0, 'state': 'normal', 'yaw': 2.37, 'datetime': '2018-10-09 23:22:40.657811', 'mgs': 0, 'volt': 0.835, 'depth': 0.546, 'time': 2, 'pitch': -2.48, 'roll': 8.73, 'pres': 171}
{'lipoC2': 7.35, 'lipoC3S1': 3.92, 'temp': 30.0, 'lipoC3S3': 11.84, 'lipoC3S2': 7.84, 'rot1': 0, 'rot0': 0, 'rot3': 0, 'rot2': 0, 'state': 'normal', 'yaw': 3.08, 'datetime': '2018-10-09 23:22:40.674878', 'mgs': 0, 'volt': 0.835, 'depth': 0.546, 'time': 2, 'pitch': -1.49, 'roll': 8.64, 'pres': 171}
{'lipoC2': 7.35, 'lipoC3S1': 3.92, 'temp': 30.0, 'lipoC3S3': 11.84, 'lipoC3S2': 7.84, 'rot1': 0, 'rot0': 0, 'rot3': 0, 'rot2': 0, 'state': 'normal', 'yaw': 3.79, 'datetime': '2018-10-09 23:22:40.692530', 'mgs': 0, 'volt': 0.835, 'depth': 0.546, 'time': 3, 'pitch': -0.38, 'roll': 7.87, 'pres': 171}
{'lipoC2': 7.35, 'lipoC3S1': 3.92, 'temp': 30.0, 'lipoC3S3': 11.84, 'lipoC3S2': 7.84, 'rot1': 0, 'rot0': 0, 'rot3': 0, 'rot2': 0, 'state': 'normal', 'yaw': 4.19, 'datetime': '2018-10-09 23:22:40.704294', 'mgs': 0, 'volt': 0.835, 'depth': 0.546, 'time': 3, 'pitch': 0.47, 'roll': 6.85, 'pres': 171}
{'lipoC2': 7.35, 'lipoC3S1': 3.92, 'temp': 30.06, 'lipoC3S3': 11.84, 'lipoC3S2': 7.84, 'rot1': 0, 'rot0': 0, 'rot3': 0, 'rot2': 0, 'state': 'normal', 'yaw': 4.41, 'datetime': '2018-10-09 23:22:40.721204', 'mgs': 0, 'volt': 0.835, 'depth': 0.546, 'time': 3, 'pitch': 0.29, 'roll': 6.17, 'pres': 171}
{'lipoC2': 7.35, 'lipoC3S1': 3.92, 'temp': 30.06, 'lipoC3S3': 11.84, 'lipoC3S2': 7.84, 'rot1': 0, 'rot0': 0, 'rot3': 0, 'rot2': 0, 'state': 'normal', 'yaw': 4.42, 'datetime': '2018-10-09 23:22:40.738270', 'mgs': 0, 'volt': 0.8301, 'depth': 0.47, 'time': 3, 'pitch': -0.72, 'roll': 5.81, 'pres': 170}
{'lipoC2': 7.35, 'lipoC3S1': 3.92, 'temp': 30.0, 'lipoC3S3': 11.84, 'lipoC3S2': 7.84, 'rot1': 0, 'rot0': 0, 'rot3': 0, 'rot2': 0, 'state': 'normal', 'yaw': 4.45, 'datetime': '2018-10-09 23:22:40.749096', 'mgs': 0, 'volt': 0.8301, 'depth': 0.47, 'time': 3, 'pitch': -2.25, 'roll': 5.69, 'pres': 170}
{'lipoC2': 7.35, 'lipoC3S1': 3.92, 'temp': 30.0, 'lipoC3S3': 11.84, 'lipoC3S2': 7.84, 'rot1': 0, 'rot0': 0, 'rot3': 0, 'rot2': 0, 'state': 'normal', 'yaw': 4.67, 'datetime': '2018-10-09 23:22:40.765968', 'mgs': 0, 'volt': 0.8301, 'depth': 0.47, 'time': 3, 'pitch': -3.43, 'roll': 5.59, 'pres': 170}
{'lipoC2': 7.35, 'lipoC3S1': 3.92, 'temp': 30.0, 'lipoC3S3': 11.84, 'lipoC3S2': 7.84, 'rot1': 0, 'rot0': 0, 'rot3': 0, 'rot2': 0, 'state': 'normal', 'yaw': 4.83, 'datetime': '2018-10-09 23:22:40.782722', 'mgs': 0, 'volt': 0.8301, 'depth': 0.47, 'time': 3, 'pitch': -3.12, 'roll': 5.29, 'pres': 170}
{'lipoC2': 7.35, 'lipoC3S1': 3.92, 'temp': 30.06, 'lipoC3S3': 11.84, 'lipoC3S2': 7.84, 'rot1': 0, 'rot0': 0, 'rot3': 0, 'rot2': 0, 'state': 'normal', 'yaw': 4.96, 'datetime': '2018-10-09 23:22:40.794250', 'mgs': 0, 'volt': 0.8301, 'depth': 0.47, 'time': 3, 'pitch': -2.11, 'roll': 4.82, 'pres': 170}
{'lipoC2': 7.35, 'lipoC3S1': 3.92, 'temp': 30.06, 'lipoC3S3': 11.84, 'lipoC3S2': 7.84, 'rot1': 0, 'rot0': 0, 'rot3': 0, 'rot2': 0, 'state': 'normal', 'yaw': 5.1, 'datetime': '2018-10-09 23:22:40.814389', 'mgs': 0, 'volt': 0.8301, 'depth': 0.47, 'time': 3, 'pitch': -0.45, 'roll': 4.23, 'pres': 170}
{'lipoC2': 7.35, 'lipoC3S1': 3.92, 'temp': 30.06, 'lipoC3S3': 11.84, 'lipoC3S2': 7.84, 'rot1': 0, 'rot0': 0, 'rot3': 0, 'rot2': 0, 'state': 'normal', 'yaw': 5.3, 'datetime': '2018-10-09 23:22:40.834544', 'mgs': 0, 'volt': 0.835, 'depth': 0.546, 'time': 3, 'pitch': 0.99, 'roll': 3.93, 'pres': 171}
{'lipoC2': 7.35, 'lipoC3S1': 3.92, 'temp': 30.06, 'lipoC3S3': 11.84, 'lipoC3S2': 7.84, 'rot1': 0, 'rot0': 0, 'rot3': 0, 'rot2': 0, 'state': 'normal', 'yaw': 5.69, 'datetime': '2018-10-09 23:22:40.848749', 'mgs': 0, 'volt': 0.835, 'depth': 0.546, 'time': 4, 'pitch': 1.08, 'roll': 3.73, 'pres': 171}
{'lipoC2': 7.35, 'lipoC3S1': 3.92, 'temp': 30.0, 'lipoC3S3': 11.84, 'lipoC3S2': 7.84, 'rot1': 0, 'rot0': 0, 'rot3': 0, 'rot2': 0, 'state': 'normal', 'yaw': 5.93, 'datetime': '2018-10-09 23:22:40.869618', 'mgs': 0, 'volt': 0.835, 'depth': 0.546, 'time': 4, 'pitch': 0.01, 'roll': 3.52, 'pres': 171}
{'lipoC2': 7.35, 'lipoC3S1': 3.92, 'temp': 30.0, 'lipoC3S3': 11.85, 'lipoC3S2': 7.84, 'rot1': 0, 'rot0': 0, 'rot3': 0, 'rot2': 0, 'state': 'normal', 'yaw': 6.0, 'datetime': '2018-10-09 23:22:40.890596', 'mgs': 0, 'volt': 0.835, 'depth': 0.546, 'time': 4, 'pitch': -1.1, 'roll': 3.36, 'pres': 171}
{'lipoC2': 7.35, 'lipoC3S1': 3.92, 'temp': 30.0, 'lipoC3S3': 11.84, 'lipoC3S2': 7.84, 'rot1': 0, 'rot0': 0, 'rot3': 0, 'rot2': 0, 'state': 'normal', 'yaw': 5.98, 'datetime': '2018-10-09 23:22:40.903503', 'mgs': 0, 'volt': 0.835, 'depth': 0.546, 'time': 4, 'pitch': -1.61, 'roll': 2.75, 'pres': 171}
{'lipoC2': 7.35, 'lipoC3S1': 3.92, 'temp': 30.0, 'lipoC3S3': 11.84, 'lipoC3S2': 7.84, 'rot1': 0, 'rot0': 0, 'rot3': 0, 'rot2': 0, 'state': 'normal', 'yaw': 5.76, 'datetime': '2018-10-09 23:22:40.921149', 'mgs': 0, 'volt': 0.835, 'depth': 0.546, 'time': 4, 'pitch': -1.57, 'roll': 1.89, 'pres': 171}
{'lipoC2': 7.34, 'lipoC3S1': 3.91, 'temp': 30.0, 'lipoC3S3': 11.76, 'lipoC3S2': 7.84, 'rot1': 0, 'rot0': 0, 'rot3': 1, 'rot2': 1, 'state': 'normal', 'yaw': 5.2, 'datetime': '2018-10-09 23:22:40.938324', 'mgs': 0, 'volt': 0.8545, 'depth': 0.851, 'time': 4, 'pitch': -0.86, 'roll': 1.09, 'pres': 175}
{'lipoC2': 7.35, 'lipoC3S1': 3.89, 'temp': 30.0, 'lipoC3S3': 11.8, 'lipoC3S2': 7.79, 'rot1': 0, 'rot0': 0, 'rot3': 2, 'rot2': 1, 'state': 'normal', 'yaw': 4.35, 'datetime': '2018-10-09 23:22:40.952374', 'mgs': 0, 'volt': 0.8594, 'depth': 0.928, 'time': 4, 'pitch': 0.75, 'roll': 0.85, 'pres': 176}
{'lipoC2': 7.34, 'lipoC3S1': 3.91, 'temp': 30.0, 'lipoC3S3': 11.77, 'lipoC3S2': 7.82, 'rot1': 0, 'rot0': 0, 'rot3': 3, 'rot2': 2, 'state': 'normal', 'yaw': 3.58, 'datetime': '2018-10-09 23:22:40.972991', 'mgs': 0, 'volt': 0.8447, 'depth': 0.699, 'time': 4, 'pitch': 2.05, 'roll': 1.08, 'pres': 173}
{'lipoC2': 7.34, 'lipoC3S1': 3.91, 'temp': 30.0, 'lipoC3S3': 11.77, 'lipoC3S2': 7.78, 'rot1': 0, 'rot0': 0, 'rot3': 4, 'rot2': 3, 'state': 'normal', 'yaw': 2.78, 'datetime': '2018-10-09 23:22:40.993566', 'mgs': 0, 'volt': 0.8398, 'depth': 0.623, 'time': 4, 'pitch': 2.65, 'roll': 1.82, 'pres': 172}
{'lipoC2': 7.34, 'lipoC3S1': 3.9, 'temp': 30.0, 'lipoC3S3': 11.81, 'lipoC3S2': 7.83, 'rot1': 0, 'rot0': 0, 'rot3': 5, 'rot2': 4, 'state': 'normal', 'yaw': 2.45, 'datetime': '2018-10-09 23:22:41.006213', 'mgs': 0, 'volt': 0.8447, 'depth': 0.699, 'time': 4, 'pitch': 2.43, 'roll': 2.58, 'pres': 173}
{'lipoC2': 7.35, 'lipoC3S1': 3.89, 'temp': 30.0, 'lipoC3S3': 11.79, 'lipoC3S2': 7.79, 'rot1': 0, 'rot0': 0, 'rot3': 7, 'rot2': 5, 'state': 'normal', 'yaw': 2.44, 'datetime': '2018-10-09 23:22:41.027172', 'mgs': 0, 'volt': 0.8252, 'depth': 0.394, 'time': 5, 'pitch': 1.4, 'roll': 3.02, 'pres': 169}
{'lipoC2': 7.34, 'lipoC3S1': 3.9, 'temp': 30.0, 'lipoC3S3': 11.81, 'lipoC3S2': 7.83, 'rot1': 0, 'rot0': 0, 'rot3': 8, 'rot2': 6, 'state': 'normal', 'yaw': 2.68, 'datetime': '2018-10-09 23:22:41.047435', 'mgs': 0, 'volt': 0.8398, 'depth': 0.623, 'time': 5, 'pitch': 0.45, 'roll': 2.88, 'pres': 172}
{'lipoC2': 7.34, 'lipoC3S1': 3.89, 'temp': 30.0, 'lipoC3S3': 11.79, 'lipoC3S2': 7.79, 'rot1': 0, 'rot0': 0, 'rot3': 9, 'rot2': 7, 'state': 'normal', 'yaw': 2.84, 'datetime': '2018-10-09 23:22:41.061645', 'mgs': 0, 'volt': 0.8203, 'depth': 0.317, 'time': 5, 'pitch': -0.8, 'roll': 2.28, 'pres': 168}
{'lipoC2': 7.34, 'lipoC3S1': 3.9, 'temp': 30.0, 'lipoC3S3': 11.81, 'lipoC3S2': 7.82, 'rot1': 0, 'rot0': 0, 'rot3': 10, 'rot2': 7, 'state': 'normal', 'yaw': 2.7, 'datetime': '2018-10-09 23:22:41.082319', 'mgs': 0, 'volt': 0.8398, 'depth': 0.623, 'time': 5, 'pitch': -1.5, 'roll': 1.67, 'pres': 172}
{'lipoC2': 7.34, 'lipoC3S1': 3.91, 'temp': 30.0, 'lipoC3S3': 11.77, 'lipoC3S2': 7.8, 'rot1': 0, 'rot0': 0, 'rot3': 12, 'rot2': 8, 'state': 'normal', 'yaw': 2.29, 'datetime': '2018-10-09 23:22:41.102867', 'mgs': 0, 'volt': 0.835, 'depth': 0.546, 'time': 5, 'pitch': -1.44, 'roll': 1.58, 'pres': 171}
{'lipoC2': 7.35, 'lipoC3S1': 3.89, 'temp': 30.0, 'lipoC3S3': 11.79, 'lipoC3S2': 7.79, 'rot1': 0, 'rot0': 0, 'rot3': 13, 'rot2': 9, 'state': 'normal', 'yaw': 1.98, 'datetime': '2018-10-09 23:22:41.116191', 'mgs': 0, 'volt': 0.8252, 'depth': 0.394, 'time': 5, 'pitch': -0.74, 'roll': 1.77, 'pres': 169}
{'lipoC2': 7.35, 'lipoC3S1': 3.89, 'temp': 30.0, 'lipoC3S3': 11.81, 'lipoC3S2': 7.8, 'rot1': 0, 'rot0': 0, 'rot3': 14, 'rot2': 10, 'state': 'normal', 'yaw': 1.91, 'datetime': '2018-10-09 23:22:41.136138', 'mgs': 0, 'volt': 0.8252, 'depth': 0.394, 'time': 5, 'pitch': -0.04, 'roll': 2.19, 'pres': 169}
{'lipoC2': 7.35, 'lipoC3S1': 3.89, 'temp': 30.0, 'lipoC3S3': 11.8, 'lipoC3S2': 7.8, 'rot1': 0, 'rot0': 0, 'rot3': 15, 'rot2': 11, 'state': 'normal', 'yaw': 2.27, 'datetime': '2018-10-09 23:22:41.155662', 'mgs': 0, 'volt': 0.8398, 'depth': 0.623, 'time': 5, 'pitch': -0.02, 'roll': 2.61, 'pres': 172}
{'lipoC2': 7.35, 'lipoC3S1': 3.89, 'temp': 30.0, 'lipoC3S3': 11.81, 'lipoC3S2': 7.8, 'rot1': 0, 'rot0': 0, 'rot3': 16, 'rot2': 12, 'state': 'normal', 'yaw': 2.78, 'datetime': '2018-10-09 23:22:41.169532', 'mgs': 0, 'volt': 0.8398, 'depth': 0.623, 'time': 5, 'pitch': -0.83, 'roll': 2.81, 'pres': 172}
{'lipoC2': 7.34, 'lipoC3S1': 3.9, 'temp': 30.0, 'lipoC3S3': 11.81, 'lipoC3S2': 7.81, 'rot1': 0, 'rot0': 0, 'rot3': 18, 'rot2': 13, 'state': 'normal', 'yaw': 3.22, 'datetime': '2018-10-09 23:22:41.189183', 'mgs': 0, 'volt': 0.8447, 'depth': 0.699, 'time': 5, 'pitch': -2.08, 'roll': 2.78, 'pres': 173}
{'lipoC2': 7.34, 'lipoC3S1': 3.9, 'temp': 30.06, 'lipoC3S3': 11.81, 'lipoC3S2': 7.82, 'rot1': 0, 'rot0': 0, 'rot3': 19, 'rot2': 13, 'state': 'normal', 'yaw': 3.54, 'datetime': '2018-10-09 23:22:41.208910', 'mgs': 0, 'volt': 0.8398, 'depth': 0.623, 'time': 6, 'pitch': -3.3, 'roll': 2.65, 'pres': 172}
{'lipoC2': 7.34, 'lipoC3S1': 3.9, 'temp': 30.06, 'lipoC3S3': 11.76, 'lipoC3S2': 7.82, 'rot1': 0, 'rot0': 0, 'rot3': 20, 'rot2': 14, 'state': 'normal', 'yaw': 3.56, 'datetime': '2018-10-09 23:22:41.221966', 'mgs': 0, 'volt': 0.835, 'depth': 0.546, 'time': 6, 'pitch': -4.0, 'roll': 2.57, 'pres': 171}
{'lipoC2': 7.35, 'lipoC3S1': 3.9, 'temp': 30.06, 'lipoC3S3': 11.81, 'lipoC3S2': 7.81, 'rot1': 0, 'rot0': 0, 'rot3': 21, 'rot2': 15, 'state': 'normal', 'yaw': 3.43, 'datetime': '2018-10-09 23:22:41.241889', 'mgs': 0, 'volt': 0.8398, 'depth': 0.623, 'time': 6, 'pitch': -3.74, 'roll': 2.69, 'pres': 172}
{'lipoC2': 7.34, 'lipoC3S1': 3.89, 'temp': 30.06, 'lipoC3S3': 11.81, 'lipoC3S2': 7.81, 'rot1': 0, 'rot0': 0, 'rot3': 23, 'rot2': 16, 'state': 'normal', 'yaw': 3.55, 'datetime': '2018-10-09 23:22:41.261630', 'mgs': 0, 'volt': 0.8398, 'depth': 0.623, 'time': 6, 'pitch': -2.49, 'roll': 2.87, 'pres': 172}
{'lipoC2': 7.34, 'lipoC3S1': 3.9, 'temp': 30.06, 'lipoC3S3': 11.81, 'lipoC3S2': 7.81, 'rot1': 0, 'rot0': 0, 'rot3': 24, 'rot2': 17, 'state': 'normal', 'yaw': 3.79, 'datetime': '2018-10-09 23:22:41.275552', 'mgs': 0, 'volt': 0.835, 'depth': 0.546, 'time': 6, 'pitch': -1.31, 'roll': 3.03, 'pres': 171}
{'lipoC2': 7.35, 'lipoC3S1': 3.89, 'temp': 30.0, 'lipoC3S3': 11.8, 'lipoC3S2': 7.8, 'rot1': 0, 'rot0': 0, 'rot3': 25, 'rot2': 18, 'state': 'normal', 'yaw': 3.91, 'datetime': '2018-10-09 23:22:41.295421', 'mgs': 0, 'volt': 0.8398, 'depth': 0.623, 'time': 6, 'pitch': -0.88, 'roll': 3.16, 'pres': 172}
{'lipoC2': 7.35, 'lipoC3S1': 3.9, 'temp': 30.0, 'lipoC3S3': 11.81, 'lipoC3S2': 7.8, 'rot1': 0, 'rot0': 0, 'rot3': 26, 'rot2': 19, 'state': 'normal', 'yaw': 3.86, 'datetime': '2018-10-09 23:22:41.314148', 'mgs': 0, 'volt': 0.8447, 'depth': 0.699, 'time': 6, 'pitch': -1.39, 'roll': 3.16, 'pres': 173}
{'lipoC2': 7.34, 'lipoC3S1': 3.89, 'temp': 30.0, 'lipoC3S3': 11.81, 'lipoC3S2': 7.81, 'rot1': 0, 'rot0': 0, 'rot3': 27, 'rot2': 20, 'state': 'normal', 'yaw': 3.67, 'datetime': '2018-10-09 23:22:41.326933', 'mgs': 0, 'volt': 0.835, 'depth': 0.546, 'time': 6, 'pitch': -2.39, 'roll': 3.03, 'pres': 171}
{'lipoC2': 7.34, 'lipoC3S1': 3.9, 'temp': 30.0, 'lipoC3S3': 11.8, 'lipoC3S2': 7.82, 'rot1': 0, 'rot0': 0, 'rot3': 29, 'rot2': 20, 'state': 'normal', 'yaw': 3.28, 'datetime': '2018-10-09 23:22:41.342882', 'mgs': 0, 'volt': 0.8447, 'depth': 0.699, 'time': 6, 'pitch': -3.44, 'roll': 2.97, 'pres': 173}
{'lipoC2': 7.34, 'lipoC3S1': 3.9, 'temp': 30.0, 'lipoC3S3': 11.8, 'lipoC3S2': 7.83, 'rot1': 0, 'rot0': 0, 'rot3': 30, 'rot2': 21, 'state': 'normal', 'yaw': 2.71, 'datetime': '2018-10-09 23:22:41.358943', 'mgs': 0, 'volt': 0.8398, 'depth': 0.623, 'time': 7, 'pitch': -4.03, 'roll': 3.2, 'pres': 172}
{'lipoC2': 7.34, 'lipoC3S1': 3.91, 'temp': 30.0, 'lipoC3S3': 11.76, 'lipoC3S2': 7.82, 'rot1': 0, 'rot0': 0, 'rot3': 31, 'rot2': 22, 'state': 'normal', 'yaw': 2.26, 'datetime': '2018-10-09 23:22:41.369119', 'mgs': 0, 'volt': 0.8398, 'depth': 0.623, 'time': 7, 'pitch': -3.43, 'roll': 3.56, 'pres': 172}
{'lipoC2': 7.34, 'lipoC3S1': 3.91, 'temp': 30.0, 'lipoC3S3': 11.76, 'lipoC3S2': 7.81, 'rot1': 0, 'rot0': 0, 'rot3': 32, 'rot2': 23, 'state': 'normal', 'yaw': 1.87, 'datetime': '2018-10-09 23:22:41.385094', 'mgs': 0, 'volt': 0.835, 'depth': 0.546, 'time': 7, 'pitch': -1.78, 'roll': 3.88, 'pres': 171}
{'lipoC2': 7.34, 'lipoC3S1': 3.9, 'temp': 30.06, 'lipoC3S3': 11.81, 'lipoC3S2': 7.82, 'rot1': 0, 'rot0': 0, 'rot3': 34, 'rot2': 24, 'state': 'normal', 'yaw': 1.51, 'datetime': '2018-10-09 23:22:41.401122', 'mgs': 0, 'volt': 0.8447, 'depth': 0.699, 'time': 7, 'pitch': 0.36, 'roll': 4.04, 'pres': 173}
{'lipoC2': 7.34, 'lipoC3S1': 3.9, 'temp': 30.06, 'lipoC3S3': 11.76, 'lipoC3S2': 7.81, 'rot1': 0, 'rot0': 0, 'rot3': 35, 'rot2': 25, 'state': 'normal', 'yaw': 1.06, 'datetime': '2018-10-09 23:22:41.412561', 'mgs': 0, 'volt': 0.8398, 'depth': 0.623, 'time': 7, 'pitch': 1.84, 'roll': 3.96, 'pres': 172}
{'lipoC2': 7.35, 'lipoC3S1': 3.92, 'temp': 30.0, 'lipoC3S3': 11.83, 'lipoC3S2': 7.83, 'rot1': 0, 'rot0': 0, 'rot3': 36, 'rot2': 25, 'state': 'normal', 'yaw': 0.65, 'datetime': '2018-10-09 23:22:41.429907', 'mgs': 0, 'volt': 0.835, 'depth': 0.546, 'time': 7, 'pitch': 1.91, 'roll': 3.7, 'pres': 171}
{'lipoC2': 7.34, 'lipoC3S1': 3.91, 'temp': 30.0, 'lipoC3S3': 11.71, 'lipoC3S2': 7.8, 'rot1': 0, 'rot0': 0, 'rot3': 37, 'rot2': 25, 'state': 'normal', 'yaw': 0.27, 'datetime': '2018-10-09 23:22:41.445877', 'mgs': 0, 'volt': 0.9375, 'depth': 2.148, 'time': 7, 'pitch': 0.96, 'roll': 3.51, 'pres': 192}
{'lipoC2': 7.34, 'lipoC3S1': 3.9, 'temp': 30.0, 'lipoC3S3': 11.73, 'lipoC3S2': 7.8, 'rot1': 1, 'rot0': 1, 'rot3': 38, 'rot2': 26, 'state': 'normal', 'yaw': -0.21, 'datetime': '2018-10-09 23:22:41.456097', 'mgs': 0, 'volt': 0.8936, 'depth': 1.462, 'time': 7, 'pitch': 0.13, 'roll': 3.2, 'pres': 183}
{'lipoC2': 7.34, 'lipoC3S1': 3.86, 'temp': 30.0, 'lipoC3S3': 11.77, 'lipoC3S2': 7.81, 'rot1': 2, 'rot0': 2, 'rot3': 39, 'rot2': 26, 'state': 'normal', 'yaw': -0.57, 'datetime': '2018-10-09 23:22:41.472242', 'mgs': 0, 'volt': 0.8643, 'depth': 1.004, 'time': 7, 'pitch': -0.13, 'roll': 2.46, 'pres': 177}
{'lipoC2': 7.34, 'lipoC3S1': 3.87, 'temp': 30.0, 'lipoC3S3': 11.77, 'lipoC3S2': 7.67, 'rot1': 3, 'rot0': 4, 'rot3': 40, 'rot2': 27, 'state': 'normal', 'yaw': -0.84, 'datetime': '2018-10-09 23:22:41.488478', 'mgs': 0, 'volt': 0.8691, 'depth': 1.08, 'time': 7, 'pitch': 0.75, 'roll': 1.4, 'pres': 178}
{'lipoC2': 7.35, 'lipoC3S1': 3.79, 'temp': 29.94, 'lipoC3S3': 11.79, 'lipoC3S2': 7.76, 'rot1': 4, 'rot0': 5, 'rot3': 40, 'rot2': 28, 'state': 'normal', 'yaw': -1.21, 'datetime': '2018-10-09 23:22:41.498679', 'mgs': 0, 'volt': 0.8691, 'depth': 1.08, 'time': 8, 'pitch': 2.57, 'roll': 0.28, 'pres': 178}
{'lipoC2': 7.34, 'lipoC3S1': 3.89, 'temp': 29.94, 'lipoC3S3': 11.72, 'lipoC3S2': 7.8, 'rot1': 6, 'rot0': 6, 'rot3': 41, 'rot2': 28, 'state': 'normal', 'yaw': -1.7, 'datetime': '2018-10-09 23:22:41.516027', 'mgs': 0, 'volt': 0.8984, 'depth': 1.538, 'time': 8, 'pitch': 4.15, 'roll': -0.43, 'pres': 184}
{'lipoC2': 7.34, 'lipoC3S1': 3.88, 'temp': 29.94, 'lipoC3S3': 11.65, 'lipoC3S2': 7.77, 'rot1': 7, 'rot0': 7, 'rot3': 42, 'rot2': 29, 'state': 'normal', 'yaw': -2.24, 'datetime': '2018-10-09 23:22:41.534812', 'mgs': 0, 'volt': 0.8594, 'depth': 0.928, 'time': 8, 'pitch': 5.33, 'roll': -0.79, 'pres': 176}
{'lipoC2': 7.34, 'lipoC3S1': 3.87, 'temp': 29.94, 'lipoC3S3': 11.72, 'lipoC3S2': 7.64, 'rot1': 8, 'rot0': 9, 'rot3': 43, 'rot2': 30, 'state': 'normal', 'yaw': -2.82, 'datetime': '2018-10-09 23:22:41.545043', 'mgs': 0, 'volt': 0.8643, 'depth': 1.004, 'time': 8, 'pitch': 6.18, 'roll': -0.82, 'pres': 177}
{'lipoC2': 7.34, 'lipoC3S1': 3.87, 'temp': 29.94, 'lipoC3S3': 11.79, 'lipoC3S2': 7.69, 'rot1': 9, 'rot0': 10, 'rot3': 44, 'rot2': 30, 'state': 'normal', 'yaw': -3.31, 'datetime': '2018-10-09 23:22:41.561141', 'mgs': 0, 'volt': 0.8936, 'depth': 1.462, 'time': 8, 'pitch': 6.85, 'roll': -0.62, 'pres': 183}
{'lipoC2': 7.33, 'lipoC3S1': 3.9, 'temp': 29.94, 'lipoC3S3': 11.72, 'lipoC3S2': 7.75, 'rot1': 10, 'rot0': 11, 'rot3': 45, 'rot2': 31, 'state': 'normal', 'yaw': -3.81, 'datetime': '2018-10-09 23:22:41.577333', 'mgs': 0, 'volt': 0.8643, 'depth': 1.004, 'time': 8, 'pitch': 7.6, 'roll': -0.39, 'pres': 177}
{'lipoC2': 7.33, 'lipoC3S1': 3.88, 'temp': 29.94, 'lipoC3S3': 11.79, 'lipoC3S2': 7.8, 'rot1': 11, 'rot0': 12, 'rot3': 46, 'rot2': 32, 'state': 'normal', 'yaw': -4.3, 'datetime': '2018-10-09 23:22:41.637259', 'mgs': 0, 'volt': 0.9082, 'depth': 1.691, 'time': 8, 'pitch': 8.25, 'roll': 0.16, 'pres': 186}
{'lipoC2': 7.34, 'lipoC3S1': 3.87, 'temp': 30.0, 'lipoC3S3': 11.79, 'lipoC3S2': 7.72, 'rot1': 12, 'rot0': 13, 'rot3': 48, 'rot2': 32, 'state': 'normal', 'yaw': -4.68, 'datetime': '2018-10-09 23:22:41.740811', 'mgs': 0, 'volt': 0.9033, 'depth': 1.614, 'time': 8, 'pitch': 9.0, 'roll': 0.4, 'pres': 185}
{'lipoC2': 7.33, 'lipoC3S1': 3.9, 'temp': 30.0, 'lipoC3S3': 11.73, 'lipoC3S2': 7.8, 'rot1': 13, 'rot0': 14, 'rot3': 49, 'rot2': 33, 'state': 'normal', 'yaw': -4.98, 'datetime': '2018-10-09 23:22:41.844542', 'mgs': 0, 'volt': 0.9033, 'depth': 1.614, 'time': 8, 'pitch': 9.87, 'roll': 0.43, 'pres': 185}
{'lipoC2': 7.34, 'lipoC3S1': 3.88, 'temp': 30.0, 'lipoC3S3': 11.77, 'lipoC3S2': 7.81, 'rot1': 14, 'rot0': 15, 'rot3': 49, 'rot2': 34, 'state': 'normal', 'yaw': -5.03, 'datetime': '2018-10-09 23:22:41.948019', 'mgs': 0, 'volt': 0.8984, 'depth': 1.538, 'time': 8, 'pitch': 10.36, 'roll': 0.33, 'pres': 184}
{'lipoC2': 7.34, 'lipoC3S1': 3.87, 'temp': 30.0, 'lipoC3S3': 11.79, 'lipoC3S2': 7.71, 'rot1': 15, 'rot0': 16, 'rot3': 50, 'rot2': 34, 'state': 'normal', 'yaw': -4.81, 'datetime': '2018-10-09 23:22:42.051559', 'mgs': 0, 'volt': 0.918, 'depth': 1.843, 'time': 9, 'pitch': 9.9, 'roll': 0.38, 'pres': 188}
{'lipoC2': 7.34, 'lipoC3S1': 3.9, 'temp': 30.0, 'lipoC3S3': 11.77, 'lipoC3S2': 7.8, 'rot1': 17, 'rot0': 17, 'rot3': 51, 'rot2': 35, 'state': 'normal', 'yaw': -4.5, 'datetime': '2018-10-09 23:22:42.155484', 'mgs': 0, 'volt': 0.9375, 'depth': 2.148, 'time': 9, 'pitch': 8.83, 'roll': 0.75, 'pres': 192}
{'lipoC2': 7.34, 'lipoC3S1': 3.89, 'temp': 30.0, 'lipoC3S3': 11.79, 'lipoC3S2': 7.73, 'rot1': 18, 'rot0': 18, 'rot3': 52, 'rot2': 36, 'state': 'normal', 'yaw': -4.16, 'datetime': '2018-10-09 23:22:42.259043', 'mgs': 0, 'volt': 0.9131, 'depth': 1.767, 'time': 9, 'pitch': 7.64, 'roll': 1.32, 'pres': 187}
{'lipoC2': 7.34, 'lipoC3S1': 3.9, 'temp': 30.0, 'lipoC3S3': 11.72, 'lipoC3S2': 7.8, 'rot1': 19, 'rot0': 19, 'rot3': 53, 'rot2': 36, 'state': 'normal', 'yaw': -3.79, 'datetime': '2018-10-09 23:22:42.363857', 'mgs': 0, 'volt': 0.9473, 'depth': 2.301, 'time': 9, 'pitch': 7.04, 'roll': 1.75, 'pres': 194}
{'lipoC2': 7.35, 'lipoC3S1': 3.81, 'temp': 30.0, 'lipoC3S3': 11.79, 'lipoC3S2': 7.8, 'rot1': 20, 'rot0': 20, 'rot3': 54, 'rot2': 37, 'state': 'normal', 'yaw': -3.29, 'datetime': '2018-10-09 23:22:42.467422', 'mgs': 0, 'volt': 0.918, 'depth': 1.843, 'time': 9, 'pitch': 7.16, 'roll': 1.91, 'pres': 188}
{'lipoC2': 7.34, 'lipoC3S1': 3.86, 'temp': 30.0, 'lipoC3S3': 11.69, 'lipoC3S2': 7.63, 'rot1': 21, 'rot0': 22, 'rot3': 54, 'rot2': 38, 'state': 'normal', 'yaw': -2.89, 'datetime': '2018-10-09 23:22:42.570945', 'mgs': 0, 'volt': 0.8984, 'depth': 1.538, 'time': 9, 'pitch': 7.55, 'roll': 1.84, 'pres': 184}
{'lipoC2': 7.35, 'lipoC3S1': 3.88, 'temp': 30.0, 'lipoC3S3': 11.79, 'lipoC3S2': 7.71, 'rot1': 23, 'rot0': 23, 'rot3': 55, 'rot2': 38, 'state': 'normal', 'yaw': -2.58, 'datetime': '2018-10-09 23:22:42.686761', 'mgs': 0, 'volt': 0.9229, 'depth': 1.92, 'time': 9, 'pitch': 7.55, 'roll': 1.72, 'pres': 189}
{'lipoC2': 7.34, 'lipoC3S1': 3.87, 'temp': 30.0, 'lipoC3S3': 11.59, 'lipoC3S2': 7.74, 'rot1': 24, 'rot0': 24, 'rot3': 56, 'rot2': 39, 'state': 'normal', 'yaw': -2.4, 'datetime': '2018-10-09 23:22:42.790060', 'mgs': 0, 'volt': 0.9033, 'depth': 1.614, 'time': 9, 'pitch': 6.63, 'roll': 1.6, 'pres': 185}
{'lipoC2': 7.32, 'lipoC3S1': 3.9, 'temp': 30.0, 'lipoC3S3': 11.73, 'lipoC3S2': 7.79, 'rot1': 25, 'rot0': 25, 'rot3': 57, 'rot2': 40, 'state': 'normal', 'yaw': -2.35, 'datetime': '2018-10-09 23:22:42.893478', 'mgs': 0, 'volt': 0.9424, 'depth': 2.225, 'time': 9, 'pitch': 5.33, 'roll': 1.44, 'pres': 193}
{'lipoC2': 7.34, 'lipoC3S1': 3.87, 'temp': 30.0, 'lipoC3S3': 11.79, 'lipoC3S2': 7.72, 'rot1': 26, 'rot0': 26, 'rot3': 58, 'rot2': 40, 'state': 'normal', 'yaw': -2.37, 'datetime': '2018-10-09 23:22:42.998969', 'mgs': 0, 'volt': 0.9326, 'depth': 2.072, 'time': 10, 'pitch': 4.36, 'roll': 1.31, 'pres': 191}
{'lipoC2': 7.33, 'lipoC3S1': 3.9, 'temp': 30.0, 'lipoC3S3': 11.71, 'lipoC3S2': 7.74, 'rot1': 27, 'rot0': 28, 'rot3': 59, 'rot2': 41, 'state': 'normal', 'yaw': -2.37, 'datetime': '2018-10-09 23:22:43.101491', 'mgs': 0, 'volt': 0.9082, 'depth': 1.691, 'time': 10, 'pitch': 4.16, 'roll': 1.33, 'pres': 186}
{'lipoC2': 7.35, 'lipoC3S1': 3.83, 'temp': 30.0, 'lipoC3S3': 11.77, 'lipoC3S2': 7.8, 'rot1': 28, 'rot0': 29, 'rot3': 59, 'rot2': 42, 'state': 'normal', 'yaw': -2.41, 'datetime': '2018-10-09 23:22:43.204849', 'mgs': 0, 'volt': 0.9326, 'depth': 2.072, 'time': 10, 'pitch': 4.54, 'roll': 1.54, 'pres': 191}
{'lipoC2': 7.35, 'lipoC3S1': 3.9, 'temp': 30.0, 'lipoC3S3': 11.71, 'lipoC3S2': 7.79, 'rot1': 29, 'rot0': 30, 'rot3': 60, 'rot2': 42, 'state': 'normal', 'yaw': -2.59, 'datetime': '2018-10-09 23:22:43.309086', 'mgs': 0, 'volt': 0.9619, 'depth': 2.53, 'time': 10, 'pitch': 4.91, 'roll': 1.86, 'pres': 197}
{'lipoC2': 7.35, 'lipoC3S1': 3.87, 'temp': 30.0, 'lipoC3S3': 11.79, 'lipoC3S2': 7.7, 'rot1': 30, 'rot0': 31, 'rot3': 61, 'rot2': 43, 'state': 'normal', 'yaw': -2.91, 'datetime': '2018-10-09 23:22:43.412494', 'mgs': 0, 'volt': 0.9131, 'depth': 1.767, 'time': 10, 'pitch': 4.74, 'roll': 2.17, 'pres': 187}
{'lipoC2': 7.32, 'lipoC3S1': 3.9, 'temp': 30.0, 'lipoC3S3': 11.71, 'lipoC3S2': 7.79, 'rot1': 32, 'rot0': 32, 'rot3': 62, 'rot2': 44, 'state': 'normal', 'yaw': -3.28, 'datetime': '2018-10-09 23:22:43.513599', 'mgs': 0, 'volt': 0.9424, 'depth': 2.225, 'time': 10, 'pitch': 4.07, 'roll': 2.35, 'pres': 193}
{'lipoC2': 7.34, 'lipoC3S1': 3.79, 'temp': 29.94, 'lipoC3S3': 11.77, 'lipoC3S2': 7.75, 'rot1': 33, 'rot0': 34, 'rot3': 62, 'rot2': 44, 'state': 'normal', 'yaw': -3.7, 'datetime': '2018-10-09 23:22:43.616434', 'mgs': 0, 'volt': 0.9521, 'depth': 2.377, 'time': 10, 'pitch': 3.25, 'roll': 2.42, 'pres': 195}
{'lipoC2': 7.32, 'lipoC3S1': 3.9, 'temp': 29.94, 'lipoC3S3': 11.69, 'lipoC3S2': 7.73, 'rot1': 34, 'rot0': 35, 'rot3': 63, 'rot2': 45, 'state': 'normal', 'yaw': -4.05, 'datetime': '2018-10-09 23:22:43.713286', 'mgs': 0, 'volt': 0.9229, 'depth': 1.92, 'time': 10, 'pitch': 2.82, 'roll': 2.33, 'pres': 189}
{'lipoC2': 7.35, 'lipoC3S1': 3.86, 'temp': 29.94, 'lipoC3S3': 11.67, 'lipoC3S2': 7.74, 'rot1': 35, 'rot0': 36, 'rot3': 64, 'rot2': 45, 'state': 'normal', 'yaw': -4.4, 'datetime': '2018-10-09 23:22:43.818297', 'mgs': 0, 'volt': 0.9277, 'depth': 1.996, 'time': 10, 'pitch': 2.89, 'roll': 2.15, 'pres': 190}
{'lipoC2': 7.34, 'lipoC3S1': 3.91, 'temp': 30.0, 'lipoC3S3': 11.76, 'lipoC3S2': 7.8, 'rot1': 36, 'rot0': 37, 'rot3': 65, 'rot2': 46, 'state': 'normal', 'yaw': -4.68, 'datetime': '2018-10-09 23:22:43.922048', 'mgs': 0, 'volt': 1.0156, 'depth': 3.369, 'time': 10, 'pitch': 3.4, 'roll': 2.0, 'pres': 208}
{'lipoC2': 7.34, 'lipoC3S1': 3.9, 'temp': 30.0, 'lipoC3S3': 11.6, 'lipoC3S2': 7.74, 'rot1': 37, 'rot0': 38, 'rot3': 66, 'rot2': 47, 'state': 'normal', 'yaw': -4.88, 'datetime': '2018-10-09 23:22:44.026884', 'mgs': 0, 'volt': 0.9326, 'depth': 2.072, 'time': 11, 'pitch': 3.93, 'roll': 1.86, 'pres': 191}
