{'lipoC2': 7.49, 'lipoC3S1': 4.12, 'temp': 30.69, 'lipoC3S3': 12.46, 'lipoC3S2': 8.24, 'rot1': 0, 'rot0': 0, 'rot3': 38, 'rot2': 35, 'state': 'normal', 'yaw': 23.25, 'datetime': '2018-10-09 12:31:13.925335', 'mgs': 0, 'volt': 0.957, 'depth': 2.454, 'time': 23, 'pitch': 0.09, 'roll': -1.37, 'pres': 196}
{'lipoC2': 7.49, 'lipoC3S1': 4.12, 'temp': 30.75, 'lipoC3S3': 12.46, 'lipoC3S2': 8.24, 'rot1': 0, 'rot0': 0, 'rot3': 38, 'rot2': 35, 'state': 'normal', 'yaw': 23.07, 'datetime': '2018-10-09 12:31:13.948599', 'mgs': 0, 'volt': 0.9521, 'depth': 2.377, 'time': 23, 'pitch': 0.28, 'roll': -1.4, 'pres': 195}
{'lipoC2': 7.49, 'lipoC3S1': 4.12, 'temp': 30.75, 'lipoC3S3': 12.46, 'lipoC3S2': 8.24, 'rot1': 0, 'rot0': 0, 'rot3': 38, 'rot2': 35, 'state': 'normal', 'yaw': 22.88, 'datetime': '2018-10-09 12:31:13.971911', 'mgs': 0, 'volt': 0.9521, 'depth': 2.377, 'time': 23, 'pitch': 0.43, 'roll': -1.39, 'pres': 195}
{'lipoC2': 7.49, 'lipoC3S1': 4.12, 'temp': 30.75, 'lipoC3S3': 12.46, 'lipoC3S2': 8.24, 'rot1': 0, 'rot0': 0, 'rot3': 38, 'rot2': 35, 'state': 'normal', 'yaw': 22.69, 'datetime': '2018-10-09 12:31:13.995300', 'mgs': 0, 'volt': 0.9521, 'depth': 2.377, 'time': 23, 'pitch': 0.51, 'roll': -1.4, 'pres': 195}
{'lipoC2': 7.49, 'lipoC3S1': 4.12, 'temp': 30.75, 'lipoC3S3': 12.46, 'lipoC3S2': 8.24, 'rot1': 0, 'rot0': 0, 'rot3': 38, 'rot2': 35, 'state': 'normal', 'yaw': 22.48, 'datetime': '2018-10-09 12:31:14.008309', 'mgs': 0, 'volt': 0.9473, 'depth': 2.301, 'time': 24, 'pitch': 0.48, 'roll': -1.43, 'pres': 194}
{'lipoC2': 7.49, 'lipoC3S1': 4.12, 'temp': 30.75, 'lipoC3S3': 12.46, 'lipoC3S2': 8.24, 'rot1': 0, 'rot0': 0, 'rot3': 38, 'rot2': 35, 'state': 'normal', 'yaw': 22.29, 'datetime': '2018-10-09 12:31:14.018368', 'mgs': 0, 'volt': 0.9473, 'depth': 2.301, 'time': 24, 'pitch': 0.39, 'roll': -1.46, 'pres': 194}
{'lipoC2': 7.49, 'lipoC3S1': 4.12, 'temp': 30.75, 'lipoC3S3': 12.46, 'lipoC3S2': 8.24, 'rot1': 0, 'rot0': 0, 'rot3': 38, 'rot2': 35, 'state': 'normal', 'yaw': 22.1, 'datetime': '2018-10-09 12:31:14.028450', 'mgs': 0, 'volt': 0.9424, 'depth': 2.225, 'time': 24, 'pitch': 0.19, 'roll': -1.48, 'pres': 193}
{'lipoC2': 7.49, 'lipoC3S1': 4.12, 'temp': 30.75, 'lipoC3S3': 12.46, 'lipoC3S2': 8.24, 'rot1': 0, 'rot0': 0, 'rot3': 38, 'rot2': 35, 'state': 'normal', 'yaw': 21.89, 'datetime': '2018-10-09 12:31:14.038081', 'mgs': 0, 'volt': 0.9424, 'depth': 2.225, 'time': 24, 'pitch': -0.07, 'roll': -1.48, 'pres': 193}
{'lipoC2': 7.49, 'lipoC3S1': 4.12, 'temp': 30.81, 'lipoC3S3': 12.46, 'lipoC3S2': 8.24, 'rot1': 0, 'rot0': 0, 'rot3': 38, 'rot2': 35, 'state': 'normal', 'yaw': 21.71, 'datetime': '2018-10-09 12:31:14.047625', 'mgs': 0, 'volt': 0.9424, 'depth': 2.225, 'time': 24, 'pitch': -0.25, 'roll': -1.49, 'pres': 193}
{'lipoC2': 7.49, 'lipoC3S1': 4.12, 'temp': 30.81, 'lipoC3S3': 12.46, 'lipoC3S2': 8.24, 'rot1': 0, 'rot0': 0, 'rot3': 38, 'rot2': 35, 'state': 'normal', 'yaw': 21.52, 'datetime': '2018-10-09 12:31:14.057203', 'mgs': 0, 'volt': 0.9375, 'depth': 2.148, 'time': 24, 'pitch': -0.25, 'roll': -1.49, 'pres': 192}
{'lipoC2': 7.49, 'lipoC3S1': 4.12, 'temp': 30.75, 'lipoC3S3': 12.46, 'lipoC3S2': 8.24, 'rot1': 0, 'rot0': 0, 'rot3': 38, 'rot2': 35, 'state': 'normal', 'yaw': 21.32, 'datetime': '2018-10-09 12:31:14.066762', 'mgs': 0, 'volt': 0.9326, 'depth': 2.072, 'time': 24, 'pitch': 0.0, 'roll': -1.49, 'pres': 191}
{'lipoC2': 7.49, 'lipoC3S1': 4.12, 'temp': 30.75, 'lipoC3S3': 12.46, 'lipoC3S2': 8.23, 'rot1': 0, 'rot0': 0, 'rot3': 38, 'rot2': 35, 'state': 'normal', 'yaw': 21.12, 'datetime': '2018-10-09 12:31:14.076331', 'mgs': 0, 'volt': 0.9326, 'depth': 2.072, 'time': 24, 'pitch': 0.43, 'roll': -1.41, 'pres': 191}
{'lipoC2': 7.49, 'lipoC3S1': 4.12, 'temp': 30.75, 'lipoC3S3': 12.46, 'lipoC3S2': 8.24, 'rot1': 0, 'rot0': 0, 'rot3': 38, 'rot2': 35, 'state': 'normal', 'yaw': 20.9, 'datetime': '2018-10-09 12:31:14.085864', 'mgs': 0, 'volt': 0.9326, 'depth': 2.072, 'time': 24, 'pitch': 0.95, 'roll': -1.27, 'pres': 191}
{'lipoC2': 7.49, 'lipoC3S1': 4.12, 'temp': 30.75, 'lipoC3S3': 12.46, 'lipoC3S2': 8.24, 'rot1': 0, 'rot0': 0, 'rot3': 38, 'rot2': 35, 'state': 'normal', 'yaw': 20.66, 'datetime': '2018-10-09 12:31:14.095458', 'mgs': 0, 'volt': 0.9277, 'depth': 1.996, 'time': 25, 'pitch': 1.42, 'roll': -1.14, 'pres': 190}
{'lipoC2': 7.49, 'lipoC3S1': 4.12, 'temp': 30.75, 'lipoC3S3': 12.46, 'lipoC3S2': 8.24, 'rot1': 0, 'rot0': 0, 'rot3': 38, 'rot2': 35, 'state': 'normal', 'yaw': 20.43, 'datetime': '2018-10-09 12:31:14.105346', 'mgs': 0, 'volt': 0.9277, 'depth': 1.996, 'time': 25, 'pitch': 1.67, 'roll': -1.13, 'pres': 190}
{'lipoC2': 7.49, 'lipoC3S1': 4.12, 'temp': 30.81, 'lipoC3S3': 12.46, 'lipoC3S2': 8.24, 'rot1': 0, 'rot0': 0, 'rot3': 38, 'rot2': 35, 'state': 'normal', 'yaw': 20.23, 'datetime': '2018-10-09 12:31:14.115042', 'mgs': 0, 'volt': 0.9277, 'depth': 1.996, 'time': 25, 'pitch': 1.8, 'roll': -1.21, 'pres': 190}
{'lipoC2': 7.49, 'lipoC3S1': 4.12, 'temp': 30.81, 'lipoC3S3': 12.46, 'lipoC3S2': 8.23, 'rot1': 0, 'rot0': 0, 'rot3': 38, 'rot2': 35, 'state': 'normal', 'yaw': 20.02, 'datetime': '2018-10-09 12:31:14.124642', 'mgs': 0, 'volt': 0.9277, 'depth': 1.996, 'time': 25, 'pitch': 1.85, 'roll': -1.34, 'pres': 190}
{'lipoC2': 7.49, 'lipoC3S1': 4.12, 'temp': 30.75, 'lipoC3S3': 12.46, 'lipoC3S2': 8.23, 'rot1': 0, 'rot0': 0, 'rot3': 38, 'rot2': 35, 'state': 'normal', 'yaw': 19.84, 'datetime': '2018-10-09 12:31:14.134246', 'mgs': 0, 'volt': 0.9229, 'depth': 1.92, 'time': 25, 'pitch': 2.01, 'roll': -1.44, 'pres': 189}
{'lipoC2': 7.49, 'lipoC3S1': 4.12, 'temp': 30.75, 'lipoC3S3': 12.46, 'lipoC3S2': 8.23, 'rot1': 0, 'rot0': 0, 'rot3': 38, 'rot2': 35, 'state': 'normal', 'yaw': 19.63, 'datetime': '2018-10-09 12:31:14.143803', 'mgs': 0, 'volt': 0.9229, 'depth': 1.92, 'time': 25, 'pitch': 2.4, 'roll': -1.47, 'pres': 189}
{'lipoC2': 7.49, 'lipoC3S1': 4.12, 'temp': 30.75, 'lipoC3S3': 12.46, 'lipoC3S2': 8.23, 'rot1': 0, 'rot0': 0, 'rot3': 38, 'rot2': 35, 'state': 'normal', 'yaw': 19.42, 'datetime': '2018-10-09 12:31:14.153351', 'mgs': 0, 'volt': 0.918, 'depth': 1.843, 'time': 25, 'pitch': 2.76, 'roll': -1.45, 'pres': 188}
{'lipoC2': 7.49, 'lipoC3S1': 4.12, 'temp': 30.75, 'lipoC3S3': 12.46, 'lipoC3S2': 8.24, 'rot1': 0, 'rot0': 0, 'rot3': 38, 'rot2': 35, 'state': 'normal', 'yaw': 19.18, 'datetime': '2018-10-09 12:31:14.162915', 'mgs': 0, 'volt': 0.918, 'depth': 1.843, 'time': 25, 'pitch': 2.81, 'roll': -1.43, 'pres': 188}
{'lipoC2': 7.49, 'lipoC3S1': 4.12, 'temp': 30.75, 'lipoC3S3': 12.46, 'lipoC3S2': 8.24, 'rot1': 0, 'rot0': 0, 'rot3': 38, 'rot2': 35, 'state': 'normal', 'yaw': 18.94, 'datetime': '2018-10-09 12:31:14.172462', 'mgs': 0, 'volt': 0.918, 'depth': 1.843, 'time': 25, 'pitch': 2.33, 'roll': -1.35, 'pres': 188}
{'lipoC2': 7.49, 'lipoC3S1': 4.12, 'temp': 30.81, 'lipoC3S3': 12.46, 'lipoC3S2': 8.24, 'rot1': 0, 'rot0': 0, 'rot3': 38, 'rot2': 35, 'state': 'normal', 'yaw': 18.72, 'datetime': '2018-10-09 12:31:14.182000', 'mgs': 0, 'volt': 0.918, 'depth': 1.843, 'time': 25, 'pitch': 1.38, 'roll': -1.26, 'pres': 188}
{'lipoC2': 7.49, 'lipoC3S1': 4.12, 'temp': 30.81, 'lipoC3S3': 12.46, 'lipoC3S2': 8.24, 'rot1': 0, 'rot0': 0, 'rot3': 38, 'rot2': 35, 'state': 'normal', 'yaw': 18.59, 'datetime': '2018-10-09 12:31:14.191549', 'mgs': 0, 'volt': 0.9131, 'depth': 1.767, 'time': 26, 'pitch': 0.6, 'roll': -1.32, 'pres': 187}
{'lipoC2': 7.49, 'lipoC3S1': 4.12, 'temp': 30.75, 'lipoC3S3': 12.46, 'lipoC3S2': 8.24, 'rot1': 0, 'rot0': 0, 'rot3': 38, 'rot2': 35, 'state': 'normal', 'yaw': 18.47, 'datetime': '2018-10-09 12:31:14.230801', 'mgs': 0, 'volt': 0.918, 'depth': 1.843, 'time': 26, 'pitch': 0.22, 'roll': -1.4, 'pres': 188}
{'lipoC2': 7.49, 'lipoC3S1': 4.12, 'temp': 30.75, 'lipoC3S3': 12.46, 'lipoC3S2': 8.24, 'rot1': 0, 'rot0': 0, 'rot3': 38, 'rot2': 35, 'state': 'normal', 'yaw': 18.33, 'datetime': '2018-10-09 12:31:14.334154', 'mgs': 0, 'volt': 0.9131, 'depth': 1.767, 'time': 26, 'pitch': 0.42, 'roll': -1.52, 'pres': 187}
{'lipoC2': 7.49, 'lipoC3S1': 4.12, 'temp': 30.75, 'lipoC3S3': 12.46, 'lipoC3S2': 8.23, 'rot1': 0, 'rot0': 0, 'rot3': 38, 'rot2': 35, 'state': 'normal', 'yaw': 18.16, 'datetime': '2018-10-09 12:31:14.437479', 'mgs': 0, 'volt': 0.9131, 'depth': 1.767, 'time': 26, 'pitch': 1.01, 'roll': -1.64, 'pres': 187}
{'lipoC2': 7.49, 'lipoC3S1': 4.12, 'temp': 30.75, 'lipoC3S3': 12.46, 'lipoC3S2': 8.24, 'rot1': 0, 'rot0': 0, 'rot3': 38, 'rot2': 35, 'state': 'normal', 'yaw': 17.96, 'datetime': '2018-10-09 12:31:14.541281', 'mgs': 0, 'volt': 0.9131, 'depth': 1.767, 'time': 26, 'pitch': 1.68, 'roll': -1.72, 'pres': 187}
{'lipoC2': 7.49, 'lipoC3S1': 4.12, 'temp': 30.75, 'lipoC3S3': 12.46, 'lipoC3S2': 8.24, 'rot1': 0, 'rot0': 0, 'rot3': 38, 'rot2': 35, 'state': 'normal', 'yaw': 17.74, 'datetime': '2018-10-09 12:31:14.644618', 'mgs': 0, 'volt': 0.9131, 'depth': 1.767, 'time': 26, 'pitch': 2.25, 'roll': -1.68, 'pres': 187}
{'lipoC2': 7.49, 'lipoC3S1': 4.12, 'temp': 30.75, 'lipoC3S3': 12.46, 'lipoC3S2': 8.23, 'rot1': 0, 'rot0': 0, 'rot3': 38, 'rot2': 35, 'state': 'normal', 'yaw': 17.54, 'datetime': '2018-10-09 12:31:14.749736', 'mgs': 0, 'volt': 0.9082, 'depth': 1.691, 'time': 26, 'pitch': 2.45, 'roll': -1.47, 'pres': 186}
{'lipoC2': 7.49, 'lipoC3S1': 4.12, 'temp': 30.75, 'lipoC3S3': 12.46, 'lipoC3S2': 8.23, 'rot1': 0, 'rot0': 0, 'rot3': 38, 'rot2': 35, 'state': 'normal', 'yaw': 17.38, 'datetime': '2018-10-09 12:31:14.853506', 'mgs': 0, 'volt': 0.9131, 'depth': 1.767, 'time': 26, 'pitch': 2.38, 'roll': -1.19, 'pres': 187}
{'lipoC2': 7.49, 'lipoC3S1': 4.12, 'temp': 30.75, 'lipoC3S3': 12.46, 'lipoC3S2': 8.23, 'rot1': 0, 'rot0': 0, 'rot3': 38, 'rot2': 35, 'state': 'normal', 'yaw': 17.2, 'datetime': '2018-10-09 12:31:14.956803', 'mgs': 0, 'volt': 0.9082, 'depth': 1.691, 'time': 26, 'pitch': 2.13, 'roll': -0.94, 'pres': 186}
{'lipoC2': 7.49, 'lipoC3S1': 4.12, 'temp': 30.75, 'lipoC3S3': 12.46, 'lipoC3S2': 8.24, 'rot1': 0, 'rot0': 0, 'rot3': 38, 'rot2': 35, 'state': 'normal', 'yaw': 17.05, 'datetime': '2018-10-09 12:31:15.061440', 'mgs': 0, 'volt': 0.9131, 'depth': 1.767, 'time': 26, 'pitch': 1.9, 'roll': -0.87, 'pres': 187}
{'lipoC2': 7.49, 'lipoC3S1': 4.12, 'temp': 30.75, 'lipoC3S3': 12.46, 'lipoC3S2': 8.24, 'rot1': 0, 'rot0': 0, 'rot3': 38, 'rot2': 35, 'state': 'normal', 'yaw': 16.87, 'datetime': '2018-10-09 12:31:15.164724', 'mgs': 0, 'volt': 0.9131, 'depth': 1.767, 'time': 27, 'pitch': 1.79, 'roll': -0.9, 'pres': 187}
{'lipoC2': 7.49, 'lipoC3S1': 4.12, 'temp': 30.75, 'lipoC3S3': 12.46, 'lipoC3S2': 8.24, 'rot1': 0, 'rot0': 0, 'rot3': 38, 'rot2': 35, 'state': 'normal', 'yaw': 16.72, 'datetime': '2018-10-09 12:31:15.268151', 'mgs': 0, 'volt': 0.9131, 'depth': 1.767, 'time': 27, 'pitch': 1.85, 'roll': -1.01, 'pres': 187}
{'lipoC2': 7.49, 'lipoC3S1': 4.12, 'temp': 30.75, 'lipoC3S3': 12.46, 'lipoC3S2': 8.23, 'rot1': 0, 'rot0': 0, 'rot3': 38, 'rot2': 35, 'state': 'normal', 'yaw': 16.58, 'datetime': '2018-10-09 12:31:15.371444', 'mgs': 0, 'volt': 0.9131, 'depth': 1.767, 'time': 27, 'pitch': 1.94, 'roll': -1.09, 'pres': 187}
{'lipoC2': 7.49, 'lipoC3S1': 4.12, 'temp': 30.81, 'lipoC3S3': 12.46, 'lipoC3S2': 8.24, 'rot1': 0, 'rot0': 0, 'rot3': 38, 'rot2': 35, 'state': 'normal', 'yaw': 16.43, 'datetime': '2018-10-09 12:31:15.474789', 'mgs': 0, 'volt': 0.9131, 'depth': 1.767, 'time': 27, 'pitch': 2.02, 'roll': -1.13, 'pres': 187}
{'lipoC2': 7.49, 'lipoC3S1': 4.12, 'temp': 30.81, 'lipoC3S3': 12.46, 'lipoC3S2': 8.23, 'rot1': 0, 'rot0': 0, 'rot3': 38, 'rot2': 35, 'state': 'normal', 'yaw': 16.24, 'datetime': '2018-10-09 12:31:15.578071', 'mgs': 0, 'volt': 0.9131, 'depth': 1.767, 'time': 27, 'pitch': 1.98, 'roll': -1.11, 'pres': 187}
{'lipoC2': 7.49, 'lipoC3S1': 4.12, 'temp': 30.81, 'lipoC3S3': 12.46, 'lipoC3S2': 8.23, 'rot1': 0, 'rot0': 0, 'rot3': 38, 'rot2': 35, 'state': 'normal', 'yaw': 16.03, 'datetime': '2018-10-09 12:31:15.681403', 'mgs': 0, 'volt': 0.9131, 'depth': 1.767, 'time': 27, 'pitch': 1.81, 'roll': -1.1, 'pres': 187}
{'lipoC2': 7.49, 'lipoC3S1': 4.12, 'temp': 30.81, 'lipoC3S3': 12.46, 'lipoC3S2': 8.24, 'rot1': 0, 'rot0': 0, 'rot3': 38, 'rot2': 35, 'state': 'normal', 'yaw': 15.83, 'datetime': '2018-10-09 12:31:15.784983', 'mgs': 0, 'volt': 0.918, 'depth': 1.843, 'time': 27, 'pitch': 1.62, 'roll': -1.06, 'pres': 188}
{'lipoC2': 7.49, 'lipoC3S1': 4.12, 'temp': 30.81, 'lipoC3S3': 12.46, 'lipoC3S2': 8.23, 'rot1': 0, 'rot0': 0, 'rot3': 38, 'rot2': 35, 'state': 'normal', 'yaw': 15.61, 'datetime': '2018-10-09 12:31:15.888330', 'mgs': 0, 'volt': 0.9131, 'depth': 1.767, 'time': 27, 'pitch': 1.51, 'roll': -0.99, 'pres': 187}
{'lipoC2': 7.49, 'lipoC3S1': 4.12, 'temp': 30.81, 'lipoC3S3': 12.46, 'lipoC3S2': 8.23, 'rot1': 0, 'rot0': 0, 'rot3': 38, 'rot2': 35, 'state': 'normal', 'yaw': 15.44, 'datetime': '2018-10-09 12:31:15.991647', 'mgs': 0, 'volt': 0.9131, 'depth': 1.767, 'time': 27, 'pitch': 1.6, 'roll': -1.0, 'pres': 187}
{'lipoC2': 7.49, 'lipoC3S1': 4.12, 'temp': 30.81, 'lipoC3S3': 12.46, 'lipoC3S2': 8.24, 'rot1': 0, 'rot0': 0, 'rot3': 38, 'rot2': 35, 'state': 'normal', 'yaw': 15.29, 'datetime': '2018-10-09 12:31:16.095624', 'mgs': 0, 'volt': 0.9131, 'depth': 1.767, 'time': 28, 'pitch': 1.86, 'roll': -1.05, 'pres': 187}
{'lipoC2': 7.49, 'lipoC3S1': 4.12, 'temp': 30.75, 'lipoC3S3': 12.46, 'lipoC3S2': 8.24, 'rot1': 0, 'rot0': 0, 'rot3': 38, 'rot2': 35, 'state': 'normal', 'yaw': 15.11, 'datetime': '2018-10-09 12:31:16.198921', 'mgs': 0, 'volt': 0.918, 'depth': 1.843, 'time': 28, 'pitch': 2.19, 'roll': -1.23, 'pres': 188}
{'lipoC2': 7.49, 'lipoC3S1': 4.12, 'temp': 30.75, 'lipoC3S3': 12.46, 'lipoC3S2': 8.24, 'rot1': 0, 'rot0': 0, 'rot3': 38, 'rot2': 35, 'state': 'normal', 'yaw': 14.94, 'datetime': '2018-10-09 12:31:16.303588', 'mgs': 0, 'volt': 0.918, 'depth': 1.843, 'time': 28, 'pitch': 2.31, 'roll': -1.44, 'pres': 188}
{'lipoC2': 7.49, 'lipoC3S1': 4.12, 'temp': 30.81, 'lipoC3S3': 12.46, 'lipoC3S2': 8.24, 'rot1': 0, 'rot0': 0, 'rot3': 38, 'rot2': 35, 'state': 'normal', 'yaw': 14.73, 'datetime': '2018-10-09 12:31:16.406866', 'mgs': 0, 'volt': 0.918, 'depth': 1.843, 'time': 28, 'pitch': 2.06, 'roll': -1.65, 'pres': 188}
{'lipoC2': 7.49, 'lipoC3S1': 4.12, 'temp': 30.81, 'lipoC3S3': 12.46, 'lipoC3S2': 8.23, 'rot1': 0, 'rot0': 0, 'rot3': 38, 'rot2': 35, 'state': 'normal', 'yaw': 14.55, 'datetime': '2018-10-09 12:31:16.510184', 'mgs': 0, 'volt': 0.918, 'depth': 1.843, 'time': 28, 'pitch': 1.4, 'roll': -1.72, 'pres': 188}
{'lipoC2': 7.49, 'lipoC3S1': 4.12, 'temp': 30.81, 'lipoC3S3': 12.46, 'lipoC3S2': 8.23, 'rot1': 0, 'rot0': 0, 'rot3': 38, 'rot2': 35, 'state': 'normal', 'yaw': 14.39, 'datetime': '2018-10-09 12:31:16.614892', 'mgs': 0, 'volt': 0.918, 'depth': 1.843, 'time': 28, 'pitch': 0.67, 'roll': -1.69, 'pres': 188}
{'lipoC2': 7.49, 'lipoC3S1': 4.12, 'temp': 30.75, 'lipoC3S3': 12.46, 'lipoC3S2': 8.24, 'rot1': 0, 'rot0': 0, 'rot3': 38, 'rot2': 35, 'state': 'normal', 'yaw': 14.24, 'datetime': '2018-10-09 12:31:16.718263', 'mgs': 0, 'volt': 0.9229, 'depth': 1.92, 'time': 28, 'pitch': 0.34, 'roll': -1.57, 'pres': 189}
{'lipoC2': 7.49, 'lipoC3S1': 4.12, 'temp': 30.75, 'lipoC3S3': 12.46, 'lipoC3S2': 8.23, 'rot1': 0, 'rot0': 0, 'rot3': 38, 'rot2': 35, 'state': 'normal', 'yaw': 14.08, 'datetime': '2018-10-09 12:31:16.821577', 'mgs': 0, 'volt': 0.9229, 'depth': 1.92, 'time': 28, 'pitch': 0.71, 'roll': -1.49, 'pres': 189}
{'lipoC2': 7.49, 'lipoC3S1': 4.12, 'temp': 30.75, 'lipoC3S3': 12.46, 'lipoC3S2': 8.24, 'rot1': 0, 'rot0': 0, 'rot3': 38, 'rot2': 35, 'state': 'normal', 'yaw': 13.92, 'datetime': '2018-10-09 12:31:16.924936', 'mgs': 0, 'volt': 0.9229, 'depth': 1.92, 'time': 28, 'pitch': 1.56, 'roll': -1.46, 'pres': 189}
{'lipoC2': 7.49, 'lipoC3S1': 4.12, 'temp': 30.75, 'lipoC3S3': 12.46, 'lipoC3S2': 8.23, 'rot1': 0, 'rot0': 0, 'rot3': 38, 'rot2': 35, 'state': 'normal', 'yaw': 13.71, 'datetime': '2018-10-09 12:31:17.028243', 'mgs': 0, 'volt': 0.9229, 'depth': 1.92, 'time': 28, 'pitch': 2.47, 'roll': -1.48, 'pres': 189}
{'lipoC2': 7.49, 'lipoC3S1': 4.12, 'temp': 30.81, 'lipoC3S3': 12.46, 'lipoC3S2': 8.24, 'rot1': 0, 'rot0': 0, 'rot3': 38, 'rot2': 35, 'state': 'normal', 'yaw': 13.5, 'datetime': '2018-10-09 12:31:17.131609', 'mgs': 0, 'volt': 0.9229, 'depth': 1.92, 'time': 29, 'pitch': 2.81, 'roll': -1.49, 'pres': 189}
{'lipoC2': 7.49, 'lipoC3S1': 4.12, 'temp': 30.81, 'lipoC3S3': 12.46, 'lipoC3S2': 8.24, 'rot1': 0, 'rot0': 0, 'rot3': 38, 'rot2': 35, 'state': 'normal', 'yaw': 13.3, 'datetime': '2018-10-09 12:31:17.235040', 'mgs': 0, 'volt': 0.9277, 'depth': 1.996, 'time': 29, 'pitch': 2.54, 'roll': -1.46, 'pres': 190}
{'lipoC2': 7.49, 'lipoC3S1': 4.12, 'temp': 30.81, 'lipoC3S3': 12.46, 'lipoC3S2': 8.24, 'rot1': 0, 'rot0': 0, 'rot3': 38, 'rot2': 35, 'state': 'normal', 'yaw': 13.13, 'datetime': '2018-10-09 12:31:17.338609', 'mgs': 0, 'volt': 0.9277, 'depth': 1.996, 'time': 29, 'pitch': 1.71, 'roll': -1.39, 'pres': 190}
{'lipoC2': 7.49, 'lipoC3S1': 4.12, 'temp': 30.75, 'lipoC3S3': 12.46, 'lipoC3S2': 8.23, 'rot1': 0, 'rot0': 0, 'rot3': 38, 'rot2': 35, 'state': 'normal', 'yaw': 13.0, 'datetime': '2018-10-09 12:31:17.441930', 'mgs': 0, 'volt': 0.9277, 'depth': 1.996, 'time': 29, 'pitch': 0.84, 'roll': -1.31, 'pres': 190}
{'lipoC2': 7.49, 'lipoC3S1': 4.12, 'temp': 30.75, 'lipoC3S3': 12.46, 'lipoC3S2': 8.23, 'rot1': 0, 'rot0': 0, 'rot3': 38, 'rot2': 35, 'state': 'normal', 'yaw': 12.87, 'datetime': '2018-10-09 12:31:17.545308', 'mgs': 0, 'volt': 0.9277, 'depth': 1.996, 'time': 29, 'pitch': 0.13, 'roll': -1.25, 'pres': 190}
{'lipoC2': 7.49, 'lipoC3S1': 4.12, 'temp': 30.75, 'lipoC3S3': 12.46, 'lipoC3S2': 8.23, 'rot1': 0, 'rot0': 0, 'rot3': 38, 'rot2': 35, 'state': 'normal', 'yaw': 12.73, 'datetime': '2018-10-09 12:31:17.648925', 'mgs': 0, 'volt': 0.9326, 'depth': 2.072, 'time': 29, 'pitch': -0.22, 'roll': -1.25, 'pres': 191}
{'lipoC2': 7.49, 'lipoC3S1': 4.12, 'temp': 30.75, 'lipoC3S3': 12.46, 'lipoC3S2': 8.24, 'rot1': 0, 'rot0': 0, 'rot3': 38, 'rot2': 35, 'state': 'normal', 'yaw': 12.56, 'datetime': '2018-10-09 12:31:17.752258', 'mgs': 0, 'volt': 0.9326, 'depth': 2.072, 'time': 29, 'pitch': -0.22, 'roll': -1.25, 'pres': 191}
{'lipoC2': 7.49, 'lipoC3S1': 4.12, 'temp': 30.75, 'lipoC3S3': 12.46, 'lipoC3S2': 8.24, 'rot1': 0, 'rot0': 0, 'rot3': 38, 'rot2': 35, 'state': 'normal', 'yaw': 12.39, 'datetime': '2018-10-09 12:31:17.856892', 'mgs': 0, 'volt': 0.9326, 'depth': 2.072, 'time': 29, 'pitch': 0.02, 'roll': -1.25, 'pres': 191}
{'lipoC2': 7.49, 'lipoC3S1': 4.12, 'temp': 30.75, 'lipoC3S3': 12.46, 'lipoC3S2': 8.24, 'rot1': 0, 'rot0': 0, 'rot3': 38, 'rot2': 35, 'state': 'normal', 'yaw': 12.2, 'datetime': '2018-10-09 12:31:17.960210', 'mgs': 0, 'volt': 0.9375, 'depth': 2.148, 'time': 29, 'pitch': 0.4, 'roll': -1.24, 'pres': 192}
{'lipoC2': 7.49, 'lipoC3S1': 4.12, 'temp': 30.75, 'lipoC3S3': 12.46, 'lipoC3S2': 8.24, 'rot1': 0, 'rot0': 0, 'rot3': 38, 'rot2': 35, 'state': 'normal', 'yaw': 12.02, 'datetime': '2018-10-09 12:31:18.063670', 'mgs': 0, 'volt': 0.9375, 'depth': 2.148, 'time': 29, 'pitch': 0.67, 'roll': -1.24, 'pres': 192}
{'lipoC2': 7.49, 'lipoC3S1': 4.12, 'temp': 30.75, 'lipoC3S3': 12.46, 'lipoC3S2': 8.23, 'rot1': 0, 'rot0': 0, 'rot3': 38, 'rot2': 35, 'state': 'normal', 'yaw': 11.85, 'datetime': '2018-10-09 12:31:18.168209', 'mgs': 0, 'volt': 0.9326, 'depth': 2.072, 'time': 30, 'pitch': 0.7, 'roll': -1.15, 'pres': 191}
{'lipoC2': 7.49, 'lipoC3S1': 4.12, 'temp': 30.75, 'lipoC3S3': 12.46, 'lipoC3S2': 8.23, 'rot1': 0, 'rot0': 0, 'rot3': 38, 'rot2': 35, 'state': 'normal', 'yaw': 11.65, 'datetime': '2018-10-09 12:31:18.271610', 'mgs': 0, 'volt': 0.9375, 'depth': 2.148, 'time': 30, 'pitch': 0.4, 'roll': -1.05, 'pres': 192}
{'lipoC2': 7.49, 'lipoC3S1': 4.12, 'temp': 30.75, 'lipoC3S3': 12.46, 'lipoC3S2': 8.24, 'rot1': 0, 'rot0': 0, 'rot3': 38, 'rot2': 35, 'state': 'normal', 'yaw': 11.46, 'datetime': '2018-10-09 12:31:18.374966', 'mgs': 0, 'volt': 0.9375, 'depth': 2.148, 'time': 30, 'pitch': -0.11, 'roll': -0.98, 'pres': 192}
{'lipoC2': 7.49, 'lipoC3S1': 4.12, 'temp': 30.75, 'lipoC3S3': 12.46, 'lipoC3S2': 8.23, 'rot1': 0, 'rot0': 0, 'rot3': 38, 'rot2': 35, 'state': 'normal', 'yaw': 11.29, 'datetime': '2018-10-09 12:31:18.478307', 'mgs': 0, 'volt': 0.9375, 'depth': 2.148, 'time': 30, 'pitch': -0.54, 'roll': -0.98, 'pres': 192}
{'lipoC2': 7.49, 'lipoC3S1': 4.12, 'temp': 30.75, 'lipoC3S3': 12.46, 'lipoC3S2': 8.24, 'rot1': 0, 'rot0': 0, 'rot3': 38, 'rot2': 35, 'state': 'normal', 'yaw': 11.12, 'datetime': '2018-10-09 12:31:18.581639', 'mgs': 0, 'volt': 0.9424, 'depth': 2.225, 'time': 30, 'pitch': -0.59, 'roll': -1.0, 'pres': 193}
{'lipoC2': 7.49, 'lipoC3S1': 4.12, 'temp': 30.75, 'lipoC3S3': 12.46, 'lipoC3S2': 8.23, 'rot1': 0, 'rot0': 0, 'rot3': 38, 'rot2': 35, 'state': 'normal', 'yaw': 10.97, 'datetime': '2018-10-09 12:31:18.685035', 'mgs': 0, 'volt': 0.9424, 'depth': 2.225, 'time': 30, 'pitch': -0.19, 'roll': -1.09, 'pres': 193}
{'lipoC2': 7.49, 'lipoC3S1': 4.12, 'temp': 30.75, 'lipoC3S3': 12.46, 'lipoC3S2': 8.23, 'rot1': 0, 'rot0': 0, 'rot3': 38, 'rot2': 35, 'state': 'normal', 'yaw': 10.8, 'datetime': '2018-10-09 12:31:18.788379', 'mgs': 0, 'volt': 0.9424, 'depth': 2.225, 'time': 30, 'pitch': 0.46, 'roll': -1.2, 'pres': 193}
{'lipoC2': 7.49, 'lipoC3S1': 4.12, 'temp': 30.75, 'lipoC3S3': 12.46, 'lipoC3S2': 8.24, 'rot1': 0, 'rot0': 0, 'rot3': 38, 'rot2': 35, 'state': 'normal', 'yaw': 10.59, 'datetime': '2018-10-09 12:31:18.891708', 'mgs': 0, 'volt': 0.9424, 'depth': 2.225, 'time': 30, 'pitch': 1.0, 'roll': -1.25, 'pres': 193}
{'lipoC2': 7.49, 'lipoC3S1': 4.12, 'temp': 30.75, 'lipoC3S3': 12.46, 'lipoC3S2': 8.23, 'rot1': 0, 'rot0': 0, 'rot3': 38, 'rot2': 35, 'state': 'normal', 'yaw': 10.39, 'datetime': '2018-10-09 12:31:18.995012', 'mgs': 0, 'volt': 0.9424, 'depth': 2.225, 'time': 30, 'pitch': 1.21, 'roll': -1.27, 'pres': 193}
{'lipoC2': 7.49, 'lipoC3S1': 4.12, 'temp': 30.75, 'lipoC3S3': 12.46, 'lipoC3S2': 8.24, 'rot1': 0, 'rot0': 0, 'rot3': 38, 'rot2': 35, 'state': 'normal', 'yaw': 10.2, 'datetime': '2018-10-09 12:31:19.098373', 'mgs': 0, 'volt': 0.9473, 'depth': 2.301, 'time': 30, 'pitch': 1.09, 'roll': -1.23, 'pres': 194}
{'lipoC2': 7.49, 'lipoC3S1': 4.12, 'temp': 30.75, 'lipoC3S3': 12.46, 'lipoC3S2': 8.23, 'rot1': 0, 'rot0': 0, 'rot3': 38, 'rot2': 35, 'state': 'normal', 'yaw': 10.03, 'datetime': '2018-10-09 12:31:19.202097', 'mgs': 0, 'volt': 0.9473, 'depth': 2.301, 'time': 31, 'pitch': 0.71, 'roll': -1.2, 'pres': 194}
{'lipoC2': 7.49, 'lipoC3S1': 4.12, 'temp': 30.81, 'lipoC3S3': 12.46, 'lipoC3S2': 8.24, 'rot1': 0, 'rot0': 0, 'rot3': 38, 'rot2': 35, 'state': 'normal', 'yaw': 9.86, 'datetime': '2018-10-09 12:31:19.305412', 'mgs': 0, 'volt': 0.9473, 'depth': 2.301, 'time': 31, 'pitch': 0.21, 'roll': -1.19, 'pres': 194}
{'lipoC2': 7.49, 'lipoC3S1': 4.12, 'temp': 30.81, 'lipoC3S3': 12.46, 'lipoC3S2': 8.24, 'rot1': 0, 'rot0': 0, 'rot3': 38, 'rot2': 35, 'state': 'normal', 'yaw': 9.71, 'datetime': '2018-10-09 12:31:19.409998', 'mgs': 0, 'volt': 0.9473, 'depth': 2.301, 'time': 31, 'pitch': -0.11, 'roll': -1.19, 'pres': 194}
{'lipoC2': 7.49, 'lipoC3S1': 4.12, 'temp': 30.81, 'lipoC3S3': 12.46, 'lipoC3S2': 8.23, 'rot1': 0, 'rot0': 0, 'rot3': 38, 'rot2': 35, 'state': 'normal', 'yaw': 9.52, 'datetime': '2018-10-09 12:31:19.513321', 'mgs': 0, 'volt': 0.9521, 'depth': 2.377, 'time': 31, 'pitch': -0.27, 'roll': -1.22, 'pres': 195}
{'lipoC2': 7.49, 'lipoC3S1': 4.12, 'temp': 30.75, 'lipoC3S3': 12.46, 'lipoC3S2': 8.23, 'rot1': 0, 'rot0': 0, 'rot3': 38, 'rot2': 35, 'state': 'normal', 'yaw': 9.35, 'datetime': '2018-10-09 12:31:19.616707', 'mgs': 0, 'volt': 0.9473, 'depth': 2.301, 'time': 31, 'pitch': -0.29, 'roll': -1.26, 'pres': 194}
{'lipoC2': 7.49, 'lipoC3S1': 4.12, 'temp': 30.75, 'lipoC3S3': 12.46, 'lipoC3S2': 8.24, 'rot1': 0, 'rot0': 0, 'rot3': 38, 'rot2': 35, 'state': 'normal', 'yaw': 9.18, 'datetime': '2018-10-09 12:31:19.721353', 'mgs': 0, 'volt': 0.9521, 'depth': 2.377, 'time': 31, 'pitch': -0.3, 'roll': -1.3, 'pres': 195}
{'lipoC2': 7.49, 'lipoC3S1': 4.12, 'temp': 30.75, 'lipoC3S3': 12.46, 'lipoC3S2': 8.24, 'rot1': 0, 'rot0': 0, 'rot3': 38, 'rot2': 35, 'state': 'normal', 'yaw': 9.0, 'datetime': '2018-10-09 12:31:19.824642', 'mgs': 0, 'volt': 0.9473, 'depth': 2.301, 'time': 31, 'pitch': -0.31, 'roll': -1.34, 'pres': 194}
{'lipoC2': 7.49, 'lipoC3S1': 4.12, 'temp': 30.75, 'lipoC3S3': 12.46, 'lipoC3S2': 8.23, 'rot1': 0, 'rot0': 0, 'rot3': 38, 'rot2': 35, 'state': 'normal', 'yaw': 8.83, 'datetime': '2018-10-09 12:31:19.928018', 'mgs': 0, 'volt': 0.9473, 'depth': 2.301, 'time': 31, 'pitch': -0.33, 'roll': -1.35, 'pres': 194}
{'lipoC2': 7.49, 'lipoC3S1': 4.12, 'temp': 30.75, 'lipoC3S3': 12.46, 'lipoC3S2': 8.23, 'rot1': 0, 'rot0': 0, 'rot3': 38, 'rot2': 35, 'state': 'normal', 'yaw': 8.65, 'datetime': '2018-10-09 12:31:20.031351', 'mgs': 0, 'volt': 0.9473, 'depth': 2.301, 'time': 31, 'pitch': -0.32, 'roll': -1.36, 'pres': 194}
{'lipoC2': 7.49, 'lipoC3S1': 4.12, 'temp': 30.75, 'lipoC3S3': 12.46, 'lipoC3S2': 8.24, 'rot1': 0, 'rot0': 0, 'rot3': 38, 'rot2': 35, 'state': 'normal', 'yaw': 8.44, 'datetime': '2018-10-09 12:31:20.134708', 'mgs': 0, 'volt': 0.9473, 'depth': 2.301, 'time': 32, 'pitch': -0.2, 'roll': -1.36, 'pres': 194}
{'lipoC2': 7.49, 'lipoC3S1': 4.12, 'temp': 30.75, 'lipoC3S3': 12.46, 'lipoC3S2': 8.23, 'rot1': 0, 'rot0': 0, 'rot3': 38, 'rot2': 35, 'state': 'normal', 'yaw': 8.25, 'datetime': '2018-10-09 12:31:20.238016', 'mgs': 0, 'volt': 0.9473, 'depth': 2.301, 'time': 32, 'pitch': -0.06, 'roll': -1.31, 'pres': 194}
{'lipoC2': 7.49, 'lipoC3S1': 4.12, 'temp': 30.75, 'lipoC3S3': 12.46, 'lipoC3S2': 8.23, 'rot1': 0, 'rot0': 0, 'rot3': 38, 'rot2': 35, 'state': 'normal', 'yaw': 8.06, 'datetime': '2018-10-09 12:31:20.341344', 'mgs': 0, 'volt': 0.9521, 'depth': 2.377, 'time': 32, 'pitch': 0.0, 'roll': -1.25, 'pres': 195}
{'lipoC2': 7.49, 'lipoC3S1': 4.12, 'temp': 30.75, 'lipoC3S3': 12.46, 'lipoC3S2': 8.24, 'rot1': 0, 'rot0': 0, 'rot3': 38, 'rot2': 35, 'state': 'normal', 'yaw': 7.85, 'datetime': '2018-10-09 12:31:20.444738', 'mgs': 0, 'volt': 0.9521, 'depth': 2.377, 'time': 32, 'pitch': -0.11, 'roll': -1.1, 'pres': 195}
{'lipoC2': 7.49, 'lipoC3S1': 4.12, 'temp': 30.75, 'lipoC3S3': 12.46, 'lipoC3S2': 8.24, 'rot1': 0, 'rot0': 0, 'rot3': 38, 'rot2': 35, 'state': 'normal', 'yaw': 7.66, 'datetime': '2018-10-09 12:31:20.548110', 'mgs': 0, 'volt': 0.9521, 'depth': 2.377, 'time': 32, 'pitch': -0.36, 'roll': -0.91, 'pres': 195}
{'lipoC2': 7.49, 'lipoC3S1': 4.12, 'temp': 30.75, 'lipoC3S3': 12.46, 'lipoC3S2': 8.24, 'rot1': 0, 'rot0': 0, 'rot3': 38, 'rot2': 35, 'state': 'normal', 'yaw': 7.47, 'datetime': '2018-10-09 12:31:20.651468', 'mgs': 0, 'volt': 0.9521, 'depth': 2.377, 'time': 32, 'pitch': -0.59, 'roll': -0.74, 'pres': 195}
{'lipoC2': 7.49, 'lipoC3S1': 4.12, 'temp': 30.75, 'lipoC3S3': 12.46, 'lipoC3S2': 8.24, 'rot1': 0, 'rot0': 0, 'rot3': 38, 'rot2': 35, 'state': 'normal', 'yaw': 7.29, 'datetime': '2018-10-09 12:31:20.755265', 'mgs': 0, 'volt': 0.9521, 'depth': 2.377, 'time': 32, 'pitch': -0.64, 'roll': -0.65, 'pres': 195}
{'lipoC2': 7.49, 'lipoC3S1': 4.12, 'temp': 30.75, 'lipoC3S3': 12.46, 'lipoC3S2': 8.24, 'rot1': 0, 'rot0': 0, 'rot3': 38, 'rot2': 35, 'state': 'normal', 'yaw': 7.11, 'datetime': '2018-10-09 12:31:20.858578', 'mgs': 0, 'volt': 0.9521, 'depth': 2.377, 'time': 32, 'pitch': -0.36, 'roll': -0.69, 'pres': 195}
{'lipoC2': 7.49, 'lipoC3S1': 4.12, 'temp': 30.75, 'lipoC3S3': 12.46, 'lipoC3S2': 8.24, 'rot1': 0, 'rot0': 0, 'rot3': 38, 'rot2': 35, 'state': 'normal', 'yaw': 6.95, 'datetime': '2018-10-09 12:31:20.963213', 'mgs': 0, 'volt': 0.9521, 'depth': 2.377, 'time': 32, 'pitch': 0.12, 'roll': -0.82, 'pres': 195}
{'lipoC2': 7.49, 'lipoC3S1': 4.12, 'temp': 30.81, 'lipoC3S3': 12.46, 'lipoC3S2': 8.24, 'rot1': 0, 'rot0': 0, 'rot3': 38, 'rot2': 35, 'state': 'normal', 'yaw': 6.75, 'datetime': '2018-10-09 12:31:21.067364', 'mgs': 0, 'volt': 0.9521, 'depth': 2.377, 'time': 32, 'pitch': 0.62, 'roll': -0.98, 'pres': 195}
{'lipoC2': 7.49, 'lipoC3S1': 4.12, 'temp': 30.81, 'lipoC3S3': 12.46, 'lipoC3S2': 8.23, 'rot1': 0, 'rot0': 0, 'rot3': 38, 'rot2': 35, 'state': 'normal', 'yaw': 6.54, 'datetime': '2018-10-09 12:31:21.169978', 'mgs': 0, 'volt': 0.9521, 'depth': 2.377, 'time': 33, 'pitch': 0.77, 'roll': -1.07, 'pres': 195}
{'lipoC2': 7.49, 'lipoC3S1': 4.12, 'temp': 30.75, 'lipoC3S3': 12.46, 'lipoC3S2': 8.24, 'rot1': 0, 'rot0': 0, 'rot3': 38, 'rot2': 35, 'state': 'normal', 'yaw': 6.32, 'datetime': '2018-10-09 12:31:21.274616', 'mgs': 0, 'volt': 0.9521, 'depth': 2.377, 'time': 33, 'pitch': 0.49, 'roll': -1.03, 'pres': 195}
{'lipoC2': 7.49, 'lipoC3S1': 4.12, 'temp': 30.75, 'lipoC3S3': 12.46, 'lipoC3S2': 8.23, 'rot1': 0, 'rot0': 0, 'rot3': 38, 'rot2': 35, 'state': 'normal', 'yaw': 6.1, 'datetime': '2018-10-09 12:31:21.377967', 'mgs': 0, 'volt': 0.9521, 'depth': 2.377, 'time': 33, 'pitch': -0.1, 'roll': -1.0, 'pres': 195}
{'lipoC2': 7.49, 'lipoC3S1': 4.12, 'temp': 30.75, 'lipoC3S3': 12.46, 'lipoC3S2': 8.24, 'rot1': 0, 'rot0': 0, 'rot3': 38, 'rot2': 35, 'state': 'normal', 'yaw': 5.92, 'datetime': '2018-10-09 12:31:21.481336', 'mgs': 0, 'volt': 0.9521, 'depth': 2.377, 'time': 33, 'pitch': -0.54, 'roll': -0.99, 'pres': 195}
{'lipoC2': 7.49, 'lipoC3S1': 4.12, 'temp': 30.75, 'lipoC3S3': 12.46, 'lipoC3S2': 8.23, 'rot1': 0, 'rot0': 0, 'rot3': 38, 'rot2': 35, 'state': 'normal', 'yaw': 5.75, 'datetime': '2018-10-09 12:31:21.584717', 'mgs': 0, 'volt': 0.9521, 'depth': 2.377, 'time': 33, 'pitch': -0.69, 'roll': -1.0, 'pres': 195}
{'lipoC2': 7.49, 'lipoC3S1': 4.12, 'temp': 30.75, 'lipoC3S3': 12.46, 'lipoC3S2': 8.24, 'rot1': 0, 'rot0': 0, 'rot3': 38, 'rot2': 35, 'state': 'normal', 'yaw': 5.57, 'datetime': '2018-10-09 12:31:21.688004', 'mgs': 0, 'volt': 0.9521, 'depth': 2.377, 'time': 33, 'pitch': -0.4, 'roll': -1.1, 'pres': 195}
{'lipoC2': 7.49, 'lipoC3S1': 4.12, 'temp': 30.75, 'lipoC3S3': 12.46, 'lipoC3S2': 8.24, 'rot1': 0, 'rot0': 0, 'rot3': 38, 'rot2': 35, 'state': 'normal', 'yaw': 5.4, 'datetime': '2018-10-09 12:31:21.791336', 'mgs': 0, 'volt': 0.9521, 'depth': 2.377, 'time': 33, 'pitch': 0.13, 'roll': -1.28, 'pres': 195}
{'lipoC2': 7.49, 'lipoC3S1': 4.12, 'temp': 30.75, 'lipoC3S3': 12.46, 'lipoC3S2': 8.23, 'rot1': 0, 'rot0': 0, 'rot3': 38, 'rot2': 35, 'state': 'normal', 'yaw': 5.22, 'datetime': '2018-10-09 12:31:21.894688', 'mgs': 0, 'volt': 0.9521, 'depth': 2.377, 'time': 33, 'pitch': 0.63, 'roll': -1.46, 'pres': 195}
{'lipoC2': 7.49, 'lipoC3S1': 4.12, 'temp': 30.75, 'lipoC3S3': 12.46, 'lipoC3S2': 8.23, 'rot1': 0, 'rot0': 0, 'rot3': 38, 'rot2': 35, 'state': 'normal', 'yaw': 5.03, 'datetime': '2018-10-09 12:31:21.998008', 'mgs': 0, 'volt': 0.9521, 'depth': 2.377, 'time': 33, 'pitch': 0.83, 'roll': -1.55, 'pres': 195}
{'lipoC2': 7.49, 'lipoC3S1': 4.12, 'temp': 30.75, 'lipoC3S3': 12.46, 'lipoC3S2': 8.23, 'rot1': 0, 'rot0': 0, 'rot3': 38, 'rot2': 35, 'state': 'normal', 'yaw': 4.83, 'datetime': '2018-10-09 12:31:22.101398', 'mgs': 0, 'volt': 0.9521, 'depth': 2.377, 'time': 33, 'pitch': 0.54, 'roll': -1.56, 'pres': 195}
{'lipoC2': 7.49, 'lipoC3S1': 4.12, 'temp': 30.75, 'lipoC3S3': 12.46, 'lipoC3S2': 8.23, 'rot1': 0, 'rot0': 0, 'rot3': 38, 'rot2': 35, 'state': 'normal', 'yaw': 4.64, 'datetime': '2018-10-09 12:31:22.204805', 'mgs': 0, 'volt': 0.9521, 'depth': 2.377, 'time': 34, 'pitch': -0.01, 'roll': -1.49, 'pres': 195}
{'lipoC2': 7.49, 'lipoC3S1': 4.12, 'temp': 30.75, 'lipoC3S3': 12.46, 'lipoC3S2': 8.24, 'rot1': 0, 'rot0': 0, 'rot3': 38, 'rot2': 35, 'state': 'normal', 'yaw': 4.46, 'datetime': '2018-10-09 12:31:22.308455', 'mgs': 0, 'volt': 0.9521, 'depth': 2.377, 'time': 34, 'pitch': -0.5, 'roll': -1.41, 'pres': 195}
{'lipoC2': 7.49, 'lipoC3S1': 4.12, 'temp': 30.75, 'lipoC3S3': 12.46, 'lipoC3S2': 8.24, 'rot1': 0, 'rot0': 0, 'rot3': 38, 'rot2': 35, 'state': 'normal', 'yaw': 4.26, 'datetime': '2018-10-09 12:31:22.411946', 'mgs': 0, 'volt': 0.9473, 'depth': 2.301, 'time': 34, 'pitch': -0.69, 'roll': -1.37, 'pres': 194}
{'lipoC2': 7.49, 'lipoC3S1': 4.12, 'temp': 30.75, 'lipoC3S3': 12.46, 'lipoC3S2': 8.23, 'rot1': 0, 'rot0': 0, 'rot3': 38, 'rot2': 35, 'state': 'normal', 'yaw': 4.1, 'datetime': '2018-10-09 12:31:22.516453', 'mgs': 0, 'volt': 0.9473, 'depth': 2.301, 'time': 34, 'pitch': -0.52, 'roll': -1.38, 'pres': 194}
{'lipoC2': 7.49, 'lipoC3S1': 4.12, 'temp': 30.75, 'lipoC3S3': 12.46, 'lipoC3S2': 8.24, 'rot1': 0, 'rot0': 0, 'rot3': 38, 'rot2': 35, 'state': 'normal', 'yaw': 3.93, 'datetime': '2018-10-09 12:31:22.619751', 'mgs': 0, 'volt': 0.9473, 'depth': 2.301, 'time': 34, 'pitch': -0.19, 'roll': -1.39, 'pres': 194}
{'lipoC2': 7.49, 'lipoC3S1': 4.12, 'temp': 30.75, 'lipoC3S3': 12.46, 'lipoC3S2': 8.24, 'rot1': 0, 'rot0': 0, 'rot3': 38, 'rot2': 35, 'state': 'normal', 'yaw': 3.79, 'datetime': '2018-10-09 12:31:22.723158', 'mgs': 0, 'volt': 0.9473, 'depth': 2.301, 'time': 34, 'pitch': 0.06, 'roll': -1.38, 'pres': 194}
{'lipoC2': 7.49, 'lipoC3S1': 4.12, 'temp': 30.75, 'lipoC3S3': 12.46, 'lipoC3S2': 8.23, 'rot1': 0, 'rot0': 0, 'rot3': 38, 'rot2': 35, 'state': 'normal', 'yaw': 3.63, 'datetime': '2018-10-09 12:31:22.827755', 'mgs': 0, 'volt': 0.9473, 'depth': 2.301, 'time': 34, 'pitch': 0.17, 'roll': -1.36, 'pres': 194}
{'lipoC2': 7.49, 'lipoC3S1': 4.12, 'temp': 30.75, 'lipoC3S3': 12.46, 'lipoC3S2': 8.24, 'rot1': 0, 'rot0': 0, 'rot3': 38, 'rot2': 35, 'state': 'normal', 'yaw': 3.42, 'datetime': '2018-10-09 12:31:22.931184', 'mgs': 0, 'volt': 0.9473, 'depth': 2.301, 'time': 34, 'pitch': 0.12, 'roll': -1.35, 'pres': 194}
{'lipoC2': 7.49, 'lipoC3S1': 4.12, 'temp': 30.75, 'lipoC3S3': 12.46, 'lipoC3S2': 8.24, 'rot1': 0, 'rot0': 0, 'rot3': 38, 'rot2': 35, 'state': 'normal', 'yaw': 3.23, 'datetime': '2018-10-09 12:31:23.034442', 'mgs': 0, 'volt': 0.9473, 'depth': 2.301, 'time': 34, 'pitch': 0.01, 'roll': -1.26, 'pres': 194}
{'lipoC2': 7.49, 'lipoC3S1': 4.12, 'temp': 30.75, 'lipoC3S3': 12.46, 'lipoC3S2': 8.23, 'rot1': 0, 'rot0': 0, 'rot3': 38, 'rot2': 35, 'state': 'normal', 'yaw': 3.04, 'datetime': '2018-10-09 12:31:23.137876', 'mgs': 0, 'volt': 0.9473, 'depth': 2.301, 'time': 35, 'pitch': -0.13, 'roll': -1.13, 'pres': 194}
{'lipoC2': 7.49, 'lipoC3S1': 4.12, 'temp': 30.75, 'lipoC3S3': 12.46, 'lipoC3S2': 8.24, 'rot1': 0, 'rot0': 0, 'rot3': 38, 'rot2': 35, 'state': 'normal', 'yaw': 2.86, 'datetime': '2018-10-09 12:31:23.241164', 'mgs': 0, 'volt': 0.9473, 'depth': 2.301, 'time': 35, 'pitch': -0.25, 'roll': -0.98, 'pres': 194}
{'lipoC2': 7.49, 'lipoC3S1': 4.12, 'temp': 30.75, 'lipoC3S3': 12.46, 'lipoC3S2': 8.23, 'rot1': 0, 'rot0': 0, 'rot3': 38, 'rot2': 35, 'state': 'normal', 'yaw': 2.73, 'datetime': '2018-10-09 12:31:23.344515', 'mgs': 0, 'volt': 0.9473, 'depth': 2.301, 'time': 35, 'pitch': -0.28, 'roll': -0.87, 'pres': 194}
{'lipoC2': 7.49, 'lipoC3S1': 4.12, 'temp': 30.75, 'lipoC3S3': 12.46, 'lipoC3S2': 8.23, 'rot1': 0, 'rot0': 0, 'rot3': 38, 'rot2': 35, 'state': 'normal', 'yaw': 2.63, 'datetime': '2018-10-09 12:31:23.449164', 'mgs': 0, 'volt': 0.9424, 'depth': 2.225, 'time': 35, 'pitch': -0.25, 'roll': -0.84, 'pres': 193}
{'lipoC2': 7.49, 'lipoC3S1': 4.12, 'temp': 30.75, 'lipoC3S3': 12.46, 'lipoC3S2': 8.24, 'rot1': 0, 'rot0': 0, 'rot3': 38, 'rot2': 35, 'state': 'normal', 'yaw': 2.5, 'datetime': '2018-10-09 12:31:23.556693', 'mgs': 0, 'volt': 0.9424, 'depth': 2.225, 'time': 35, 'pitch': -0.04, 'roll': -0.84, 'pres': 193}
{'lipoC2': 7.49, 'lipoC3S1': 4.12, 'temp': 30.75, 'lipoC3S3': 12.46, 'lipoC3S2': 8.24, 'rot1': 0, 'rot0': 0, 'rot3': 38, 'rot2': 35, 'state': 'normal', 'yaw': 2.38, 'datetime': '2018-10-09 12:31:23.661775', 'mgs': 0, 'volt': 0.9424, 'depth': 2.225, 'time': 35, 'pitch': 0.31, 'roll': -0.88, 'pres': 193}
{'lipoC2': 7.49, 'lipoC3S1': 4.12, 'temp': 30.75, 'lipoC3S3': 12.46, 'lipoC3S2': 8.24, 'rot1': 0, 'rot0': 0, 'rot3': 38, 'rot2': 35, 'state': 'normal', 'yaw': 2.23, 'datetime': '2018-10-09 12:31:23.765009', 'mgs': 0, 'volt': 0.9424, 'depth': 2.225, 'time': 35, 'pitch': 0.71, 'roll': -0.97, 'pres': 193}
{'lipoC2': 7.49, 'lipoC3S1': 4.12, 'temp': 30.75, 'lipoC3S3': 12.46, 'lipoC3S2': 8.24, 'rot1': 0, 'rot0': 0, 'rot3': 38, 'rot2': 35, 'state': 'normal', 'yaw': 2.05, 'datetime': '2018-10-09 12:31:23.868432', 'mgs': 0, 'volt': 0.9424, 'depth': 2.225, 'time': 35, 'pitch': 0.97, 'roll': -1.01, 'pres': 193}
{'lipoC2': 7.49, 'lipoC3S1': 4.12, 'temp': 30.75, 'lipoC3S3': 12.46, 'lipoC3S2': 8.24, 'rot1': 0, 'rot0': 0, 'rot3': 38, 'rot2': 35, 'state': 'normal', 'yaw': 1.91, 'datetime': '2018-10-09 12:31:23.971804', 'mgs': 0, 'volt': 0.9375, 'depth': 2.148, 'time': 35, 'pitch': 0.97, 'roll': -1.0, 'pres': 192}
{'lipoC2': 7.49, 'lipoC3S1': 4.12, 'temp': 30.75, 'lipoC3S3': 12.46, 'lipoC3S2': 8.24, 'rot1': 0, 'rot0': 0, 'rot3': 38, 'rot2': 35, 'state': 'normal', 'yaw': 1.81, 'datetime': '2018-10-09 12:31:24.076584', 'mgs': 0, 'volt': 0.9375, 'depth': 2.148, 'time': 35, 'pitch': 0.75, 'roll': -1.0, 'pres': 192}
{'lipoC2': 7.49, 'lipoC3S1': 4.12, 'temp': 30.75, 'lipoC3S3': 12.46, 'lipoC3S2': 8.23, 'rot1': 0, 'rot0': 0, 'rot3': 38, 'rot2': 35, 'state': 'normal', 'yaw': 1.7, 'datetime': '2018-10-09 12:31:24.179931', 'mgs': 0, 'volt': 0.9375, 'depth': 2.148, 'time': 36, 'pitch': 0.4, 'roll': -1.01, 'pres': 192}
{'lipoC2': 7.49, 'lipoC3S1': 4.12, 'temp': 30.75, 'lipoC3S3': 12.46, 'lipoC3S2': 8.24, 'rot1': 0, 'rot0': 0, 'rot3': 38, 'rot2': 35, 'state': 'normal', 'yaw': 1.6, 'datetime': '2018-10-09 12:31:24.283241', 'mgs': 0, 'volt': 0.9424, 'depth': 2.225, 'time': 36, 'pitch': 0.22, 'roll': -1.06, 'pres': 193}
{'lipoC2': 7.49, 'lipoC3S1': 4.12, 'temp': 30.75, 'lipoC3S3': 12.46, 'lipoC3S2': 8.23, 'rot1': 0, 'rot0': 0, 'rot3': 38, 'rot2': 35, 'state': 'normal', 'yaw': 1.47, 'datetime': '2018-10-09 12:31:24.387950', 'mgs': 0, 'volt': 0.9375, 'depth': 2.148, 'time': 36, 'pitch': 0.26, 'roll': -1.2, 'pres': 192}
{'lipoC2': 7.49, 'lipoC3S1': 4.12, 'temp': 30.75, 'lipoC3S3': 12.46, 'lipoC3S2': 8.23, 'rot1': 0, 'rot0': 0, 'rot3': 38, 'rot2': 35, 'state': 'normal', 'yaw': 1.34, 'datetime': '2018-10-09 12:31:24.491324', 'mgs': 0, 'volt': 0.9375, 'depth': 2.148, 'time': 36, 'pitch': 0.46, 'roll': -1.39, 'pres': 192}
{'lipoC2': 7.49, 'lipoC3S1': 4.12, 'temp': 30.75, 'lipoC3S3': 12.46, 'lipoC3S2': 8.24, 'rot1': 0, 'rot0': 0, 'rot3': 38, 'rot2': 35, 'state': 'normal', 'yaw': 1.2, 'datetime': '2018-10-09 12:31:24.594536', 'mgs': 0, 'volt': 0.9375, 'depth': 2.148, 'time': 36, 'pitch': 0.56, 'roll': -1.51, 'pres': 192}
{'lipoC2': 7.49, 'lipoC3S1': 4.12, 'temp': 30.75, 'lipoC3S3': 12.46, 'lipoC3S2': 8.24, 'rot1': 0, 'rot0': 0, 'rot3': 38, 'rot2': 35, 'state': 'normal', 'yaw': 1.05, 'datetime': '2018-10-09 12:31:24.698051', 'mgs': 0, 'volt': 0.9375, 'depth': 2.148, 'time': 36, 'pitch': 0.45, 'roll': -1.51, 'pres': 192}
{'lipoC2': 7.49, 'lipoC3S1': 4.12, 'temp': 30.75, 'lipoC3S3': 12.46, 'lipoC3S2': 8.23, 'rot1': 0, 'rot0': 0, 'rot3': 38, 'rot2': 35, 'state': 'normal', 'yaw': 0.92, 'datetime': '2018-10-09 12:31:24.801292', 'mgs': 0, 'volt': 0.9375, 'depth': 2.148, 'time': 36, 'pitch': 0.12, 'roll': -1.38, 'pres': 192}
{'lipoC2': 7.49, 'lipoC3S1': 4.12, 'temp': 30.75, 'lipoC3S3': 12.46, 'lipoC3S2': 8.23, 'rot1': 0, 'rot0': 0, 'rot3': 38, 'rot2': 35, 'state': 'normal', 'yaw': 0.75, 'datetime': '2018-10-09 12:31:24.904584', 'mgs': 0, 'volt': 0.9375, 'depth': 2.148, 'time': 36, 'pitch': -0.33, 'roll': -1.23, 'pres': 192}
{'lipoC2': 7.49, 'lipoC3S1': 4.12, 'temp': 30.75, 'lipoC3S3': 12.46, 'lipoC3S2': 8.23, 'rot1': 0, 'rot0': 0, 'rot3': 38, 'rot2': 35, 'state': 'normal', 'yaw': 0.56, 'datetime': '2018-10-09 12:31:25.008112', 'mgs': 0, 'volt': 0.9326, 'depth': 2.072, 'time': 36, 'pitch': -0.55, 'roll': -1.16, 'pres': 191}
{'lipoC2': 7.49, 'lipoC3S1': 4.12, 'temp': 30.75, 'lipoC3S3': 12.46, 'lipoC3S2': 8.24, 'rot1': 0, 'rot0': 0, 'rot3': 38, 'rot2': 35, 'state': 'normal', 'yaw': 0.38, 'datetime': '2018-10-09 12:31:25.111283', 'mgs': 0, 'volt': 0.9375, 'depth': 2.148, 'time': 36, 'pitch': -0.29, 'roll': -1.24, 'pres': 192}
{'lipoC2': 7.49, 'lipoC3S1': 4.12, 'temp': 30.75, 'lipoC3S3': 12.46, 'lipoC3S2': 8.23, 'rot1': 0, 'rot0': 0, 'rot3': 38, 'rot2': 35, 'state': 'normal', 'yaw': 0.29, 'datetime': '2018-10-09 12:31:25.214618', 'mgs': 0, 'volt': 0.9375, 'depth': 2.148, 'time': 37, 'pitch': 1.24, 'roll': -1.53, 'pres': 192}
{'lipoC2': 7.49, 'lipoC3S1': 4.12, 'temp': 30.75, 'lipoC3S3': 12.46, 'lipoC3S2': 8.24, 'rot1': 0, 'rot0': 0, 'rot3': 38, 'rot2': 35, 'state': 'normal', 'yaw': 0.16, 'datetime': '2018-10-09 12:31:25.313368', 'mgs': 0, 'volt': 0.9375, 'depth': 2.148, 'time': 37, 'pitch': 3.92, 'roll': -1.99, 'pres': 192}
{'lipoC2': 7.49, 'lipoC3S1': 4.12, 'temp': 30.75, 'lipoC3S3': 12.46, 'lipoC3S2': 8.24, 'rot1': 0, 'rot0': 0, 'rot3': 38, 'rot2': 35, 'state': 'normal', 'yaw': -0.31, 'datetime': '2018-10-09 12:31:25.418994', 'mgs': 0, 'volt': 0.9375, 'depth': 2.148, 'time': 37, 'pitch': 5.78, 'roll': -2.22, 'pres': 192}
{'lipoC2': 7.49, 'lipoC3S1': 4.12, 'temp': 30.75, 'lipoC3S3': 12.46, 'lipoC3S2': 8.23, 'rot1': 0, 'rot0': 0, 'rot3': 38, 'rot2': 35, 'state': 'normal', 'yaw': -0.97, 'datetime': '2018-10-09 12:31:25.519339', 'mgs': 0, 'volt': 0.9375, 'depth': 2.148, 'time': 37, 'pitch': 6.38, 'roll': -2.02, 'pres': 192}
{'lipoC2': 7.49, 'lipoC3S1': 4.12, 'temp': 30.69, 'lipoC3S3': 12.46, 'lipoC3S2': 8.23, 'rot1': 0, 'rot0': 0, 'rot3': 38, 'rot2': 35, 'state': 'normal', 'yaw': -1.59, 'datetime': '2018-10-09 12:31:25.623857', 'mgs': 0, 'volt': 0.9424, 'depth': 2.225, 'time': 37, 'pitch': 6.32, 'roll': -1.55, 'pres': 193}
{'lipoC2': 7.49, 'lipoC3S1': 4.12, 'temp': 30.69, 'lipoC3S3': 12.46, 'lipoC3S2': 8.24, 'rot1': 0, 'rot0': 0, 'rot3': 38, 'rot2': 35, 'state': 'normal', 'yaw': -2.65, 'datetime': '2018-10-09 12:31:25.727290', 'mgs': 0, 'volt': 0.9424, 'depth': 2.225, 'time': 37, 'pitch': 5.86, 'roll': -0.7, 'pres': 193}
{'lipoC2': 7.49, 'lipoC3S1': 4.12, 'temp': 30.69, 'lipoC3S3': 12.46, 'lipoC3S2': 8.23, 'rot1': 0, 'rot0': 0, 'rot3': 38, 'rot2': 35, 'state': 'normal', 'yaw': -4.17, 'datetime': '2018-10-09 12:31:25.831501', 'mgs': 0, 'volt': 0.9424, 'depth': 2.225, 'time': 37, 'pitch': 5.54, 'roll': 0.33, 'pres': 193}
{'lipoC2': 7.49, 'lipoC3S1': 4.12, 'temp': 30.75, 'lipoC3S3': 12.46, 'lipoC3S2': 8.24, 'rot1': 0, 'rot0': 0, 'rot3': 38, 'rot2': 35, 'state': 'normal', 'yaw': -5.99, 'datetime': '2018-10-09 12:31:25.935430', 'mgs': 0, 'volt': 0.9424, 'depth': 2.225, 'time': 37, 'pitch': 5.77, 'roll': 1.35, 'pres': 193}
{'lipoC2': 7.49, 'lipoC3S1': 4.12, 'temp': 30.75, 'lipoC3S3': 12.46, 'lipoC3S2': 8.24, 'rot1': 0, 'rot0': 0, 'rot3': 38, 'rot2': 35, 'state': 'normal', 'yaw': -8.02, 'datetime': '2018-10-09 12:31:26.038767', 'mgs': 0, 'volt': 0.9424, 'depth': 2.225, 'time': 37, 'pitch': 6.06, 'roll': 2.33, 'pres': 193}
{'lipoC2': 7.49, 'lipoC3S1': 4.12, 'temp': 30.69, 'lipoC3S3': 12.46, 'lipoC3S2': 8.23, 'rot1': 0, 'rot0': 0, 'rot3': 38, 'rot2': 35, 'state': 'normal', 'yaw': -8.97, 'datetime': '2018-10-09 12:31:26.148879', 'mgs': 0, 'volt': 0.9473, 'depth': 2.301, 'time': 38, 'pitch': 6.29, 'roll': 2.75, 'pres': 194}
{'lipoC2': 7.49, 'lipoC3S1': 4.12, 'temp': 30.69, 'lipoC3S3': 12.46, 'lipoC3S2': 8.23, 'rot1': 0, 'rot0': 0, 'rot3': 38, 'rot2': 35, 'state': 'normal', 'yaw': -8.37, 'datetime': '2018-10-09 12:31:26.252358', 'mgs': 0, 'volt': 0.9473, 'depth': 2.301, 'time': 38, 'pitch': 7.02, 'roll': 2.48, 'pres': 194}
{'lipoC2': 7.49, 'lipoC3S1': 4.12, 'temp': 30.75, 'lipoC3S3': 12.46, 'lipoC3S2': 8.24, 'rot1': 0, 'rot0': 0, 'rot3': 38, 'rot2': 35, 'state': 'normal', 'yaw': -6.9, 'datetime': '2018-10-09 12:31:26.355697', 'mgs': 0, 'volt': 0.9473, 'depth': 2.301, 'time': 38, 'pitch': 8.05, 'roll': 1.76, 'pres': 194}
{'lipoC2': 7.49, 'lipoC3S1': 4.12, 'temp': 30.75, 'lipoC3S3': 12.46, 'lipoC3S2': 8.23, 'rot1': 0, 'rot0': 0, 'rot3': 38, 'rot2': 35, 'state': 'normal', 'yaw': -5.77, 'datetime': '2018-10-09 12:31:26.459062', 'mgs': 0, 'volt': 0.9521, 'depth': 2.377, 'time': 38, 'pitch': 8.93, 'roll': 1.23, 'pres': 195}
{'lipoC2': 7.49, 'lipoC3S1': 4.12, 'temp': 30.75, 'lipoC3S3': 12.46, 'lipoC3S2': 8.23, 'rot1': 0, 'rot0': 0, 'rot3': 38, 'rot2': 35, 'state': 'normal', 'yaw': -4.85, 'datetime': '2018-10-09 12:31:26.562612', 'mgs': 0, 'volt': 0.9521, 'depth': 2.377, 'time': 38, 'pitch': 9.58, 'roll': 0.83, 'pres': 195}
{'lipoC2': 7.49, 'lipoC3S1': 4.12, 'temp': 30.75, 'lipoC3S3': 12.46, 'lipoC3S2': 8.23, 'rot1': 0, 'rot0': 0, 'rot3': 38, 'rot2': 35, 'state': 'normal', 'yaw': -3.98, 'datetime': '2018-10-09 12:31:26.666072', 'mgs': 0, 'volt': 0.9521, 'depth': 2.377, 'time': 38, 'pitch': 9.84, 'roll': 0.54, 'pres': 195}
{'lipoC2': 7.49, 'lipoC3S1': 4.12, 'temp': 30.75, 'lipoC3S3': 12.46, 'lipoC3S2': 8.24, 'rot1': 0, 'rot0': 0, 'rot3': 38, 'rot2': 35, 'state': 'normal', 'yaw': -3.67, 'datetime': '2018-10-09 12:31:26.769394', 'mgs': 0, 'volt': 0.9473, 'depth': 2.301, 'time': 38, 'pitch': 9.6, 'roll': 0.47, 'pres': 194}
{'lipoC2': 7.49, 'lipoC3S1': 4.12, 'temp': 30.75, 'lipoC3S3': 12.46, 'lipoC3S2': 8.24, 'rot1': 0, 'rot0': 0, 'rot3': 38, 'rot2': 35, 'state': 'normal', 'yaw': -4.08, 'datetime': '2018-10-09 12:31:26.873436', 'mgs': 0, 'volt': 0.9521, 'depth': 2.377, 'time': 38, 'pitch': 8.64, 'roll': 0.75, 'pres': 195}
{'lipoC2': 7.49, 'lipoC3S1': 4.12, 'temp': 30.75, 'lipoC3S3': 12.46, 'lipoC3S2': 8.23, 'rot1': 0, 'rot0': 0, 'rot3': 38, 'rot2': 35, 'state': 'normal', 'yaw': -4.99, 'datetime': '2018-10-09 12:31:26.976672', 'mgs': 0, 'volt': 0.9521, 'depth': 2.377, 'time': 38, 'pitch': 7.25, 'roll': 1.19, 'pres': 195}
{'lipoC2': 7.49, 'lipoC3S1': 4.12, 'temp': 30.75, 'lipoC3S3': 12.46, 'lipoC3S2': 8.23, 'rot1': 0, 'rot0': 0, 'rot3': 38, 'rot2': 35, 'state': 'normal', 'yaw': -6.38, 'datetime': '2018-10-09 12:31:27.081430', 'mgs': 0, 'volt': 0.9521, 'depth': 2.377, 'time': 38, 'pitch': 5.85, 'roll': 1.71, 'pres': 195}
{'lipoC2': 7.49, 'lipoC3S1': 4.12, 'temp': 30.75, 'lipoC3S3': 12.46, 'lipoC3S2': 8.23, 'rot1': 0, 'rot0': 0, 'rot3': 38, 'rot2': 35, 'state': 'normal', 'yaw': -7.66, 'datetime': '2018-10-09 12:31:27.184883', 'mgs': 0, 'volt': 0.9521, 'depth': 2.377, 'time': 39, 'pitch': 4.54, 'roll': 2.03, 'pres': 195}
{'lipoC2': 7.49, 'lipoC3S1': 4.12, 'temp': 30.75, 'lipoC3S3': 12.46, 'lipoC3S2': 8.24, 'rot1': 0, 'rot0': 0, 'rot3': 38, 'rot2': 35, 'state': 'normal', 'yaw': -8.52, 'datetime': '2018-10-09 12:31:27.288328', 'mgs': 0, 'volt': 0.9521, 'depth': 2.377, 'time': 39, 'pitch': 3.42, 'roll': 1.93, 'pres': 195}
{'lipoC2': 7.49, 'lipoC3S1': 4.12, 'temp': 30.75, 'lipoC3S3': 12.46, 'lipoC3S2': 8.24, 'rot1': 0, 'rot0': 0, 'rot3': 38, 'rot2': 35, 'state': 'normal', 'yaw': -9.27, 'datetime': '2018-10-09 12:31:27.392786', 'mgs': 0, 'volt': 0.9521, 'depth': 2.377, 'time': 39, 'pitch': 2.42, 'roll': 1.56, 'pres': 195}
{'lipoC2': 7.49, 'lipoC3S1': 4.12, 'temp': 30.75, 'lipoC3S3': 12.46, 'lipoC3S2': 8.23, 'rot1': 0, 'rot0': 0, 'rot3': 38, 'rot2': 35, 'state': 'normal', 'yaw': -9.89, 'datetime': '2018-10-09 12:31:27.496180', 'mgs': 0, 'volt': 0.9521, 'depth': 2.377, 'time': 39, 'pitch': 1.52, 'roll': 0.83, 'pres': 195}
{'lipoC2': 7.49, 'lipoC3S1': 4.12, 'temp': 30.75, 'lipoC3S3': 12.46, 'lipoC3S2': 8.24, 'rot1': 0, 'rot0': 0, 'rot3': 38, 'rot2': 35, 'state': 'normal', 'yaw': -10.49, 'datetime': '2018-10-09 12:31:27.599728', 'mgs': 0, 'volt': 0.9521, 'depth': 2.377, 'time': 39, 'pitch': 0.8, 'roll': 0.12, 'pres': 195}
{'lipoC2': 7.49, 'lipoC3S1': 4.12, 'temp': 30.75, 'lipoC3S3': 12.46, 'lipoC3S2': 8.24, 'rot1': 0, 'rot0': 0, 'rot3': 38, 'rot2': 35, 'state': 'normal', 'yaw': -11.25, 'datetime': '2018-10-09 12:31:27.699293', 'mgs': 0, 'volt': 0.9521, 'depth': 2.377, 'time': 39, 'pitch': -0.02, 'roll': -0.38, 'pres': 195}
{'lipoC2': 7.49, 'lipoC3S1': 4.12, 'temp': 30.75, 'lipoC3S3': 12.46, 'lipoC3S2': 8.24, 'rot1': 0, 'rot0': 0, 'rot3': 38, 'rot2': 35, 'state': 'normal', 'yaw': -12.52, 'datetime': '2018-10-09 12:31:27.804441', 'mgs': 0, 'volt': 0.9473, 'depth': 2.301, 'time': 39, 'pitch': -1.34, 'roll': -0.27, 'pres': 194}
{'lipoC2': 7.49, 'lipoC3S1': 4.12, 'temp': 30.75, 'lipoC3S3': 12.46, 'lipoC3S2': 8.24, 'rot1': 0, 'rot0': 0, 'rot3': 38, 'rot2': 35, 'state': 'normal', 'yaw': -13.85, 'datetime': '2018-10-09 12:31:27.909565', 'mgs': 0, 'volt': 0.9521, 'depth': 2.377, 'time': 39, 'pitch': -2.95, 'roll': 0.47, 'pres': 195}
{'lipoC2': 7.49, 'lipoC3S1': 4.12, 'temp': 30.75, 'lipoC3S3': 12.46, 'lipoC3S2': 8.23, 'rot1': 0, 'rot0': 0, 'rot3': 38, 'rot2': 35, 'state': 'normal', 'yaw': -15.14, 'datetime': '2018-10-09 12:31:28.012930', 'mgs': 0, 'volt': 0.9521, 'depth': 2.377, 'time': 39, 'pitch': -4.47, 'roll': 1.2, 'pres': 195}
{'lipoC2': 7.49, 'lipoC3S1': 4.12, 'temp': 30.75, 'lipoC3S3': 12.46, 'lipoC3S2': 8.24, 'rot1': 0, 'rot0': 0, 'rot3': 38, 'rot2': 35, 'state': 'normal', 'yaw': -16.33, 'datetime': '2018-10-09 12:31:28.116397', 'mgs': 0, 'volt': 0.9521, 'depth': 2.377, 'time': 39, 'pitch': -5.5, 'roll': 1.66, 'pres': 195}
{'lipoC2': 7.49, 'lipoC3S1': 4.12, 'temp': 30.75, 'lipoC3S3': 12.46, 'lipoC3S2': 8.23, 'rot1': 0, 'rot0': 0, 'rot3': 38, 'rot2': 35, 'state': 'normal', 'yaw': -17.55, 'datetime': '2018-10-09 12:31:28.213784', 'mgs': 0, 'volt': 0.9521, 'depth': 2.377, 'time': 40, 'pitch': -5.85, 'roll': 1.74, 'pres': 195}
{'lipoC2': 7.49, 'lipoC3S1': 4.12, 'temp': 30.75, 'lipoC3S3': 12.46, 'lipoC3S2': 8.24, 'rot1': 0, 'rot0': 0, 'rot3': 38, 'rot2': 35, 'state': 'normal', 'yaw': -18.58, 'datetime': '2018-10-09 12:31:28.323021', 'mgs': 0, 'volt': 0.957, 'depth': 2.454, 'time': 40, 'pitch': -5.69, 'roll': 1.51, 'pres': 196}
{'lipoC2': 7.49, 'lipoC3S1': 4.12, 'temp': 30.75, 'lipoC3S3': 12.46, 'lipoC3S2': 8.24, 'rot1': 0, 'rot0': 0, 'rot3': 38, 'rot2': 35, 'state': 'normal', 'yaw': -19.56, 'datetime': '2018-10-09 12:31:28.426745', 'mgs': 0, 'volt': 0.957, 'depth': 2.454, 'time': 40, 'pitch': -5.22, 'roll': 1.08, 'pres': 196}
{'lipoC2': 7.49, 'lipoC3S1': 4.12, 'temp': 30.75, 'lipoC3S3': 12.46, 'lipoC3S2': 8.23, 'rot1': 0, 'rot0': 0, 'rot3': 38, 'rot2': 35, 'state': 'normal', 'yaw': -20.58, 'datetime': '2018-10-09 12:31:28.530233', 'mgs': 0, 'volt': 0.957, 'depth': 2.454, 'time': 40, 'pitch': -4.57, 'roll': 0.46, 'pres': 196}
{'lipoC2': 7.49, 'lipoC3S1': 4.12, 'temp': 30.75, 'lipoC3S3': 12.46, 'lipoC3S2': 8.24, 'rot1': 0, 'rot0': 0, 'rot3': 38, 'rot2': 35, 'state': 'normal', 'yaw': -21.45, 'datetime': '2018-10-09 12:31:28.634811', 'mgs': 0, 'volt': 0.9619, 'depth': 2.53, 'time': 40, 'pitch': -3.91, 'roll': -0.18, 'pres': 197}
{'lipoC2': 7.49, 'lipoC3S1': 4.12, 'temp': 30.75, 'lipoC3S3': 12.46, 'lipoC3S2': 8.23, 'rot1': 0, 'rot0': 0, 'rot3': 38, 'rot2': 35, 'state': 'normal', 'yaw': -22.37, 'datetime': '2018-10-09 12:31:28.738403', 'mgs': 0, 'volt': 0.9619, 'depth': 2.53, 'time': 40, 'pitch': -3.09, 'roll': -0.9, 'pres': 197}
{'lipoC2': 7.49, 'lipoC3S1': 4.12, 'temp': 30.75, 'lipoC3S3': 12.46, 'lipoC3S2': 8.24, 'rot1': 0, 'rot0': 0, 'rot3': 38, 'rot2': 35, 'state': 'normal', 'yaw': -23.17, 'datetime': '2018-10-09 12:31:28.841558', 'mgs': 0, 'volt': 0.9619, 'depth': 2.53, 'time': 40, 'pitch': -2.24, 'roll': -1.54, 'pres': 197}
{'lipoC2': 7.49, 'lipoC3S1': 4.12, 'temp': 30.75, 'lipoC3S3': 12.46, 'lipoC3S2': 8.23, 'rot1': 0, 'rot0': 0, 'rot3': 38, 'rot2': 35, 'state': 'normal', 'yaw': -23.94, 'datetime': '2018-10-09 12:31:28.946241', 'mgs': 0, 'volt': 0.9668, 'depth': 2.606, 'time': 40, 'pitch': -1.3, 'roll': -2.17, 'pres': 198}
{'lipoC2': 7.49, 'lipoC3S1': 4.12, 'temp': 30.75, 'lipoC3S3': 12.46, 'lipoC3S2': 8.23, 'rot1': 0, 'rot0': 0, 'rot3': 38, 'rot2': 35, 'state': 'normal', 'yaw': -24.77, 'datetime': '2018-10-09 12:31:29.049567', 'mgs': 0, 'volt': 0.9668, 'depth': 2.606, 'time': 40, 'pitch': -0.27, 'roll': -2.83, 'pres': 198}
{'lipoC2': 7.49, 'lipoC3S1': 4.12, 'temp': 30.75, 'lipoC3S3': 12.46, 'lipoC3S2': 8.23, 'rot1': 0, 'rot0': 0, 'rot3': 38, 'rot2': 35, 'state': 'normal', 'yaw': -25.51, 'datetime': '2018-10-09 12:31:29.153183', 'mgs': 0, 'volt': 0.9668, 'depth': 2.606, 'time': 41, 'pitch': 0.56, 'roll': -3.36, 'pres': 198}
{'lipoC2': 7.49, 'lipoC3S1': 4.12, 'temp': 30.75, 'lipoC3S3': 12.46, 'lipoC3S2': 8.24, 'rot1': 0, 'rot0': 0, 'rot3': 38, 'rot2': 35, 'state': 'normal', 'yaw': -26.24, 'datetime': '2018-10-09 12:31:29.256300', 'mgs': 0, 'volt': 0.9668, 'depth': 2.606, 'time': 41, 'pitch': 1.24, 'roll': -3.78, 'pres': 198}
{'lipoC2': 7.49, 'lipoC3S1': 4.12, 'temp': 30.75, 'lipoC3S3': 12.46, 'lipoC3S2': 8.24, 'rot1': 0, 'rot0': 0, 'rot3': 38, 'rot2': 35, 'state': 'normal', 'yaw': -27.01, 'datetime': '2018-10-09 12:31:29.359730', 'mgs': 0, 'volt': 0.9668, 'depth': 2.606, 'time': 41, 'pitch': 1.74, 'roll': -4.05, 'pres': 198}
{'lipoC2': 7.49, 'lipoC3S1': 4.12, 'temp': 30.75, 'lipoC3S3': 12.46, 'lipoC3S2': 8.23, 'rot1': 0, 'rot0': 0, 'rot3': 38, 'rot2': 35, 'state': 'normal', 'yaw': -27.69, 'datetime': '2018-10-09 12:31:29.462942', 'mgs': 0, 'volt': 0.9668, 'depth': 2.606, 'time': 41, 'pitch': 1.95, 'roll': -4.09, 'pres': 198}
{'lipoC2': 7.49, 'lipoC3S1': 4.12, 'temp': 30.69, 'lipoC3S3': 12.46, 'lipoC3S2': 8.24, 'rot1': 0, 'rot0': 0, 'rot3': 38, 'rot2': 35, 'state': 'normal', 'yaw': -28.34, 'datetime': '2018-10-09 12:31:29.566450', 'mgs': 0, 'volt': 0.9668, 'depth': 2.606, 'time': 41, 'pitch': 1.94, 'roll': -3.95, 'pres': 198}
{'lipoC2': 7.49, 'lipoC3S1': 4.12, 'temp': 30.69, 'lipoC3S3': 12.46, 'lipoC3S2': 8.23, 'rot1': 0, 'rot0': 0, 'rot3': 38, 'rot2': 35, 'state': 'normal', 'yaw': -29.01, 'datetime': '2018-10-09 12:31:29.669828', 'mgs': 0, 'volt': 0.9668, 'depth': 2.606, 'time': 41, 'pitch': 1.76, 'roll': -3.66, 'pres': 198}
{'lipoC2': 7.49, 'lipoC3S1': 4.12, 'temp': 30.75, 'lipoC3S3': 12.46, 'lipoC3S2': 8.23, 'rot1': 0, 'rot0': 0, 'rot3': 38, 'rot2': 35, 'state': 'normal', 'yaw': -29.59, 'datetime': '2018-10-09 12:31:29.773183', 'mgs': 0, 'volt': 0.9668, 'depth': 2.606, 'time': 41, 'pitch': 1.44, 'roll': -3.27, 'pres': 198}
{'lipoC2': 7.49, 'lipoC3S1': 4.12, 'temp': 30.75, 'lipoC3S3': 12.46, 'lipoC3S2': 8.24, 'rot1': 0, 'rot0': 0, 'rot3': 38, 'rot2': 35, 'state': 'normal', 'yaw': -30.15, 'datetime': '2018-10-09 12:31:29.876574', 'mgs': 0, 'volt': 0.9668, 'depth': 2.606, 'time': 41, 'pitch': 1.0, 'roll': -2.77, 'pres': 198}
{'lipoC2': 7.49, 'lipoC3S1': 4.12, 'temp': 30.75, 'lipoC3S3': 12.46, 'lipoC3S2': 8.24, 'rot1': 0, 'rot0': 0, 'rot3': 38, 'rot2': 35, 'state': 'normal', 'yaw': -30.75, 'datetime': '2018-10-09 12:31:29.980077', 'mgs': 0, 'volt': 0.9668, 'depth': 2.606, 'time': 41, 'pitch': 0.37, 'roll': -2.16, 'pres': 198}
{'lipoC2': 7.49, 'lipoC3S1': 4.12, 'temp': 30.75, 'lipoC3S3': 12.46, 'lipoC3S2': 8.23, 'rot1': 0, 'rot0': 0, 'rot3': 38, 'rot2': 35, 'state': 'normal', 'yaw': -31.28, 'datetime': '2018-10-09 12:31:30.083367', 'mgs': 0, 'volt': 0.9717, 'depth': 2.682, 'time': 41, 'pitch': -0.28, 'roll': -1.57, 'pres': 199}
{'lipoC2': 7.49, 'lipoC3S1': 4.12, 'temp': 30.75, 'lipoC3S3': 12.46, 'lipoC3S2': 8.23, 'rot1': 0, 'rot0': 0, 'rot3': 38, 'rot2': 35, 'state': 'normal', 'yaw': -31.8, 'datetime': '2018-10-09 12:31:30.188031', 'mgs': 0, 'volt': 0.9668, 'depth': 2.606, 'time': 42, 'pitch': -0.93, 'roll': -1.01, 'pres': 198}
{'lipoC2': 7.49, 'lipoC3S1': 4.12, 'temp': 30.75, 'lipoC3S3': 12.46, 'lipoC3S2': 8.23, 'rot1': 0, 'rot0': 0, 'rot3': 38, 'rot2': 35, 'state': 'normal', 'yaw': -32.37, 'datetime': '2018-10-09 12:31:30.291615', 'mgs': 0, 'volt': 0.9668, 'depth': 2.606, 'time': 42, 'pitch': -1.5, 'roll': -0.52, 'pres': 198}
{'lipoC2': 7.49, 'lipoC3S1': 4.12, 'temp': 30.75, 'lipoC3S3': 12.46, 'lipoC3S2': 8.23, 'rot1': 0, 'rot0': 0, 'rot3': 38, 'rot2': 35, 'state': 'normal', 'yaw': -32.86, 'datetime': '2018-10-09 12:31:30.394805', 'mgs': 0, 'volt': 0.9668, 'depth': 2.606, 'time': 42, 'pitch': -1.83, 'roll': -0.24, 'pres': 198}
{'lipoC2': 7.49, 'lipoC3S1': 4.12, 'temp': 30.75, 'lipoC3S3': 12.46, 'lipoC3S2': 8.24, 'rot1': 0, 'rot0': 0, 'rot3': 38, 'rot2': 35, 'state': 'normal', 'yaw': -33.35, 'datetime': '2018-10-09 12:31:30.499500', 'mgs': 0, 'volt': 0.9668, 'depth': 2.606, 'time': 42, 'pitch': -1.98, 'roll': -0.09, 'pres': 198}
{'lipoC2': 7.49, 'lipoC3S1': 4.12, 'temp': 30.75, 'lipoC3S3': 12.46, 'lipoC3S2': 8.24, 'rot1': 0, 'rot0': 0, 'rot3': 38, 'rot2': 35, 'state': 'normal', 'yaw': -33.88, 'datetime': '2018-10-09 12:31:30.602811', 'mgs': 0, 'volt': 0.9668, 'depth': 2.606, 'time': 42, 'pitch': -2.0, 'roll': -0.05, 'pres': 198}
{'lipoC2': 7.49, 'lipoC3S1': 4.12, 'temp': 30.75, 'lipoC3S3': 12.46, 'lipoC3S2': 8.23, 'rot1': 0, 'rot0': 0, 'rot3': 38, 'rot2': 35, 'state': 'normal', 'yaw': -34.35, 'datetime': '2018-10-09 12:31:30.706261', 'mgs': 0, 'volt': 0.9668, 'depth': 2.606, 'time': 42, 'pitch': -2.08, 'roll': 0.02, 'pres': 198}
{'lipoC2': 7.49, 'lipoC3S1': 4.12, 'temp': 30.75, 'lipoC3S3': 12.46, 'lipoC3S2': 8.24, 'rot1': 0, 'rot0': 0, 'rot3': 38, 'rot2': 35, 'state': 'normal', 'yaw': -34.81, 'datetime': '2018-10-09 12:31:30.809553', 'mgs': 0, 'volt': 0.9619, 'depth': 2.53, 'time': 42, 'pitch': -2.07, 'roll': 0.07, 'pres': 197}
{'lipoC2': 7.49, 'lipoC3S1': 4.12, 'temp': 30.75, 'lipoC3S3': 12.46, 'lipoC3S2': 8.23, 'rot1': 0, 'rot0': 0, 'rot3': 38, 'rot2': 35, 'state': 'normal', 'yaw': -35.29, 'datetime': '2018-10-09 12:31:30.912996', 'mgs': 0, 'volt': 0.9668, 'depth': 2.606, 'time': 42, 'pitch': -1.98, 'roll': -0.02, 'pres': 198}
{'lipoC2': 7.49, 'lipoC3S1': 4.12, 'temp': 30.75, 'lipoC3S3': 12.46, 'lipoC3S2': 8.24, 'rot1': 0, 'rot0': 0, 'rot3': 38, 'rot2': 35, 'state': 'normal', 'yaw': -35.71, 'datetime': '2018-10-09 12:31:31.016343', 'mgs': 0, 'volt': 0.9619, 'depth': 2.53, 'time': 42, 'pitch': -1.84, 'roll': -0.3, 'pres': 197}
{'lipoC2': 7.49, 'lipoC3S1': 4.12, 'temp': 30.75, 'lipoC3S3': 12.46, 'lipoC3S2': 8.24, 'rot1': 0, 'rot0': 0, 'rot3': 38, 'rot2': 35, 'state': 'normal', 'yaw': -36.14, 'datetime': '2018-10-09 12:31:31.119675', 'mgs': 0, 'volt': 0.9619, 'depth': 2.53, 'time': 42, 'pitch': -1.61, 'roll': -0.72, 'pres': 197}
{'lipoC2': 7.49, 'lipoC3S1': 4.12, 'temp': 30.69, 'lipoC3S3': 12.46, 'lipoC3S2': 8.23, 'rot1': 0, 'rot0': 0, 'rot3': 38, 'rot2': 35, 'state': 'normal', 'yaw': -36.62, 'datetime': '2018-10-09 12:31:31.223086', 'mgs': 0, 'volt': 0.9619, 'depth': 2.53, 'time': 43, 'pitch': -1.29, 'roll': -1.29, 'pres': 197}
{'lipoC2': 7.49, 'lipoC3S1': 4.12, 'temp': 30.69, 'lipoC3S3': 12.46, 'lipoC3S2': 8.24, 'rot1': 0, 'rot0': 0, 'rot3': 38, 'rot2': 35, 'state': 'normal', 'yaw': -37.06, 'datetime': '2018-10-09 12:31:31.326495', 'mgs': 0, 'volt': 0.9619, 'depth': 2.53, 'time': 43, 'pitch': -1.01, 'roll': -1.81, 'pres': 197}
{'lipoC2': 7.49, 'lipoC3S1': 4.12, 'temp': 30.75, 'lipoC3S3': 12.46, 'lipoC3S2': 8.24, 'rot1': 0, 'rot0': 0, 'rot3': 38, 'rot2': 35, 'state': 'normal', 'yaw': -37.49, 'datetime': '2018-10-09 12:31:31.429885', 'mgs': 0, 'volt': 0.9668, 'depth': 2.606, 'time': 43, 'pitch': -0.78, 'roll': -2.23, 'pres': 198}
{'lipoC2': 7.49, 'lipoC3S1': 4.12, 'temp': 30.75, 'lipoC3S3': 12.46, 'lipoC3S2': 8.24, 'rot1': 0, 'rot0': 0, 'rot3': 38, 'rot2': 35, 'state': 'normal', 'yaw': -37.97, 'datetime': '2018-10-09 12:31:31.533176', 'mgs': 0, 'volt': 0.9619, 'depth': 2.53, 'time': 43, 'pitch': -0.56, 'roll': -2.55, 'pres': 197}
{'lipoC2': 7.49, 'lipoC3S1': 4.12, 'temp': 30.75, 'lipoC3S3': 12.46, 'lipoC3S2': 8.24, 'rot1': 0, 'rot0': 0, 'rot3': 38, 'rot2': 35, 'state': 'normal', 'yaw': -38.39, 'datetime': '2018-10-09 12:31:31.636546', 'mgs': 0, 'volt': 0.9619, 'depth': 2.53, 'time': 43, 'pitch': -0.32, 'roll': -2.74, 'pres': 197}
{'lipoC2': 7.49, 'lipoC3S1': 4.12, 'temp': 30.75, 'lipoC3S3': 12.46, 'lipoC3S2': 8.23, 'rot1': 0, 'rot0': 0, 'rot3': 38, 'rot2': 35, 'state': 'normal', 'yaw': -38.8, 'datetime': '2018-10-09 12:31:31.741430', 'mgs': 0, 'volt': 0.9619, 'depth': 2.53, 'time': 43, 'pitch': -0.05, 'roll': -2.85, 'pres': 197}
{'lipoC2': 7.49, 'lipoC3S1': 4.12, 'temp': 30.75, 'lipoC3S3': 12.46, 'lipoC3S2': 8.24, 'rot1': 0, 'rot0': 0, 'rot3': 38, 'rot2': 35, 'state': 'normal', 'yaw': -39.26, 'datetime': '2018-10-09 12:31:31.844595', 'mgs': 0, 'volt': 0.9619, 'depth': 2.53, 'time': 43, 'pitch': 0.22, 'roll': -2.88, 'pres': 197}
{'lipoC2': 7.49, 'lipoC3S1': 4.12, 'temp': 30.81, 'lipoC3S3': 12.46, 'lipoC3S2': 8.24, 'rot1': 0, 'rot0': 0, 'rot3': 38, 'rot2': 35, 'state': 'normal', 'yaw': -39.67, 'datetime': '2018-10-09 12:31:31.947958', 'mgs': 0, 'volt': 0.957, 'depth': 2.454, 'time': 43, 'pitch': 0.38, 'roll': -2.9, 'pres': 196}
