{'lipoC2': 7.29, 'lipoC3S1': 3.83, 'temp': 26.94, 'lipoC3S3': 11.58, 'lipoC3S2': 7.66, 'rot1': 238, 'rot0': 237, 'rot3': 162, 'rot2': 149, 'state': 'normal', 'yaw': 30.11, 'datetime': '2018-10-09 20:19:11.336394', 'mgs': 0, 'volt': 0.8789, 'depth': 1.233, 'time': 79, 'pitch': 5.51, 'roll': 2.35, 'pres': 180}
{'lipoC2': 7.29, 'lipoC3S1': 3.83, 'temp': 26.94, 'lipoC3S3': 11.58, 'lipoC3S2': 7.66, 'rot1': 238, 'rot0': 237, 'rot3': 162, 'rot2': 149, 'state': 'normal', 'yaw': 29.92, 'datetime': '2018-10-09 20:19:14.364806', 'mgs': 0, 'volt': 0.8789, 'depth': 1.233, 'time': 79, 'pitch': 5.58, 'roll': 2.99, 'pres': 180}
{'lipoC2': 7.29, 'lipoC3S1': 3.83, 'temp': 26.94, 'lipoC3S3': 11.58, 'lipoC3S2': 7.66, 'rot1': 238, 'rot0': 237, 'rot3': 162, 'rot2': 149, 'state': 'normal', 'yaw': 29.71, 'datetime': '2018-10-09 20:19:14.397418', 'mgs': 0, 'volt': 0.8838, 'depth': 1.309, 'time': 79, 'pitch': 6.12, 'roll': 3.47, 'pres': 181}
{'lipoC2': 7.29, 'lipoC3S1': 3.83, 'temp': 26.94, 'lipoC3S3': 11.58, 'lipoC3S2': 7.66, 'rot1': 238, 'rot0': 237, 'rot3': 162, 'rot2': 149, 'state': 'normal', 'yaw': 29.71, 'datetime': '2018-10-09 20:19:14.431578', 'mgs': 0, 'volt': 0.8887, 'depth': 1.385, 'time': 80, 'pitch': 6.97, 'roll': 3.59, 'pres': 182}
{'lipoC2': 7.29, 'lipoC3S1': 3.83, 'temp': 26.94, 'lipoC3S3': 11.58, 'lipoC3S2': 7.66, 'rot1': 238, 'rot0': 237, 'rot3': 162, 'rot2': 149, 'state': 'normal', 'yaw': 29.76, 'datetime': '2018-10-09 20:19:14.451697', 'mgs': 0, 'volt': 0.8887, 'depth': 1.385, 'time': 80, 'pitch': 7.68, 'roll': 3.39, 'pres': 182}
{'lipoC2': 7.29, 'lipoC3S1': 3.83, 'temp': 26.81, 'lipoC3S3': 11.58, 'lipoC3S2': 7.66, 'rot1': 238, 'rot0': 237, 'rot3': 162, 'rot2': 149, 'state': 'normal', 'yaw': 29.88, 'datetime': '2018-10-09 20:19:14.467882', 'mgs': 0, 'volt': 0.8887, 'depth': 1.385, 'time': 80, 'pitch': 8.11, 'roll': 2.96, 'pres': 182}
{'lipoC2': 7.29, 'lipoC3S1': 3.83, 'temp': 26.81, 'lipoC3S3': 11.58, 'lipoC3S2': 7.66, 'rot1': 238, 'rot0': 237, 'rot3': 162, 'rot2': 149, 'state': 'normal', 'yaw': 30.09, 'datetime': '2018-10-09 20:19:14.484023', 'mgs': 0, 'volt': 0.8936, 'depth': 1.462, 'time': 80, 'pitch': 8.3, 'roll': 2.33, 'pres': 183}
{'lipoC2': 7.29, 'lipoC3S1': 3.83, 'temp': 26.81, 'lipoC3S3': 11.58, 'lipoC3S2': 7.66, 'rot1': 238, 'rot0': 237, 'rot3': 162, 'rot2': 149, 'state': 'normal', 'yaw': 30.28, 'datetime': '2018-10-09 20:19:14.500212', 'mgs': 0, 'volt': 0.8936, 'depth': 1.462, 'time': 80, 'pitch': 8.38, 'roll': 1.8, 'pres': 183}
{'lipoC2': 7.29, 'lipoC3S1': 3.83, 'temp': 27.0, 'lipoC3S3': 11.58, 'lipoC3S2': 7.66, 'rot1': 238, 'rot0': 237, 'rot3': 162, 'rot2': 149, 'state': 'normal', 'yaw': 30.38, 'datetime': '2018-10-09 20:19:14.516389', 'mgs': 0, 'volt': 0.8936, 'depth': 1.462, 'time': 80, 'pitch': 8.59, 'roll': 1.35, 'pres': 183}
{'lipoC2': 7.29, 'lipoC3S1': 3.83, 'temp': 27.0, 'lipoC3S3': 11.58, 'lipoC3S2': 7.66, 'rot1': 238, 'rot0': 237, 'rot3': 162, 'rot2': 149, 'state': 'normal', 'yaw': 30.37, 'datetime': '2018-10-09 20:19:14.532550', 'mgs': 0, 'volt': 0.8984, 'depth': 1.538, 'time': 80, 'pitch': 8.85, 'roll': 1.08, 'pres': 184}
{'lipoC2': 7.29, 'lipoC3S1': 3.83, 'temp': 26.94, 'lipoC3S3': 11.56, 'lipoC3S2': 7.66, 'rot1': 238, 'rot0': 237, 'rot3': 162, 'rot2': 149, 'state': 'normal', 'yaw': 30.28, 'datetime': '2018-10-09 20:19:14.548781', 'mgs': 0, 'volt': 0.8984, 'depth': 1.538, 'time': 80, 'pitch': 8.99, 'roll': 0.92, 'pres': 184}
{'lipoC2': 7.29, 'lipoC3S1': 3.83, 'temp': 26.94, 'lipoC3S3': 11.58, 'lipoC3S2': 7.66, 'rot1': 238, 'rot0': 237, 'rot3': 162, 'rot2': 149, 'state': 'normal', 'yaw': 30.22, 'datetime': '2018-10-09 20:19:14.564931', 'mgs': 0, 'volt': 0.8984, 'depth': 1.538, 'time': 80, 'pitch': 8.99, 'roll': 0.85, 'pres': 184}
{'lipoC2': 7.29, 'lipoC3S1': 3.83, 'temp': 26.88, 'lipoC3S3': 11.56, 'lipoC3S2': 7.66, 'rot1': 238, 'rot0': 237, 'rot3': 162, 'rot2': 149, 'state': 'normal', 'yaw': 30.2, 'datetime': '2018-10-09 20:19:14.581193', 'mgs': 0, 'volt': 0.9033, 'depth': 1.614, 'time': 81, 'pitch': 8.99, 'roll': 0.85, 'pres': 185}
{'lipoC2': 7.29, 'lipoC3S1': 3.83, 'temp': 26.88, 'lipoC3S3': 11.56, 'lipoC3S2': 7.66, 'rot1': 238, 'rot0': 237, 'rot3': 162, 'rot2': 149, 'state': 'normal', 'yaw': 30.2, 'datetime': '2018-10-09 20:19:14.597455', 'mgs': 0, 'volt': 0.9033, 'depth': 1.614, 'time': 81, 'pitch': 9.0, 'roll': 0.85, 'pres': 185}
{'lipoC2': 7.29, 'lipoC3S1': 3.83, 'temp': 26.88, 'lipoC3S3': 11.56, 'lipoC3S2': 7.66, 'rot1': 238, 'rot0': 237, 'rot3': 162, 'rot2': 149, 'state': 'normal', 'yaw': 30.22, 'datetime': '2018-10-09 20:19:14.613840', 'mgs': 0, 'volt': 0.9033, 'depth': 1.614, 'time': 81, 'pitch': 9.11, 'roll': 0.85, 'pres': 185}
{'lipoC2': 7.29, 'lipoC3S1': 3.83, 'temp': 27.0, 'lipoC3S3': 11.56, 'lipoC3S2': 7.66, 'rot1': 238, 'rot0': 237, 'rot3': 162, 'rot2': 149, 'state': 'normal', 'yaw': 30.35, 'datetime': '2018-10-09 20:19:14.629989', 'mgs': 0, 'volt': 0.9033, 'depth': 1.614, 'time': 81, 'pitch': 9.26, 'roll': 0.87, 'pres': 185}
{'lipoC2': 7.29, 'lipoC3S1': 3.83, 'temp': 27.0, 'lipoC3S3': 11.56, 'lipoC3S2': 7.66, 'rot1': 238, 'rot0': 237, 'rot3': 162, 'rot2': 149, 'state': 'normal', 'yaw': 30.54, 'datetime': '2018-10-09 20:19:14.646218', 'mgs': 0, 'volt': 0.9033, 'depth': 1.614, 'time': 81, 'pitch': 9.33, 'roll': 0.91, 'pres': 185}
{'lipoC2': 7.29, 'lipoC3S1': 3.83, 'temp': 27.0, 'lipoC3S3': 11.56, 'lipoC3S2': 7.66, 'rot1': 238, 'rot0': 237, 'rot3': 162, 'rot2': 149, 'state': 'normal', 'yaw': 30.76, 'datetime': '2018-10-09 20:19:14.662416', 'mgs': 0, 'volt': 0.9033, 'depth': 1.614, 'time': 81, 'pitch': 9.26, 'roll': 0.97, 'pres': 185}
{'lipoC2': 7.29, 'lipoC3S1': 3.83, 'temp': 27.0, 'lipoC3S3': 11.56, 'lipoC3S2': 7.66, 'rot1': 238, 'rot0': 237, 'rot3': 162, 'rot2': 149, 'state': 'normal', 'yaw': 31.02, 'datetime': '2018-10-09 20:19:14.678589', 'mgs': 0, 'volt': 0.9033, 'depth': 1.614, 'time': 81, 'pitch': 9.07, 'roll': 1.13, 'pres': 185}
{'lipoC2': 7.29, 'lipoC3S1': 3.83, 'temp': 26.94, 'lipoC3S3': 11.56, 'lipoC3S2': 7.66, 'rot1': 0, 'rot0': 0, 'rot3': 0, 'rot2': 0, 'state': 'normal', 'yaw': -0.01, 'datetime': '2018-10-09 20:19:14.694405', 'mgs': 0, 'volt': 0.9131, 'depth': 1.767, 'time': 1, 'pitch': -1.35, 'roll': 0.09, 'pres': 187}
{'lipoC2': 7.29, 'lipoC3S1': 3.83, 'temp': 26.94, 'lipoC3S3': 11.56, 'lipoC3S2': 7.66, 'rot1': 0, 'rot0': 0, 'rot3': 0, 'rot2': 0, 'state': 'normal', 'yaw': -0.02, 'datetime': '2018-10-09 20:19:14.710268', 'mgs': 0, 'volt': 0.9131, 'depth': 1.767, 'time': 1, 'pitch': -1.94, 'roll': -0.14, 'pres': 187}
{'lipoC2': 7.29, 'lipoC3S1': 3.83, 'temp': 26.88, 'lipoC3S3': 11.58, 'lipoC3S2': 7.66, 'rot1': 0, 'rot0': 0, 'rot3': 0, 'rot2': 0, 'state': 'normal', 'yaw': -0.03, 'datetime': '2018-10-09 20:19:14.726083', 'mgs': 0, 'volt': 0.9131, 'depth': 1.767, 'time': 1, 'pitch': -2.39, 'roll': -0.37, 'pres': 187}
{'lipoC2': 7.29, 'lipoC3S1': 3.83, 'temp': 26.88, 'lipoC3S3': 11.58, 'lipoC3S2': 7.66, 'rot1': 0, 'rot0': 0, 'rot3': 0, 'rot2': 0, 'state': 'normal', 'yaw': -0.02, 'datetime': '2018-10-09 20:19:14.742384', 'mgs': 0, 'volt': 0.9131, 'depth': 1.767, 'time': 1, 'pitch': -2.74, 'roll': -0.57, 'pres': 187}
{'lipoC2': 7.29, 'lipoC3S1': 3.83, 'temp': 26.88, 'lipoC3S3': 11.58, 'lipoC3S2': 7.66, 'rot1': 0, 'rot0': 0, 'rot3': 0, 'rot2': 0, 'state': 'normal', 'yaw': -0.02, 'datetime': '2018-10-09 20:19:14.759040', 'mgs': 0, 'volt': 0.9131, 'depth': 1.767, 'time': 1, 'pitch': -3.05, 'roll': -0.78, 'pres': 187}
{'lipoC2': 7.29, 'lipoC3S1': 3.83, 'temp': 27.0, 'lipoC3S3': 11.58, 'lipoC3S2': 7.66, 'rot1': 0, 'rot0': 0, 'rot3': 0, 'rot2': 0, 'state': 'normal', 'yaw': -0.02, 'datetime': '2018-10-09 20:19:14.774542', 'mgs': 0, 'volt': 0.9131, 'depth': 1.767, 'time': 1, 'pitch': -3.27, 'roll': -0.93, 'pres': 187}
{'lipoC2': 7.29, 'lipoC3S1': 3.83, 'temp': 27.0, 'lipoC3S3': 11.58, 'lipoC3S2': 7.66, 'rot1': 0, 'rot0': 0, 'rot3': 0, 'rot2': 0, 'state': 'normal', 'yaw': -0.02, 'datetime': '2018-10-09 20:19:14.789857', 'mgs': 0, 'volt': 0.9131, 'depth': 1.767, 'time': 1, 'pitch': -3.38, 'roll': -1.06, 'pres': 187}
{'lipoC2': 7.29, 'lipoC3S1': 3.83, 'temp': 27.0, 'lipoC3S3': 11.56, 'lipoC3S2': 7.66, 'rot1': 0, 'rot0': 0, 'rot3': 0, 'rot2': 0, 'state': 'normal', 'yaw': -0.02, 'datetime': '2018-10-09 20:19:14.805542', 'mgs': 0, 'volt': 0.9131, 'depth': 1.767, 'time': 1, 'pitch': -3.46, 'roll': -1.1, 'pres': 187}
{'lipoC2': 7.29, 'lipoC3S1': 3.83, 'temp': 27.0, 'lipoC3S3': 11.58, 'lipoC3S2': 7.66, 'rot1': 0, 'rot0': 0, 'rot3': 0, 'rot2': 0, 'state': 'normal', 'yaw': -0.02, 'datetime': '2018-10-09 20:19:14.822243', 'mgs': 0, 'volt': 0.9131, 'depth': 1.767, 'time': 2, 'pitch': -3.53, 'roll': -1.13, 'pres': 187}
{'lipoC2': 7.29, 'lipoC3S1': 3.83, 'temp': 26.94, 'lipoC3S3': 11.56, 'lipoC3S2': 7.66, 'rot1': 0, 'rot0': 0, 'rot3': 0, 'rot2': 0, 'state': 'normal', 'yaw': -0.0, 'datetime': '2018-10-09 20:19:14.837913', 'mgs': 0, 'volt': 0.9131, 'depth': 1.767, 'time': 2, 'pitch': -3.58, 'roll': -1.17, 'pres': 187}
{'lipoC2': 7.29, 'lipoC3S1': 3.83, 'temp': 26.94, 'lipoC3S3': 11.56, 'lipoC3S2': 7.66, 'rot1': 0, 'rot0': 0, 'rot3': 0, 'rot2': 0, 'state': 'normal', 'yaw': 0.07, 'datetime': '2018-10-09 20:19:14.853293', 'mgs': 0, 'volt': 0.9131, 'depth': 1.767, 'time': 2, 'pitch': -3.63, 'roll': -1.2, 'pres': 187}
{'lipoC2': 7.29, 'lipoC3S1': 3.83, 'temp': 26.94, 'lipoC3S3': 11.56, 'lipoC3S2': 7.66, 'rot1': 0, 'rot0': 0, 'rot3': 0, 'rot2': 0, 'state': 'normal', 'yaw': 0.19, 'datetime': '2018-10-09 20:19:14.868640', 'mgs': 0, 'volt': 0.9131, 'depth': 1.767, 'time': 2, 'pitch': -3.75, 'roll': -1.22, 'pres': 187}
{'lipoC2': 7.29, 'lipoC3S1': 3.83, 'temp': 26.94, 'lipoC3S3': 11.58, 'lipoC3S2': 7.66, 'rot1': 0, 'rot0': 0, 'rot3': 0, 'rot2': 0, 'state': 'normal', 'yaw': 0.31, 'datetime': '2018-10-09 20:19:14.883966', 'mgs': 0, 'volt': 0.9082, 'depth': 1.691, 'time': 2, 'pitch': -3.85, 'roll': -1.23, 'pres': 186}
{'lipoC2': 7.29, 'lipoC3S1': 3.83, 'temp': 26.94, 'lipoC3S3': 11.58, 'lipoC3S2': 7.66, 'rot1': 0, 'rot0': 0, 'rot3': 0, 'rot2': 0, 'state': 'normal', 'yaw': 0.42, 'datetime': '2018-10-09 20:19:14.899268', 'mgs': 0, 'volt': 0.9131, 'depth': 1.767, 'time': 2, 'pitch': -3.85, 'roll': -1.17, 'pres': 187}
{'lipoC2': 7.29, 'lipoC3S1': 3.83, 'temp': 27.06, 'lipoC3S3': 11.58, 'lipoC3S2': 7.66, 'rot1': 0, 'rot0': 0, 'rot3': 0, 'rot2': 0, 'state': 'normal', 'yaw': 0.53, 'datetime': '2018-10-09 20:19:14.914583', 'mgs': 0, 'volt': 0.9131, 'depth': 1.767, 'time': 2, 'pitch': -3.81, 'roll': -1.07, 'pres': 187}
{'lipoC2': 7.29, 'lipoC3S1': 3.83, 'temp': 27.06, 'lipoC3S3': 11.58, 'lipoC3S2': 7.66, 'rot1': 0, 'rot0': 0, 'rot3': 0, 'rot2': 0, 'state': 'normal', 'yaw': 0.65, 'datetime': '2018-10-09 20:19:14.929871', 'mgs': 0, 'volt': 0.9082, 'depth': 1.691, 'time': 2, 'pitch': -3.74, 'roll': -0.93, 'pres': 186}
{'lipoC2': 7.29, 'lipoC3S1': 3.83, 'temp': 26.94, 'lipoC3S3': 11.58, 'lipoC3S2': 7.66, 'rot1': 0, 'rot0': 0, 'rot3': 0, 'rot2': 0, 'state': 'normal', 'yaw': 0.74, 'datetime': '2018-10-09 20:19:14.945206', 'mgs': 0, 'volt': 0.9131, 'depth': 1.767, 'time': 2, 'pitch': -3.74, 'roll': -0.79, 'pres': 187}
{'lipoC2': 7.28, 'lipoC3S1': 3.81, 'temp': 26.94, 'lipoC3S3': 11.46, 'lipoC3S2': 7.54, 'rot1': 0, 'rot0': 0, 'rot3': 0, 'rot2': 0, 'state': 'normal', 'yaw': 0.81, 'datetime': '2018-10-09 20:19:14.960489', 'mgs': 0, 'volt': 0.9082, 'depth': 1.691, 'time': 3, 'pitch': -3.77, 'roll': -0.66, 'pres': 186}
{'lipoC2': 7.28, 'lipoC3S1': 3.81, 'temp': 26.94, 'lipoC3S3': 11.48, 'lipoC3S2': 7.57, 'rot1': 0, 'rot0': 0, 'rot3': 0, 'rot2': 0, 'state': 'normal', 'yaw': 0.84, 'datetime': '2018-10-09 20:19:14.975787', 'mgs': 0, 'volt': 0.9082, 'depth': 1.691, 'time': 3, 'pitch': -3.81, 'roll': -0.53, 'pres': 186}
{'lipoC2': 7.28, 'lipoC3S1': 3.78, 'temp': 26.94, 'lipoC3S3': 11.55, 'lipoC3S2': 7.6, 'rot1': 0, 'rot0': 0, 'rot3': 1, 'rot2': 1, 'state': 'normal', 'yaw': 0.83, 'datetime': '2018-10-09 20:19:14.991073', 'mgs': 0, 'volt': 0.9082, 'depth': 1.691, 'time': 3, 'pitch': -3.69, 'roll': -0.37, 'pres': 186}
{'lipoC2': 7.28, 'lipoC3S1': 3.79, 'temp': 26.94, 'lipoC3S3': 11.54, 'lipoC3S2': 7.63, 'rot1': 0, 'rot0': 0, 'rot3': 1, 'rot2': 2, 'state': 'normal', 'yaw': 0.83, 'datetime': '2018-10-09 20:19:15.006308', 'mgs': 0, 'volt': 0.9033, 'depth': 1.614, 'time': 3, 'pitch': -3.43, 'roll': -0.26, 'pres': 185}
{'lipoC2': 7.29, 'lipoC3S1': 3.81, 'temp': 26.81, 'lipoC3S3': 11.52, 'lipoC3S2': 7.63, 'rot1': 0, 'rot0': 0, 'rot3': 2, 'rot2': 2, 'state': 'normal', 'yaw': 0.83, 'datetime': '2018-10-09 20:19:15.021608', 'mgs': 0, 'volt': 0.9229, 'depth': 1.92, 'time': 3, 'pitch': -3.07, 'roll': -0.22, 'pres': 189}
{'lipoC2': 7.28, 'lipoC3S1': 3.82, 'temp': 26.81, 'lipoC3S3': 11.46, 'lipoC3S2': 7.63, 'rot1': 0, 'rot0': 0, 'rot3': 3, 'rot2': 3, 'state': 'normal', 'yaw': 0.82, 'datetime': '2018-10-09 20:19:15.037066', 'mgs': 0, 'volt': 0.9131, 'depth': 1.767, 'time': 3, 'pitch': -2.64, 'roll': -0.21, 'pres': 187}
{'lipoC2': 7.28, 'lipoC3S1': 3.81, 'temp': 26.88, 'lipoC3S3': 11.5, 'lipoC3S2': 7.59, 'rot1': 0, 'rot0': 0, 'rot3': 3, 'rot2': 3, 'state': 'normal', 'yaw': 0.82, 'datetime': '2018-10-09 20:19:15.087012', 'mgs': 0, 'volt': 0.8984, 'depth': 1.538, 'time': 3, 'pitch': -2.25, 'roll': -0.2, 'pres': 184}
{'lipoC2': 7.28, 'lipoC3S1': 3.84, 'temp': 26.88, 'lipoC3S3': 11.51, 'lipoC3S2': 7.59, 'rot1': 1, 'rot0': 0, 'rot3': 4, 'rot2': 4, 'state': 'normal', 'yaw': 0.83, 'datetime': '2018-10-09 20:19:15.190266', 'mgs': 0, 'volt': 0.8984, 'depth': 1.538, 'time': 3, 'pitch': -1.93, 'roll': -0.19, 'pres': 184}
{'lipoC2': 7.29, 'lipoC3S1': 3.81, 'temp': 26.88, 'lipoC3S3': 11.5, 'lipoC3S2': 7.58, 'rot1': 1, 'rot0': 1, 'rot3': 5, 'rot2': 5, 'state': 'normal', 'yaw': 0.82, 'datetime': '2018-10-09 20:19:15.293734', 'mgs': 0, 'volt': 0.8936, 'depth': 1.462, 'time': 3, 'pitch': -1.59, 'roll': -0.19, 'pres': 183}
{'lipoC2': 7.29, 'lipoC3S1': 3.78, 'temp': 26.88, 'lipoC3S3': 11.51, 'lipoC3S2': 7.6, 'rot1': 1, 'rot0': 1, 'rot3': 5, 'rot2': 5, 'state': 'normal', 'yaw': 0.82, 'datetime': '2018-10-09 20:19:15.396948', 'mgs': 0, 'volt': 0.8936, 'depth': 1.462, 'time': 3, 'pitch': -1.33, 'roll': -0.26, 'pres': 183}
{'lipoC2': 7.29, 'lipoC3S1': 3.81, 'temp': 26.88, 'lipoC3S3': 11.51, 'lipoC3S2': 7.59, 'rot1': 1, 'rot0': 1, 'rot3': 6, 'rot2': 6, 'state': 'normal', 'yaw': 0.88, 'datetime': '2018-10-09 20:19:15.501407', 'mgs': 0, 'volt': 0.8887, 'depth': 1.385, 'time': 4, 'pitch': -1.09, 'roll': -0.38, 'pres': 182}
{'lipoC2': 7.29, 'lipoC3S1': 3.78, 'temp': 26.94, 'lipoC3S3': 11.55, 'lipoC3S2': 7.6, 'rot1': 2, 'rot0': 1, 'rot3': 6, 'rot2': 6, 'state': 'normal', 'yaw': 0.96, 'datetime': '2018-10-09 20:19:15.604685', 'mgs': 0, 'volt': 0.8887, 'depth': 1.385, 'time': 4, 'pitch': -0.8, 'roll': -0.56, 'pres': 182}
{'lipoC2': 7.29, 'lipoC3S1': 3.8, 'temp': 26.94, 'lipoC3S3': 11.52, 'lipoC3S2': 7.65, 'rot1': 2, 'rot0': 2, 'rot3': 7, 'rot2': 7, 'state': 'normal', 'yaw': 0.92, 'datetime': '2018-10-09 20:19:15.707887', 'mgs': 0, 'volt': 0.8691, 'depth': 1.08, 'time': 4, 'pitch': 0.18, 'roll': -0.62, 'pres': 178}
{'lipoC2': 7.29, 'lipoC3S1': 3.78, 'temp': 26.94, 'lipoC3S3': 11.54, 'lipoC3S2': 7.62, 'rot1': 2, 'rot0': 2, 'rot3': 8, 'rot2': 8, 'state': 'normal', 'yaw': 0.85, 'datetime': '2018-10-09 20:19:15.812403', 'mgs': 0, 'volt': 0.8789, 'depth': 1.233, 'time': 4, 'pitch': 0.89, 'roll': -0.62, 'pres': 180}
{'lipoC2': 7.29, 'lipoC3S1': 3.78, 'temp': 26.94, 'lipoC3S3': 11.54, 'lipoC3S2': 7.62, 'rot1': 2, 'rot0': 2, 'rot3': 8, 'rot2': 8, 'state': 'normal', 'yaw': 0.84, 'datetime': '2018-10-09 20:19:15.921053', 'mgs': 0, 'volt': 0.8789, 'depth': 1.233, 'time': 4, 'pitch': 1.1, 'roll': -0.66, 'pres': 180}
{'lipoC2': 7.29, 'lipoC3S1': 3.8, 'temp': 26.94, 'lipoC3S3': 11.54, 'lipoC3S2': 7.63, 'rot1': 3, 'rot0': 2, 'rot3': 9, 'rot2': 9, 'state': 'normal', 'yaw': 0.85, 'datetime': '2018-10-09 20:19:16.025529', 'mgs': 0, 'volt': 0.8984, 'depth': 1.538, 'time': 4, 'pitch': 1.18, 'roll': -0.71, 'pres': 184}
{'lipoC2': 7.28, 'lipoC3S1': 3.82, 'temp': 26.94, 'lipoC3S3': 11.52, 'lipoC3S2': 7.63, 'rot1': 3, 'rot0': 2, 'rot3': 9, 'rot2': 9, 'state': 'normal', 'yaw': 0.84, 'datetime': '2018-10-09 20:19:16.128831', 'mgs': 0, 'volt': 0.8838, 'depth': 1.309, 'time': 4, 'pitch': 1.62, 'roll': -0.8, 'pres': 181}
{'lipoC2': 7.28, 'lipoC3S1': 3.82, 'temp': 26.94, 'lipoC3S3': 11.52, 'lipoC3S2': 7.63, 'rot1': 3, 'rot0': 3, 'rot3': 10, 'rot2': 10, 'state': 'normal', 'yaw': 0.83, 'datetime': '2018-10-09 20:19:16.232624', 'mgs': 0, 'volt': 0.8887, 'depth': 1.385, 'time': 4, 'pitch': 1.87, 'roll': -0.89, 'pres': 182}
{'lipoC2': 7.29, 'lipoC3S1': 3.8, 'temp': 26.94, 'lipoC3S3': 11.52, 'lipoC3S2': 7.63, 'rot1': 3, 'rot0': 3, 'rot3': 11, 'rot2': 10, 'state': 'normal', 'yaw': 0.83, 'datetime': '2018-10-09 20:19:16.336186', 'mgs': 0, 'volt': 0.8936, 'depth': 1.462, 'time': 4, 'pitch': 1.92, 'roll': -0.89, 'pres': 183}
{'lipoC2': 7.29, 'lipoC3S1': 3.78, 'temp': 26.94, 'lipoC3S3': 11.54, 'lipoC3S2': 7.6, 'rot1': 4, 'rot0': 3, 'rot3': 11, 'rot2': 11, 'state': 'normal', 'yaw': 0.84, 'datetime': '2018-10-09 20:19:16.439744', 'mgs': 0, 'volt': 0.8691, 'depth': 1.08, 'time': 4, 'pitch': 1.78, 'roll': -0.88, 'pres': 178}
{'lipoC2': 7.29, 'lipoC3S1': 3.82, 'temp': 26.94, 'lipoC3S3': 11.55, 'lipoC3S2': 7.65, 'rot1': 4, 'rot0': 3, 'rot3': 12, 'rot2': 11, 'state': 'normal', 'yaw': 0.84, 'datetime': '2018-10-09 20:19:16.543532', 'mgs': 0, 'volt': 0.8789, 'depth': 1.233, 'time': 5, 'pitch': 1.54, 'roll': -0.88, 'pres': 180}
{'lipoC2': 7.29, 'lipoC3S1': 3.82, 'temp': 26.94, 'lipoC3S3': 11.55, 'lipoC3S2': 7.65, 'rot1': 4, 'rot0': 4, 'rot3': 12, 'rot2': 11, 'state': 'normal', 'yaw': 0.95, 'datetime': '2018-10-09 20:19:16.647181', 'mgs': 0, 'volt': 0.8594, 'depth': 0.928, 'time': 5, 'pitch': 1.07, 'roll': -0.86, 'pres': 176}
{'lipoC2': 7.29, 'lipoC3S1': 3.82, 'temp': 26.94, 'lipoC3S3': 11.55, 'lipoC3S2': 7.65, 'rot1': 4, 'rot0': 4, 'rot3': 12, 'rot2': 11, 'state': 'normal', 'yaw': 1.11, 'datetime': '2018-10-09 20:19:16.750768', 'mgs': 0, 'volt': 0.8594, 'depth': 0.928, 'time': 5, 'pitch': 0.49, 'roll': -0.91, 'pres': 176}
{'lipoC2': 7.29, 'lipoC3S1': 3.81, 'temp': 27.0, 'lipoC3S3': 11.55, 'lipoC3S2': 7.65, 'rot1': 5, 'rot0': 4, 'rot3': 12, 'rot2': 11, 'state': 'normal', 'yaw': 1.31, 'datetime': '2018-10-09 20:19:16.854920', 'mgs': 0, 'volt': 0.8594, 'depth': 0.928, 'time': 5, 'pitch': -0.15, 'roll': -1.02, 'pres': 176}
{'lipoC2': 7.28, 'lipoC3S1': 3.82, 'temp': 27.0, 'lipoC3S3': 11.55, 'lipoC3S2': 7.65, 'rot1': 5, 'rot0': 4, 'rot3': 12, 'rot2': 11, 'state': 'normal', 'yaw': 1.56, 'datetime': '2018-10-09 20:19:16.958435', 'mgs': 0, 'volt': 0.8545, 'depth': 0.851, 'time': 5, 'pitch': -0.89, 'roll': -1.15, 'pres': 175}
{'lipoC2': 7.29, 'lipoC3S1': 3.82, 'temp': 27.0, 'lipoC3S3': 11.55, 'lipoC3S2': 7.65, 'rot1': 5, 'rot0': 4, 'rot3': 12, 'rot2': 11, 'state': 'normal', 'yaw': 1.78, 'datetime': '2018-10-09 20:19:17.063284', 'mgs': 0, 'volt': 0.8545, 'depth': 0.851, 'time': 5, 'pitch': -1.58, 'roll': -1.27, 'pres': 175}
{'lipoC2': 7.29, 'lipoC3S1': 3.82, 'temp': 27.0, 'lipoC3S3': 11.55, 'lipoC3S2': 7.65, 'rot1': 5, 'rot0': 5, 'rot3': 12, 'rot2': 11, 'state': 'normal', 'yaw': 2.04, 'datetime': '2018-10-09 20:19:17.166884', 'mgs': 0, 'volt': 0.8496, 'depth': 0.775, 'time': 5, 'pitch': -2.32, 'roll': -1.38, 'pres': 174}
{'lipoC2': 7.29, 'lipoC3S1': 3.82, 'temp': 26.94, 'lipoC3S3': 11.55, 'lipoC3S2': 7.65, 'rot1': 5, 'rot0': 5, 'rot3': 12, 'rot2': 11, 'state': 'normal', 'yaw': 2.29, 'datetime': '2018-10-09 20:19:17.270484', 'mgs': 0, 'volt': 0.8496, 'depth': 0.775, 'time': 5, 'pitch': -2.94, 'roll': -1.47, 'pres': 174}
{'lipoC2': 7.28, 'lipoC3S1': 3.81, 'temp': 26.94, 'lipoC3S3': 11.56, 'lipoC3S2': 7.63, 'rot1': 5, 'rot0': 5, 'rot3': 12, 'rot2': 11, 'state': 'normal', 'yaw': 2.56, 'datetime': '2018-10-09 20:19:17.375590', 'mgs': 0, 'volt': 0.874, 'depth': 1.157, 'time': 5, 'pitch': -3.51, 'roll': -1.55, 'pres': 179}
{'lipoC2': 7.28, 'lipoC3S1': 3.82, 'temp': 26.94, 'lipoC3S3': 11.52, 'lipoC3S2': 7.63, 'rot1': 6, 'rot0': 5, 'rot3': 13, 'rot2': 11, 'state': 'normal', 'yaw': 2.86, 'datetime': '2018-10-09 20:19:17.476110', 'mgs': 0, 'volt': 0.8643, 'depth': 1.004, 'time': 6, 'pitch': -4.09, 'roll': -1.7, 'pres': 177}
{'lipoC2': 7.29, 'lipoC3S1': 3.82, 'temp': 26.94, 'lipoC3S3': 11.55, 'lipoC3S2': 7.65, 'rot1': 6, 'rot0': 5, 'rot3': 13, 'rot2': 12, 'state': 'normal', 'yaw': 3.16, 'datetime': '2018-10-09 20:19:17.582743', 'mgs': 0, 'volt': 0.8545, 'depth': 0.851, 'time': 6, 'pitch': -4.53, 'roll': -1.87, 'pres': 175}
{'lipoC2': 7.29, 'lipoC3S1': 3.82, 'temp': 26.94, 'lipoC3S3': 11.56, 'lipoC3S2': 7.65, 'rot1': 6, 'rot0': 6, 'rot3': 13, 'rot2': 12, 'state': 'normal', 'yaw': 3.44, 'datetime': '2018-10-09 20:19:17.680579', 'mgs': 0, 'volt': 0.8545, 'depth': 0.851, 'time': 6, 'pitch': -4.72, 'roll': -1.96, 'pres': 175}
{'lipoC2': 7.29, 'lipoC3S1': 3.82, 'temp': 26.88, 'lipoC3S3': 11.55, 'lipoC3S2': 7.65, 'rot1': 6, 'rot0': 6, 'rot3': 13, 'rot2': 12, 'state': 'normal', 'yaw': 3.75, 'datetime': '2018-10-09 20:19:17.788876', 'mgs': 0, 'volt': 0.8545, 'depth': 0.851, 'time': 6, 'pitch': -4.62, 'roll': -2.0, 'pres': 175}
{'lipoC2': 7.29, 'lipoC3S1': 3.82, 'temp': 26.88, 'lipoC3S3': 11.55, 'lipoC3S2': 7.65, 'rot1': 7, 'rot0': 6, 'rot3': 13, 'rot2': 12, 'state': 'normal', 'yaw': 4.01, 'datetime': '2018-10-09 20:19:17.893574', 'mgs': 0, 'volt': 0.8545, 'depth': 0.851, 'time': 6, 'pitch': -4.33, 'roll': -2.0, 'pres': 175}
{'lipoC2': 7.29, 'lipoC3S1': 3.82, 'temp': 26.88, 'lipoC3S3': 11.55, 'lipoC3S2': 7.65, 'rot1': 7, 'rot0': 6, 'rot3': 13, 'rot2': 12, 'state': 'normal', 'yaw': 4.28, 'datetime': '2018-10-09 20:19:17.997689', 'mgs': 0, 'volt': 0.8594, 'depth': 0.928, 'time': 6, 'pitch': -3.91, 'roll': -2.0, 'pres': 176}
{'lipoC2': 7.29, 'lipoC3S1': 3.82, 'temp': 26.88, 'lipoC3S3': 11.55, 'lipoC3S2': 7.65, 'rot1': 7, 'rot0': 6, 'rot3': 13, 'rot2': 12, 'state': 'normal', 'yaw': 4.59, 'datetime': '2018-10-09 20:19:18.101033', 'mgs': 0, 'volt': 0.8594, 'depth': 0.928, 'time': 6, 'pitch': -3.38, 'roll': -1.92, 'pres': 176}
{'lipoC2': 7.29, 'lipoC3S1': 3.82, 'temp': 26.88, 'lipoC3S3': 11.56, 'lipoC3S2': 7.65, 'rot1': 7, 'rot0': 6, 'rot3': 13, 'rot2': 12, 'state': 'normal', 'yaw': 4.89, 'datetime': '2018-10-09 20:19:18.204565', 'mgs': 0, 'volt': 0.8643, 'depth': 1.004, 'time': 6, 'pitch': -2.87, 'roll': -1.83, 'pres': 177}
{'lipoC2': 7.29, 'lipoC3S1': 3.82, 'temp': 26.94, 'lipoC3S3': 11.55, 'lipoC3S2': 7.65, 'rot1': 7, 'rot0': 7, 'rot3': 13, 'rot2': 12, 'state': 'normal', 'yaw': 5.18, 'datetime': '2018-10-09 20:19:18.308742', 'mgs': 0, 'volt': 0.8643, 'depth': 1.004, 'time': 6, 'pitch': -2.34, 'roll': -1.7, 'pres': 177}
{'lipoC2': 7.29, 'lipoC3S1': 3.82, 'temp': 26.94, 'lipoC3S3': 11.55, 'lipoC3S2': 7.65, 'rot1': 7, 'rot0': 7, 'rot3': 13, 'rot2': 12, 'state': 'normal', 'yaw': 5.51, 'datetime': '2018-10-09 20:19:18.412453', 'mgs': 0, 'volt': 0.8691, 'depth': 1.08, 'time': 6, 'pitch': -1.74, 'roll': -1.53, 'pres': 178}
{'lipoC2': 7.29, 'lipoC3S1': 3.82, 'temp': 26.94, 'lipoC3S3': 11.56, 'lipoC3S2': 7.65, 'rot1': 8, 'rot0': 7, 'rot3': 13, 'rot2': 12, 'state': 'normal', 'yaw': 5.81, 'datetime': '2018-10-09 20:19:18.517157', 'mgs': 0, 'volt': 0.8691, 'depth': 1.08, 'time': 7, 'pitch': -1.24, 'roll': -1.38, 'pres': 178}
{'lipoC2': 7.29, 'lipoC3S1': 3.82, 'temp': 26.94, 'lipoC3S3': 11.56, 'lipoC3S2': 7.65, 'rot1': 8, 'rot0': 7, 'rot3': 13, 'rot2': 12, 'state': 'normal', 'yaw': 6.14, 'datetime': '2018-10-09 20:19:18.620687', 'mgs': 0, 'volt': 0.874, 'depth': 1.157, 'time': 7, 'pitch': -0.79, 'roll': -1.23, 'pres': 179}
{'lipoC2': 7.29, 'lipoC3S1': 3.82, 'temp': 26.88, 'lipoC3S3': 11.55, 'lipoC3S2': 7.65, 'rot1': 8, 'rot0': 7, 'rot3': 13, 'rot2': 12, 'state': 'normal', 'yaw': 6.42, 'datetime': '2018-10-09 20:19:18.724251', 'mgs': 0, 'volt': 0.874, 'depth': 1.157, 'time': 7, 'pitch': -0.53, 'roll': -1.13, 'pres': 179}
{'lipoC2': 7.29, 'lipoC3S1': 3.8, 'temp': 26.88, 'lipoC3S3': 11.56, 'lipoC3S2': 7.65, 'rot1': 8, 'rot0': 7, 'rot3': 13, 'rot2': 12, 'state': 'normal', 'yaw': 6.71, 'datetime': '2018-10-09 20:19:18.829064', 'mgs': 0, 'volt': 0.874, 'depth': 1.157, 'time': 7, 'pitch': -0.44, 'roll': -1.06, 'pres': 179}
{'lipoC2': 7.29, 'lipoC3S1': 3.82, 'temp': 26.88, 'lipoC3S3': 11.56, 'lipoC3S2': 7.64, 'rot1': 8, 'rot0': 7, 'rot3': 13, 'rot2': 12, 'state': 'normal', 'yaw': 7.02, 'datetime': '2018-10-09 20:19:18.932746', 'mgs': 0, 'volt': 0.8789, 'depth': 1.233, 'time': 7, 'pitch': -0.49, 'roll': -1.01, 'pres': 180}
{'lipoC2': 7.29, 'lipoC3S1': 3.77, 'temp': 26.88, 'lipoC3S3': 11.51, 'lipoC3S2': 7.59, 'rot1': 8, 'rot0': 7, 'rot3': 13, 'rot2': 12, 'state': 'normal', 'yaw': 7.31, 'datetime': '2018-10-09 20:19:19.036189', 'mgs': 0, 'volt': 0.8789, 'depth': 1.233, 'time': 7, 'pitch': -0.68, 'roll': -0.99, 'pres': 180}
{'lipoC2': 7.28, 'lipoC3S1': 3.82, 'temp': 26.88, 'lipoC3S3': 11.55, 'lipoC3S2': 7.63, 'rot1': 8, 'rot0': 8, 'rot3': 13, 'rot2': 13, 'state': 'normal', 'yaw': 7.6, 'datetime': '2018-10-09 20:19:19.139946', 'mgs': 0, 'volt': 0.8838, 'depth': 1.309, 'time': 7, 'pitch': -0.9, 'roll': -0.96, 'pres': 181}
{'lipoC2': 7.28, 'lipoC3S1': 3.82, 'temp': 26.94, 'lipoC3S3': 11.52, 'lipoC3S2': 7.63, 'rot1': 9, 'rot0': 8, 'rot3': 14, 'rot2': 13, 'state': 'normal', 'yaw': 7.89, 'datetime': '2018-10-09 20:19:19.243677', 'mgs': 0, 'volt': 0.8984, 'depth': 1.538, 'time': 7, 'pitch': -1.13, 'roll': -0.92, 'pres': 184}
{'lipoC2': 7.29, 'lipoC3S1': 3.8, 'temp': 26.94, 'lipoC3S3': 11.54, 'lipoC3S2': 7.63, 'rot1': 9, 'rot0': 8, 'rot3': 14, 'rot2': 14, 'state': 'normal', 'yaw': 8.12, 'datetime': '2018-10-09 20:19:19.347933', 'mgs': 0, 'volt': 0.9033, 'depth': 1.614, 'time': 7, 'pitch': -1.36, 'roll': -0.92, 'pres': 185}
{'lipoC2': 7.29, 'lipoC3S1': 3.81, 'temp': 26.94, 'lipoC3S3': 11.5, 'lipoC3S2': 7.58, 'rot1': 9, 'rot0': 8, 'rot3': 15, 'rot2': 15, 'state': 'normal', 'yaw': 8.32, 'datetime': '2018-10-09 20:19:19.451348', 'mgs': 0, 'volt': 0.8789, 'depth': 1.233, 'time': 7, 'pitch': -1.6, 'roll': -0.98, 'pres': 180}
{'lipoC2': 7.28, 'lipoC3S1': 3.81, 'temp': 26.94, 'lipoC3S3': 11.47, 'lipoC3S2': 7.62, 'rot1': 9, 'rot0': 8, 'rot3': 16, 'rot2': 15, 'state': 'normal', 'yaw': 8.51, 'datetime': '2018-10-09 20:19:19.552250', 'mgs': 0, 'volt': 0.8789, 'depth': 1.233, 'time': 8, 'pitch': -1.81, 'roll': -0.99, 'pres': 180}
{'lipoC2': 7.28, 'lipoC3S1': 3.82, 'temp': 26.94, 'lipoC3S3': 11.52, 'lipoC3S2': 7.63, 'rot1': 9, 'rot0': 8, 'rot3': 16, 'rot2': 16, 'state': 'normal', 'yaw': 8.65, 'datetime': '2018-10-09 20:19:19.655944', 'mgs': 0, 'volt': 0.8936, 'depth': 1.462, 'time': 8, 'pitch': -1.92, 'roll': -0.97, 'pres': 183}
{'lipoC2': 7.28, 'lipoC3S1': 3.82, 'temp': 26.88, 'lipoC3S3': 11.48, 'lipoC3S2': 7.63, 'rot1': 9, 'rot0': 8, 'rot3': 17, 'rot2': 16, 'state': 'normal', 'yaw': 8.78, 'datetime': '2018-10-09 20:19:19.762480', 'mgs': 0, 'volt': 0.8789, 'depth': 1.233, 'time': 8, 'pitch': -1.98, 'roll': -0.97, 'pres': 180}
{'lipoC2': 7.28, 'lipoC3S1': 3.81, 'temp': 26.88, 'lipoC3S3': 11.52, 'lipoC3S2': 7.63, 'rot1': 9, 'rot0': 8, 'rot3': 17, 'rot2': 17, 'state': 'normal', 'yaw': 8.87, 'datetime': '2018-10-09 20:19:19.866049', 'mgs': 0, 'volt': 0.8887, 'depth': 1.385, 'time': 8, 'pitch': -2.05, 'roll': -0.96, 'pres': 182}
{'lipoC2': 7.29, 'lipoC3S1': 3.81, 'temp': 26.88, 'lipoC3S3': 11.52, 'lipoC3S2': 7.6, 'rot1': 9, 'rot0': 8, 'rot3': 18, 'rot2': 17, 'state': 'normal', 'yaw': 8.95, 'datetime': '2018-10-09 20:19:19.968040', 'mgs': 0, 'volt': 0.8789, 'depth': 1.233, 'time': 8, 'pitch': -2.13, 'roll': -1.03, 'pres': 180}
{'lipoC2': 7.29, 'lipoC3S1': 3.81, 'temp': 26.88, 'lipoC3S3': 11.48, 'lipoC3S2': 7.63, 'rot1': 9, 'rot0': 8, 'rot3': 19, 'rot2': 18, 'state': 'normal', 'yaw': 9.02, 'datetime': '2018-10-09 20:19:20.074391', 'mgs': 0, 'volt': 0.8789, 'depth': 1.233, 'time': 8, 'pitch': -2.26, 'roll': -1.12, 'pres': 180}
{'lipoC2': 7.28, 'lipoC3S1': 3.82, 'temp': 26.88, 'lipoC3S3': 11.52, 'lipoC3S2': 7.63, 'rot1': 10, 'rot0': 8, 'rot3': 19, 'rot2': 18, 'state': 'normal', 'yaw': 9.02, 'datetime': '2018-10-09 20:19:20.178174', 'mgs': 0, 'volt': 0.8789, 'depth': 1.233, 'time': 8, 'pitch': -2.37, 'roll': -1.2, 'pres': 180}
{'lipoC2': 7.29, 'lipoC3S1': 3.81, 'temp': 26.88, 'lipoC3S3': 11.51, 'lipoC3S2': 7.59, 'rot1': 10, 'rot0': 8, 'rot3': 20, 'rot2': 19, 'state': 'normal', 'yaw': 9.02, 'datetime': '2018-10-09 20:19:20.283157', 'mgs': 0, 'volt': 0.874, 'depth': 1.157, 'time': 8, 'pitch': -2.46, 'roll': -1.27, 'pres': 179}
{'lipoC2': 7.28, 'lipoC3S1': 3.81, 'temp': 26.88, 'lipoC3S3': 11.52, 'lipoC3S2': 7.63, 'rot1': 10, 'rot0': 8, 'rot3': 20, 'rot2': 19, 'state': 'normal', 'yaw': 9.02, 'datetime': '2018-10-09 20:19:20.386839', 'mgs': 0, 'volt': 0.8838, 'depth': 1.309, 'time': 8, 'pitch': -2.48, 'roll': -1.28, 'pres': 181}
{'lipoC2': 7.29, 'lipoC3S1': 3.8, 'temp': 26.94, 'lipoC3S3': 11.52, 'lipoC3S2': 7.63, 'rot1': 10, 'rot0': 8, 'rot3': 21, 'rot2': 20, 'state': 'normal', 'yaw': 9.02, 'datetime': '2018-10-09 20:19:20.490704', 'mgs': 0, 'volt': 0.8643, 'depth': 1.004, 'time': 9, 'pitch': -2.49, 'roll': -1.29, 'pres': 177}
{'lipoC2': 7.29, 'lipoC3S1': 3.8, 'temp': 26.94, 'lipoC3S3': 11.54, 'lipoC3S2': 7.63, 'rot1': 10, 'rot0': 8, 'rot3': 22, 'rot2': 21, 'state': 'normal', 'yaw': 9.02, 'datetime': '2018-10-09 20:19:20.598501', 'mgs': 0, 'volt': 0.8936, 'depth': 1.462, 'time': 9, 'pitch': -2.49, 'roll': -1.29, 'pres': 183}
{'lipoC2': 7.29, 'lipoC3S1': 3.81, 'temp': 26.88, 'lipoC3S3': 11.51, 'lipoC3S2': 7.59, 'rot1': 10, 'rot0': 8, 'rot3': 22, 'rot2': 21, 'state': 'normal', 'yaw': 9.02, 'datetime': '2018-10-09 20:19:20.698685', 'mgs': 0, 'volt': 0.8691, 'depth': 1.08, 'time': 9, 'pitch': -2.44, 'roll': -1.29, 'pres': 178}
{'lipoC2': 7.28, 'lipoC3S1': 3.81, 'temp': 26.88, 'lipoC3S3': 11.46, 'lipoC3S2': 7.63, 'rot1': 10, 'rot0': 8, 'rot3': 23, 'rot2': 22, 'state': 'normal', 'yaw': 9.02, 'datetime': '2018-10-09 20:19:20.802468', 'mgs': 0, 'volt': 0.874, 'depth': 1.157, 'time': 9, 'pitch': -2.31, 'roll': -1.29, 'pres': 179}
{'lipoC2': 7.29, 'lipoC3S1': 3.82, 'temp': 26.94, 'lipoC3S3': 11.55, 'lipoC3S2': 7.65, 'rot1': 10, 'rot0': 8, 'rot3': 23, 'rot2': 22, 'state': 'normal', 'yaw': 9.02, 'datetime': '2018-10-09 20:19:20.906164', 'mgs': 0, 'volt': 0.8691, 'depth': 1.08, 'time': 9, 'pitch': -2.14, 'roll': -1.29, 'pres': 178}
{'lipoC2': 7.29, 'lipoC3S1': 3.82, 'temp': 26.94, 'lipoC3S3': 11.55, 'lipoC3S2': 7.65, 'rot1': 10, 'rot0': 8, 'rot3': 23, 'rot2': 22, 'state': 'normal', 'yaw': 9.01, 'datetime': '2018-10-09 20:19:21.009996', 'mgs': 0, 'volt': 0.8691, 'depth': 1.08, 'time': 9, 'pitch': -1.99, 'roll': -1.29, 'pres': 178}
{'lipoC2': 7.29, 'lipoC3S1': 3.82, 'temp': 26.94, 'lipoC3S3': 11.55, 'lipoC3S2': 7.62, 'rot1': 10, 'rot0': 8, 'rot3': 23, 'rot2': 22, 'state': 'normal', 'yaw': 9.01, 'datetime': '2018-10-09 20:19:21.115009', 'mgs': 0, 'volt': 0.8691, 'depth': 1.08, 'time': 9, 'pitch': -1.97, 'roll': -1.28, 'pres': 178}
{'lipoC2': 7.29, 'lipoC3S1': 3.82, 'temp': 26.88, 'lipoC3S3': 11.55, 'lipoC3S2': 7.65, 'rot1': 10, 'rot0': 8, 'rot3': 23, 'rot2': 22, 'state': 'normal', 'yaw': 9.0, 'datetime': '2018-10-09 20:19:21.218609', 'mgs': 0, 'volt': 0.8691, 'depth': 1.08, 'time': 9, 'pitch': -1.98, 'roll': -1.28, 'pres': 178}
{'lipoC2': 7.29, 'lipoC3S1': 3.83, 'temp': 26.88, 'lipoC3S3': 11.55, 'lipoC3S2': 7.65, 'rot1': 10, 'rot0': 8, 'rot3': 23, 'rot2': 22, 'state': 'normal', 'yaw': 8.99, 'datetime': '2018-10-09 20:19:21.323542', 'mgs': 0, 'volt': 0.8643, 'depth': 1.004, 'time': 9, 'pitch': -2.09, 'roll': -1.29, 'pres': 177}
{'lipoC2': 7.29, 'lipoC3S1': 3.82, 'temp': 26.94, 'lipoC3S3': 11.55, 'lipoC3S2': 7.65, 'rot1': 10, 'rot0': 8, 'rot3': 23, 'rot2': 22, 'state': 'normal', 'yaw': 8.99, 'datetime': '2018-10-09 20:19:21.427480', 'mgs': 0, 'volt': 0.8691, 'depth': 1.08, 'time': 9, 'pitch': -2.28, 'roll': -1.29, 'pres': 178}
{'lipoC2': 7.29, 'lipoC3S1': 3.82, 'temp': 26.94, 'lipoC3S3': 11.55, 'lipoC3S2': 7.65, 'rot1': 10, 'rot0': 8, 'rot3': 23, 'rot2': 22, 'state': 'normal', 'yaw': 9.0, 'datetime': '2018-10-09 20:19:21.531325', 'mgs': 0, 'volt': 0.8691, 'depth': 1.08, 'time': 10, 'pitch': -2.48, 'roll': -1.28, 'pres': 178}
{'lipoC2': 7.29, 'lipoC3S1': 3.82, 'temp': 26.94, 'lipoC3S3': 11.55, 'lipoC3S2': 7.65, 'rot1': 10, 'rot0': 8, 'rot3': 23, 'rot2': 22, 'state': 'normal', 'yaw': 9.0, 'datetime': '2018-10-09 20:19:21.636556', 'mgs': 0, 'volt': 0.8643, 'depth': 1.004, 'time': 10, 'pitch': -2.65, 'roll': -1.32, 'pres': 177}
{'lipoC2': 7.29, 'lipoC3S1': 3.82, 'temp': 26.94, 'lipoC3S3': 11.55, 'lipoC3S2': 7.65, 'rot1': 10, 'rot0': 8, 'rot3': 23, 'rot2': 22, 'state': 'normal', 'yaw': 8.99, 'datetime': '2018-10-09 20:19:21.740382', 'mgs': 0, 'volt': 0.8691, 'depth': 1.08, 'time': 10, 'pitch': -2.78, 'roll': -1.36, 'pres': 178}
{'lipoC2': 7.29, 'lipoC3S1': 3.82, 'temp': 26.94, 'lipoC3S3': 11.55, 'lipoC3S2': 7.65, 'rot1': 10, 'rot0': 8, 'rot3': 23, 'rot2': 22, 'state': 'normal', 'yaw': 8.95, 'datetime': '2018-10-09 20:19:21.844246', 'mgs': 0, 'volt': 0.8691, 'depth': 1.08, 'time': 10, 'pitch': -2.81, 'roll': -1.43, 'pres': 178}
{'lipoC2': 7.29, 'lipoC3S1': 3.82, 'temp': 26.94, 'lipoC3S3': 11.55, 'lipoC3S2': 7.65, 'rot1': 10, 'rot0': 8, 'rot3': 23, 'rot2': 22, 'state': 'normal', 'yaw': 8.87, 'datetime': '2018-10-09 20:19:21.948645', 'mgs': 0, 'volt': 0.8691, 'depth': 1.08, 'time': 10, 'pitch': -2.81, 'roll': -1.48, 'pres': 178}
{'lipoC2': 7.29, 'lipoC3S1': 3.82, 'temp': 26.94, 'lipoC3S3': 11.55, 'lipoC3S2': 7.65, 'rot1': 10, 'rot0': 8, 'rot3': 23, 'rot2': 22, 'state': 'normal', 'yaw': 8.79, 'datetime': '2018-10-09 20:19:22.052616', 'mgs': 0, 'volt': 0.8691, 'depth': 1.08, 'time': 10, 'pitch': -2.79, 'roll': -1.48, 'pres': 178}
{'lipoC2': 7.29, 'lipoC3S1': 3.82, 'temp': 26.88, 'lipoC3S3': 11.55, 'lipoC3S2': 7.65, 'rot1': 10, 'rot0': 8, 'rot3': 23, 'rot2': 22, 'state': 'normal', 'yaw': 8.71, 'datetime': '2018-10-09 20:19:22.157846', 'mgs': 0, 'volt': 0.8691, 'depth': 1.08, 'time': 10, 'pitch': -2.78, 'roll': -1.47, 'pres': 178}
{'lipoC2': 7.28, 'lipoC3S1': 3.82, 'temp': 26.88, 'lipoC3S3': 11.55, 'lipoC3S2': 7.65, 'rot1': 10, 'rot0': 8, 'rot3': 23, 'rot2': 22, 'state': 'normal', 'yaw': 8.62, 'datetime': '2018-10-09 20:19:22.261532', 'mgs': 0, 'volt': 0.874, 'depth': 1.157, 'time': 10, 'pitch': -2.79, 'roll': -1.47, 'pres': 179}
{'lipoC2': 7.29, 'lipoC3S1': 3.82, 'temp': 26.94, 'lipoC3S3': 11.56, 'lipoC3S2': 7.65, 'rot1': 10, 'rot0': 8, 'rot3': 23, 'rot2': 22, 'state': 'normal', 'yaw': 8.53, 'datetime': '2018-10-09 20:19:22.366690', 'mgs': 0, 'volt': 0.874, 'depth': 1.157, 'time': 10, 'pitch': -2.79, 'roll': -1.47, 'pres': 179}
{'lipoC2': 7.29, 'lipoC3S1': 3.82, 'temp': 26.94, 'lipoC3S3': 11.55, 'lipoC3S2': 7.65, 'rot1': 10, 'rot0': 8, 'rot3': 23, 'rot2': 22, 'state': 'normal', 'yaw': 8.45, 'datetime': '2018-10-09 20:19:22.470762', 'mgs': 0, 'volt': 0.874, 'depth': 1.157, 'time': 11, 'pitch': -2.79, 'roll': -1.46, 'pres': 179}
{'lipoC2': 7.29, 'lipoC3S1': 3.82, 'temp': 26.94, 'lipoC3S3': 11.52, 'lipoC3S2': 7.65, 'rot1': 10, 'rot0': 8, 'rot3': 23, 'rot2': 22, 'state': 'normal', 'yaw': 8.36, 'datetime': '2018-10-09 20:19:22.574434', 'mgs': 0, 'volt': 0.8789, 'depth': 1.233, 'time': 11, 'pitch': -2.79, 'roll': -1.46, 'pres': 180}
{'lipoC2': 7.29, 'lipoC3S1': 3.82, 'temp': 26.94, 'lipoC3S3': 11.55, 'lipoC3S2': 7.62, 'rot1': 10, 'rot0': 8, 'rot3': 23, 'rot2': 22, 'state': 'normal', 'yaw': 8.29, 'datetime': '2018-10-09 20:19:22.679602', 'mgs': 0, 'volt': 0.8789, 'depth': 1.233, 'time': 11, 'pitch': -2.79, 'roll': -1.45, 'pres': 180}
{'lipoC2': 7.28, 'lipoC3S1': 3.81, 'temp': 26.94, 'lipoC3S3': 11.47, 'lipoC3S2': 7.62, 'rot1': 10, 'rot0': 8, 'rot3': 23, 'rot2': 22, 'state': 'normal', 'yaw': 8.21, 'datetime': '2018-10-09 20:19:22.783488', 'mgs': 0, 'volt': 0.8838, 'depth': 1.309, 'time': 11, 'pitch': -2.74, 'roll': -1.45, 'pres': 181}
{'lipoC2': 7.29, 'lipoC3S1': 3.79, 'temp': 26.94, 'lipoC3S3': 11.54, 'lipoC3S2': 7.62, 'rot1': 10, 'rot0': 8, 'rot3': 24, 'rot2': 23, 'state': 'normal', 'yaw': 8.12, 'datetime': '2018-10-09 20:19:22.888386', 'mgs': 0, 'volt': 0.8838, 'depth': 1.309, 'time': 11, 'pitch': -2.58, 'roll': -1.4, 'pres': 181}
{'lipoC2': 7.28, 'lipoC3S1': 3.82, 'temp': 26.94, 'lipoC3S3': 11.47, 'lipoC3S2': 7.63, 'rot1': 10, 'rot0': 8, 'rot3': 24, 'rot2': 23, 'state': 'normal', 'yaw': 8.0, 'datetime': '2018-10-09 20:19:22.993336', 'mgs': 0, 'volt': 0.874, 'depth': 1.157, 'time': 11, 'pitch': -2.31, 'roll': -1.31, 'pres': 179}
{'lipoC2': 7.28, 'lipoC3S1': 3.79, 'temp': 26.88, 'lipoC3S3': 11.54, 'lipoC3S2': 7.63, 'rot1': 10, 'rot0': 8, 'rot3': 25, 'rot2': 24, 'state': 'normal', 'yaw': 7.86, 'datetime': '2018-10-09 20:19:23.089511', 'mgs': 0, 'volt': 0.8887, 'depth': 1.385, 'time': 11, 'pitch': -2.03, 'roll': -1.23, 'pres': 182}
{'lipoC2': 7.28, 'lipoC3S1': 3.82, 'temp': 26.88, 'lipoC3S3': 11.47, 'lipoC3S2': 7.63, 'rot1': 10, 'rot0': 8, 'rot3': 26, 'rot2': 24, 'state': 'normal', 'yaw': 7.71, 'datetime': '2018-10-09 20:19:23.193316', 'mgs': 0, 'volt': 0.8838, 'depth': 1.309, 'time': 11, 'pitch': -1.73, 'roll': -1.16, 'pres': 181}
{'lipoC2': 7.29, 'lipoC3S1': 3.79, 'temp': 26.88, 'lipoC3S3': 11.52, 'lipoC3S2': 7.6, 'rot1': 10, 'rot0': 8, 'rot3': 26, 'rot2': 25, 'state': 'normal', 'yaw': 7.52, 'datetime': '2018-10-09 20:19:23.297167', 'mgs': 0, 'volt': 0.874, 'depth': 1.157, 'time': 11, 'pitch': -1.39, 'roll': -1.1, 'pres': 179}
{'lipoC2': 7.28, 'lipoC3S1': 3.82, 'temp': 26.94, 'lipoC3S3': 11.55, 'lipoC3S2': 7.65, 'rot1': 10, 'rot0': 8, 'rot3': 27, 'rot2': 25, 'state': 'normal', 'yaw': 7.34, 'datetime': '2018-10-09 20:19:23.401030', 'mgs': 0, 'volt': 0.8838, 'depth': 1.309, 'time': 11, 'pitch': -1.12, 'roll': -1.07, 'pres': 181}
{'lipoC2': 7.29, 'lipoC3S1': 3.82, 'temp': 26.94, 'lipoC3S3': 11.55, 'lipoC3S2': 7.62, 'rot1': 10, 'rot0': 8, 'rot3': 27, 'rot2': 25, 'state': 'normal', 'yaw': 7.18, 'datetime': '2018-10-09 20:19:23.504887', 'mgs': 0, 'volt': 0.8838, 'depth': 1.309, 'time': 12, 'pitch': -1.05, 'roll': -1.06, 'pres': 181}
{'lipoC2': 7.28, 'lipoC3S1': 3.81, 'temp': 26.94, 'lipoC3S3': 11.47, 'lipoC3S2': 7.62, 'rot1': 10, 'rot0': 8, 'rot3': 27, 'rot2': 26, 'state': 'normal', 'yaw': 7.03, 'datetime': '2018-10-09 20:19:23.608738', 'mgs': 0, 'volt': 0.8838, 'depth': 1.309, 'time': 12, 'pitch': -1.17, 'roll': -1.04, 'pres': 181}
{'lipoC2': 7.29, 'lipoC3S1': 3.81, 'temp': 26.94, 'lipoC3S3': 11.52, 'lipoC3S2': 7.63, 'rot1': 10, 'rot0': 8, 'rot3': 27, 'rot2': 26, 'state': 'normal', 'yaw': 6.89, 'datetime': '2018-10-09 20:19:23.712576', 'mgs': 0, 'volt': 0.8936, 'depth': 1.462, 'time': 12, 'pitch': -1.35, 'roll': -1.0, 'pres': 183}
{'lipoC2': 7.29, 'lipoC3S1': 3.79, 'temp': 27.0, 'lipoC3S3': 11.52, 'lipoC3S2': 7.63, 'rot1': 10, 'rot0': 8, 'rot3': 28, 'rot2': 27, 'state': 'normal', 'yaw': 6.74, 'datetime': '2018-10-09 20:19:23.823598', 'mgs': 0, 'volt': 0.9033, 'depth': 1.614, 'time': 12, 'pitch': -1.52, 'roll': -1.0, 'pres': 185}
{'lipoC2': 7.29, 'lipoC3S1': 3.81, 'temp': 27.0, 'lipoC3S3': 11.48, 'lipoC3S2': 7.58, 'rot1': 10, 'rot0': 8, 'rot3': 29, 'rot2': 27, 'state': 'normal', 'yaw': 6.56, 'datetime': '2018-10-09 20:19:23.927546', 'mgs': 0, 'volt': 0.8838, 'depth': 1.309, 'time': 12, 'pitch': -1.69, 'roll': -1.03, 'pres': 181}
{'lipoC2': 7.29, 'lipoC3S1': 3.82, 'temp': 27.0, 'lipoC3S3': 11.54, 'lipoC3S2': 7.59, 'rot1': 10, 'rot0': 8, 'rot3': 29, 'rot2': 28, 'state': 'normal', 'yaw': 6.39, 'datetime': '2018-10-09 20:19:24.032628', 'mgs': 0, 'volt': 0.8838, 'depth': 1.309, 'time': 12, 'pitch': -1.8, 'roll': -1.08, 'pres': 181}
{'lipoC2': 7.28, 'lipoC3S1': 3.81, 'temp': 27.0, 'lipoC3S3': 11.52, 'lipoC3S2': 7.63, 'rot1': 10, 'rot0': 8, 'rot3': 30, 'rot2': 28, 'state': 'normal', 'yaw': 6.2, 'datetime': '2018-10-09 20:19:24.136505', 'mgs': 0, 'volt': 0.8887, 'depth': 1.385, 'time': 12, 'pitch': -1.85, 'roll': -1.13, 'pres': 182}
{'lipoC2': 7.29, 'lipoC3S1': 3.8, 'temp': 27.0, 'lipoC3S3': 11.52, 'lipoC3S2': 7.63, 'rot1': 10, 'rot0': 8, 'rot3': 30, 'rot2': 29, 'state': 'normal', 'yaw': 6.02, 'datetime': '2018-10-09 20:19:24.241025', 'mgs': 0, 'volt': 0.8984, 'depth': 1.538, 'time': 12, 'pitch': -1.87, 'roll': -1.18, 'pres': 184}
{'lipoC2': 7.29, 'lipoC3S1': 3.79, 'temp': 26.88, 'lipoC3S3': 11.52, 'lipoC3S2': 7.63, 'rot1': 10, 'rot0': 8, 'rot3': 31, 'rot2': 29, 'state': 'normal', 'yaw': 5.84, 'datetime': '2018-10-09 20:19:24.345578', 'mgs': 0, 'volt': 0.8984, 'depth': 1.538, 'time': 12, 'pitch': -1.9, 'roll': -1.2, 'pres': 184}
{'lipoC2': 7.29, 'lipoC3S1': 3.81, 'temp': 26.88, 'lipoC3S3': 11.47, 'lipoC3S2': 7.62, 'rot1': 10, 'rot0': 8, 'rot3': 32, 'rot2': 30, 'state': 'normal', 'yaw': 5.63, 'datetime': '2018-10-09 20:19:24.449333', 'mgs': 0, 'volt': 0.874, 'depth': 1.157, 'time': 12, 'pitch': -1.92, 'roll': -1.17, 'pres': 179}
{'lipoC2': 7.29, 'lipoC3S1': 3.8, 'temp': 26.88, 'lipoC3S3': 11.52, 'lipoC3S2': 7.63, 'rot1': 10, 'rot0': 8, 'rot3': 32, 'rot2': 31, 'state': 'normal', 'yaw': 5.41, 'datetime': '2018-10-09 20:19:24.553241', 'mgs': 0, 'volt': 0.8936, 'depth': 1.462, 'time': 13, 'pitch': -1.95, 'roll': -1.15, 'pres': 183}
{'lipoC2': 7.29, 'lipoC3S1': 3.81, 'temp': 26.88, 'lipoC3S3': 11.48, 'lipoC3S2': 7.58, 'rot1': 10, 'rot0': 8, 'rot3': 33, 'rot2': 31, 'state': 'normal', 'yaw': 5.16, 'datetime': '2018-10-09 20:19:24.657053', 'mgs': 0, 'volt': 0.8691, 'depth': 1.08, 'time': 13, 'pitch': -1.94, 'roll': -1.15, 'pres': 178}
{'lipoC2': 7.29, 'lipoC3S1': 3.8, 'temp': 26.88, 'lipoC3S3': 11.52, 'lipoC3S2': 7.63, 'rot1': 10, 'rot0': 8, 'rot3': 34, 'rot2': 32, 'state': 'normal', 'yaw': 4.94, 'datetime': '2018-10-09 20:19:24.760981', 'mgs': 0, 'volt': 0.8887, 'depth': 1.385, 'time': 13, 'pitch': -1.86, 'roll': -1.14, 'pres': 182}
{'lipoC2': 7.29, 'lipoC3S1': 3.81, 'temp': 26.94, 'lipoC3S3': 11.48, 'lipoC3S2': 7.58, 'rot1': 10, 'rot0': 8, 'rot3': 34, 'rot2': 32, 'state': 'normal', 'yaw': 4.73, 'datetime': '2018-10-09 20:19:24.864909', 'mgs': 0, 'volt': 0.8691, 'depth': 1.08, 'time': 13, 'pitch': -1.73, 'roll': -1.14, 'pres': 178}
{'lipoC2': 7.29, 'lipoC3S1': 3.83, 'temp': 26.94, 'lipoC3S3': 11.52, 'lipoC3S2': 7.63, 'rot1': 10, 'rot0': 8, 'rot3': 35, 'rot2': 33, 'state': 'normal', 'yaw': 4.52, 'datetime': '2018-10-09 20:19:24.968679', 'mgs': 0, 'volt': 0.8838, 'depth': 1.309, 'time': 13, 'pitch': -1.57, 'roll': -1.13, 'pres': 181}
{'lipoC2': 7.29, 'lipoC3S1': 3.81, 'temp': 26.94, 'lipoC3S3': 11.51, 'lipoC3S2': 7.59, 'rot1': 10, 'rot0': 8, 'rot3': 35, 'rot2': 33, 'state': 'normal', 'yaw': 4.37, 'datetime': '2018-10-09 20:19:25.072593', 'mgs': 0, 'volt': 0.8643, 'depth': 1.004, 'time': 13, 'pitch': -1.44, 'roll': -1.13, 'pres': 177}
{'lipoC2': 7.28, 'lipoC3S1': 3.81, 'temp': 26.94, 'lipoC3S3': 11.51, 'lipoC3S2': 7.62, 'rot1': 10, 'rot0': 8, 'rot3': 36, 'rot2': 34, 'state': 'normal', 'yaw': 4.22, 'datetime': '2018-10-09 20:19:25.177255', 'mgs': 0, 'volt': 0.874, 'depth': 1.157, 'time': 13, 'pitch': -1.32, 'roll': -1.12, 'pres': 179}
{'lipoC2': 7.29, 'lipoC3S1': 3.82, 'temp': 26.94, 'lipoC3S3': 11.55, 'lipoC3S2': 7.64, 'rot1': 10, 'rot0': 8, 'rot3': 36, 'rot2': 34, 'state': 'normal', 'yaw': 4.08, 'datetime': '2018-10-09 20:19:25.280902', 'mgs': 0, 'volt': 0.8643, 'depth': 1.004, 'time': 13, 'pitch': -1.2, 'roll': -1.12, 'pres': 177}
{'lipoC2': 7.29, 'lipoC3S1': 3.82, 'temp': 26.94, 'lipoC3S3': 11.55, 'lipoC3S2': 7.64, 'rot1': 10, 'rot0': 8, 'rot3': 36, 'rot2': 34, 'state': 'normal', 'yaw': 3.97, 'datetime': '2018-10-09 20:19:25.386122', 'mgs': 0, 'volt': 0.8594, 'depth': 0.928, 'time': 13, 'pitch': -1.2, 'roll': -1.14, 'pres': 176}
{'lipoC2': 7.28, 'lipoC3S1': 3.82, 'temp': 26.94, 'lipoC3S3': 11.55, 'lipoC3S2': 7.64, 'rot1': 10, 'rot0': 8, 'rot3': 36, 'rot2': 34, 'state': 'normal', 'yaw': 3.86, 'datetime': '2018-10-09 20:19:25.489949', 'mgs': 0, 'volt': 0.8643, 'depth': 1.004, 'time': 14, 'pitch': -1.22, 'roll': -1.15, 'pres': 177}
{'lipoC2': 7.28, 'lipoC3S1': 3.82, 'temp': 26.94, 'lipoC3S3': 11.55, 'lipoC3S2': 7.65, 'rot1': 10, 'rot0': 8, 'rot3': 36, 'rot2': 34, 'state': 'normal', 'yaw': 3.78, 'datetime': '2018-10-09 20:19:25.593929', 'mgs': 0, 'volt': 0.8594, 'depth': 0.928, 'time': 14, 'pitch': -1.3, 'roll': -1.14, 'pres': 176}
{'lipoC2': 7.29, 'lipoC3S1': 3.82, 'temp': 26.94, 'lipoC3S3': 11.55, 'lipoC3S2': 7.64, 'rot1': 10, 'rot0': 8, 'rot3': 36, 'rot2': 34, 'state': 'normal', 'yaw': 3.69, 'datetime': '2018-10-09 20:19:25.698739', 'mgs': 0, 'volt': 0.8594, 'depth': 0.928, 'time': 14, 'pitch': -1.41, 'roll': -1.14, 'pres': 176}
{'lipoC2': 7.29, 'lipoC3S1': 3.82, 'temp': 26.94, 'lipoC3S3': 11.55, 'lipoC3S2': 7.64, 'rot1': 10, 'rot0': 8, 'rot3': 36, 'rot2': 34, 'state': 'normal', 'yaw': 3.61, 'datetime': '2018-10-09 20:19:25.802637', 'mgs': 0, 'volt': 0.8594, 'depth': 0.928, 'time': 14, 'pitch': -1.55, 'roll': -1.18, 'pres': 176}
{'lipoC2': 7.28, 'lipoC3S1': 3.82, 'temp': 26.94, 'lipoC3S3': 11.55, 'lipoC3S2': 7.64, 'rot1': 10, 'rot0': 8, 'rot3': 36, 'rot2': 34, 'state': 'normal', 'yaw': 3.52, 'datetime': '2018-10-09 20:19:25.906528', 'mgs': 0, 'volt': 0.8594, 'depth': 0.928, 'time': 14, 'pitch': -1.69, 'roll': -1.24, 'pres': 176}
{'lipoC2': 7.29, 'lipoC3S1': 3.82, 'temp': 26.88, 'lipoC3S3': 11.55, 'lipoC3S2': 7.64, 'rot1': 10, 'rot0': 8, 'rot3': 36, 'rot2': 34, 'state': 'normal', 'yaw': 3.45, 'datetime': '2018-10-09 20:19:26.010393', 'mgs': 0, 'volt': 0.8594, 'depth': 0.928, 'time': 14, 'pitch': -1.83, 'roll': -1.32, 'pres': 176}
{'lipoC2': 7.28, 'lipoC3S1': 3.82, 'temp': 26.88, 'lipoC3S3': 11.55, 'lipoC3S2': 7.65, 'rot1': 10, 'rot0': 8, 'rot3': 36, 'rot2': 34, 'state': 'normal', 'yaw': 3.38, 'datetime': '2018-10-09 20:19:26.114259', 'mgs': 0, 'volt': 0.8594, 'depth': 0.928, 'time': 14, 'pitch': -1.92, 'roll': -1.4, 'pres': 176}
{'lipoC2': 7.29, 'lipoC3S1': 3.82, 'temp': 26.88, 'lipoC3S3': 11.48, 'lipoC3S2': 7.65, 'rot1': 10, 'rot0': 8, 'rot3': 36, 'rot2': 34, 'state': 'normal', 'yaw': 3.36, 'datetime': '2018-10-09 20:19:26.219421', 'mgs': 0, 'volt': 0.8594, 'depth': 0.928, 'time': 14, 'pitch': -1.92, 'roll': -1.4, 'pres': 176}
{'lipoC2': 7.29, 'lipoC3S1': 3.82, 'temp': 26.88, 'lipoC3S3': 11.55, 'lipoC3S2': 7.64, 'rot1': 10, 'rot0': 8, 'rot3': 36, 'rot2': 34, 'state': 'normal', 'yaw': 3.33, 'datetime': '2018-10-09 20:19:26.323249', 'mgs': 0, 'volt': 0.8594, 'depth': 0.928, 'time': 14, 'pitch': -1.92, 'roll': -1.4, 'pres': 176}
{'lipoC2': 7.29, 'lipoC3S1': 3.82, 'temp': 26.88, 'lipoC3S3': 11.55, 'lipoC3S2': 7.64, 'rot1': 10, 'rot0': 8, 'rot3': 36, 'rot2': 34, 'state': 'normal', 'yaw': 3.33, 'datetime': '2018-10-09 20:19:26.428416', 'mgs': 0, 'volt': 0.874, 'depth': 1.157, 'time': 14, 'pitch': -1.92, 'roll': -1.4, 'pres': 179}
{'lipoC2': 7.29, 'lipoC3S1': 3.82, 'temp': 26.94, 'lipoC3S3': 11.55, 'lipoC3S2': 7.59, 'rot1': 10, 'rot0': 8, 'rot3': 36, 'rot2': 34, 'state': 'normal', 'yaw': 3.32, 'datetime': '2018-10-09 20:19:26.532272', 'mgs': 0, 'volt': 0.8643, 'depth': 1.004, 'time': 15, 'pitch': -1.92, 'roll': -1.4, 'pres': 177}
{'lipoC2': 7.29, 'lipoC3S1': 3.82, 'temp': 26.94, 'lipoC3S3': 11.55, 'lipoC3S2': 7.64, 'rot1': 10, 'rot0': 8, 'rot3': 36, 'rot2': 34, 'state': 'normal', 'yaw': 3.31, 'datetime': '2018-10-09 20:19:26.636191', 'mgs': 0, 'volt': 0.8643, 'depth': 1.004, 'time': 15, 'pitch': -1.9, 'roll': -1.4, 'pres': 177}
{'lipoC2': 7.29, 'lipoC3S1': 3.82, 'temp': 26.88, 'lipoC3S3': 11.58, 'lipoC3S2': 7.64, 'rot1': 10, 'rot0': 8, 'rot3': 36, 'rot2': 34, 'state': 'normal', 'yaw': 3.32, 'datetime': '2018-10-09 20:19:26.741185', 'mgs': 0, 'volt': 0.8691, 'depth': 1.08, 'time': 15, 'pitch': -1.81, 'roll': -1.39, 'pres': 178}
{'lipoC2': 7.29, 'lipoC3S1': 3.82, 'temp': 26.88, 'lipoC3S3': 11.55, 'lipoC3S2': 7.64, 'rot1': 10, 'rot0': 8, 'rot3': 36, 'rot2': 34, 'state': 'normal', 'yaw': 3.32, 'datetime': '2018-10-09 20:19:26.845060', 'mgs': 0, 'volt': 0.8691, 'depth': 1.08, 'time': 15, 'pitch': -1.68, 'roll': -1.4, 'pres': 178}
{'lipoC2': 7.29, 'lipoC3S1': 3.82, 'temp': 26.88, 'lipoC3S3': 11.55, 'lipoC3S2': 7.65, 'rot1': 10, 'rot0': 8, 'rot3': 36, 'rot2': 34, 'state': 'normal', 'yaw': 3.31, 'datetime': '2018-10-09 20:19:26.950197', 'mgs': 0, 'volt': 0.8691, 'depth': 1.08, 'time': 15, 'pitch': -1.56, 'roll': -1.4, 'pres': 178}
{'lipoC2': 7.29, 'lipoC3S1': 3.82, 'temp': 26.88, 'lipoC3S3': 11.55, 'lipoC3S2': 7.61, 'rot1': 10, 'rot0': 8, 'rot3': 36, 'rot2': 34, 'state': 'normal', 'yaw': 3.31, 'datetime': '2018-10-09 20:19:27.054087', 'mgs': 0, 'volt': 0.8691, 'depth': 1.08, 'time': 15, 'pitch': -1.51, 'roll': -1.4, 'pres': 178}
{'lipoC2': 7.29, 'lipoC3S1': 3.82, 'temp': 26.88, 'lipoC3S3': 11.55, 'lipoC3S2': 7.64, 'rot1': 10, 'rot0': 8, 'rot3': 36, 'rot2': 34, 'state': 'normal', 'yaw': 3.31, 'datetime': '2018-10-09 20:19:27.158004', 'mgs': 0, 'volt': 0.874, 'depth': 1.157, 'time': 15, 'pitch': -1.51, 'roll': -1.4, 'pres': 179}
{'lipoC2': 7.29, 'lipoC3S1': 3.82, 'temp': 26.94, 'lipoC3S3': 11.55, 'lipoC3S2': 7.65, 'rot1': 10, 'rot0': 8, 'rot3': 36, 'rot2': 34, 'state': 'normal', 'yaw': 3.31, 'datetime': '2018-10-09 20:19:27.262844', 'mgs': 0, 'volt': 0.874, 'depth': 1.157, 'time': 15, 'pitch': -1.52, 'roll': -1.37, 'pres': 179}
{'lipoC2': 7.28, 'lipoC3S1': 3.82, 'temp': 26.94, 'lipoC3S3': 11.55, 'lipoC3S2': 7.65, 'rot1': 10, 'rot0': 8, 'rot3': 36, 'rot2': 34, 'state': 'normal', 'yaw': 3.31, 'datetime': '2018-10-09 20:19:27.366617', 'mgs': 0, 'volt': 0.8789, 'depth': 1.233, 'time': 15, 'pitch': -1.52, 'roll': -1.32, 'pres': 180}
{'lipoC2': 7.29, 'lipoC3S1': 3.82, 'temp': 26.94, 'lipoC3S3': 11.5, 'lipoC3S2': 7.64, 'rot1': 10, 'rot0': 8, 'rot3': 36, 'rot2': 34, 'state': 'normal', 'yaw': 3.31, 'datetime': '2018-10-09 20:19:27.471798', 'mgs': 0, 'volt': 0.8789, 'depth': 1.233, 'time': 15, 'pitch': -1.52, 'roll': -1.32, 'pres': 180}
{'lipoC2': 7.28, 'lipoC3S1': 3.81, 'temp': 26.94, 'lipoC3S3': 11.51, 'lipoC3S2': 7.63, 'rot1': 10, 'rot0': 8, 'rot3': 37, 'rot2': 34, 'state': 'normal', 'yaw': 3.31, 'datetime': '2018-10-09 20:19:27.575642', 'mgs': 0, 'volt': 0.8936, 'depth': 1.462, 'time': 16, 'pitch': -1.52, 'roll': -1.32, 'pres': 183}
{'lipoC2': 7.28, 'lipoC3S1': 3.81, 'temp': 26.94, 'lipoC3S3': 11.52, 'lipoC3S2': 7.63, 'rot1': 10, 'rot0': 8, 'rot3': 37, 'rot2': 35, 'state': 'normal', 'yaw': 3.31, 'datetime': '2018-10-09 20:19:27.680065', 'mgs': 0, 'volt': 0.8984, 'depth': 1.538, 'time': 16, 'pitch': -1.47, 'roll': -1.31, 'pres': 184}
{'lipoC2': 7.29, 'lipoC3S1': 3.81, 'temp': 26.94, 'lipoC3S3': 11.52, 'lipoC3S2': 7.63, 'rot1': 10, 'rot0': 8, 'rot3': 38, 'rot2': 35, 'state': 'normal', 'yaw': 3.27, 'datetime': '2018-10-09 20:19:27.784491', 'mgs': 0, 'volt': 0.9033, 'depth': 1.614, 'time': 16, 'pitch': -1.35, 'roll': -1.28, 'pres': 185}
{'lipoC2': 7.29, 'lipoC3S1': 3.81, 'temp': 26.94, 'lipoC3S3': 11.51, 'lipoC3S2': 7.6, 'rot1': 10, 'rot0': 8, 'rot3': 38, 'rot2': 36, 'state': 'normal', 'yaw': 3.2, 'datetime': '2018-10-09 20:19:27.888377', 'mgs': 0, 'volt': 0.8838, 'depth': 1.309, 'time': 16, 'pitch': -1.18, 'roll': -1.18, 'pres': 181}
{'lipoC2': 7.29, 'lipoC3S1': 3.78, 'temp': 26.94, 'lipoC3S3': 11.52, 'lipoC3S2': 7.61, 'rot1': 10, 'rot0': 8, 'rot3': 39, 'rot2': 37, 'state': 'normal', 'yaw': 3.09, 'datetime': '2018-10-09 20:19:27.993534', 'mgs': 0, 'volt': 0.8838, 'depth': 1.309, 'time': 16, 'pitch': -1.02, 'roll': -1.06, 'pres': 181}
{'lipoC2': 7.28, 'lipoC3S1': 3.81, 'temp': 26.94, 'lipoC3S3': 11.46, 'lipoC3S2': 7.63, 'rot1': 10, 'rot0': 8, 'rot3': 39, 'rot2': 37, 'state': 'normal', 'yaw': 2.97, 'datetime': '2018-10-09 20:19:28.097427', 'mgs': 0, 'volt': 0.9131, 'depth': 1.767, 'time': 16, 'pitch': -0.83, 'roll': -0.92, 'pres': 187}
{'lipoC2': 7.28, 'lipoC3S1': 3.81, 'temp': 26.94, 'lipoC3S3': 11.48, 'lipoC3S2': 7.58, 'rot1': 10, 'rot0': 8, 'rot3': 40, 'rot2': 38, 'state': 'normal', 'yaw': 2.85, 'datetime': '2018-10-09 20:19:28.201546', 'mgs': 0, 'volt': 0.8838, 'depth': 1.309, 'time': 16, 'pitch': -0.68, 'roll': -0.8, 'pres': 181}
{'lipoC2': 7.28, 'lipoC3S1': 3.81, 'temp': 26.94, 'lipoC3S3': 11.51, 'lipoC3S2': 7.63, 'rot1': 10, 'rot0': 8, 'rot3': 41, 'rot2': 38, 'state': 'normal', 'yaw': 2.73, 'datetime': '2018-10-09 20:19:28.306210', 'mgs': 0, 'volt': 0.8887, 'depth': 1.385, 'time': 16, 'pitch': -0.52, 'roll': -0.69, 'pres': 182}
{'lipoC2': 7.29, 'lipoC3S1': 3.78, 'temp': 26.94, 'lipoC3S3': 11.51, 'lipoC3S2': 7.6, 'rot1': 10, 'rot0': 8, 'rot3': 41, 'rot2': 39, 'state': 'normal', 'yaw': 2.61, 'datetime': '2018-10-09 20:19:28.409995', 'mgs': 0, 'volt': 0.8838, 'depth': 1.309, 'time': 16, 'pitch': -0.4, 'roll': -0.62, 'pres': 181}
{'lipoC2': 7.28, 'lipoC3S1': 3.81, 'temp': 26.94, 'lipoC3S3': 11.51, 'lipoC3S2': 7.63, 'rot1': 10, 'rot0': 8, 'rot3': 42, 'rot2': 40, 'state': 'normal', 'yaw': 2.54, 'datetime': '2018-10-09 20:19:28.513937', 'mgs': 0, 'volt': 0.8887, 'depth': 1.385, 'time': 17, 'pitch': -0.38, 'roll': -0.62, 'pres': 182}
{'lipoC2': 7.29, 'lipoC3S1': 3.78, 'temp': 26.94, 'lipoC3S3': 11.52, 'lipoC3S2': 7.61, 'rot1': 10, 'rot0': 8, 'rot3': 43, 'rot2': 40, 'state': 'normal', 'yaw': 2.46, 'datetime': '2018-10-09 20:19:28.617721', 'mgs': 0, 'volt': 0.8789, 'depth': 1.233, 'time': 17, 'pitch': -0.41, 'roll': -0.63, 'pres': 180}
{'lipoC2': 7.28, 'lipoC3S1': 3.81, 'temp': 26.94, 'lipoC3S3': 11.54, 'lipoC3S2': 7.62, 'rot1': 10, 'rot0': 8, 'rot3': 43, 'rot2': 41, 'state': 'normal', 'yaw': 2.41, 'datetime': '2018-10-09 20:19:28.721646', 'mgs': 0, 'volt': 0.8789, 'depth': 1.233, 'time': 17, 'pitch': -0.53, 'roll': -0.66, 'pres': 180}
{'lipoC2': 7.28, 'lipoC3S1': 3.81, 'temp': 26.94, 'lipoC3S3': 11.47, 'lipoC3S2': 7.62, 'rot1': 10, 'rot0': 8, 'rot3': 44, 'rot2': 41, 'state': 'normal', 'yaw': 2.34, 'datetime': '2018-10-09 20:19:28.826774', 'mgs': 0, 'volt': 0.8789, 'depth': 1.233, 'time': 17, 'pitch': -0.71, 'roll': -0.67, 'pres': 180}
{'lipoC2': 7.29, 'lipoC3S1': 3.79, 'temp': 26.88, 'lipoC3S3': 11.52, 'lipoC3S2': 7.63, 'rot1': 10, 'rot0': 8, 'rot3': 44, 'rot2': 42, 'state': 'normal', 'yaw': 2.32, 'datetime': '2018-10-09 20:19:28.930669', 'mgs': 0, 'volt': 0.8545, 'depth': 0.851, 'time': 17, 'pitch': -0.91, 'roll': -0.73, 'pres': 175}
{'lipoC2': 7.29, 'lipoC3S1': 3.82, 'temp': 26.88, 'lipoC3S3': 11.55, 'lipoC3S2': 7.64, 'rot1': 10, 'rot0': 8, 'rot3': 45, 'rot2': 42, 'state': 'normal', 'yaw': 2.31, 'datetime': '2018-10-09 20:19:29.032206', 'mgs': 0, 'volt': 0.874, 'depth': 1.157, 'time': 17, 'pitch': -1.12, 'roll': -0.82, 'pres': 179}
{'lipoC2': 7.29, 'lipoC3S1': 3.82, 'temp': 26.94, 'lipoC3S3': 11.5, 'lipoC3S2': 7.64, 'rot1': 10, 'rot0': 8, 'rot3': 45, 'rot2': 42, 'state': 'normal', 'yaw': 2.32, 'datetime': '2018-10-09 20:19:29.136517', 'mgs': 0, 'volt': 0.8691, 'depth': 1.08, 'time': 17, 'pitch': -1.48, 'roll': -0.99, 'pres': 178}
{'lipoC2': 7.28, 'lipoC3S1': 3.82, 'temp': 26.94, 'lipoC3S3': 11.55, 'lipoC3S2': 7.65, 'rot1': 10, 'rot0': 8, 'rot3': 45, 'rot2': 42, 'state': 'normal', 'yaw': 2.33, 'datetime': '2018-10-09 20:19:29.240204', 'mgs': 0, 'volt': 0.874, 'depth': 1.157, 'time': 17, 'pitch': -1.92, 'roll': -1.18, 'pres': 179}
{'lipoC2': 7.29, 'lipoC3S1': 3.82, 'temp': 26.94, 'lipoC3S3': 11.55, 'lipoC3S2': 7.64, 'rot1': 10, 'rot0': 8, 'rot3': 45, 'rot2': 42, 'state': 'normal', 'yaw': 2.33, 'datetime': '2018-10-09 20:19:29.345376', 'mgs': 0, 'volt': 0.8691, 'depth': 1.08, 'time': 17, 'pitch': -2.39, 'roll': -1.37, 'pres': 178}
{'lipoC2': 7.29, 'lipoC3S1': 3.82, 'temp': 26.94, 'lipoC3S3': 11.55, 'lipoC3S2': 7.64, 'rot1': 10, 'rot0': 8, 'rot3': 45, 'rot2': 42, 'state': 'normal', 'yaw': 2.34, 'datetime': '2018-10-09 20:19:29.449198', 'mgs': 0, 'volt': 0.8691, 'depth': 1.08, 'time': 17, 'pitch': -2.85, 'roll': -1.56, 'pres': 178}
{'lipoC2': 7.29, 'lipoC3S1': 3.82, 'temp': 26.94, 'lipoC3S3': 11.55, 'lipoC3S2': 7.64, 'rot1': 10, 'rot0': 8, 'rot3': 45, 'rot2': 42, 'state': 'normal', 'yaw': 2.34, 'datetime': '2018-10-09 20:19:29.554256', 'mgs': 0, 'volt': 0.8691, 'depth': 1.08, 'time': 18, 'pitch': -3.18, 'roll': -1.72, 'pres': 178}
{'lipoC2': 7.28, 'lipoC3S1': 3.82, 'temp': 26.94, 'lipoC3S3': 11.55, 'lipoC3S2': 7.64, 'rot1': 10, 'rot0': 8, 'rot3': 45, 'rot2': 42, 'state': 'normal', 'yaw': 2.35, 'datetime': '2018-10-09 20:19:29.658226', 'mgs': 0, 'volt': 0.8691, 'depth': 1.08, 'time': 18, 'pitch': -3.41, 'roll': -1.84, 'pres': 178}
{'lipoC2': 7.29, 'lipoC3S1': 3.82, 'temp': 26.94, 'lipoC3S3': 11.55, 'lipoC3S2': 7.64, 'rot1': 10, 'rot0': 8, 'rot3': 45, 'rot2': 42, 'state': 'normal', 'yaw': 2.35, 'datetime': '2018-10-09 20:19:29.761582', 'mgs': 0, 'volt': 0.8984, 'depth': 1.538, 'time': 18, 'pitch': -3.51, 'roll': -1.97, 'pres': 184}
{'lipoC2': 7.29, 'lipoC3S1': 3.78, 'temp': 26.94, 'lipoC3S3': 11.52, 'lipoC3S2': 7.62, 'rot1': 10, 'rot0': 8, 'rot3': 45, 'rot2': 42, 'state': 'normal', 'yaw': 2.35, 'datetime': '2018-10-09 20:19:29.865387', 'mgs': 0, 'volt': 0.874, 'depth': 1.157, 'time': 18, 'pitch': -3.51, 'roll': -2.07, 'pres': 179}
{'lipoC2': 7.28, 'lipoC3S1': 3.81, 'temp': 26.94, 'lipoC3S3': 11.46, 'lipoC3S2': 7.62, 'rot1': 10, 'rot0': 8, 'rot3': 46, 'rot2': 43, 'state': 'normal', 'yaw': 2.34, 'datetime': '2018-10-09 20:19:29.969246', 'mgs': 0, 'volt': 0.8691, 'depth': 1.08, 'time': 18, 'pitch': -3.37, 'roll': -2.08, 'pres': 178}
{'lipoC2': 7.29, 'lipoC3S1': 3.82, 'temp': 26.94, 'lipoC3S3': 11.55, 'lipoC3S2': 7.6, 'rot1': 10, 'rot0': 8, 'rot3': 46, 'rot2': 43, 'state': 'normal', 'yaw': 2.29, 'datetime': '2018-10-09 20:19:30.073151', 'mgs': 0, 'volt': 0.8691, 'depth': 1.08, 'time': 18, 'pitch': -3.08, 'roll': -2.07, 'pres': 178}
{'lipoC2': 7.29, 'lipoC3S1': 3.82, 'temp': 26.94, 'lipoC3S3': 11.55, 'lipoC3S2': 7.64, 'rot1': 10, 'rot0': 8, 'rot3': 46, 'rot2': 43, 'state': 'normal', 'yaw': 2.26, 'datetime': '2018-10-09 20:19:30.177013', 'mgs': 0, 'volt': 0.8691, 'depth': 1.08, 'time': 18, 'pitch': -2.83, 'roll': -2.02, 'pres': 178}
{'lipoC2': 7.29, 'lipoC3S1': 3.82, 'temp': 26.94, 'lipoC3S3': 11.55, 'lipoC3S2': 7.64, 'rot1': 10, 'rot0': 8, 'rot3': 46, 'rot2': 43, 'state': 'normal', 'yaw': 2.26, 'datetime': '2018-10-09 20:19:30.287540', 'mgs': 0, 'volt': 0.874, 'depth': 1.157, 'time': 18, 'pitch': -2.6, 'roll': -1.94, 'pres': 179}
{'lipoC2': 7.29, 'lipoC3S1': 3.82, 'temp': 27.0, 'lipoC3S3': 11.55, 'lipoC3S2': 7.65, 'rot1': 10, 'rot0': 8, 'rot3': 46, 'rot2': 43, 'state': 'normal', 'yaw': 2.25, 'datetime': '2018-10-09 20:19:30.391254', 'mgs': 0, 'volt': 0.874, 'depth': 1.157, 'time': 18, 'pitch': -2.38, 'roll': -1.84, 'pres': 179}
{'lipoC2': 7.29, 'lipoC3S1': 3.82, 'temp': 27.0, 'lipoC3S3': 11.55, 'lipoC3S2': 7.64, 'rot1': 10, 'rot0': 8, 'rot3': 46, 'rot2': 43, 'state': 'normal', 'yaw': 2.24, 'datetime': '2018-10-09 20:19:30.495840', 'mgs': 0, 'volt': 0.874, 'depth': 1.157, 'time': 19, 'pitch': -2.16, 'roll': -1.73, 'pres': 179}
{'lipoC2': 7.29, 'lipoC3S1': 3.82, 'temp': 26.94, 'lipoC3S3': 11.55, 'lipoC3S2': 7.64, 'rot1': 10, 'rot0': 8, 'rot3': 46, 'rot2': 43, 'state': 'normal', 'yaw': 2.23, 'datetime': '2018-10-09 20:19:30.594266', 'mgs': 0, 'volt': 0.8789, 'depth': 1.233, 'time': 19, 'pitch': -1.93, 'roll': -1.61, 'pres': 180}
{'lipoC2': 7.29, 'lipoC3S1': 3.79, 'temp': 26.94, 'lipoC3S3': 11.52, 'lipoC3S2': 7.63, 'rot1': 10, 'rot0': 8, 'rot3': 46, 'rot2': 44, 'state': 'normal', 'yaw': 2.23, 'datetime': '2018-10-09 20:19:30.698190', 'mgs': 0, 'volt': 0.8984, 'depth': 1.538, 'time': 19, 'pitch': -1.77, 'roll': -1.55, 'pres': 184}
{'lipoC2': 7.28, 'lipoC3S1': 3.81, 'temp': 26.94, 'lipoC3S3': 11.47, 'lipoC3S2': 7.57, 'rot1': 10, 'rot0': 8, 'rot3': 47, 'rot2': 44, 'state': 'normal', 'yaw': 2.22, 'datetime': '2018-10-09 20:19:30.802146', 'mgs': 0, 'volt': 0.8789, 'depth': 1.233, 'time': 19, 'pitch': -1.63, 'roll': -1.4, 'pres': 180}
{'lipoC2': 7.29, 'lipoC3S1': 3.81, 'temp': 26.94, 'lipoC3S3': 11.52, 'lipoC3S2': 7.63, 'rot1': 10, 'rot0': 8, 'rot3': 47, 'rot2': 45, 'state': 'normal', 'yaw': 2.22, 'datetime': '2018-10-09 20:19:30.906030', 'mgs': 0, 'volt': 0.8984, 'depth': 1.538, 'time': 19, 'pitch': -1.53, 'roll': -1.25, 'pres': 184}
{'lipoC2': 7.28, 'lipoC3S1': 3.81, 'temp': 26.94, 'lipoC3S3': 11.5, 'lipoC3S2': 7.58, 'rot1': 10, 'rot0': 8, 'rot3': 48, 'rot2': 45, 'state': 'normal', 'yaw': 2.21, 'datetime': '2018-10-09 20:19:31.010860', 'mgs': 0, 'volt': 0.8789, 'depth': 1.233, 'time': 19, 'pitch': -1.48, 'roll': -1.12, 'pres': 180}
{'lipoC2': 7.28, 'lipoC3S1': 3.81, 'temp': 26.94, 'lipoC3S3': 11.52, 'lipoC3S2': 7.63, 'rot1': 10, 'rot0': 8, 'rot3': 48, 'rot2': 46, 'state': 'normal', 'yaw': 2.21, 'datetime': '2018-10-09 20:19:31.116129', 'mgs': 0, 'volt': 0.8887, 'depth': 1.385, 'time': 19, 'pitch': -1.5, 'roll': -1.06, 'pres': 182}
