{'lipoC2': 7.55, 'lipoC3S1': 4.14, 'temp': 31.06, 'lipoC3S3': 12.5, 'lipoC3S2': 8.27, 'rot1': 0, 'rot0': 0, 'rot3': 94, 'rot2': 77, 'state': 'normal', 'yaw': 38.4, 'datetime': '2018-10-09 12:05:06.369191', 'mgs': 0, 'volt': 0.9033, 'depth': 1.614, 'time': 26, 'pitch': 9.18, 'roll': -0.69, 'pres': 185}
{'lipoC2': 7.55, 'lipoC3S1': 4.14, 'temp': 31.0, 'lipoC3S3': 12.5, 'lipoC3S2': 8.27, 'rot1': 0, 'rot0': 0, 'rot3': 94, 'rot2': 77, 'state': 'normal', 'yaw': 38.16, 'datetime': '2018-10-09 12:05:06.392656', 'mgs': 0, 'volt': 0.9033, 'depth': 1.614, 'time': 26, 'pitch': 8.35, 'roll': -1.0, 'pres': 185}
{'lipoC2': 7.55, 'lipoC3S1': 4.14, 'temp': 31.0, 'lipoC3S3': 12.5, 'lipoC3S2': 8.27, 'rot1': 0, 'rot0': 0, 'rot3': 94, 'rot2': 77, 'state': 'normal', 'yaw': 37.97, 'datetime': '2018-10-09 12:05:06.416262', 'mgs': 0, 'volt': 0.9033, 'depth': 1.614, 'time': 26, 'pitch': 7.25, 'roll': -1.09, 'pres': 185}
{'lipoC2': 7.55, 'lipoC3S1': 4.14, 'temp': 31.06, 'lipoC3S3': 12.5, 'lipoC3S2': 8.27, 'rot1': 0, 'rot0': 0, 'rot3': 94, 'rot2': 77, 'state': 'normal', 'yaw': 37.81, 'datetime': '2018-10-09 12:05:06.439886', 'mgs': 0, 'volt': 0.9033, 'depth': 1.614, 'time': 26, 'pitch': 6.19, 'roll': -1.05, 'pres': 185}
{'lipoC2': 7.55, 'lipoC3S1': 4.14, 'temp': 31.06, 'lipoC3S3': 12.51, 'lipoC3S2': 8.27, 'rot1': 0, 'rot0': 0, 'rot3': 94, 'rot2': 77, 'state': 'normal', 'yaw': 37.66, 'datetime': '2018-10-09 12:05:06.450201', 'mgs': 0, 'volt': 0.9033, 'depth': 1.614, 'time': 26, 'pitch': 5.42, 'roll': -1.0, 'pres': 185}
{'lipoC2': 7.55, 'lipoC3S1': 4.14, 'temp': 31.06, 'lipoC3S3': 12.5, 'lipoC3S2': 8.27, 'rot1': 0, 'rot0': 0, 'rot3': 94, 'rot2': 77, 'state': 'normal', 'yaw': 37.5, 'datetime': '2018-10-09 12:05:06.460426', 'mgs': 0, 'volt': 0.9033, 'depth': 1.614, 'time': 26, 'pitch': 5.22, 'roll': -1.03, 'pres': 185}
{'lipoC2': 7.55, 'lipoC3S1': 4.14, 'temp': 31.06, 'lipoC3S3': 12.5, 'lipoC3S2': 8.27, 'rot1': 0, 'rot0': 0, 'rot3': 94, 'rot2': 77, 'state': 'normal', 'yaw': 37.3, 'datetime': '2018-10-09 12:05:06.470624', 'mgs': 0, 'volt': 0.9033, 'depth': 1.614, 'time': 26, 'pitch': 5.42, 'roll': -0.99, 'pres': 185}
{'lipoC2': 7.55, 'lipoC3S1': 4.14, 'temp': 31.06, 'lipoC3S3': 12.5, 'lipoC3S2': 8.27, 'rot1': 0, 'rot0': 0, 'rot3': 94, 'rot2': 77, 'state': 'normal', 'yaw': 37.08, 'datetime': '2018-10-09 12:05:06.480813', 'mgs': 0, 'volt': 0.9033, 'depth': 1.614, 'time': 27, 'pitch': 5.71, 'roll': -0.89, 'pres': 185}
{'lipoC2': 7.55, 'lipoC3S1': 4.14, 'temp': 31.06, 'lipoC3S3': 12.5, 'lipoC3S2': 8.27, 'rot1': 0, 'rot0': 0, 'rot3': 94, 'rot2': 77, 'state': 'normal', 'yaw': 36.9, 'datetime': '2018-10-09 12:05:06.491028', 'mgs': 0, 'volt': 0.9033, 'depth': 1.614, 'time': 27, 'pitch': 5.84, 'roll': -0.65, 'pres': 185}
{'lipoC2': 7.55, 'lipoC3S1': 4.14, 'temp': 31.06, 'lipoC3S3': 12.5, 'lipoC3S2': 8.27, 'rot1': 0, 'rot0': 0, 'rot3': 94, 'rot2': 77, 'state': 'normal', 'yaw': 36.73, 'datetime': '2018-10-09 12:05:06.501243', 'mgs': 0, 'volt': 0.9033, 'depth': 1.614, 'time': 27, 'pitch': 5.81, 'roll': -0.31, 'pres': 185}
{'lipoC2': 7.55, 'lipoC3S1': 4.13, 'temp': 31.06, 'lipoC3S3': 12.5, 'lipoC3S2': 8.27, 'rot1': 0, 'rot0': 0, 'rot3': 94, 'rot2': 77, 'state': 'normal', 'yaw': 36.58, 'datetime': '2018-10-09 12:05:06.511427', 'mgs': 0, 'volt': 0.9033, 'depth': 1.614, 'time': 27, 'pitch': 5.72, 'roll': 0.1, 'pres': 185}
{'lipoC2': 7.55, 'lipoC3S1': 4.13, 'temp': 31.06, 'lipoC3S3': 12.5, 'lipoC3S2': 8.26, 'rot1': 0, 'rot0': 0, 'rot3': 94, 'rot2': 77, 'state': 'normal', 'yaw': 36.46, 'datetime': '2018-10-09 12:05:06.521594', 'mgs': 0, 'volt': 0.8984, 'depth': 1.538, 'time': 27, 'pitch': 5.66, 'roll': 0.4, 'pres': 184}
{'lipoC2': 7.55, 'lipoC3S1': 4.13, 'temp': 31.06, 'lipoC3S3': 12.5, 'lipoC3S2': 8.27, 'rot1': 0, 'rot0': 0, 'rot3': 94, 'rot2': 77, 'state': 'normal', 'yaw': 36.33, 'datetime': '2018-10-09 12:05:06.531787', 'mgs': 0, 'volt': 0.9033, 'depth': 1.614, 'time': 27, 'pitch': 5.61, 'roll': 0.53, 'pres': 185}
{'lipoC2': 7.55, 'lipoC3S1': 4.13, 'temp': 31.06, 'lipoC3S3': 12.5, 'lipoC3S2': 8.26, 'rot1': 0, 'rot0': 0, 'rot3': 94, 'rot2': 77, 'state': 'normal', 'yaw': 36.15, 'datetime': '2018-10-09 12:05:06.541980', 'mgs': 0, 'volt': 0.9033, 'depth': 1.614, 'time': 27, 'pitch': 5.24, 'roll': 0.46, 'pres': 185}
{'lipoC2': 7.55, 'lipoC3S1': 4.13, 'temp': 31.06, 'lipoC3S3': 12.5, 'lipoC3S2': 8.27, 'rot1': 0, 'rot0': 0, 'rot3': 94, 'rot2': 77, 'state': 'normal', 'yaw': 35.96, 'datetime': '2018-10-09 12:05:06.551890', 'mgs': 0, 'volt': 0.9033, 'depth': 1.614, 'time': 27, 'pitch': 4.28, 'roll': 0.44, 'pres': 185}
{'lipoC2': 7.55, 'lipoC3S1': 4.13, 'temp': 31.06, 'lipoC3S3': 12.5, 'lipoC3S2': 8.26, 'rot1': 0, 'rot0': 0, 'rot3': 94, 'rot2': 77, 'state': 'normal', 'yaw': 35.74, 'datetime': '2018-10-09 12:05:06.561587', 'mgs': 0, 'volt': 0.9033, 'depth': 1.614, 'time': 27, 'pitch': 2.9, 'roll': 0.63, 'pres': 185}
{'lipoC2': 7.55, 'lipoC3S1': 4.13, 'temp': 31.06, 'lipoC3S3': 12.5, 'lipoC3S2': 8.26, 'rot1': 0, 'rot0': 0, 'rot3': 94, 'rot2': 77, 'state': 'normal', 'yaw': 35.49, 'datetime': '2018-10-09 12:05:06.571291', 'mgs': 0, 'volt': 0.9033, 'depth': 1.614, 'time': 27, 'pitch': 1.42, 'roll': 0.98, 'pres': 185}
{'lipoC2': 7.55, 'lipoC3S1': 4.13, 'temp': 31.06, 'lipoC3S3': 12.5, 'lipoC3S2': 8.27, 'rot1': 0, 'rot0': 0, 'rot3': 94, 'rot2': 77, 'state': 'normal', 'yaw': 35.29, 'datetime': '2018-10-09 12:05:06.580926', 'mgs': 0, 'volt': 0.9033, 'depth': 1.614, 'time': 28, 'pitch': 0.71, 'roll': 1.18, 'pres': 185}
{'lipoC2': 7.55, 'lipoC3S1': 4.13, 'temp': 31.06, 'lipoC3S3': 12.5, 'lipoC3S2': 8.27, 'rot1': 0, 'rot0': 0, 'rot3': 94, 'rot2': 77, 'state': 'normal', 'yaw': 35.15, 'datetime': '2018-10-09 12:05:06.590642', 'mgs': 0, 'volt': 0.9082, 'depth': 1.691, 'time': 28, 'pitch': 0.98, 'roll': 1.12, 'pres': 186}
{'lipoC2': 7.55, 'lipoC3S1': 4.13, 'temp': 31.0, 'lipoC3S3': 12.5, 'lipoC3S2': 8.27, 'rot1': 0, 'rot0': 0, 'rot3': 94, 'rot2': 77, 'state': 'normal', 'yaw': 35.04, 'datetime': '2018-10-09 12:05:06.600302', 'mgs': 0, 'volt': 0.9082, 'depth': 1.691, 'time': 28, 'pitch': 2.53, 'roll': 0.81, 'pres': 186}
{'lipoC2': 7.55, 'lipoC3S1': 4.13, 'temp': 31.0, 'lipoC3S3': 12.5, 'lipoC3S2': 8.26, 'rot1': 0, 'rot0': 0, 'rot3': 94, 'rot2': 77, 'state': 'normal', 'yaw': 34.92, 'datetime': '2018-10-09 12:05:06.609919', 'mgs': 0, 'volt': 0.9033, 'depth': 1.614, 'time': 28, 'pitch': 4.64, 'roll': 0.5, 'pres': 185}
{'lipoC2': 7.55, 'lipoC3S1': 4.13, 'temp': 31.0, 'lipoC3S3': 12.5, 'lipoC3S2': 8.26, 'rot1': 0, 'rot0': 0, 'rot3': 94, 'rot2': 77, 'state': 'normal', 'yaw': 34.67, 'datetime': '2018-10-09 12:05:06.619503', 'mgs': 0, 'volt': 0.9082, 'depth': 1.691, 'time': 28, 'pitch': 6.54, 'roll': 0.44, 'pres': 186}
{'lipoC2': 7.55, 'lipoC3S1': 4.14, 'temp': 31.06, 'lipoC3S3': 12.5, 'lipoC3S2': 8.26, 'rot1': 0, 'rot0': 0, 'rot3': 94, 'rot2': 77, 'state': 'normal', 'yaw': 34.02, 'datetime': '2018-10-09 12:05:06.629060', 'mgs': 0, 'volt': 0.9082, 'depth': 1.691, 'time': 28, 'pitch': 7.79, 'roll': 0.66, 'pres': 186}
{'lipoC2': 7.55, 'lipoC3S1': 4.13, 'temp': 31.06, 'lipoC3S3': 12.5, 'lipoC3S2': 8.26, 'rot1': 0, 'rot0': 0, 'rot3': 94, 'rot2': 77, 'state': 'normal', 'yaw': 33.17, 'datetime': '2018-10-09 12:05:06.638618', 'mgs': 0, 'volt': 0.9082, 'depth': 1.691, 'time': 28, 'pitch': 8.01, 'roll': 0.84, 'pres': 186}
{'lipoC2': 7.55, 'lipoC3S1': 4.13, 'temp': 31.06, 'lipoC3S3': 12.5, 'lipoC3S2': 8.27, 'rot1': 0, 'rot0': 0, 'rot3': 94, 'rot2': 77, 'state': 'normal', 'yaw': 32.26, 'datetime': '2018-10-09 12:05:06.648182', 'mgs': 0, 'volt': 0.9082, 'depth': 1.691, 'time': 28, 'pitch': 7.31, 'roll': 0.85, 'pres': 186}
{'lipoC2': 7.55, 'lipoC3S1': 4.13, 'temp': 31.06, 'lipoC3S3': 12.5, 'lipoC3S2': 8.26, 'rot1': 0, 'rot0': 0, 'rot3': 94, 'rot2': 77, 'state': 'normal', 'yaw': 31.22, 'datetime': '2018-10-09 12:05:06.657783', 'mgs': 0, 'volt': 0.9082, 'depth': 1.691, 'time': 28, 'pitch': 5.93, 'roll': 0.35, 'pres': 186}
{'lipoC2': 7.55, 'lipoC3S1': 4.13, 'temp': 31.06, 'lipoC3S3': 12.5, 'lipoC3S2': 8.26, 'rot1': 0, 'rot0': 0, 'rot3': 94, 'rot2': 77, 'state': 'normal', 'yaw': 30.38, 'datetime': '2018-10-09 12:05:06.669522', 'mgs': 0, 'volt': 0.9033, 'depth': 1.614, 'time': 29, 'pitch': 4.67, 'roll': -0.26, 'pres': 185}
{'lipoC2': 7.55, 'lipoC3S1': 4.13, 'temp': 31.06, 'lipoC3S3': 12.5, 'lipoC3S2': 8.27, 'rot1': 0, 'rot0': 0, 'rot3': 94, 'rot2': 77, 'state': 'normal', 'yaw': 29.66, 'datetime': '2018-10-09 12:05:06.679636', 'mgs': 0, 'volt': 0.9033, 'depth': 1.614, 'time': 29, 'pitch': 3.71, 'roll': -0.87, 'pres': 185}
{'lipoC2': 7.55, 'lipoC3S1': 4.13, 'temp': 31.06, 'lipoC3S3': 12.5, 'lipoC3S2': 8.27, 'rot1': 0, 'rot0': 0, 'rot3': 94, 'rot2': 77, 'state': 'normal', 'yaw': 28.95, 'datetime': '2018-10-09 12:05:06.689583', 'mgs': 0, 'volt': 0.9033, 'depth': 1.614, 'time': 29, 'pitch': 3.29, 'roll': -1.4, 'pres': 185}
{'lipoC2': 7.55, 'lipoC3S1': 4.13, 'temp': 31.0, 'lipoC3S3': 12.5, 'lipoC3S2': 8.26, 'rot1': 0, 'rot0': 0, 'rot3': 94, 'rot2': 77, 'state': 'normal', 'yaw': 28.31, 'datetime': '2018-10-09 12:05:06.699586', 'mgs': 0, 'volt': 0.9033, 'depth': 1.614, 'time': 29, 'pitch': 3.57, 'roll': -1.64, 'pres': 185}
{'lipoC2': 7.54, 'lipoC3S1': 4.14, 'temp': 31.0, 'lipoC3S3': 12.5, 'lipoC3S2': 8.26, 'rot1': 0, 'rot0': 0, 'rot3': 94, 'rot2': 77, 'state': 'normal', 'yaw': 27.67, 'datetime': '2018-10-09 12:05:06.709572', 'mgs': 0, 'volt': 0.9033, 'depth': 1.614, 'time': 29, 'pitch': 4.21, 'roll': -1.66, 'pres': 185}
{'lipoC2': 7.54, 'lipoC3S1': 4.13, 'temp': 31.0, 'lipoC3S3': 12.5, 'lipoC3S2': 8.26, 'rot1': 0, 'rot0': 0, 'rot3': 94, 'rot2': 77, 'state': 'normal', 'yaw': 26.96, 'datetime': '2018-10-09 12:05:06.719540', 'mgs': 0, 'volt': 0.9033, 'depth': 1.614, 'time': 29, 'pitch': 5.02, 'roll': -1.53, 'pres': 185}
{'lipoC2': 7.55, 'lipoC3S1': 4.14, 'temp': 31.0, 'lipoC3S3': 12.5, 'lipoC3S2': 8.27, 'rot1': 0, 'rot0': 0, 'rot3': 94, 'rot2': 77, 'state': 'normal', 'yaw': 26.33, 'datetime': '2018-10-09 12:05:06.775240', 'mgs': 0, 'volt': 0.9033, 'depth': 1.614, 'time': 29, 'pitch': 5.49, 'roll': -1.46, 'pres': 185}
{'lipoC2': 7.55, 'lipoC3S1': 4.13, 'temp': 30.94, 'lipoC3S3': 12.5, 'lipoC3S2': 8.27, 'rot1': 0, 'rot0': 0, 'rot3': 94, 'rot2': 77, 'state': 'normal', 'yaw': 25.75, 'datetime': '2018-10-09 12:05:06.878961', 'mgs': 0, 'volt': 0.9033, 'depth': 1.614, 'time': 29, 'pitch': 5.65, 'roll': -1.44, 'pres': 185}
{'lipoC2': 7.55, 'lipoC3S1': 4.13, 'temp': 30.94, 'lipoC3S3': 12.5, 'lipoC3S2': 8.26, 'rot1': 0, 'rot0': 0, 'rot3': 94, 'rot2': 77, 'state': 'normal', 'yaw': 25.18, 'datetime': '2018-10-09 12:05:06.982276', 'mgs': 0, 'volt': 0.9033, 'depth': 1.614, 'time': 29, 'pitch': 5.56, 'roll': -1.42, 'pres': 185}
{'lipoC2': 7.55, 'lipoC3S1': 4.13, 'temp': 30.94, 'lipoC3S3': 12.5, 'lipoC3S2': 8.26, 'rot1': 0, 'rot0': 0, 'rot3': 94, 'rot2': 77, 'state': 'normal', 'yaw': 24.72, 'datetime': '2018-10-09 12:05:07.086888', 'mgs': 0, 'volt': 0.9033, 'depth': 1.614, 'time': 29, 'pitch': 5.33, 'roll': -1.28, 'pres': 185}
{'lipoC2': 7.55, 'lipoC3S1': 4.13, 'temp': 31.06, 'lipoC3S3': 12.5, 'lipoC3S2': 8.27, 'rot1': 0, 'rot0': 0, 'rot3': 94, 'rot2': 77, 'state': 'normal', 'yaw': 24.19, 'datetime': '2018-10-09 12:05:07.196766', 'mgs': 0, 'volt': 0.9033, 'depth': 1.614, 'time': 30, 'pitch': 5.15, 'roll': -0.94, 'pres': 185}
{'lipoC2': 7.55, 'lipoC3S1': 4.14, 'temp': 31.06, 'lipoC3S3': 12.5, 'lipoC3S2': 8.27, 'rot1': 0, 'rot0': 0, 'rot3': 94, 'rot2': 77, 'state': 'normal', 'yaw': 23.67, 'datetime': '2018-10-09 12:05:07.300466', 'mgs': 0, 'volt': 0.9033, 'depth': 1.614, 'time': 30, 'pitch': 5.09, 'roll': -0.44, 'pres': 185}
{'lipoC2': 7.55, 'lipoC3S1': 4.13, 'temp': 31.0, 'lipoC3S3': 12.5, 'lipoC3S2': 8.26, 'rot1': 0, 'rot0': 0, 'rot3': 94, 'rot2': 77, 'state': 'normal', 'yaw': 23.13, 'datetime': '2018-10-09 12:05:07.403790', 'mgs': 0, 'volt': 0.9033, 'depth': 1.614, 'time': 30, 'pitch': 4.93, 'roll': 0.12, 'pres': 185}
{'lipoC2': 7.55, 'lipoC3S1': 4.13, 'temp': 31.0, 'lipoC3S3': 12.5, 'lipoC3S2': 8.27, 'rot1': 0, 'rot0': 0, 'rot3': 94, 'rot2': 77, 'state': 'normal', 'yaw': 22.56, 'datetime': '2018-10-09 12:05:07.507207', 'mgs': 0, 'volt': 0.9033, 'depth': 1.614, 'time': 30, 'pitch': 4.54, 'roll': 0.62, 'pres': 185}
{'lipoC2': 7.55, 'lipoC3S1': 4.13, 'temp': 31.0, 'lipoC3S3': 12.5, 'lipoC3S2': 8.26, 'rot1': 0, 'rot0': 0, 'rot3': 94, 'rot2': 77, 'state': 'normal', 'yaw': 22.12, 'datetime': '2018-10-09 12:05:07.610485', 'mgs': 0, 'volt': 0.9033, 'depth': 1.614, 'time': 30, 'pitch': 4.04, 'roll': 0.85, 'pres': 185}
{'lipoC2': 7.55, 'lipoC3S1': 4.13, 'temp': 31.0, 'lipoC3S3': 12.5, 'lipoC3S2': 8.27, 'rot1': 0, 'rot0': 0, 'rot3': 94, 'rot2': 77, 'state': 'normal', 'yaw': 21.76, 'datetime': '2018-10-09 12:05:07.713889', 'mgs': 0, 'volt': 0.9033, 'depth': 1.614, 'time': 30, 'pitch': 3.63, 'roll': 0.78, 'pres': 185}
{'lipoC2': 7.55, 'lipoC3S1': 4.14, 'temp': 31.0, 'lipoC3S3': 12.5, 'lipoC3S2': 8.26, 'rot1': 0, 'rot0': 0, 'rot3': 94, 'rot2': 77, 'state': 'normal', 'yaw': 21.43, 'datetime': '2018-10-09 12:05:07.817439', 'mgs': 0, 'volt': 0.9033, 'depth': 1.614, 'time': 30, 'pitch': 3.57, 'roll': 0.52, 'pres': 185}
{'lipoC2': 7.55, 'lipoC3S1': 4.13, 'temp': 31.0, 'lipoC3S3': 12.5, 'lipoC3S2': 8.27, 'rot1': 0, 'rot0': 0, 'rot3': 94, 'rot2': 77, 'state': 'normal', 'yaw': 21.03, 'datetime': '2018-10-09 12:05:07.920825', 'mgs': 0, 'volt': 0.9033, 'depth': 1.614, 'time': 30, 'pitch': 3.96, 'roll': 0.23, 'pres': 185}
{'lipoC2': 7.55, 'lipoC3S1': 4.13, 'temp': 31.0, 'lipoC3S3': 12.5, 'lipoC3S2': 8.27, 'rot1': 0, 'rot0': 0, 'rot3': 94, 'rot2': 77, 'state': 'normal', 'yaw': 20.63, 'datetime': '2018-10-09 12:05:08.023503', 'mgs': 0, 'volt': 0.9033, 'depth': 1.614, 'time': 30, 'pitch': 4.6, 'roll': 0.13, 'pres': 185}
{'lipoC2': 7.55, 'lipoC3S1': 4.14, 'temp': 31.0, 'lipoC3S3': 12.5, 'lipoC3S2': 8.27, 'rot1': 0, 'rot0': 0, 'rot3': 94, 'rot2': 77, 'state': 'normal', 'yaw': 20.2, 'datetime': '2018-10-09 12:05:08.128122', 'mgs': 0, 'volt': 0.9033, 'depth': 1.614, 'time': 30, 'pitch': 5.28, 'roll': 0.18, 'pres': 185}
{'lipoC2': 7.55, 'lipoC3S1': 4.13, 'temp': 31.0, 'lipoC3S3': 12.5, 'lipoC3S2': 8.27, 'rot1': 0, 'rot0': 0, 'rot3': 94, 'rot2': 77, 'state': 'normal', 'yaw': 19.77, 'datetime': '2018-10-09 12:05:08.231419', 'mgs': 0, 'volt': 0.9033, 'depth': 1.614, 'time': 31, 'pitch': 5.76, 'roll': 0.29, 'pres': 185}
{'lipoC2': 7.55, 'lipoC3S1': 4.13, 'temp': 31.0, 'lipoC3S3': 12.5, 'lipoC3S2': 8.27, 'rot1': 0, 'rot0': 0, 'rot3': 94, 'rot2': 77, 'state': 'normal', 'yaw': 19.4, 'datetime': '2018-10-09 12:05:08.336177', 'mgs': 0, 'volt': 0.9033, 'depth': 1.614, 'time': 31, 'pitch': 5.86, 'roll': 0.33, 'pres': 185}
{'lipoC2': 7.55, 'lipoC3S1': 4.13, 'temp': 31.0, 'lipoC3S3': 12.5, 'lipoC3S2': 8.27, 'rot1': 0, 'rot0': 0, 'rot3': 94, 'rot2': 77, 'state': 'normal', 'yaw': 19.02, 'datetime': '2018-10-09 12:05:08.439862', 'mgs': 0, 'volt': 0.8984, 'depth': 1.538, 'time': 31, 'pitch': 5.64, 'roll': 0.17, 'pres': 184}
{'lipoC2': 7.55, 'lipoC3S1': 4.13, 'temp': 31.0, 'lipoC3S3': 12.5, 'lipoC3S2': 8.27, 'rot1': 0, 'rot0': 0, 'rot3': 94, 'rot2': 77, 'state': 'normal', 'yaw': 18.66, 'datetime': '2018-10-09 12:05:08.545663', 'mgs': 0, 'volt': 0.9033, 'depth': 1.614, 'time': 31, 'pitch': 5.37, 'roll': -0.08, 'pres': 185}
{'lipoC2': 7.55, 'lipoC3S1': 4.13, 'temp': 31.0, 'lipoC3S3': 12.5, 'lipoC3S2': 8.27, 'rot1': 0, 'rot0': 0, 'rot3': 94, 'rot2': 77, 'state': 'normal', 'yaw': 18.3, 'datetime': '2018-10-09 12:05:08.642499', 'mgs': 0, 'volt': 0.9033, 'depth': 1.614, 'time': 31, 'pitch': 5.27, 'roll': -0.38, 'pres': 185}
{'lipoC2': 7.55, 'lipoC3S1': 4.13, 'temp': 31.0, 'lipoC3S3': 12.5, 'lipoC3S2': 8.26, 'rot1': 0, 'rot0': 0, 'rot3': 94, 'rot2': 77, 'state': 'normal', 'yaw': 17.88, 'datetime': '2018-10-09 12:05:08.743898', 'mgs': 0, 'volt': 0.9033, 'depth': 1.614, 'time': 31, 'pitch': 5.5, 'roll': -0.71, 'pres': 185}
{'lipoC2': 7.55, 'lipoC3S1': 4.14, 'temp': 31.0, 'lipoC3S3': 12.5, 'lipoC3S2': 8.26, 'rot1': 0, 'rot0': 0, 'rot3': 94, 'rot2': 77, 'state': 'normal', 'yaw': 17.5, 'datetime': '2018-10-09 12:05:08.847269', 'mgs': 0, 'volt': 0.8984, 'depth': 1.538, 'time': 31, 'pitch': 5.9, 'roll': -0.92, 'pres': 184}
{'lipoC2': 7.55, 'lipoC3S1': 4.13, 'temp': 31.0, 'lipoC3S3': 12.5, 'lipoC3S2': 8.27, 'rot1': 0, 'rot0': 0, 'rot3': 94, 'rot2': 77, 'state': 'normal', 'yaw': 17.14, 'datetime': '2018-10-09 12:05:08.950661', 'mgs': 0, 'volt': 0.8984, 'depth': 1.538, 'time': 31, 'pitch': 6.18, 'roll': -0.98, 'pres': 184}
{'lipoC2': 7.54, 'lipoC3S1': 4.13, 'temp': 31.0, 'lipoC3S3': 12.5, 'lipoC3S2': 8.26, 'rot1': 0, 'rot0': 0, 'rot3': 94, 'rot2': 77, 'state': 'normal', 'yaw': 16.77, 'datetime': '2018-10-09 12:05:09.053981', 'mgs': 0, 'volt': 0.8984, 'depth': 1.538, 'time': 31, 'pitch': 6.09, 'roll': -0.95, 'pres': 184}
{'lipoC2': 7.55, 'lipoC3S1': 4.13, 'temp': 31.0, 'lipoC3S3': 12.5, 'lipoC3S2': 8.26, 'rot1': 0, 'rot0': 0, 'rot3': 94, 'rot2': 77, 'state': 'normal', 'yaw': 16.45, 'datetime': '2018-10-09 12:05:09.157390', 'mgs': 0, 'volt': 0.8984, 'depth': 1.538, 'time': 32, 'pitch': 5.63, 'roll': -0.92, 'pres': 184}
{'lipoC2': 7.55, 'lipoC3S1': 4.13, 'temp': 31.0, 'lipoC3S3': 12.5, 'lipoC3S2': 8.27, 'rot1': 0, 'rot0': 0, 'rot3': 94, 'rot2': 77, 'state': 'normal', 'yaw': 16.15, 'datetime': '2018-10-09 12:05:09.267070', 'mgs': 0, 'volt': 0.8984, 'depth': 1.538, 'time': 32, 'pitch': 5.0, 'roll': -0.97, 'pres': 184}
{'lipoC2': 7.55, 'lipoC3S1': 4.13, 'temp': 31.0, 'lipoC3S3': 12.5, 'lipoC3S2': 8.27, 'rot1': 0, 'rot0': 0, 'rot3': 94, 'rot2': 77, 'state': 'normal', 'yaw': 15.82, 'datetime': '2018-10-09 12:05:09.370916', 'mgs': 0, 'volt': 0.9033, 'depth': 1.614, 'time': 32, 'pitch': 4.35, 'roll': -1.11, 'pres': 185}
{'lipoC2': 7.55, 'lipoC3S1': 4.14, 'temp': 31.0, 'lipoC3S3': 12.5, 'lipoC3S2': 8.27, 'rot1': 0, 'rot0': 0, 'rot3': 94, 'rot2': 77, 'state': 'normal', 'yaw': 15.51, 'datetime': '2018-10-09 12:05:09.472405', 'mgs': 0, 'volt': 0.9033, 'depth': 1.614, 'time': 32, 'pitch': 3.98, 'roll': -1.16, 'pres': 185}
{'lipoC2': 7.55, 'lipoC3S1': 4.13, 'temp': 31.06, 'lipoC3S3': 12.5, 'lipoC3S2': 8.27, 'rot1': 0, 'rot0': 0, 'rot3': 94, 'rot2': 77, 'state': 'normal', 'yaw': 15.17, 'datetime': '2018-10-09 12:05:09.577652', 'mgs': 0, 'volt': 0.9033, 'depth': 1.614, 'time': 32, 'pitch': 3.94, 'roll': -1.03, 'pres': 185}
{'lipoC2': 7.55, 'lipoC3S1': 4.13, 'temp': 31.06, 'lipoC3S3': 12.5, 'lipoC3S2': 8.27, 'rot1': 0, 'rot0': 0, 'rot3': 94, 'rot2': 77, 'state': 'normal', 'yaw': 14.81, 'datetime': '2018-10-09 12:05:09.679208', 'mgs': 0, 'volt': 0.8984, 'depth': 1.538, 'time': 32, 'pitch': 4.3, 'roll': -0.63, 'pres': 184}
{'lipoC2': 7.55, 'lipoC3S1': 4.13, 'temp': 31.06, 'lipoC3S3': 12.5, 'lipoC3S2': 8.27, 'rot1': 0, 'rot0': 0, 'rot3': 94, 'rot2': 77, 'state': 'normal', 'yaw': 14.51, 'datetime': '2018-10-09 12:05:09.783316', 'mgs': 0, 'volt': 0.9033, 'depth': 1.614, 'time': 32, 'pitch': 4.84, 'roll': -0.23, 'pres': 185}
{'lipoC2': 7.55, 'lipoC3S1': 4.14, 'temp': 31.0, 'lipoC3S3': 12.5, 'lipoC3S2': 8.26, 'rot1': 0, 'rot0': 0, 'rot3': 94, 'rot2': 77, 'state': 'normal', 'yaw': 14.25, 'datetime': '2018-10-09 12:05:09.886181', 'mgs': 0, 'volt': 0.9033, 'depth': 1.614, 'time': 32, 'pitch': 5.44, 'roll': 0.04, 'pres': 185}
{'lipoC2': 7.55, 'lipoC3S1': 4.14, 'temp': 31.0, 'lipoC3S3': 12.5, 'lipoC3S2': 8.27, 'rot1': 0, 'rot0': 0, 'rot3': 94, 'rot2': 77, 'state': 'normal', 'yaw': 14.0, 'datetime': '2018-10-09 12:05:09.990610', 'mgs': 0, 'volt': 0.9033, 'depth': 1.614, 'time': 32, 'pitch': 5.9, 'roll': 0.07, 'pres': 185}
{'lipoC2': 7.55, 'lipoC3S1': 4.13, 'temp': 31.06, 'lipoC3S3': 12.5, 'lipoC3S2': 8.27, 'rot1': 0, 'rot0': 0, 'rot3': 94, 'rot2': 77, 'state': 'normal', 'yaw': 13.78, 'datetime': '2018-10-09 12:05:10.096033', 'mgs': 0, 'volt': 0.9033, 'depth': 1.614, 'time': 32, 'pitch': 5.95, 'roll': -0.07, 'pres': 185}
{'lipoC2': 7.55, 'lipoC3S1': 4.13, 'temp': 31.06, 'lipoC3S3': 12.5, 'lipoC3S2': 8.27, 'rot1': 0, 'rot0': 0, 'rot3': 94, 'rot2': 77, 'state': 'normal', 'yaw': 13.57, 'datetime': '2018-10-09 12:05:10.200733', 'mgs': 0, 'volt': 0.9033, 'depth': 1.614, 'time': 33, 'pitch': 5.67, 'roll': -0.21, 'pres': 185}
{'lipoC2': 7.55, 'lipoC3S1': 4.13, 'temp': 31.06, 'lipoC3S3': 12.5, 'lipoC3S2': 8.27, 'rot1': 0, 'rot0': 0, 'rot3': 94, 'rot2': 77, 'state': 'normal', 'yaw': 13.29, 'datetime': '2018-10-09 12:05:10.304018', 'mgs': 0, 'volt': 0.9033, 'depth': 1.614, 'time': 33, 'pitch': 5.38, 'roll': -0.19, 'pres': 185}
{'lipoC2': 7.55, 'lipoC3S1': 4.13, 'temp': 31.06, 'lipoC3S3': 12.5, 'lipoC3S2': 8.26, 'rot1': 0, 'rot0': 0, 'rot3': 94, 'rot2': 77, 'state': 'normal', 'yaw': 12.98, 'datetime': '2018-10-09 12:05:10.407322', 'mgs': 0, 'volt': 0.9033, 'depth': 1.614, 'time': 33, 'pitch': 5.29, 'roll': 0.04, 'pres': 185}
{'lipoC2': 7.55, 'lipoC3S1': 4.13, 'temp': 31.06, 'lipoC3S3': 12.5, 'lipoC3S2': 8.26, 'rot1': 0, 'rot0': 0, 'rot3': 94, 'rot2': 77, 'state': 'normal', 'yaw': 12.66, 'datetime': '2018-10-09 12:05:10.510653', 'mgs': 0, 'volt': 0.9033, 'depth': 1.614, 'time': 33, 'pitch': 5.15, 'roll': 0.42, 'pres': 185}
{'lipoC2': 7.55, 'lipoC3S1': 4.13, 'temp': 31.0, 'lipoC3S3': 12.5, 'lipoC3S2': 8.26, 'rot1': 0, 'rot0': 0, 'rot3': 94, 'rot2': 77, 'state': 'normal', 'yaw': 12.34, 'datetime': '2018-10-09 12:05:10.614040', 'mgs': 0, 'volt': 0.9033, 'depth': 1.614, 'time': 33, 'pitch': 4.7, 'roll': 0.85, 'pres': 185}
{'lipoC2': 7.55, 'lipoC3S1': 4.13, 'temp': 31.0, 'lipoC3S3': 12.5, 'lipoC3S2': 8.27, 'rot1': 0, 'rot0': 0, 'rot3': 94, 'rot2': 77, 'state': 'normal', 'yaw': 12.07, 'datetime': '2018-10-09 12:05:10.717339', 'mgs': 0, 'volt': 0.9033, 'depth': 1.614, 'time': 33, 'pitch': 4.1, 'roll': 1.04, 'pres': 185}
{'lipoC2': 7.55, 'lipoC3S1': 4.13, 'temp': 31.06, 'lipoC3S3': 12.5, 'lipoC3S2': 8.27, 'rot1': 0, 'rot0': 0, 'rot3': 94, 'rot2': 77, 'state': 'normal', 'yaw': 11.87, 'datetime': '2018-10-09 12:05:10.813849', 'mgs': 0, 'volt': 0.9033, 'depth': 1.614, 'time': 33, 'pitch': 3.7, 'roll': 0.96, 'pres': 185}
{'lipoC2': 7.55, 'lipoC3S1': 4.13, 'temp': 31.06, 'lipoC3S3': 12.5, 'lipoC3S2': 8.26, 'rot1': 0, 'rot0': 0, 'rot3': 94, 'rot2': 77, 'state': 'normal', 'yaw': 11.68, 'datetime': '2018-10-09 12:05:10.917153', 'mgs': 0, 'volt': 0.9033, 'depth': 1.614, 'time': 33, 'pitch': 3.76, 'roll': 0.56, 'pres': 185}
{'lipoC2': 7.55, 'lipoC3S1': 4.13, 'temp': 31.0, 'lipoC3S3': 12.5, 'lipoC3S2': 8.27, 'rot1': 0, 'rot0': 0, 'rot3': 94, 'rot2': 77, 'state': 'normal', 'yaw': 11.51, 'datetime': '2018-10-09 12:05:11.020491', 'mgs': 0, 'volt': 0.9033, 'depth': 1.614, 'time': 33, 'pitch': 4.31, 'roll': 0.13, 'pres': 185}
{'lipoC2': 7.55, 'lipoC3S1': 4.13, 'temp': 31.0, 'lipoC3S3': 12.5, 'lipoC3S2': 8.27, 'rot1': 0, 'rot0': 0, 'rot3': 94, 'rot2': 77, 'state': 'normal', 'yaw': 11.31, 'datetime': '2018-10-09 12:05:11.123839', 'mgs': 0, 'volt': 0.9033, 'depth': 1.614, 'time': 33, 'pitch': 5.16, 'roll': -0.23, 'pres': 185}
{'lipoC2': 7.55, 'lipoC3S1': 4.14, 'temp': 31.0, 'lipoC3S3': 12.5, 'lipoC3S2': 8.27, 'rot1': 0, 'rot0': 0, 'rot3': 94, 'rot2': 77, 'state': 'normal', 'yaw': 11.03, 'datetime': '2018-10-09 12:05:11.227379', 'mgs': 0, 'volt': 0.9033, 'depth': 1.614, 'time': 34, 'pitch': 5.92, 'roll': -0.45, 'pres': 185}
{'lipoC2': 7.55, 'lipoC3S1': 4.13, 'temp': 31.0, 'lipoC3S3': 12.5, 'lipoC3S2': 8.27, 'rot1': 0, 'rot0': 0, 'rot3': 94, 'rot2': 77, 'state': 'normal', 'yaw': 10.78, 'datetime': '2018-10-09 12:05:11.330774', 'mgs': 0, 'volt': 0.9033, 'depth': 1.614, 'time': 34, 'pitch': 6.06, 'roll': -0.54, 'pres': 185}
{'lipoC2': 7.55, 'lipoC3S1': 4.14, 'temp': 31.0, 'lipoC3S3': 12.5, 'lipoC3S2': 8.27, 'rot1': 0, 'rot0': 0, 'rot3': 94, 'rot2': 77, 'state': 'normal', 'yaw': 10.55, 'datetime': '2018-10-09 12:05:11.435420', 'mgs': 0, 'volt': 0.9082, 'depth': 1.691, 'time': 34, 'pitch': 5.7, 'roll': -0.5, 'pres': 186}
{'lipoC2': 7.55, 'lipoC3S1': 4.13, 'temp': 31.0, 'lipoC3S3': 12.5, 'lipoC3S2': 8.27, 'rot1': 0, 'rot0': 0, 'rot3': 94, 'rot2': 77, 'state': 'normal', 'yaw': 10.33, 'datetime': '2018-10-09 12:05:11.539456', 'mgs': 0, 'volt': 0.9033, 'depth': 1.614, 'time': 34, 'pitch': 4.97, 'roll': -0.48, 'pres': 185}
{'lipoC2': 7.55, 'lipoC3S1': 4.13, 'temp': 31.0, 'lipoC3S3': 12.5, 'lipoC3S2': 8.27, 'rot1': 0, 'rot0': 0, 'rot3': 94, 'rot2': 77, 'state': 'normal', 'yaw': 10.18, 'datetime': '2018-10-09 12:05:11.642807', 'mgs': 0, 'volt': 0.9033, 'depth': 1.614, 'time': 34, 'pitch': 4.45, 'roll': -0.52, 'pres': 185}
{'lipoC2': 7.55, 'lipoC3S1': 4.13, 'temp': 31.0, 'lipoC3S3': 12.5, 'lipoC3S2': 8.27, 'rot1': 0, 'rot0': 0, 'rot3': 94, 'rot2': 77, 'state': 'normal', 'yaw': 10.05, 'datetime': '2018-10-09 12:05:11.747534', 'mgs': 0, 'volt': 0.9033, 'depth': 1.614, 'time': 34, 'pitch': 4.34, 'roll': -0.65, 'pres': 185}
{'lipoC2': 7.55, 'lipoC3S1': 4.14, 'temp': 31.0, 'lipoC3S3': 12.5, 'lipoC3S2': 8.27, 'rot1': 0, 'rot0': 0, 'rot3': 94, 'rot2': 77, 'state': 'normal', 'yaw': 9.93, 'datetime': '2018-10-09 12:05:11.850831', 'mgs': 0, 'volt': 0.9082, 'depth': 1.691, 'time': 34, 'pitch': 4.83, 'roll': -0.88, 'pres': 186}
{'lipoC2': 7.55, 'lipoC3S1': 4.13, 'temp': 31.0, 'lipoC3S3': 12.5, 'lipoC3S2': 8.27, 'rot1': 0, 'rot0': 0, 'rot3': 94, 'rot2': 77, 'state': 'normal', 'yaw': 9.81, 'datetime': '2018-10-09 12:05:11.954176', 'mgs': 0, 'volt': 0.9082, 'depth': 1.691, 'time': 34, 'pitch': 5.66, 'roll': -1.1, 'pres': 186}
{'lipoC2': 7.55, 'lipoC3S1': 4.13, 'temp': 31.0, 'lipoC3S3': 12.5, 'lipoC3S2': 8.26, 'rot1': 0, 'rot0': 0, 'rot3': 94, 'rot2': 77, 'state': 'normal', 'yaw': 9.67, 'datetime': '2018-10-09 12:05:12.057502', 'mgs': 0, 'volt': 0.9033, 'depth': 1.614, 'time': 34, 'pitch': 6.45, 'roll': -1.26, 'pres': 185}
{'lipoC2': 7.55, 'lipoC3S1': 4.13, 'temp': 31.0, 'lipoC3S3': 12.5, 'lipoC3S2': 8.26, 'rot1': 0, 'rot0': 0, 'rot3': 94, 'rot2': 77, 'state': 'normal', 'yaw': 9.57, 'datetime': '2018-10-09 12:05:12.160855', 'mgs': 0, 'volt': 0.9033, 'depth': 1.614, 'time': 35, 'pitch': 6.68, 'roll': -1.33, 'pres': 185}
{'lipoC2': 7.55, 'lipoC3S1': 4.13, 'temp': 31.0, 'lipoC3S3': 12.5, 'lipoC3S2': 8.27, 'rot1': 0, 'rot0': 0, 'rot3': 94, 'rot2': 77, 'state': 'normal', 'yaw': 9.53, 'datetime': '2018-10-09 12:05:12.264210', 'mgs': 0, 'volt': 0.9082, 'depth': 1.691, 'time': 35, 'pitch': 6.33, 'roll': -1.24, 'pres': 186}
{'lipoC2': 7.55, 'lipoC3S1': 4.14, 'temp': 31.0, 'lipoC3S3': 12.5, 'lipoC3S2': 8.26, 'rot1': 0, 'rot0': 0, 'rot3': 94, 'rot2': 77, 'state': 'normal', 'yaw': 9.44, 'datetime': '2018-10-09 12:05:12.367590', 'mgs': 0, 'volt': 0.9082, 'depth': 1.691, 'time': 35, 'pitch': 5.83, 'roll': -1.15, 'pres': 186}
{'lipoC2': 7.55, 'lipoC3S1': 4.14, 'temp': 31.06, 'lipoC3S3': 12.5, 'lipoC3S2': 8.27, 'rot1': 0, 'rot0': 0, 'rot3': 94, 'rot2': 77, 'state': 'normal', 'yaw': 9.34, 'datetime': '2018-10-09 12:05:12.470920', 'mgs': 0, 'volt': 0.9082, 'depth': 1.691, 'time': 35, 'pitch': 5.57, 'roll': -1.47, 'pres': 186}
{'lipoC2': 7.55, 'lipoC3S1': 4.13, 'temp': 31.06, 'lipoC3S3': 12.5, 'lipoC3S2': 8.27, 'rot1': 0, 'rot0': 0, 'rot3': 94, 'rot2': 77, 'state': 'normal', 'yaw': 9.24, 'datetime': '2018-10-09 12:05:12.574272', 'mgs': 1, 'volt': 0.9082, 'depth': 1.691, 'time': 35, 'pitch': 5.78, 'roll': -2.21, 'pres': 186}
{'lipoC2': 7.55, 'lipoC3S1': 4.13, 'temp': 31.0, 'lipoC3S3': 12.5, 'lipoC3S2': 8.27, 'rot1': 0, 'rot0': 0, 'rot3': 0, 'rot2': 0, 'state': 'normal', 'yaw': 0.0, 'datetime': '2018-10-09 12:05:15.600743', 'mgs': 0, 'volt': 0.9229, 'depth': 1.92, 'time': 1, 'pitch': 3.02, 'roll': 1.05, 'pres': 189}
{'lipoC2': 7.55, 'lipoC3S1': 4.14, 'temp': 31.0, 'lipoC3S3': 12.5, 'lipoC3S2': 8.27, 'rot1': 0, 'rot0': 0, 'rot3': 0, 'rot2': 0, 'state': 'normal', 'yaw': -0.01, 'datetime': '2018-10-09 12:05:15.623027', 'mgs': 1, 'volt': 0.9229, 'depth': 1.92, 'time': 1, 'pitch': 2.34, 'roll': 1.87, 'pres': 189}
{'lipoC2': 7.55, 'lipoC3S1': 4.14, 'temp': 31.0, 'lipoC3S3': 12.51, 'lipoC3S2': 8.27, 'rot1': 0, 'rot0': 0, 'rot3': 0, 'rot2': 0, 'state': 'normal', 'yaw': 0.03, 'datetime': '2018-10-09 12:05:15.651693', 'mgs': 1, 'volt': 0.9229, 'depth': 1.92, 'time': 1, 'pitch': 2.0, 'roll': 2.19, 'pres': 189}
{'lipoC2': 7.55, 'lipoC3S1': 4.14, 'temp': 31.0, 'lipoC3S3': 12.51, 'lipoC3S2': 8.27, 'rot1': 0, 'rot0': 0, 'rot3': 0, 'rot2': 0, 'state': 'normal', 'yaw': 0.09, 'datetime': '2018-10-09 12:05:15.673153', 'mgs': 1, 'volt': 0.9229, 'depth': 1.92, 'time': 1, 'pitch': 1.81, 'roll': 2.26, 'pres': 189}
{'lipoC2': 7.55, 'lipoC3S1': 4.14, 'temp': 31.0, 'lipoC3S3': 12.5, 'lipoC3S2': 8.27, 'rot1': 0, 'rot0': 0, 'rot3': 0, 'rot2': 0, 'state': 'normal', 'yaw': 0.11, 'datetime': '2018-10-09 12:05:15.689892', 'mgs': 1, 'volt': 0.9229, 'depth': 1.92, 'time': 1, 'pitch': 1.75, 'roll': 2.22, 'pres': 189}
{'lipoC2': 7.55, 'lipoC3S1': 4.14, 'temp': 31.0, 'lipoC3S3': 12.51, 'lipoC3S2': 8.27, 'rot1': 0, 'rot0': 0, 'rot3': 0, 'rot2': 0, 'state': 'normal', 'yaw': 0.12, 'datetime': '2018-10-09 12:05:15.699202', 'mgs': 1, 'volt': 0.9229, 'depth': 1.92, 'time': 1, 'pitch': 1.85, 'roll': 2.23, 'pres': 189}
{'lipoC2': 7.55, 'lipoC3S1': 4.14, 'temp': 31.0, 'lipoC3S3': 12.5, 'lipoC3S2': 8.27, 'rot1': 0, 'rot0': 0, 'rot3': 0, 'rot2': 0, 'state': 'normal', 'yaw': 0.13, 'datetime': '2018-10-09 12:05:15.714526', 'mgs': 1, 'volt': 0.9277, 'depth': 1.996, 'time': 1, 'pitch': 2.13, 'roll': 2.25, 'pres': 190}
{'lipoC2': 7.55, 'lipoC3S1': 4.14, 'temp': 31.06, 'lipoC3S3': 12.5, 'lipoC3S2': 8.27, 'rot1': 0, 'rot0': 0, 'rot3': 0, 'rot2': 0, 'state': 'normal', 'yaw': 0.16, 'datetime': '2018-10-09 12:05:15.723833', 'mgs': 1, 'volt': 0.9229, 'depth': 1.92, 'time': 1, 'pitch': 2.52, 'roll': 2.09, 'pres': 189}
{'lipoC2': 7.55, 'lipoC3S1': 4.13, 'temp': 31.06, 'lipoC3S3': 12.5, 'lipoC3S2': 8.27, 'rot1': 0, 'rot0': 0, 'rot3': 0, 'rot2': 0, 'state': 'normal', 'yaw': 0.18, 'datetime': '2018-10-09 12:05:15.738958', 'mgs': 0, 'volt': 0.9229, 'depth': 1.92, 'time': 2, 'pitch': 2.92, 'roll': 1.69, 'pres': 189}
{'lipoC2': 7.55, 'lipoC3S1': 4.14, 'temp': 31.0, 'lipoC3S3': 12.5, 'lipoC3S2': 8.27, 'rot1': 0, 'rot0': 0, 'rot3': 0, 'rot2': 0, 'state': 'normal', 'yaw': 0.21, 'datetime': '2018-10-09 12:05:15.748348', 'mgs': 0, 'volt': 0.9229, 'depth': 1.92, 'time': 2, 'pitch': 3.28, 'roll': 1.11, 'pres': 189}
{'lipoC2': 7.55, 'lipoC3S1': 4.14, 'temp': 31.0, 'lipoC3S3': 12.5, 'lipoC3S2': 8.26, 'rot1': 0, 'rot0': 0, 'rot3': 0, 'rot2': 0, 'state': 'normal', 'yaw': 0.23, 'datetime': '2018-10-09 12:05:15.763490', 'mgs': 0, 'volt': 0.9229, 'depth': 1.92, 'time': 2, 'pitch': 3.57, 'roll': 0.49, 'pres': 189}
{'lipoC2': 7.55, 'lipoC3S1': 4.13, 'temp': 31.0, 'lipoC3S3': 12.5, 'lipoC3S2': 8.27, 'rot1': 0, 'rot0': 0, 'rot3': 0, 'rot2': 0, 'state': 'normal', 'yaw': 0.24, 'datetime': '2018-10-09 12:05:15.772758', 'mgs': 0, 'volt': 0.918, 'depth': 1.843, 'time': 2, 'pitch': 3.72, 'roll': 0.11, 'pres': 188}
{'lipoC2': 7.55, 'lipoC3S1': 4.14, 'temp': 31.0, 'lipoC3S3': 12.5, 'lipoC3S2': 8.27, 'rot1': 0, 'rot0': 0, 'rot3': 0, 'rot2': 0, 'state': 'normal', 'yaw': 0.24, 'datetime': '2018-10-09 12:05:15.787915', 'mgs': 0, 'volt': 0.918, 'depth': 1.843, 'time': 2, 'pitch': 3.87, 'roll': -0.24, 'pres': 188}
{'lipoC2': 7.55, 'lipoC3S1': 4.14, 'temp': 31.0, 'lipoC3S3': 12.51, 'lipoC3S2': 8.27, 'rot1': 0, 'rot0': 0, 'rot3': 0, 'rot2': 0, 'state': 'normal', 'yaw': 0.18, 'datetime': '2018-10-09 12:05:15.797233', 'mgs': 0, 'volt': 0.918, 'depth': 1.843, 'time': 2, 'pitch': 4.02, 'roll': -0.67, 'pres': 188}
{'lipoC2': 7.55, 'lipoC3S1': 4.14, 'temp': 31.0, 'lipoC3S3': 12.5, 'lipoC3S2': 8.27, 'rot1': 0, 'rot0': 0, 'rot3': 0, 'rot2': 0, 'state': 'normal', 'yaw': 0.11, 'datetime': '2018-10-09 12:05:15.815180', 'mgs': 0, 'volt': 0.918, 'depth': 1.843, 'time': 2, 'pitch': 4.02, 'roll': -0.97, 'pres': 188}
{'lipoC2': 7.55, 'lipoC3S1': 4.14, 'temp': 31.0, 'lipoC3S3': 12.5, 'lipoC3S2': 8.27, 'rot1': 0, 'rot0': 0, 'rot3': 0, 'rot2': 0, 'state': 'normal', 'yaw': 0.05, 'datetime': '2018-10-09 12:05:15.824512', 'mgs': 0, 'volt': 0.9131, 'depth': 1.767, 'time': 2, 'pitch': 3.99, 'roll': -1.09, 'pres': 187}
{'lipoC2': 7.55, 'lipoC3S1': 4.14, 'temp': 31.0, 'lipoC3S3': 12.5, 'lipoC3S2': 8.27, 'rot1': 0, 'rot0': 0, 'rot3': 0, 'rot2': 0, 'state': 'normal', 'yaw': 0.02, 'datetime': '2018-10-09 12:05:15.839697', 'mgs': 0, 'volt': 0.9131, 'depth': 1.767, 'time': 2, 'pitch': 4.0, 'roll': -1.07, 'pres': 187}
{'lipoC2': 7.55, 'lipoC3S1': 4.08, 'temp': 31.0, 'lipoC3S3': 12.46, 'lipoC3S2': 8.22, 'rot1': 0, 'rot0': 0, 'rot3': 1, 'rot2': 2, 'state': 'normal', 'yaw': -0.0, 'datetime': '2018-10-09 12:05:15.848995', 'mgs': 0, 'volt': 0.9473, 'depth': 2.301, 'time': 3, 'pitch': 4.12, 'roll': -0.99, 'pres': 194}
{'lipoC2': 7.53, 'lipoC3S1': 4.11, 'temp': 31.0, 'lipoC3S3': 12.46, 'lipoC3S2': 8.24, 'rot1': 0, 'rot0': 0, 'rot3': 1, 'rot2': 2, 'state': 'normal', 'yaw': 0.0, 'datetime': '2018-10-09 12:05:15.864121', 'mgs': 0, 'volt': 0.9424, 'depth': 2.225, 'time': 3, 'pitch': 4.18, 'roll': -1.08, 'pres': 193}
{'lipoC2': 7.54, 'lipoC3S1': 4.12, 'temp': 31.0, 'lipoC3S3': 12.46, 'lipoC3S2': 8.24, 'rot1': 0, 'rot0': 0, 'rot3': 2, 'rot2': 3, 'state': 'normal', 'yaw': -0.0, 'datetime': '2018-10-09 12:05:15.909920', 'mgs': 0, 'volt': 0.9277, 'depth': 1.996, 'time': 3, 'pitch': 4.19, 'roll': -1.5, 'pres': 190}
{'lipoC2': 7.54, 'lipoC3S1': 4.12, 'temp': 31.0, 'lipoC3S3': 12.42, 'lipoC3S2': 8.24, 'rot1': 0, 'rot0': 0, 'rot3': 4, 'rot2': 3, 'state': 'normal', 'yaw': 0.01, 'datetime': '2018-10-09 12:05:16.013201', 'mgs': 0, 'volt': 0.9229, 'depth': 1.92, 'time': 3, 'pitch': 4.11, 'roll': -2.01, 'pres': 189}
{'lipoC2': 7.54, 'lipoC3S1': 4.12, 'temp': 30.94, 'lipoC3S3': 12.39, 'lipoC3S2': 8.23, 'rot1': 0, 'rot0': 0, 'rot3': 5, 'rot2': 5, 'state': 'normal', 'yaw': 0.05, 'datetime': '2018-10-09 12:05:16.116344', 'mgs': 0, 'volt': 0.918, 'depth': 1.843, 'time': 3, 'pitch': 3.86, 'roll': -2.46, 'pres': 188}
{'lipoC2': 7.54, 'lipoC3S1': 4.12, 'temp': 30.94, 'lipoC3S3': 12.37, 'lipoC3S2': 8.23, 'rot1': 0, 'rot0': 0, 'rot3': 6, 'rot2': 6, 'state': 'normal', 'yaw': 0.16, 'datetime': '2018-10-09 12:05:16.219698', 'mgs': 0, 'volt': 0.9229, 'depth': 1.92, 'time': 3, 'pitch': 3.5, 'roll': -2.75, 'pres': 189}
{'lipoC2': 7.54, 'lipoC3S1': 4.12, 'temp': 31.0, 'lipoC3S3': 12.43, 'lipoC3S2': 8.24, 'rot1': 0, 'rot0': 0, 'rot3': 7, 'rot2': 6, 'state': 'normal', 'yaw': 0.2, 'datetime': '2018-10-09 12:05:16.322957', 'mgs': 0, 'volt': 0.918, 'depth': 1.843, 'time': 3, 'pitch': 3.09, 'roll': -3.02, 'pres': 188}
{'lipoC2': 7.54, 'lipoC3S1': 4.12, 'temp': 31.0, 'lipoC3S3': 12.41, 'lipoC3S2': 8.26, 'rot1': 0, 'rot0': 0, 'rot3': 8, 'rot2': 7, 'state': 'normal', 'yaw': 0.24, 'datetime': '2018-10-09 12:05:16.426790', 'mgs': 0, 'volt': 0.9131, 'depth': 1.767, 'time': 3, 'pitch': 2.71, 'roll': -3.12, 'pres': 187}
{'lipoC2': 7.55, 'lipoC3S1': 4.1, 'temp': 31.0, 'lipoC3S3': 12.47, 'lipoC3S2': 8.23, 'rot1': 0, 'rot0': 0, 'rot3': 9, 'rot2': 8, 'state': 'normal', 'yaw': 0.28, 'datetime': '2018-10-09 12:05:16.530564', 'mgs': 0, 'volt': 0.9082, 'depth': 1.691, 'time': 3, 'pitch': 2.25, 'roll': -3.06, 'pres': 186}
{'lipoC2': 7.55, 'lipoC3S1': 4.09, 'temp': 30.94, 'lipoC3S3': 12.47, 'lipoC3S2': 8.23, 'rot1': 0, 'rot0': 0, 'rot3': 9, 'rot2': 8, 'state': 'normal', 'yaw': 0.31, 'datetime': '2018-10-09 12:05:16.633845', 'mgs': 0, 'volt': 0.9375, 'depth': 2.148, 'time': 3, 'pitch': 1.71, 'roll': -2.79, 'pres': 192}
{'lipoC2': 7.55, 'lipoC3S1': 4.08, 'temp': 30.94, 'lipoC3S3': 12.45, 'lipoC3S2': 8.2, 'rot1': 0, 'rot0': 0, 'rot3': 10, 'rot2': 9, 'state': 'normal', 'yaw': 0.39, 'datetime': '2018-10-09 12:05:16.738379', 'mgs': 0, 'volt': 0.9131, 'depth': 1.767, 'time': 4, 'pitch': 1.46, 'roll': -2.56, 'pres': 187}
{'lipoC2': 7.55, 'lipoC3S1': 4.12, 'temp': 31.0, 'lipoC3S3': 12.42, 'lipoC3S2': 8.17, 'rot1': 0, 'rot0': 0, 'rot3': 11, 'rot2': 10, 'state': 'normal', 'yaw': 0.53, 'datetime': '2018-10-09 12:05:16.841990', 'mgs': 0, 'volt': 0.918, 'depth': 1.843, 'time': 4, 'pitch': 1.53, 'roll': -2.49, 'pres': 188}
{'lipoC2': 7.54, 'lipoC3S1': 4.12, 'temp': 31.0, 'lipoC3S3': 12.37, 'lipoC3S2': 8.23, 'rot1': 0, 'rot0': 0, 'rot3': 12, 'rot2': 10, 'state': 'normal', 'yaw': 0.55, 'datetime': '2018-10-09 12:05:16.945524', 'mgs': 0, 'volt': 0.9375, 'depth': 2.148, 'time': 4, 'pitch': 1.79, 'roll': -2.57, 'pres': 192}
{'lipoC2': 7.55, 'lipoC3S1': 4.12, 'temp': 31.0, 'lipoC3S3': 12.43, 'lipoC3S2': 8.17, 'rot1': 0, 'rot0': 0, 'rot3': 13, 'rot2': 11, 'state': 'normal', 'yaw': 0.59, 'datetime': '2018-10-09 12:05:17.050379', 'mgs': 0, 'volt': 0.9229, 'depth': 1.92, 'time': 4, 'pitch': 2.05, 'roll': -2.7, 'pres': 189}
{'lipoC2': 7.54, 'lipoC3S1': 4.12, 'temp': 31.0, 'lipoC3S3': 12.38, 'lipoC3S2': 8.23, 'rot1': 0, 'rot0': 0, 'rot3': 14, 'rot2': 12, 'state': 'normal', 'yaw': 0.71, 'datetime': '2018-10-09 12:05:17.153893', 'mgs': 0, 'volt': 0.9424, 'depth': 2.225, 'time': 4, 'pitch': 2.11, 'roll': -2.71, 'pres': 193}
{'lipoC2': 7.55, 'lipoC3S1': 4.11, 'temp': 31.0, 'lipoC3S3': 12.47, 'lipoC3S2': 8.25, 'rot1': 0, 'rot0': 0, 'rot3': 15, 'rot2': 12, 'state': 'normal', 'yaw': 0.83, 'datetime': '2018-10-09 12:05:17.257428', 'mgs': 0, 'volt': 0.9424, 'depth': 2.225, 'time': 4, 'pitch': 1.96, 'roll': -2.47, 'pres': 193}
{'lipoC2': 7.55, 'lipoC3S1': 4.07, 'temp': 31.0, 'lipoC3S3': 12.45, 'lipoC3S2': 8.19, 'rot1': 0, 'rot0': 0, 'rot3': 16, 'rot2': 14, 'state': 'normal', 'yaw': 0.96, 'datetime': '2018-10-09 12:05:17.361020', 'mgs': 0, 'volt': 0.9277, 'depth': 1.996, 'time': 4, 'pitch': 1.67, 'roll': -2.02, 'pres': 190}
{'lipoC2': 7.54, 'lipoC3S1': 4.12, 'temp': 31.0, 'lipoC3S3': 12.38, 'lipoC3S2': 8.23, 'rot1': 0, 'rot0': 0, 'rot3': 16, 'rot2': 16, 'state': 'normal', 'yaw': 1.13, 'datetime': '2018-10-09 12:05:17.464526', 'mgs': 0, 'volt': 0.9326, 'depth': 2.072, 'time': 4, 'pitch': 1.41, 'roll': -1.39, 'pres': 191}
{'lipoC2': 7.54, 'lipoC3S1': 4.11, 'temp': 30.94, 'lipoC3S3': 12.45, 'lipoC3S2': 8.24, 'rot1': 0, 'rot0': 0, 'rot3': 17, 'rot2': 16, 'state': 'normal', 'yaw': 1.23, 'datetime': '2018-10-09 12:05:17.567985', 'mgs': 0, 'volt': 0.957, 'depth': 2.454, 'time': 4, 'pitch': 1.37, 'roll': -0.88, 'pres': 196}
{'lipoC2': 7.55, 'lipoC3S1': 4.1, 'temp': 30.94, 'lipoC3S3': 12.47, 'lipoC3S2': 8.22, 'rot1': 0, 'rot0': 0, 'rot3': 19, 'rot2': 17, 'state': 'normal', 'yaw': 1.33, 'datetime': '2018-10-09 12:05:17.671558', 'mgs': 0, 'volt': 0.9375, 'depth': 2.148, 'time': 4, 'pitch': 1.52, 'roll': -0.54, 'pres': 192}
{'lipoC2': 7.55, 'lipoC3S1': 4.12, 'temp': 31.0, 'lipoC3S3': 12.41, 'lipoC3S2': 8.18, 'rot1': 0, 'rot0': 0, 'rot3': 20, 'rot2': 18, 'state': 'normal', 'yaw': 1.45, 'datetime': '2018-10-09 12:05:17.775128', 'mgs': 0, 'volt': 0.9326, 'depth': 2.072, 'time': 5, 'pitch': 1.83, 'roll': -0.31, 'pres': 191}
{'lipoC2': 7.54, 'lipoC3S1': 4.13, 'temp': 31.0, 'lipoC3S3': 12.45, 'lipoC3S2': 8.23, 'rot1': 0, 'rot0': 0, 'rot3': 21, 'rot2': 18, 'state': 'normal', 'yaw': 1.54, 'datetime': '2018-10-09 12:05:17.878669', 'mgs': 0, 'volt': 0.957, 'depth': 2.454, 'time': 5, 'pitch': 2.06, 'roll': -0.18, 'pres': 196}
{'lipoC2': 7.55, 'lipoC3S1': 4.09, 'temp': 31.0, 'lipoC3S3': 12.46, 'lipoC3S2': 8.22, 'rot1': 0, 'rot0': 0, 'rot3': 23, 'rot2': 19, 'state': 'normal', 'yaw': 1.63, 'datetime': '2018-10-09 12:05:17.983118', 'mgs': 0, 'volt': 0.9375, 'depth': 2.148, 'time': 5, 'pitch': 2.11, 'roll': -0.08, 'pres': 192}
{'lipoC2': 7.54, 'lipoC3S1': 4.12, 'temp': 30.94, 'lipoC3S3': 12.42, 'lipoC3S2': 8.19, 'rot1': 0, 'rot0': 0, 'rot3': 24, 'rot2': 20, 'state': 'normal', 'yaw': 1.77, 'datetime': '2018-10-09 12:05:18.086772', 'mgs': 0, 'volt': 0.9424, 'depth': 2.225, 'time': 5, 'pitch': 2.01, 'roll': -0.06, 'pres': 193}
{'lipoC2': 7.55, 'lipoC3S1': 4.1, 'temp': 30.94, 'lipoC3S3': 12.46, 'lipoC3S2': 8.23, 'rot1': 0, 'rot0': 0, 'rot3': 24, 'rot2': 20, 'state': 'normal', 'yaw': 1.95, 'datetime': '2018-10-09 12:05:18.191515', 'mgs': 0, 'volt': 0.9814, 'depth': 2.835, 'time': 5, 'pitch': 1.85, 'roll': -0.19, 'pres': 201}
{'lipoC2': 7.55, 'lipoC3S1': 4.12, 'temp': 31.0, 'lipoC3S3': 12.43, 'lipoC3S2': 8.17, 'rot1': 0, 'rot0': 0, 'rot3': 25, 'rot2': 21, 'state': 'normal', 'yaw': 2.13, 'datetime': '2018-10-09 12:05:18.295272', 'mgs': 0, 'volt': 0.9424, 'depth': 2.225, 'time': 5, 'pitch': 1.68, 'roll': -0.43, 'pres': 193}
{'lipoC2': 7.54, 'lipoC3S1': 4.12, 'temp': 31.0, 'lipoC3S3': 12.37, 'lipoC3S2': 8.23, 'rot1': 0, 'rot0': 0, 'rot3': 26, 'rot2': 22, 'state': 'normal', 'yaw': 2.26, 'datetime': '2018-10-09 12:05:18.403559', 'mgs': 0, 'volt': 0.9521, 'depth': 2.377, 'time': 5, 'pitch': 1.63, 'roll': -0.71, 'pres': 195}
{'lipoC2': 7.55, 'lipoC3S1': 4.07, 'temp': 31.0, 'lipoC3S3': 12.43, 'lipoC3S2': 8.19, 'rot1': 0, 'rot0': 0, 'rot3': 28, 'rot2': 22, 'state': 'normal', 'yaw': 2.39, 'datetime': '2018-10-09 12:05:18.509321', 'mgs': 0, 'volt': 0.9424, 'depth': 2.225, 'time': 5, 'pitch': 1.69, 'roll': -0.99, 'pres': 193}
{'lipoC2': 7.54, 'lipoC3S1': 4.12, 'temp': 31.0, 'lipoC3S3': 12.38, 'lipoC3S2': 8.22, 'rot1': 0, 'rot0': 0, 'rot3': 29, 'rot2': 23, 'state': 'normal', 'yaw': 2.52, 'datetime': '2018-10-09 12:05:18.612782', 'mgs': 0, 'volt': 0.9424, 'depth': 2.225, 'time': 5, 'pitch': 1.6, 'roll': -1.17, 'pres': 193}
{'lipoC2': 7.54, 'lipoC3S1': 4.11, 'temp': 31.0, 'lipoC3S3': 12.46, 'lipoC3S2': 8.24, 'rot1': 0, 'rot0': 0, 'rot3': 29, 'rot2': 24, 'state': 'normal', 'yaw': 2.65, 'datetime': '2018-10-09 12:05:18.716316', 'mgs': 0, 'volt': 0.957, 'depth': 2.454, 'time': 6, 'pitch': 1.36, 'roll': -1.23, 'pres': 196}
{'lipoC2': 7.55, 'lipoC3S1': 4.13, 'temp': 31.0, 'lipoC3S3': 12.43, 'lipoC3S2': 8.18, 'rot1': 0, 'rot0': 0, 'rot3': 30, 'rot2': 24, 'state': 'normal', 'yaw': 2.75, 'datetime': '2018-10-09 12:05:18.823350', 'mgs': 0, 'volt': 0.9424, 'depth': 2.225, 'time': 6, 'pitch': 1.02, 'roll': -1.37, 'pres': 193}
{'lipoC2': 7.54, 'lipoC3S1': 4.12, 'temp': 31.0, 'lipoC3S3': 12.38, 'lipoC3S2': 8.23, 'rot1': 0, 'rot0': 0, 'rot3': 31, 'rot2': 25, 'state': 'normal', 'yaw': 2.84, 'datetime': '2018-10-09 12:05:18.923846', 'mgs': 0, 'volt': 0.9521, 'depth': 2.377, 'time': 6, 'pitch': 0.6, 'roll': -1.45, 'pres': 195}
{'lipoC2': 7.54, 'lipoC3S1': 4.11, 'temp': 31.0, 'lipoC3S3': 12.46, 'lipoC3S2': 8.23, 'rot1': 0, 'rot0': 0, 'rot3': 32, 'rot2': 27, 'state': 'normal', 'yaw': 2.92, 'datetime': '2018-10-09 12:05:19.027153', 'mgs': 0, 'volt': 0.9717, 'depth': 2.682, 'time': 6, 'pitch': 0.28, 'roll': -1.45, 'pres': 199}
{'lipoC2': 7.55, 'lipoC3S1': 4.12, 'temp': 31.0, 'lipoC3S3': 12.41, 'lipoC3S2': 8.16, 'rot1': 0, 'rot0': 0, 'rot3': 33, 'rot2': 27, 'state': 'normal', 'yaw': 2.95, 'datetime': '2018-10-09 12:05:19.130929', 'mgs': 0, 'volt': 0.9424, 'depth': 2.225, 'time': 6, 'pitch': 0.03, 'roll': -1.48, 'pres': 193}
{'lipoC2': 7.54, 'lipoC3S1': 4.12, 'temp': 31.0, 'lipoC3S3': 12.45, 'lipoC3S2': 8.23, 'rot1': 0, 'rot0': 0, 'rot3': 34, 'rot2': 28, 'state': 'normal', 'yaw': 3.06, 'datetime': '2018-10-09 12:05:19.234432', 'mgs': 0, 'volt': 0.957, 'depth': 2.454, 'time': 6, 'pitch': -0.19, 'roll': -1.49, 'pres': 196}
{'lipoC2': 7.55, 'lipoC3S1': 4.12, 'temp': 31.0, 'lipoC3S3': 12.43, 'lipoC3S2': 8.18, 'rot1': 0, 'rot0': 0, 'rot3': 34, 'rot2': 29, 'state': 'normal', 'yaw': 3.16, 'datetime': '2018-10-09 12:05:19.339347', 'mgs': 0, 'volt': 0.9424, 'depth': 2.225, 'time': 6, 'pitch': -0.29, 'roll': -1.5, 'pres': 193}
{'lipoC2': 7.54, 'lipoC3S1': 4.12, 'temp': 31.0, 'lipoC3S3': 12.38, 'lipoC3S2': 8.23, 'rot1': 0, 'rot0': 0, 'rot3': 36, 'rot2': 29, 'state': 'normal', 'yaw': 3.2, 'datetime': '2018-10-09 12:05:19.442781', 'mgs': 0, 'volt': 0.9521, 'depth': 2.377, 'time': 6, 'pitch': -0.25, 'roll': -1.57, 'pres': 195}
{'lipoC2': 7.55, 'lipoC3S1': 4.1, 'temp': 31.0, 'lipoC3S3': 12.46, 'lipoC3S2': 8.24, 'rot1': 0, 'rot0': 0, 'rot3': 38, 'rot2': 30, 'state': 'normal', 'yaw': 3.3, 'datetime': '2018-10-09 12:05:19.546451', 'mgs': 0, 'volt': 0.9717, 'depth': 2.682, 'time': 6, 'pitch': 0.03, 'roll': -1.65, 'pres': 199}
{'lipoC2': 7.54, 'lipoC3S1': 4.12, 'temp': 31.0, 'lipoC3S3': 12.38, 'lipoC3S2': 8.22, 'rot1': 0, 'rot0': 0, 'rot3': 39, 'rot2': 31, 'state': 'normal', 'yaw': 3.37, 'datetime': '2018-10-09 12:05:19.651159', 'mgs': 0, 'volt': 0.9473, 'depth': 2.301, 'time': 6, 'pitch': 0.56, 'roll': -1.75, 'pres': 194}
{'lipoC2': 7.54, 'lipoC3S1': 4.11, 'temp': 31.0, 'lipoC3S3': 12.46, 'lipoC3S2': 8.24, 'rot1': 0, 'rot0': 0, 'rot3': 40, 'rot2': 31, 'state': 'normal', 'yaw': 3.44, 'datetime': '2018-10-09 12:05:19.754773', 'mgs': 0, 'volt': 0.9668, 'depth': 2.606, 'time': 7, 'pitch': 1.32, 'roll': -1.8, 'pres': 198}
{'lipoC2': 7.55, 'lipoC3S1': 4.09, 'temp': 31.0, 'lipoC3S3': 12.46, 'lipoC3S2': 8.22, 'rot1': 0, 'rot0': 0, 'rot3': 41, 'rot2': 32, 'state': 'normal', 'yaw': 3.55, 'datetime': '2018-10-09 12:05:19.859110', 'mgs': 0, 'volt': 0.9277, 'depth': 1.996, 'time': 7, 'pitch': 1.87, 'roll': -1.74, 'pres': 190}
{'lipoC2': 7.54, 'lipoC3S1': 4.11, 'temp': 31.06, 'lipoC3S3': 12.46, 'lipoC3S2': 8.24, 'rot1': 0, 'rot0': 0, 'rot3': 41, 'rot2': 33, 'state': 'normal', 'yaw': 3.67, 'datetime': '2018-10-09 12:05:19.963250', 'mgs': 0, 'volt': 0.957, 'depth': 2.454, 'time': 7, 'pitch': 2.09, 'roll': -1.63, 'pres': 196}
{'lipoC2': 7.55, 'lipoC3S1': 4.08, 'temp': 31.06, 'lipoC3S3': 12.48, 'lipoC3S2': 8.21, 'rot1': 0, 'rot0': 0, 'rot3': 42, 'rot2': 33, 'state': 'normal', 'yaw': 3.78, 'datetime': '2018-10-09 12:05:20.066776', 'mgs': 0, 'volt': 0.9521, 'depth': 2.377, 'time': 7, 'pitch': 1.93, 'roll': -1.52, 'pres': 195}
{'lipoC2': 7.54, 'lipoC3S1': 4.12, 'temp': 31.06, 'lipoC3S3': 12.41, 'lipoC3S2': 8.17, 'rot1': 0, 'rot0': 0, 'rot3': 43, 'rot2': 34, 'state': 'normal', 'yaw': 3.91, 'datetime': '2018-10-09 12:05:20.170461', 'mgs': 0, 'volt': 0.9473, 'depth': 2.301, 'time': 7, 'pitch': 1.52, 'roll': -1.32, 'pres': 194}
{'lipoC2': 7.54, 'lipoC3S1': 4.12, 'temp': 31.06, 'lipoC3S3': 12.45, 'lipoC3S2': 8.23, 'rot1': 0, 'rot0': 0, 'rot3': 45, 'rot2': 35, 'state': 'normal', 'yaw': 4.03, 'datetime': '2018-10-09 12:05:20.274051', 'mgs': 0, 'volt': 0.9717, 'depth': 2.682, 'time': 7, 'pitch': 1.1, 'roll': -1.12, 'pres': 199}
{'lipoC2': 7.55, 'lipoC3S1': 4.08, 'temp': 31.06, 'lipoC3S3': 12.46, 'lipoC3S2': 8.22, 'rot1': 0, 'rot0': 0, 'rot3': 46, 'rot2': 35, 'state': 'normal', 'yaw': 4.17, 'datetime': '2018-10-09 12:05:20.377892', 'mgs': 0, 'volt': 0.9521, 'depth': 2.377, 'time': 7, 'pitch': 0.96, 'roll': -1.07, 'pres': 195}
{'lipoC2': 7.55, 'lipoC3S1': 4.12, 'temp': 31.0, 'lipoC3S3': 12.42, 'lipoC3S2': 8.18, 'rot1': 0, 'rot0': 0, 'rot3': 47, 'rot2': 36, 'state': 'normal', 'yaw': 4.35, 'datetime': '2018-10-09 12:05:20.481058', 'mgs': 0, 'volt': 0.9521, 'depth': 2.377, 'time': 7, 'pitch': 1.12, 'roll': -1.22, 'pres': 195}
{'lipoC2': 7.54, 'lipoC3S1': 4.12, 'temp': 31.0, 'lipoC3S3': 12.35, 'lipoC3S2': 8.23, 'rot1': 0, 'rot0': 0, 'rot3': 47, 'rot2': 38, 'state': 'normal', 'yaw': 4.54, 'datetime': '2018-10-09 12:05:20.584684', 'mgs': 0, 'volt': 0.9619, 'depth': 2.53, 'time': 7, 'pitch': 1.47, 'roll': -1.55, 'pres': 197}
{'lipoC2': 7.55, 'lipoC3S1': 4.11, 'temp': 31.0, 'lipoC3S3': 12.46, 'lipoC3S2': 8.23, 'rot1': 0, 'rot0': 0, 'rot3': 48, 'rot2': 38, 'state': 'normal', 'yaw': 4.71, 'datetime': '2018-10-09 12:05:20.688466', 'mgs': 0, 'volt': 0.9863, 'depth': 2.911, 'time': 7, 'pitch': 1.71, 'roll': -1.9, 'pres': 202}
{'lipoC2': 7.54, 'lipoC3S1': 4.12, 'temp': 31.0, 'lipoC3S3': 12.43, 'lipoC3S2': 8.19, 'rot1': 0, 'rot0': 0, 'rot3': 49, 'rot2': 40, 'state': 'normal', 'yaw': 4.86, 'datetime': '2018-10-09 12:05:20.792022', 'mgs': 0, 'volt': 0.9521, 'depth': 2.377, 'time': 8, 'pitch': 1.76, 'roll': -2.16, 'pres': 195}
{'lipoC2': 7.54, 'lipoC3S1': 4.12, 'temp': 31.0, 'lipoC3S3': 12.37, 'lipoC3S2': 8.23, 'rot1': 0, 'rot0': 0, 'rot3': 50, 'rot2': 41, 'state': 'normal', 'yaw': 4.99, 'datetime': '2018-10-09 12:05:20.895284', 'mgs': 0, 'volt': 0.9619, 'depth': 2.53, 'time': 8, 'pitch': 1.61, 'roll': -2.15, 'pres': 197}
{'lipoC2': 7.54, 'lipoC3S1': 4.09, 'temp': 31.0, 'lipoC3S3': 12.46, 'lipoC3S2': 8.23, 'rot1': 0, 'rot0': 0, 'rot3': 51, 'rot2': 41, 'state': 'normal', 'yaw': 5.13, 'datetime': '2018-10-09 12:05:20.999008', 'mgs': 0, 'volt': 0.9766, 'depth': 2.759, 'time': 8, 'pitch': 1.39, 'roll': -1.95, 'pres': 200}
{'lipoC2': 7.54, 'lipoC3S1': 4.12, 'temp': 31.0, 'lipoC3S3': 12.41, 'lipoC3S2': 8.23, 'rot1': 0, 'rot0': 0, 'rot3': 51, 'rot2': 42, 'state': 'normal', 'yaw': 5.27, 'datetime': '2018-10-09 12:05:21.103665', 'mgs': 0, 'volt': 0.9521, 'depth': 2.377, 'time': 8, 'pitch': 1.15, 'roll': -1.67, 'pres': 195}
{'lipoC2': 7.55, 'lipoC3S1': 4.11, 'temp': 31.0, 'lipoC3S3': 12.46, 'lipoC3S2': 8.23, 'rot1': 0, 'rot0': 0, 'rot3': 52, 'rot2': 43, 'state': 'normal', 'yaw': 5.38, 'datetime': '2018-10-09 12:05:21.207385', 'mgs': 0, 'volt': 0.9717, 'depth': 2.682, 'time': 8, 'pitch': 0.88, 'roll': -1.41, 'pres': 199}
{'lipoC2': 7.53, 'lipoC3S1': 4.11, 'temp': 31.0, 'lipoC3S3': 12.45, 'lipoC3S2': 8.23, 'rot1': 0, 'rot0': 0, 'rot3': 53, 'rot2': 43, 'state': 'normal', 'yaw': 5.39, 'datetime': '2018-10-09 12:05:21.321850', 'mgs': 0, 'volt': 0.9814, 'depth': 2.835, 'time': 8, 'pitch': 0.72, 'roll': -1.32, 'pres': 201}
{'lipoC2': 7.55, 'lipoC3S1': 4.11, 'temp': 31.0, 'lipoC3S3': 12.46, 'lipoC3S2': 8.23, 'rot1': 0, 'rot0': 0, 'rot3': 54, 'rot2': 44, 'state': 'normal', 'yaw': 5.43, 'datetime': '2018-10-09 12:05:21.409270', 'mgs': 0, 'volt': 0.9814, 'depth': 2.835, 'time': 8, 'pitch': 0.69, 'roll': -1.32, 'pres': 201}
{'lipoC2': 7.55, 'lipoC3S1': 4.08, 'temp': 31.0, 'lipoC3S3': 12.45, 'lipoC3S2': 8.19, 'rot1': 0, 'rot0': 0, 'rot3': 55, 'rot2': 45, 'state': 'normal', 'yaw': 5.53, 'datetime': '2018-10-09 12:05:21.512753', 'mgs': 0, 'volt': 0.9521, 'depth': 2.377, 'time': 8, 'pitch': 0.74, 'roll': -1.43, 'pres': 195}
{'lipoC2': 7.54, 'lipoC3S1': 4.12, 'temp': 31.0, 'lipoC3S3': 12.39, 'lipoC3S2': 8.23, 'rot1': 0, 'rot0': 0, 'rot3': 55, 'rot2': 45, 'state': 'normal', 'yaw': 5.57, 'datetime': '2018-10-09 12:05:21.616442', 'mgs': 0, 'volt': 0.9424, 'depth': 2.225, 'time': 8, 'pitch': 0.88, 'roll': -1.56, 'pres': 193}
{'lipoC2': 7.54, 'lipoC3S1': 4.12, 'temp': 31.0, 'lipoC3S3': 12.45, 'lipoC3S2': 8.23, 'rot1': 0, 'rot0': 0, 'rot3': 56, 'rot2': 46, 'state': 'normal', 'yaw': 5.67, 'datetime': '2018-10-09 12:05:21.719891', 'mgs': 0, 'volt': 0.9668, 'depth': 2.606, 'time': 9, 'pitch': 0.91, 'roll': -1.66, 'pres': 198}
{'lipoC2': 7.54, 'lipoC3S1': 4.09, 'temp': 31.0, 'lipoC3S3': 12.46, 'lipoC3S2': 8.21, 'rot1': 0, 'rot0': 0, 'rot3': 57, 'rot2': 47, 'state': 'normal', 'yaw': 5.75, 'datetime': '2018-10-09 12:05:21.823577', 'mgs': 0, 'volt': 0.9521, 'depth': 2.377, 'time': 9, 'pitch': 0.75, 'roll': -1.67, 'pres': 195}
{'lipoC2': 7.54, 'lipoC3S1': 4.11, 'temp': 30.94, 'lipoC3S3': 12.42, 'lipoC3S2': 8.17, 'rot1': 0, 'rot0': 0, 'rot3': 58, 'rot2': 47, 'state': 'normal', 'yaw': 5.75, 'datetime': '2018-10-09 12:05:21.926958', 'mgs': 0, 'volt': 0.9521, 'depth': 2.377, 'time': 9, 'pitch': 0.49, 'roll': -1.58, 'pres': 195}
{'lipoC2': 7.53, 'lipoC3S1': 4.12, 'temp': 30.94, 'lipoC3S3': 12.38, 'lipoC3S2': 8.23, 'rot1': 0, 'rot0': 0, 'rot3': 60, 'rot2': 49, 'state': 'normal', 'yaw': 5.76, 'datetime': '2018-10-09 12:05:22.031977', 'mgs': 0, 'volt': 0.9619, 'depth': 2.53, 'time': 9, 'pitch': 0.23, 'roll': -1.35, 'pres': 197}
{'lipoC2': 7.55, 'lipoC3S1': 4.09, 'temp': 30.94, 'lipoC3S3': 12.46, 'lipoC3S2': 8.23, 'rot1': 0, 'rot0': 0, 'rot3': 60, 'rot2': 50, 'state': 'normal', 'yaw': 5.76, 'datetime': '2018-10-09 12:05:22.140388', 'mgs': 0, 'volt': 0.9814, 'depth': 2.835, 'time': 9, 'pitch': 0.17, 'roll': -1.15, 'pres': 201}
{'lipoC2': 7.54, 'lipoC3S1': 4.11, 'temp': 30.94, 'lipoC3S3': 12.42, 'lipoC3S2': 8.17, 'rot1': 0, 'rot0': 0, 'rot3': 61, 'rot2': 50, 'state': 'normal', 'yaw': 5.76, 'datetime': '2018-10-09 12:05:22.237990', 'mgs': 0, 'volt': 0.9521, 'depth': 2.377, 'time': 9, 'pitch': 0.36, 'roll': -1.04, 'pres': 195}
{'lipoC2': 7.54, 'lipoC3S1': 4.12, 'temp': 30.94, 'lipoC3S3': 12.39, 'lipoC3S2': 8.23, 'rot1': 0, 'rot0': 0, 'rot3': 62, 'rot2': 51, 'state': 'normal', 'yaw': 5.75, 'datetime': '2018-10-09 12:05:22.341263', 'mgs': 0, 'volt': 0.9619, 'depth': 2.53, 'time': 9, 'pitch': 0.82, 'roll': -1.03, 'pres': 197}
{'lipoC2': 7.54, 'lipoC3S1': 4.1, 'temp': 31.0, 'lipoC3S3': 12.45, 'lipoC3S2': 8.23, 'rot1': 0, 'rot0': 0, 'rot3': 63, 'rot2': 53, 'state': 'normal', 'yaw': 5.75, 'datetime': '2018-10-09 12:05:22.444901', 'mgs': 0, 'volt': 0.9814, 'depth': 2.835, 'time': 9, 'pitch': 1.26, 'roll': -1.04, 'pres': 201}
{'lipoC2': 7.54, 'lipoC3S1': 4.12, 'temp': 31.0, 'lipoC3S3': 12.41, 'lipoC3S2': 8.23, 'rot1': 0, 'rot0': 0, 'rot3': 64, 'rot2': 53, 'state': 'normal', 'yaw': 5.77, 'datetime': '2018-10-09 12:05:22.549580', 'mgs': 0, 'volt': 0.957, 'depth': 2.454, 'time': 9, 'pitch': 1.51, 'roll': -1.0, 'pres': 196}
{'lipoC2': 7.53, 'lipoC3S1': 4.1, 'temp': 30.94, 'lipoC3S3': 12.45, 'lipoC3S2': 8.23, 'rot1': 0, 'rot0': 0, 'rot3': 65, 'rot2': 55, 'state': 'normal', 'yaw': 5.78, 'datetime': '2018-10-09 12:05:22.653243', 'mgs': 0, 'volt': 0.9814, 'depth': 2.835, 'time': 9, 'pitch': 1.52, 'roll': -0.9, 'pres': 201}
{'lipoC2': 7.55, 'lipoC3S1': 4.11, 'temp': 30.94, 'lipoC3S3': 12.42, 'lipoC3S2': 8.16, 'rot1': 0, 'rot0': 0, 'rot3': 65, 'rot2': 57, 'state': 'normal', 'yaw': 5.79, 'datetime': '2018-10-09 12:05:22.757010', 'mgs': 0, 'volt': 0.9521, 'depth': 2.377, 'time': 10, 'pitch': 1.34, 'roll': -0.79, 'pres': 195}
{'lipoC2': 7.54, 'lipoC3S1': 4.11, 'temp': 31.0, 'lipoC3S3': 12.45, 'lipoC3S2': 8.23, 'rot1': 0, 'rot0': 0, 'rot3': 66, 'rot2': 57, 'state': 'normal', 'yaw': 5.79, 'datetime': '2018-10-09 12:05:22.861798', 'mgs': 0, 'volt': 0.9766, 'depth': 2.759, 'time': 10, 'pitch': 1.13, 'roll': -0.67, 'pres': 200}
{'lipoC2': 7.55, 'lipoC3S1': 4.15, 'temp': 31.0, 'lipoC3S3': 12.42, 'lipoC3S2': 8.17, 'rot1': 0, 'rot0': 0, 'rot3': 67, 'rot2': 58, 'state': 'normal', 'yaw': 5.78, 'datetime': '2018-10-09 12:05:22.974943', 'mgs': 0, 'volt': 0.957, 'depth': 2.454, 'time': 10, 'pitch': 0.91, 'roll': -0.63, 'pres': 196}
{'lipoC2': 7.54, 'lipoC3S1': 4.12, 'temp': 31.0, 'lipoC3S3': 12.45, 'lipoC3S2': 8.23, 'rot1': 0, 'rot0': 0, 'rot3': 69, 'rot2': 59, 'state': 'normal', 'yaw': 5.78, 'datetime': '2018-10-09 12:05:23.079554', 'mgs': 0, 'volt': 0.9717, 'depth': 2.682, 'time': 10, 'pitch': 0.79, 'roll': -0.66, 'pres': 199}
{'lipoC2': 7.55, 'lipoC3S1': 4.07, 'temp': 30.94, 'lipoC3S3': 12.46, 'lipoC3S2': 8.19, 'rot1': 0, 'rot0': 0, 'rot3': 70, 'rot2': 59, 'state': 'normal', 'yaw': 5.79, 'datetime': '2018-10-09 12:05:23.183119', 'mgs': 0, 'volt': 0.957, 'depth': 2.454, 'time': 10, 'pitch': 0.72, 'roll': -0.78, 'pres': 196}
{'lipoC2': 7.54, 'lipoC3S1': 4.12, 'temp': 30.94, 'lipoC3S3': 12.38, 'lipoC3S2': 8.22, 'rot1': 0, 'rot0': 0, 'rot3': 70, 'rot2': 60, 'state': 'normal', 'yaw': 5.79, 'datetime': '2018-10-09 12:05:23.287608', 'mgs': 0, 'volt': 0.9619, 'depth': 2.53, 'time': 10, 'pitch': 0.71, 'roll': -0.94, 'pres': 197}
{'lipoC2': 7.54, 'lipoC3S1': 4.1, 'temp': 31.0, 'lipoC3S3': 12.46, 'lipoC3S2': 8.21, 'rot1': 0, 'rot0': 0, 'rot3': 71, 'rot2': 60, 'state': 'normal', 'yaw': 5.79, 'datetime': '2018-10-09 12:05:23.390708', 'mgs': 0, 'volt': 0.9375, 'depth': 2.148, 'time': 10, 'pitch': 0.78, 'roll': -1.11, 'pres': 192}
{'lipoC2': 7.54, 'lipoC3S1': 4.12, 'temp': 31.0, 'lipoC3S3': 12.43, 'lipoC3S2': 8.18, 'rot1': 0, 'rot0': 0, 'rot3': 72, 'rot2': 61, 'state': 'normal', 'yaw': 5.78, 'datetime': '2018-10-09 12:05:23.494198', 'mgs': 0, 'volt': 0.9521, 'depth': 2.377, 'time': 10, 'pitch': 1.04, 'roll': -1.31, 'pres': 195}
{'lipoC2': 7.54, 'lipoC3S1': 4.1, 'temp': 31.0, 'lipoC3S3': 12.45, 'lipoC3S2': 8.23, 'rot1': 0, 'rot0': 0, 'rot3': 73, 'rot2': 62, 'state': 'normal', 'yaw': 5.78, 'datetime': '2018-10-09 12:05:23.597564', 'mgs': 0, 'volt': 0.9766, 'depth': 2.759, 'time': 10, 'pitch': 1.34, 'roll': -1.55, 'pres': 200}
{'lipoC2': 7.55, 'lipoC3S1': 4.11, 'temp': 31.0, 'lipoC3S3': 12.42, 'lipoC3S2': 8.17, 'rot1': 0, 'rot0': 0, 'rot3': 74, 'rot2': 63, 'state': 'normal', 'yaw': 5.77, 'datetime': '2018-10-09 12:05:23.701510', 'mgs': 0, 'volt': 0.9521, 'depth': 2.377, 'time': 10, 'pitch': 1.57, 'roll': -1.81, 'pres': 195}
{'lipoC2': 7.54, 'lipoC3S1': 4.12, 'temp': 31.0, 'lipoC3S3': 12.45, 'lipoC3S2': 8.23, 'rot1': 0, 'rot0': 0, 'rot3': 75, 'rot2': 63, 'state': 'normal', 'yaw': 5.77, 'datetime': '2018-10-09 12:05:23.804980', 'mgs': 0, 'volt': 0.9717, 'depth': 2.682, 'time': 11, 'pitch': 1.65, 'roll': -2.03, 'pres': 199}
{'lipoC2': 7.55, 'lipoC3S1': 4.09, 'temp': 31.0, 'lipoC3S3': 12.46, 'lipoC3S2': 8.21, 'rot1': 0, 'rot0': 0, 'rot3': 75, 'rot2': 65, 'state': 'normal', 'yaw': 5.78, 'datetime': '2018-10-09 12:05:23.908734', 'mgs': 0, 'volt': 0.957, 'depth': 2.454, 'time': 11, 'pitch': 1.51, 'roll': -2.08, 'pres': 196}
{'lipoC2': 7.55, 'lipoC3S1': 4.1, 'temp': 31.0, 'lipoC3S3': 12.46, 'lipoC3S2': 8.23, 'rot1': 0, 'rot0': 0, 'rot3': 76, 'rot2': 65, 'state': 'normal', 'yaw': 5.79, 'datetime': '2018-10-09 12:05:24.013507', 'mgs': 0, 'volt': 0.9863, 'depth': 2.911, 'time': 11, 'pitch': 1.14, 'roll': -2.02, 'pres': 202}
{'lipoC2': 7.55, 'lipoC3S1': 4.11, 'temp': 30.94, 'lipoC3S3': 12.42, 'lipoC3S2': 8.17, 'rot1': 0, 'rot0': 0, 'rot3': 77, 'rot2': 66, 'state': 'normal', 'yaw': 5.8, 'datetime': '2018-10-09 12:05:24.117464', 'mgs': 0, 'volt': 0.957, 'depth': 2.454, 'time': 11, 'pitch': 0.68, 'roll': -1.88, 'pres': 196}
{'lipoC2': 7.55, 'lipoC3S1': 4.08, 'temp': 30.94, 'lipoC3S3': 12.46, 'lipoC3S2': 8.21, 'rot1': 0, 'rot0': 0, 'rot3': 78, 'rot2': 67, 'state': 'normal', 'yaw': 5.78, 'datetime': '2018-10-09 12:05:24.222136', 'mgs': 0, 'volt': 0.957, 'depth': 2.454, 'time': 11, 'pitch': 0.29, 'roll': -1.7, 'pres': 196}
{'lipoC2': 7.54, 'lipoC3S1': 4.12, 'temp': 30.94, 'lipoC3S3': 12.39, 'lipoC3S2': 8.15, 'rot1': 0, 'rot0': 0, 'rot3': 79, 'rot2': 67, 'state': 'normal', 'yaw': 5.67, 'datetime': '2018-10-09 12:05:24.325946', 'mgs': 0, 'volt': 0.9521, 'depth': 2.377, 'time': 11, 'pitch': 0.08, 'roll': -1.49, 'pres': 195}
{'lipoC2': 7.55, 'lipoC3S1': 4.1, 'temp': 30.94, 'lipoC3S3': 12.45, 'lipoC3S2': 8.23, 'rot1': 0, 'rot0': 0, 'rot3': 79, 'rot2': 68, 'state': 'normal', 'yaw': 5.57, 'datetime': '2018-10-09 12:05:24.429491', 'mgs': 0, 'volt': 0.9863, 'depth': 2.911, 'time': 11, 'pitch': 0.11, 'roll': -1.34, 'pres': 202}
{'lipoC2': 7.55, 'lipoC3S1': 4.11, 'temp': 30.94, 'lipoC3S3': 12.42, 'lipoC3S2': 8.17, 'rot1': 0, 'rot0': 0, 'rot3': 80, 'rot2': 69, 'state': 'normal', 'yaw': 5.52, 'datetime': '2018-10-09 12:05:24.533524', 'mgs': 0, 'volt': 0.9521, 'depth': 2.377, 'time': 11, 'pitch': 0.28, 'roll': -1.21, 'pres': 195}
{'lipoC2': 7.54, 'lipoC3S1': 4.13, 'temp': 31.0, 'lipoC3S3': 12.45, 'lipoC3S2': 8.23, 'rot1': 0, 'rot0': 0, 'rot3': 81, 'rot2': 69, 'state': 'normal', 'yaw': 5.49, 'datetime': '2018-10-09 12:05:24.636909', 'mgs': 0, 'volt': 0.9766, 'depth': 2.759, 'time': 11, 'pitch': 0.56, 'roll': -1.12, 'pres': 200}
{'lipoC2': 7.54, 'lipoC3S1': 4.07, 'temp': 31.0, 'lipoC3S3': 12.43, 'lipoC3S2': 8.17, 'rot1': 0, 'rot0': 0, 'rot3': 82, 'rot2': 70, 'state': 'normal', 'yaw': 5.41, 'datetime': '2018-10-09 12:05:24.743966', 'mgs': 0, 'volt': 0.957, 'depth': 2.454, 'time': 12, 'pitch': 0.87, 'roll': -1.02, 'pres': 196}
{'lipoC2': 7.54, 'lipoC3S1': 4.12, 'temp': 31.0, 'lipoC3S3': 12.38, 'lipoC3S2': 8.22, 'rot1': 0, 'rot0': 0, 'rot3': 83, 'rot2': 71, 'state': 'normal', 'yaw': 5.32, 'datetime': '2018-10-09 12:05:24.844684', 'mgs': 0, 'volt': 0.9619, 'depth': 2.53, 'time': 12, 'pitch': 1.21, 'roll': -0.91, 'pres': 197}
{'lipoC2': 7.54, 'lipoC3S1': 4.09, 'temp': 31.0, 'lipoC3S3': 12.46, 'lipoC3S2': 8.23, 'rot1': 0, 'rot0': 0, 'rot3': 83, 'rot2': 71, 'state': 'normal', 'yaw': 5.24, 'datetime': '2018-10-09 12:05:24.947993', 'mgs': 0, 'volt': 0.9766, 'depth': 2.759, 'time': 12, 'pitch': 1.47, 'roll': -0.87, 'pres': 200}
{'lipoC2': 7.54, 'lipoC3S1': 4.12, 'temp': 30.94, 'lipoC3S3': 12.39, 'lipoC3S2': 8.16, 'rot1': 0, 'rot0': 0, 'rot3': 84, 'rot2': 72, 'state': 'normal', 'yaw': 5.16, 'datetime': '2018-10-09 12:05:25.052331', 'mgs': 0, 'volt': 0.9521, 'depth': 2.377, 'time': 12, 'pitch': 1.53, 'roll': -0.89, 'pres': 195}
{'lipoC2': 7.54, 'lipoC3S1': 4.12, 'temp': 30.94, 'lipoC3S3': 12.38, 'lipoC3S2': 8.23, 'rot1': 0, 'rot0': 0, 'rot3': 85, 'rot2': 73, 'state': 'normal', 'yaw': 5.07, 'datetime': '2018-10-09 12:05:25.155963', 'mgs': 0, 'volt': 0.9619, 'depth': 2.53, 'time': 12, 'pitch': 1.38, 'roll': -0.93, 'pres': 197}
