{'lipoC2': 7.37, 'lipoC3S1': 3.95, 'temp': 30.13, 'lipoC3S3': 11.94, 'lipoC3S2': 7.9, 'rot1': 825, 'rot0': 835, 'rot3': 396, 'rot2': 363, 'state': 'normal', 'yaw': -24.39, 'datetime': '2018-10-09 13:27:47.782255', 'mgs': 0, 'volt': 0.9033, 'depth': 1.614, 'time': 510, 'pitch': -33.09, 'roll': 51.56, 'pres': 185}
{'lipoC2': 7.37, 'lipoC3S1': 3.95, 'temp': 30.19, 'lipoC3S3': 11.94, 'lipoC3S2': 7.9, 'rot1': 825, 'rot0': 835, 'rot3': 396, 'rot2': 363, 'state': 'normal', 'yaw': -23.78, 'datetime': '2018-10-09 13:27:47.806155', 'mgs': 0, 'volt': 0.9082, 'depth': 1.691, 'time': 510, 'pitch': -33.47, 'roll': 50.97, 'pres': 186}
{'lipoC2': 7.37, 'lipoC3S1': 3.95, 'temp': 30.19, 'lipoC3S3': 11.94, 'lipoC3S2': 7.9, 'rot1': 825, 'rot0': 835, 'rot3': 396, 'rot2': 363, 'state': 'normal', 'yaw': -23.33, 'datetime': '2018-10-09 13:27:47.830011', 'mgs': 0, 'volt': 0.9033, 'depth': 1.614, 'time': 510, 'pitch': -34.24, 'roll': 50.44, 'pres': 185}
{'lipoC2': 7.37, 'lipoC3S1': 3.95, 'temp': 30.19, 'lipoC3S3': 11.94, 'lipoC3S2': 7.9, 'rot1': 825, 'rot0': 835, 'rot3': 396, 'rot2': 363, 'state': 'normal', 'yaw': -23.18, 'datetime': '2018-10-09 13:27:47.853966', 'mgs': 0, 'volt': 0.9033, 'depth': 1.614, 'time': 511, 'pitch': -35.41, 'roll': 50.13, 'pres': 185}
{'lipoC2': 7.38, 'lipoC3S1': 3.95, 'temp': 30.19, 'lipoC3S3': 11.94, 'lipoC3S2': 7.9, 'rot1': 825, 'rot0': 835, 'rot3': 396, 'rot2': 363, 'state': 'normal', 'yaw': -23.57, 'datetime': '2018-10-09 13:27:47.865800', 'mgs': 0, 'volt': 0.8984, 'depth': 1.538, 'time': 511, 'pitch': -36.66, 'roll': 50.27, 'pres': 184}
{'lipoC2': 7.37, 'lipoC3S1': 3.95, 'temp': 30.19, 'lipoC3S3': 11.94, 'lipoC3S2': 7.9, 'rot1': 825, 'rot0': 835, 'rot3': 396, 'rot2': 363, 'state': 'normal', 'yaw': -24.56, 'datetime': '2018-10-09 13:27:47.876261', 'mgs': 0, 'volt': 0.8984, 'depth': 1.538, 'time': 511, 'pitch': -38.09, 'roll': 50.85, 'pres': 184}
{'lipoC2': 7.37, 'lipoC3S1': 3.95, 'temp': 30.19, 'lipoC3S3': 11.94, 'lipoC3S2': 7.9, 'rot1': 825, 'rot0': 835, 'rot3': 396, 'rot2': 363, 'state': 'normal', 'yaw': -25.78, 'datetime': '2018-10-09 13:27:47.886684', 'mgs': 0, 'volt': 0.8984, 'depth': 1.538, 'time': 511, 'pitch': -39.27, 'roll': 51.53, 'pres': 184}
{'lipoC2': 7.37, 'lipoC3S1': 3.95, 'temp': 30.19, 'lipoC3S3': 11.94, 'lipoC3S2': 7.9, 'rot1': 825, 'rot0': 835, 'rot3': 396, 'rot2': 363, 'state': 'normal', 'yaw': -27.17, 'datetime': '2018-10-09 13:27:47.897086', 'mgs': 0, 'volt': 0.8984, 'depth': 1.538, 'time': 511, 'pitch': -40.19, 'roll': 52.23, 'pres': 184}
{'lipoC2': 7.37, 'lipoC3S1': 3.95, 'temp': 30.13, 'lipoC3S3': 11.94, 'lipoC3S2': 7.9, 'rot1': 825, 'rot0': 835, 'rot3': 396, 'rot2': 363, 'state': 'normal', 'yaw': -28.47, 'datetime': '2018-10-09 13:27:47.907462', 'mgs': 0, 'volt': 0.8984, 'depth': 1.538, 'time': 511, 'pitch': -40.66, 'roll': 52.74, 'pres': 184}
{'lipoC2': 7.37, 'lipoC3S1': 3.95, 'temp': 30.13, 'lipoC3S3': 11.94, 'lipoC3S2': 7.9, 'rot1': 825, 'rot0': 835, 'rot3': 396, 'rot2': 363, 'state': 'normal', 'yaw': -28.92, 'datetime': '2018-10-09 13:27:47.917817', 'mgs': 0, 'volt': 0.9033, 'depth': 1.614, 'time': 511, 'pitch': -40.53, 'roll': 52.69, 'pres': 185}
{'lipoC2': 7.37, 'lipoC3S1': 3.95, 'temp': 30.13, 'lipoC3S3': 11.94, 'lipoC3S2': 7.9, 'rot1': 825, 'rot0': 835, 'rot3': 396, 'rot2': 363, 'state': 'normal', 'yaw': -28.59, 'datetime': '2018-10-09 13:27:47.928140', 'mgs': 0, 'volt': 0.8984, 'depth': 1.538, 'time': 511, 'pitch': -39.69, 'roll': 52.24, 'pres': 184}
{'lipoC2': 7.37, 'lipoC3S1': 3.95, 'temp': 30.19, 'lipoC3S3': 11.93, 'lipoC3S2': 7.9, 'rot1': 825, 'rot0': 835, 'rot3': 396, 'rot2': 363, 'state': 'normal', 'yaw': -27.6, 'datetime': '2018-10-09 13:27:47.938523', 'mgs': 0, 'volt': 0.9033, 'depth': 1.614, 'time': 511, 'pitch': -38.4, 'roll': 51.59, 'pres': 185}
{'lipoC2': 7.37, 'lipoC3S1': 3.95, 'temp': 30.19, 'lipoC3S3': 11.93, 'lipoC3S2': 7.9, 'rot1': 825, 'rot0': 835, 'rot3': 396, 'rot2': 363, 'state': 'normal', 'yaw': -26.43, 'datetime': '2018-10-09 13:27:47.948654', 'mgs': 0, 'volt': 0.9033, 'depth': 1.614, 'time': 512, 'pitch': -36.78, 'roll': 51.04, 'pres': 185}
{'lipoC2': 7.37, 'lipoC3S1': 3.95, 'temp': 30.13, 'lipoC3S3': 11.93, 'lipoC3S2': 7.9, 'rot1': 825, 'rot0': 835, 'rot3': 396, 'rot2': 363, 'state': 'normal', 'yaw': -25.27, 'datetime': '2018-10-09 13:27:47.958448', 'mgs': 0, 'volt': 0.9082, 'depth': 1.691, 'time': 512, 'pitch': -35.33, 'roll': 50.6, 'pres': 186}
{'lipoC2': 7.37, 'lipoC3S1': 3.95, 'temp': 30.13, 'lipoC3S3': 11.93, 'lipoC3S2': 7.9, 'rot1': 825, 'rot0': 835, 'rot3': 396, 'rot2': 363, 'state': 'normal', 'yaw': -23.98, 'datetime': '2018-10-09 13:27:47.968825', 'mgs': 0, 'volt': 0.9033, 'depth': 1.614, 'time': 512, 'pitch': -34.0, 'roll': 50.1, 'pres': 185}
{'lipoC2': 7.37, 'lipoC3S1': 3.95, 'temp': 30.19, 'lipoC3S3': 11.93, 'lipoC3S2': 7.9, 'rot1': 825, 'rot0': 835, 'rot3': 396, 'rot2': 363, 'state': 'normal', 'yaw': -23.41, 'datetime': '2018-10-09 13:27:47.978774', 'mgs': 0, 'volt': 0.9082, 'depth': 1.691, 'time': 512, 'pitch': -33.19, 'roll': 49.92, 'pres': 186}
{'lipoC2': 7.37, 'lipoC3S1': 3.95, 'temp': 30.19, 'lipoC3S3': 11.93, 'lipoC3S2': 7.9, 'rot1': 825, 'rot0': 835, 'rot3': 396, 'rot2': 363, 'state': 'normal', 'yaw': -23.15, 'datetime': '2018-10-09 13:27:47.988614', 'mgs': 0, 'volt': 0.9082, 'depth': 1.691, 'time': 512, 'pitch': -32.92, 'roll': 49.67, 'pres': 186}
{'lipoC2': 7.37, 'lipoC3S1': 3.95, 'temp': 30.19, 'lipoC3S3': 11.93, 'lipoC3S2': 7.9, 'rot1': 825, 'rot0': 835, 'rot3': 396, 'rot2': 363, 'state': 'normal', 'yaw': -23.21, 'datetime': '2018-10-09 13:27:47.998433', 'mgs': 0, 'volt': 0.9082, 'depth': 1.691, 'time': 512, 'pitch': -33.36, 'roll': 49.25, 'pres': 186}
{'lipoC2': 7.37, 'lipoC3S1': 3.95, 'temp': 30.13, 'lipoC3S3': 11.93, 'lipoC3S2': 7.89, 'rot1': 825, 'rot0': 835, 'rot3': 396, 'rot2': 363, 'state': 'normal', 'yaw': -23.31, 'datetime': '2018-10-09 13:27:48.008217', 'mgs': 0, 'volt': 0.9033, 'depth': 1.614, 'time': 512, 'pitch': -34.48, 'roll': 48.59, 'pres': 185}
{'lipoC2': 7.37, 'lipoC3S1': 3.95, 'temp': 30.13, 'lipoC3S3': 11.93, 'lipoC3S2': 7.9, 'rot1': 825, 'rot0': 835, 'rot3': 396, 'rot2': 363, 'state': 'normal', 'yaw': -23.57, 'datetime': '2018-10-09 13:27:48.017994', 'mgs': 0, 'volt': 0.9033, 'depth': 1.614, 'time': 512, 'pitch': -36.21, 'roll': 47.85, 'pres': 185}
{'lipoC2': 7.37, 'lipoC3S1': 3.95, 'temp': 30.13, 'lipoC3S3': 11.93, 'lipoC3S2': 7.9, 'rot1': 825, 'rot0': 835, 'rot3': 396, 'rot2': 363, 'state': 'normal', 'yaw': -24.07, 'datetime': '2018-10-09 13:27:48.027779', 'mgs': 0, 'volt': 0.9033, 'depth': 1.614, 'time': 512, 'pitch': -37.93, 'roll': 47.49, 'pres': 185}
{'lipoC2': 7.37, 'lipoC3S1': 3.95, 'temp': 30.13, 'lipoC3S3': 11.93, 'lipoC3S2': 7.9, 'rot1': 825, 'rot0': 835, 'rot3': 396, 'rot2': 363, 'state': 'normal', 'yaw': -24.6, 'datetime': '2018-10-09 13:27:48.037559', 'mgs': 0, 'volt': 0.8984, 'depth': 1.538, 'time': 512, 'pitch': -39.57, 'roll': 47.37, 'pres': 184}
{'lipoC2': 7.37, 'lipoC3S1': 3.95, 'temp': 30.13, 'lipoC3S3': 11.93, 'lipoC3S2': 7.9, 'rot1': 825, 'rot0': 835, 'rot3': 396, 'rot2': 363, 'state': 'normal', 'yaw': -25.01, 'datetime': '2018-10-09 13:27:48.047322', 'mgs': 0, 'volt': 0.8984, 'depth': 1.538, 'time': 513, 'pitch': -40.6, 'roll': 47.6, 'pres': 184}
{'lipoC2': 7.37, 'lipoC3S1': 3.95, 'temp': 30.13, 'lipoC3S3': 11.93, 'lipoC3S2': 7.89, 'rot1': 825, 'rot0': 835, 'rot3': 396, 'rot2': 363, 'state': 'normal', 'yaw': -25.23, 'datetime': '2018-10-09 13:27:48.057210', 'mgs': 0, 'volt': 0.8984, 'depth': 1.538, 'time': 513, 'pitch': -41.14, 'roll': 48.1, 'pres': 184}
{'lipoC2': 7.37, 'lipoC3S1': 3.95, 'temp': 30.13, 'lipoC3S3': 11.93, 'lipoC3S2': 7.89, 'rot1': 825, 'rot0': 835, 'rot3': 396, 'rot2': 363, 'state': 'normal', 'yaw': -25.14, 'datetime': '2018-10-09 13:27:48.067014', 'mgs': 0, 'volt': 0.8984, 'depth': 1.538, 'time': 513, 'pitch': -41.11, 'roll': 48.63, 'pres': 184}
{'lipoC2': 7.37, 'lipoC3S1': 3.95, 'temp': 30.13, 'lipoC3S3': 11.93, 'lipoC3S2': 7.9, 'rot1': 825, 'rot0': 835, 'rot3': 396, 'rot2': 363, 'state': 'normal', 'yaw': -24.91, 'datetime': '2018-10-09 13:27:48.076847', 'mgs': 0, 'volt': 0.8936, 'depth': 1.462, 'time': 513, 'pitch': -40.68, 'roll': 49.2, 'pres': 183}
{'lipoC2': 7.37, 'lipoC3S1': 3.95, 'temp': 30.13, 'lipoC3S3': 11.93, 'lipoC3S2': 7.9, 'rot1': 825, 'rot0': 835, 'rot3': 396, 'rot2': 363, 'state': 'normal', 'yaw': -24.65, 'datetime': '2018-10-09 13:27:48.086658', 'mgs': 0, 'volt': 0.8984, 'depth': 1.538, 'time': 513, 'pitch': -39.91, 'roll': 49.81, 'pres': 184}
{'lipoC2': 7.37, 'lipoC3S1': 3.95, 'temp': 30.13, 'lipoC3S3': 11.93, 'lipoC3S2': 7.9, 'rot1': 825, 'rot0': 835, 'rot3': 396, 'rot2': 363, 'state': 'normal', 'yaw': -24.43, 'datetime': '2018-10-09 13:27:48.096874', 'mgs': 0, 'volt': 0.8984, 'depth': 1.538, 'time': 513, 'pitch': -39.02, 'roll': 50.18, 'pres': 184}
{'lipoC2': 7.37, 'lipoC3S1': 3.95, 'temp': 30.13, 'lipoC3S3': 11.93, 'lipoC3S2': 7.9, 'rot1': 825, 'rot0': 835, 'rot3': 396, 'rot2': 363, 'state': 'normal', 'yaw': -24.36, 'datetime': '2018-10-09 13:27:48.106687', 'mgs': 0, 'volt': 0.8984, 'depth': 1.538, 'time': 513, 'pitch': -37.83, 'roll': 50.44, 'pres': 184}
{'lipoC2': 7.37, 'lipoC3S1': 3.95, 'temp': 30.13, 'lipoC3S3': 11.93, 'lipoC3S2': 7.89, 'rot1': 825, 'rot0': 835, 'rot3': 396, 'rot2': 363, 'state': 'normal', 'yaw': -24.66, 'datetime': '2018-10-09 13:27:48.116627', 'mgs': 0, 'volt': 0.8984, 'depth': 1.538, 'time': 513, 'pitch': -36.6, 'roll': 50.78, 'pres': 184}
{'lipoC2': 7.37, 'lipoC3S1': 3.95, 'temp': 30.13, 'lipoC3S3': 11.93, 'lipoC3S2': 7.9, 'rot1': 825, 'rot0': 835, 'rot3': 396, 'rot2': 363, 'state': 'normal', 'yaw': -25.42, 'datetime': '2018-10-09 13:27:48.193954', 'mgs': 0, 'volt': 0.9033, 'depth': 1.614, 'time': 513, 'pitch': -35.31, 'roll': 51.53, 'pres': 185}
{'lipoC2': 7.37, 'lipoC3S1': 3.95, 'temp': 30.13, 'lipoC3S3': 11.93, 'lipoC3S2': 7.9, 'rot1': 825, 'rot0': 835, 'rot3': 396, 'rot2': 363, 'state': 'normal', 'yaw': -26.38, 'datetime': '2018-10-09 13:27:48.298265', 'mgs': 0, 'volt': 0.9033, 'depth': 1.614, 'time': 514, 'pitch': -33.8, 'roll': 52.59, 'pres': 185}
{'lipoC2': 7.37, 'lipoC3S1': 3.95, 'temp': 30.13, 'lipoC3S3': 11.93, 'lipoC3S2': 7.89, 'rot1': 825, 'rot0': 835, 'rot3': 396, 'rot2': 363, 'state': 'normal', 'yaw': -26.97, 'datetime': '2018-10-09 13:27:48.403961', 'mgs': 0, 'volt': 0.9082, 'depth': 1.691, 'time': 514, 'pitch': -32.45, 'roll': 53.39, 'pres': 186}
{'lipoC2': 7.37, 'lipoC3S1': 3.95, 'temp': 30.13, 'lipoC3S3': 11.93, 'lipoC3S2': 7.9, 'rot1': 825, 'rot0': 835, 'rot3': 396, 'rot2': 363, 'state': 'normal', 'yaw': -26.9, 'datetime': '2018-10-09 13:27:48.508292', 'mgs': 0, 'volt': 0.9033, 'depth': 1.614, 'time': 514, 'pitch': -31.12, 'roll': 53.54, 'pres': 185}
{'lipoC2': 7.37, 'lipoC3S1': 3.95, 'temp': 30.13, 'lipoC3S3': 11.93, 'lipoC3S2': 7.9, 'rot1': 825, 'rot0': 835, 'rot3': 396, 'rot2': 363, 'state': 'normal', 'yaw': -26.25, 'datetime': '2018-10-09 13:27:48.618621', 'mgs': 0, 'volt': 0.9082, 'depth': 1.691, 'time': 514, 'pitch': -30.09, 'roll': 52.95, 'pres': 186}
{'lipoC2': 7.37, 'lipoC3S1': 3.95, 'temp': 30.13, 'lipoC3S3': 11.93, 'lipoC3S2': 7.9, 'rot1': 825, 'rot0': 835, 'rot3': 396, 'rot2': 363, 'state': 'normal', 'yaw': -25.25, 'datetime': '2018-10-09 13:27:48.723502', 'mgs': 0, 'volt': 0.9082, 'depth': 1.691, 'time': 514, 'pitch': -29.23, 'roll': 51.76, 'pres': 186}
{'lipoC2': 7.37, 'lipoC3S1': 3.95, 'temp': 30.13, 'lipoC3S3': 11.94, 'lipoC3S2': 7.9, 'rot1': 825, 'rot0': 835, 'rot3': 396, 'rot2': 363, 'state': 'normal', 'yaw': -24.49, 'datetime': '2018-10-09 13:27:48.829292', 'mgs': 0, 'volt': 0.9082, 'depth': 1.691, 'time': 514, 'pitch': -28.78, 'roll': 50.57, 'pres': 186}
{'lipoC2': 7.37, 'lipoC3S1': 3.95, 'temp': 30.13, 'lipoC3S3': 11.93, 'lipoC3S2': 7.9, 'rot1': 825, 'rot0': 835, 'rot3': 396, 'rot2': 363, 'state': 'normal', 'yaw': -24.23, 'datetime': '2018-10-09 13:27:48.933595', 'mgs': 0, 'volt': 0.9082, 'depth': 1.691, 'time': 514, 'pitch': -28.67, 'roll': 49.57, 'pres': 186}
{'lipoC2': 7.37, 'lipoC3S1': 3.95, 'temp': 30.13, 'lipoC3S3': 11.93, 'lipoC3S2': 7.89, 'rot1': 825, 'rot0': 835, 'rot3': 396, 'rot2': 363, 'state': 'normal', 'yaw': -24.47, 'datetime': '2018-10-09 13:27:49.037896', 'mgs': 0, 'volt': 0.9082, 'depth': 1.691, 'time': 514, 'pitch': -28.75, 'roll': 49.06, 'pres': 186}
{'lipoC2': 7.37, 'lipoC3S1': 3.95, 'temp': 30.13, 'lipoC3S3': 11.93, 'lipoC3S2': 7.9, 'rot1': 825, 'rot0': 835, 'rot3': 396, 'rot2': 363, 'state': 'normal', 'yaw': -25.07, 'datetime': '2018-10-09 13:27:49.142566', 'mgs': 0, 'volt': 0.9082, 'depth': 1.691, 'time': 514, 'pitch': -28.86, 'roll': 48.86, 'pres': 186}
{'lipoC2': 7.37, 'lipoC3S1': 3.95, 'temp': 30.13, 'lipoC3S3': 11.94, 'lipoC3S2': 7.9, 'rot1': 825, 'rot0': 835, 'rot3': 396, 'rot2': 363, 'state': 'normal', 'yaw': -26.18, 'datetime': '2018-10-09 13:27:49.246989', 'mgs': 0, 'volt': 0.9082, 'depth': 1.691, 'time': 514, 'pitch': -29.05, 'roll': 49.06, 'pres': 186}
{'lipoC2': 7.37, 'lipoC3S1': 3.95, 'temp': 30.13, 'lipoC3S3': 11.93, 'lipoC3S2': 7.9, 'rot1': 825, 'rot0': 835, 'rot3': 396, 'rot2': 363, 'state': 'normal', 'yaw': -27.41, 'datetime': '2018-10-09 13:27:49.352254', 'mgs': 0, 'volt': 0.9082, 'depth': 1.691, 'time': 515, 'pitch': -29.41, 'roll': 49.44, 'pres': 186}
{'lipoC2': 7.37, 'lipoC3S1': 3.95, 'temp': 30.13, 'lipoC3S3': 11.93, 'lipoC3S2': 7.9, 'rot1': 825, 'rot0': 835, 'rot3': 396, 'rot2': 363, 'state': 'normal', 'yaw': -28.76, 'datetime': '2018-10-09 13:27:49.456542', 'mgs': 0, 'volt': 0.9082, 'depth': 1.691, 'time': 515, 'pitch': -30.09, 'roll': 49.89, 'pres': 186}
{'lipoC2': 7.37, 'lipoC3S1': 3.95, 'temp': 30.13, 'lipoC3S3': 11.93, 'lipoC3S2': 7.9, 'rot1': 825, 'rot0': 835, 'rot3': 396, 'rot2': 363, 'state': 'normal', 'yaw': -29.8, 'datetime': '2018-10-09 13:27:49.562174', 'mgs': 0, 'volt': 0.9082, 'depth': 1.691, 'time': 515, 'pitch': -30.79, 'roll': 50.27, 'pres': 186}
{'lipoC2': 7.37, 'lipoC3S1': 3.95, 'temp': 30.13, 'lipoC3S3': 11.93, 'lipoC3S2': 7.9, 'rot1': 825, 'rot0': 835, 'rot3': 396, 'rot2': 363, 'state': 'normal', 'yaw': -30.44, 'datetime': '2018-10-09 13:27:49.666596', 'mgs': 0, 'volt': 0.9082, 'depth': 1.691, 'time': 515, 'pitch': -31.24, 'roll': 50.48, 'pres': 186}
{'lipoC2': 7.37, 'lipoC3S1': 3.95, 'temp': 30.13, 'lipoC3S3': 11.93, 'lipoC3S2': 7.9, 'rot1': 825, 'rot0': 835, 'rot3': 396, 'rot2': 363, 'state': 'normal', 'yaw': -30.25, 'datetime': '2018-10-09 13:27:49.772136', 'mgs': 0, 'volt': 0.9082, 'depth': 1.691, 'time': 515, 'pitch': -31.27, 'roll': 50.36, 'pres': 186}
{'lipoC2': 7.37, 'lipoC3S1': 3.95, 'temp': 30.13, 'lipoC3S3': 11.93, 'lipoC3S2': 7.9, 'rot1': 825, 'rot0': 835, 'rot3': 396, 'rot2': 363, 'state': 'normal', 'yaw': -29.18, 'datetime': '2018-10-09 13:27:49.876316', 'mgs': 0, 'volt': 0.9033, 'depth': 1.614, 'time': 515, 'pitch': -31.09, 'roll': 49.66, 'pres': 185}
{'lipoC2': 7.37, 'lipoC3S1': 3.95, 'temp': 30.13, 'lipoC3S3': 11.93, 'lipoC3S2': 7.89, 'rot1': 825, 'rot0': 835, 'rot3': 396, 'rot2': 363, 'state': 'normal', 'yaw': -27.76, 'datetime': '2018-10-09 13:27:49.980801', 'mgs': 0, 'volt': 0.9033, 'depth': 1.614, 'time': 515, 'pitch': -30.77, 'roll': 48.71, 'pres': 185}
{'lipoC2': 7.37, 'lipoC3S1': 3.95, 'temp': 30.13, 'lipoC3S3': 11.93, 'lipoC3S2': 7.9, 'rot1': 825, 'rot0': 835, 'rot3': 396, 'rot2': 363, 'state': 'normal', 'yaw': -26.51, 'datetime': '2018-10-09 13:27:50.085240', 'mgs': 0, 'volt': 0.9082, 'depth': 1.691, 'time': 515, 'pitch': -30.55, 'roll': 47.9, 'pres': 186}
{'lipoC2': 7.37, 'lipoC3S1': 3.95, 'temp': 30.13, 'lipoC3S3': 11.93, 'lipoC3S2': 7.9, 'rot1': 825, 'rot0': 835, 'rot3': 396, 'rot2': 363, 'state': 'normal', 'yaw': -25.45, 'datetime': '2018-10-09 13:27:50.189832', 'mgs': 0, 'volt': 0.9131, 'depth': 1.767, 'time': 515, 'pitch': -30.74, 'roll': 47.25, 'pres': 187}
{'lipoC2': 7.37, 'lipoC3S1': 3.95, 'temp': 30.13, 'lipoC3S3': 11.93, 'lipoC3S2': 7.9, 'rot1': 825, 'rot0': 835, 'rot3': 396, 'rot2': 363, 'state': 'normal', 'yaw': -24.73, 'datetime': '2018-10-09 13:27:50.294195', 'mgs': 0, 'volt': 0.9131, 'depth': 1.767, 'time': 516, 'pitch': -31.12, 'roll': 47.0, 'pres': 187}
{'lipoC2': 7.37, 'lipoC3S1': 3.95, 'temp': 30.13, 'lipoC3S3': 11.93, 'lipoC3S2': 7.9, 'rot1': 825, 'rot0': 835, 'rot3': 396, 'rot2': 363, 'state': 'normal', 'yaw': -23.91, 'datetime': '2018-10-09 13:27:50.398301', 'mgs': 0, 'volt': 0.9131, 'depth': 1.767, 'time': 516, 'pitch': -31.59, 'roll': 46.98, 'pres': 187}
{'lipoC2': 7.37, 'lipoC3S1': 3.95, 'temp': 30.13, 'lipoC3S3': 11.93, 'lipoC3S2': 7.9, 'rot1': 825, 'rot0': 835, 'rot3': 396, 'rot2': 363, 'state': 'normal', 'yaw': -22.92, 'datetime': '2018-10-09 13:27:50.503507', 'mgs': 0, 'volt': 0.918, 'depth': 1.843, 'time': 516, 'pitch': -31.98, 'roll': 46.99, 'pres': 188}
{'lipoC2': 7.37, 'lipoC3S1': 3.95, 'temp': 30.13, 'lipoC3S3': 11.93, 'lipoC3S2': 7.9, 'rot1': 825, 'rot0': 835, 'rot3': 396, 'rot2': 363, 'state': 'normal', 'yaw': -21.47, 'datetime': '2018-10-09 13:27:50.607728', 'mgs': 0, 'volt': 0.9131, 'depth': 1.767, 'time': 516, 'pitch': -32.47, 'roll': 46.82, 'pres': 187}
{'lipoC2': 7.37, 'lipoC3S1': 3.95, 'temp': 30.13, 'lipoC3S3': 11.93, 'lipoC3S2': 7.9, 'rot1': 825, 'rot0': 835, 'rot3': 396, 'rot2': 363, 'state': 'normal', 'yaw': -19.76, 'datetime': '2018-10-09 13:27:50.712535', 'mgs': 0, 'volt': 0.918, 'depth': 1.843, 'time': 516, 'pitch': -33.11, 'roll': 46.26, 'pres': 188}
{'lipoC2': 7.37, 'lipoC3S1': 3.95, 'temp': 30.06, 'lipoC3S3': 11.93, 'lipoC3S2': 7.9, 'rot1': 825, 'rot0': 835, 'rot3': 396, 'rot2': 363, 'state': 'normal', 'yaw': -17.85, 'datetime': '2018-10-09 13:27:50.817167', 'mgs': 0, 'volt': 0.918, 'depth': 1.843, 'time': 516, 'pitch': -33.95, 'roll': 45.3, 'pres': 188}
{'lipoC2': 7.37, 'lipoC3S1': 3.95, 'temp': 30.06, 'lipoC3S3': 11.93, 'lipoC3S2': 7.9, 'rot1': 825, 'rot0': 835, 'rot3': 396, 'rot2': 363, 'state': 'normal', 'yaw': -15.78, 'datetime': '2018-10-09 13:27:50.921521', 'mgs': 0, 'volt': 0.918, 'depth': 1.843, 'time': 516, 'pitch': -34.96, 'roll': 44.11, 'pres': 188}
{'lipoC2': 7.37, 'lipoC3S1': 3.95, 'temp': 30.13, 'lipoC3S3': 11.93, 'lipoC3S2': 7.89, 'rot1': 825, 'rot0': 835, 'rot3': 396, 'rot2': 363, 'state': 'normal', 'yaw': -14.03, 'datetime': '2018-10-09 13:27:51.027155', 'mgs': 0, 'volt': 0.918, 'depth': 1.843, 'time': 516, 'pitch': -35.94, 'roll': 43.05, 'pres': 188}
{'lipoC2': 7.37, 'lipoC3S1': 3.95, 'temp': 30.13, 'lipoC3S3': 11.93, 'lipoC3S2': 7.9, 'rot1': 825, 'rot0': 835, 'rot3': 396, 'rot2': 363, 'state': 'normal', 'yaw': -12.34, 'datetime': '2018-10-09 13:27:51.131441', 'mgs': 0, 'volt': 0.918, 'depth': 1.843, 'time': 516, 'pitch': -37.24, 'roll': 41.96, 'pres': 188}
{'lipoC2': 7.37, 'lipoC3S1': 3.95, 'temp': 30.19, 'lipoC3S3': 11.93, 'lipoC3S2': 7.9, 'rot1': 825, 'rot0': 835, 'rot3': 396, 'rot2': 363, 'state': 'normal', 'yaw': -11.43, 'datetime': '2018-10-09 13:27:51.235800', 'mgs': 0, 'volt': 0.918, 'depth': 1.843, 'time': 516, 'pitch': -38.62, 'roll': 41.36, 'pres': 188}
{'lipoC2': 7.37, 'lipoC3S1': 3.95, 'temp': 30.19, 'lipoC3S3': 11.93, 'lipoC3S2': 7.9, 'rot1': 825, 'rot0': 835, 'rot3': 396, 'rot2': 363, 'state': 'normal', 'yaw': -11.21, 'datetime': '2018-10-09 13:27:51.340080', 'mgs': 0, 'volt': 0.918, 'depth': 1.843, 'time': 517, 'pitch': -40.23, 'roll': 41.22, 'pres': 188}
{'lipoC2': 7.37, 'lipoC3S1': 3.95, 'temp': 30.19, 'lipoC3S3': 11.93, 'lipoC3S2': 7.9, 'rot1': 825, 'rot0': 835, 'rot3': 396, 'rot2': 363, 'state': 'normal', 'yaw': -11.47, 'datetime': '2018-10-09 13:27:51.444376', 'mgs': 0, 'volt': 0.918, 'depth': 1.843, 'time': 517, 'pitch': -41.73, 'roll': 41.4, 'pres': 188}
{'lipoC2': 7.37, 'lipoC3S1': 3.95, 'temp': 30.13, 'lipoC3S3': 11.93, 'lipoC3S2': 7.89, 'rot1': 825, 'rot0': 835, 'rot3': 396, 'rot2': 363, 'state': 'normal', 'yaw': -12.02, 'datetime': '2018-10-09 13:27:51.548899', 'mgs': 0, 'volt': 0.9131, 'depth': 1.767, 'time': 517, 'pitch': -43.1, 'roll': 41.89, 'pres': 187}
{'lipoC2': 7.37, 'lipoC3S1': 3.95, 'temp': 30.13, 'lipoC3S3': 11.93, 'lipoC3S2': 7.9, 'rot1': 825, 'rot0': 835, 'rot3': 396, 'rot2': 363, 'state': 'normal', 'yaw': -12.85, 'datetime': '2018-10-09 13:27:51.651860', 'mgs': 0, 'volt': 0.9131, 'depth': 1.767, 'time': 517, 'pitch': -44.36, 'roll': 42.67, 'pres': 187}
{'lipoC2': 7.37, 'lipoC3S1': 3.95, 'temp': 30.13, 'lipoC3S3': 11.93, 'lipoC3S2': 7.9, 'rot1': 825, 'rot0': 835, 'rot3': 396, 'rot2': 363, 'state': 'normal', 'yaw': -13.43, 'datetime': '2018-10-09 13:27:51.758612', 'mgs': 0, 'volt': 0.9131, 'depth': 1.767, 'time': 517, 'pitch': -45.15, 'roll': 43.22, 'pres': 187}
{'lipoC2': 7.37, 'lipoC3S1': 3.95, 'temp': 30.13, 'lipoC3S3': 11.93, 'lipoC3S2': 7.9, 'rot1': 825, 'rot0': 835, 'rot3': 396, 'rot2': 363, 'state': 'normal', 'yaw': -13.39, 'datetime': '2018-10-09 13:27:51.862964', 'mgs': 0, 'volt': 0.9131, 'depth': 1.767, 'time': 517, 'pitch': -45.49, 'roll': 43.14, 'pres': 187}
{'lipoC2': 7.37, 'lipoC3S1': 3.95, 'temp': 30.13, 'lipoC3S3': 11.93, 'lipoC3S2': 7.89, 'rot1': 825, 'rot0': 835, 'rot3': 396, 'rot2': 363, 'state': 'normal', 'yaw': -12.67, 'datetime': '2018-10-09 13:27:51.968758', 'mgs': 0, 'volt': 0.918, 'depth': 1.843, 'time': 517, 'pitch': -45.26, 'roll': 42.38, 'pres': 188}
{'lipoC2': 7.37, 'lipoC3S1': 3.95, 'temp': 30.13, 'lipoC3S3': 11.93, 'lipoC3S2': 7.9, 'rot1': 825, 'rot0': 835, 'rot3': 396, 'rot2': 363, 'state': 'normal', 'yaw': -11.88, 'datetime': '2018-10-09 13:27:52.072856', 'mgs': 0, 'volt': 0.9131, 'depth': 1.767, 'time': 517, 'pitch': -44.58, 'roll': 41.42, 'pres': 187}
{'lipoC2': 7.37, 'lipoC3S1': 3.95, 'temp': 30.13, 'lipoC3S3': 11.93, 'lipoC3S2': 7.89, 'rot1': 825, 'rot0': 835, 'rot3': 396, 'rot2': 363, 'state': 'normal', 'yaw': -11.61, 'datetime': '2018-10-09 13:27:52.178457', 'mgs': 0, 'volt': 0.918, 'depth': 1.843, 'time': 517, 'pitch': -43.9, 'roll': 40.78, 'pres': 188}
{'lipoC2': 7.37, 'lipoC3S1': 3.95, 'temp': 30.13, 'lipoC3S3': 11.93, 'lipoC3S2': 7.89, 'rot1': 825, 'rot0': 835, 'rot3': 396, 'rot2': 363, 'state': 'normal', 'yaw': -11.89, 'datetime': '2018-10-09 13:27:52.282824', 'mgs': 0, 'volt': 0.9131, 'depth': 1.767, 'time': 517, 'pitch': -43.62, 'roll': 40.43, 'pres': 187}
{'lipoC2': 7.37, 'lipoC3S1': 3.95, 'temp': 30.13, 'lipoC3S3': 11.93, 'lipoC3S2': 7.9, 'rot1': 825, 'rot0': 835, 'rot3': 396, 'rot2': 363, 'state': 'normal', 'yaw': -12.55, 'datetime': '2018-10-09 13:27:52.387060', 'mgs': 0, 'volt': 0.9131, 'depth': 1.767, 'time': 518, 'pitch': -43.76, 'roll': 40.35, 'pres': 187}
{'lipoC2': 7.37, 'lipoC3S1': 3.95, 'temp': 30.13, 'lipoC3S3': 11.93, 'lipoC3S2': 7.9, 'rot1': 825, 'rot0': 835, 'rot3': 396, 'rot2': 363, 'state': 'normal', 'yaw': -13.47, 'datetime': '2018-10-09 13:27:52.491450', 'mgs': 0, 'volt': 0.9082, 'depth': 1.691, 'time': 518, 'pitch': -44.24, 'roll': 40.33, 'pres': 186}
{'lipoC2': 7.37, 'lipoC3S1': 3.95, 'temp': 30.13, 'lipoC3S3': 11.93, 'lipoC3S2': 7.89, 'rot1': 825, 'rot0': 835, 'rot3': 396, 'rot2': 363, 'state': 'normal', 'yaw': -14.45, 'datetime': '2018-10-09 13:27:52.595644', 'mgs': 0, 'volt': 0.9082, 'depth': 1.691, 'time': 518, 'pitch': -44.93, 'roll': 40.36, 'pres': 186}
{'lipoC2': 7.37, 'lipoC3S1': 3.95, 'temp': 30.13, 'lipoC3S3': 11.93, 'lipoC3S2': 7.9, 'rot1': 825, 'rot0': 835, 'rot3': 396, 'rot2': 363, 'state': 'normal', 'yaw': -15.49, 'datetime': '2018-10-09 13:27:52.700108', 'mgs': 0, 'volt': 0.9082, 'depth': 1.691, 'time': 518, 'pitch': -45.78, 'roll': 40.45, 'pres': 186}
{'lipoC2': 7.37, 'lipoC3S1': 3.95, 'temp': 30.13, 'lipoC3S3': 11.93, 'lipoC3S2': 7.9, 'rot1': 825, 'rot0': 835, 'rot3': 396, 'rot2': 363, 'state': 'normal', 'yaw': -16.43, 'datetime': '2018-10-09 13:27:52.804326', 'mgs': 0, 'volt': 0.9033, 'depth': 1.614, 'time': 518, 'pitch': -46.55, 'roll': 40.49, 'pres': 185}
{'lipoC2': 7.37, 'lipoC3S1': 3.95, 'temp': 30.13, 'lipoC3S3': 11.93, 'lipoC3S2': 7.9, 'rot1': 825, 'rot0': 835, 'rot3': 396, 'rot2': 363, 'state': 'normal', 'yaw': -16.99, 'datetime': '2018-10-09 13:27:52.909693', 'mgs': 0, 'volt': 0.9033, 'depth': 1.614, 'time': 518, 'pitch': -46.99, 'roll': 40.52, 'pres': 185}
{'lipoC2': 7.37, 'lipoC3S1': 3.95, 'temp': 30.13, 'lipoC3S3': 11.93, 'lipoC3S2': 7.9, 'rot1': 825, 'rot0': 835, 'rot3': 396, 'rot2': 363, 'state': 'normal', 'yaw': -17.15, 'datetime': '2018-10-09 13:27:53.013913', 'mgs': 0, 'volt': 0.9082, 'depth': 1.691, 'time': 518, 'pitch': -47.12, 'roll': 40.57, 'pres': 186}
{'lipoC2': 7.37, 'lipoC3S1': 3.95, 'temp': 30.13, 'lipoC3S3': 11.94, 'lipoC3S2': 7.89, 'rot1': 825, 'rot0': 835, 'rot3': 396, 'rot2': 363, 'state': 'normal', 'yaw': -16.69, 'datetime': '2018-10-09 13:27:53.119675', 'mgs': 0, 'volt': 0.9033, 'depth': 1.614, 'time': 518, 'pitch': -46.89, 'roll': 40.43, 'pres': 185}
{'lipoC2': 7.37, 'lipoC3S1': 3.95, 'temp': 30.06, 'lipoC3S3': 11.93, 'lipoC3S2': 7.89, 'rot1': 825, 'rot0': 835, 'rot3': 396, 'rot2': 363, 'state': 'normal', 'yaw': -15.4, 'datetime': '2018-10-09 13:27:53.223735', 'mgs': 0, 'volt': 0.9033, 'depth': 1.614, 'time': 518, 'pitch': -46.46, 'roll': 39.84, 'pres': 185}
{'lipoC2': 7.37, 'lipoC3S1': 3.95, 'temp': 30.06, 'lipoC3S3': 11.93, 'lipoC3S2': 7.9, 'rot1': 825, 'rot0': 835, 'rot3': 396, 'rot2': 363, 'state': 'normal', 'yaw': -13.95, 'datetime': '2018-10-09 13:27:53.329316', 'mgs': 0, 'volt': 0.9033, 'depth': 1.614, 'time': 519, 'pitch': -46.12, 'roll': 39.2, 'pres': 185}
{'lipoC2': 7.37, 'lipoC3S1': 3.95, 'temp': 30.13, 'lipoC3S3': 11.93, 'lipoC3S2': 7.9, 'rot1': 825, 'rot0': 835, 'rot3': 396, 'rot2': 363, 'state': 'normal', 'yaw': -12.59, 'datetime': '2018-10-09 13:27:53.433497', 'mgs': 0, 'volt': 0.9033, 'depth': 1.614, 'time': 519, 'pitch': -45.92, 'roll': 38.78, 'pres': 185}
{'lipoC2': 7.37, 'lipoC3S1': 3.95, 'temp': 30.13, 'lipoC3S3': 11.93, 'lipoC3S2': 7.9, 'rot1': 825, 'rot0': 835, 'rot3': 396, 'rot2': 363, 'state': 'normal', 'yaw': -11.88, 'datetime': '2018-10-09 13:27:53.537982', 'mgs': 0, 'volt': 0.9082, 'depth': 1.691, 'time': 519, 'pitch': -45.96, 'roll': 38.9, 'pres': 186}
{'lipoC2': 7.37, 'lipoC3S1': 3.95, 'temp': 30.19, 'lipoC3S3': 11.93, 'lipoC3S2': 7.89, 'rot1': 825, 'rot0': 835, 'rot3': 396, 'rot2': 363, 'state': 'normal', 'yaw': -11.29, 'datetime': '2018-10-09 13:27:53.642210', 'mgs': 0, 'volt': 0.9082, 'depth': 1.691, 'time': 519, 'pitch': -46.12, 'roll': 39.13, 'pres': 186}
{'lipoC2': 7.37, 'lipoC3S1': 3.95, 'temp': 30.19, 'lipoC3S3': 11.93, 'lipoC3S2': 7.9, 'rot1': 825, 'rot0': 835, 'rot3': 396, 'rot2': 363, 'state': 'normal', 'yaw': -10.42, 'datetime': '2018-10-09 13:27:53.746555', 'mgs': 0, 'volt': 0.9131, 'depth': 1.767, 'time': 519, 'pitch': -46.15, 'roll': 39.25, 'pres': 187}
{'lipoC2': 7.37, 'lipoC3S1': 3.95, 'temp': 30.19, 'lipoC3S3': 11.93, 'lipoC3S2': 7.9, 'rot1': 825, 'rot0': 835, 'rot3': 396, 'rot2': 363, 'state': 'normal', 'yaw': -9.91, 'datetime': '2018-10-09 13:27:53.850784', 'mgs': 0, 'volt': 0.9131, 'depth': 1.767, 'time': 519, 'pitch': -46.03, 'roll': 39.62, 'pres': 187}
{'lipoC2': 7.37, 'lipoC3S1': 3.95, 'temp': 30.13, 'lipoC3S3': 11.93, 'lipoC3S2': 7.89, 'rot1': 825, 'rot0': 835, 'rot3': 396, 'rot2': 363, 'state': 'normal', 'yaw': -9.61, 'datetime': '2018-10-09 13:27:53.954232', 'mgs': 0, 'volt': 0.9131, 'depth': 1.767, 'time': 519, 'pitch': -45.66, 'roll': 40.24, 'pres': 187}
{'lipoC2': 7.37, 'lipoC3S1': 3.95, 'temp': 30.13, 'lipoC3S3': 11.93, 'lipoC3S2': 7.9, 'rot1': 825, 'rot0': 835, 'rot3': 396, 'rot2': 363, 'state': 'normal', 'yaw': -9.7, 'datetime': '2018-10-09 13:27:54.053337', 'mgs': 0, 'volt': 0.9131, 'depth': 1.767, 'time': 519, 'pitch': -45.27, 'roll': 40.99, 'pres': 187}
{'lipoC2': 7.37, 'lipoC3S1': 3.95, 'temp': 30.13, 'lipoC3S3': 11.93, 'lipoC3S2': 7.9, 'rot1': 825, 'rot0': 835, 'rot3': 396, 'rot2': 363, 'state': 'normal', 'yaw': -10.16, 'datetime': '2018-10-09 13:27:54.158453', 'mgs': 0, 'volt': 0.9131, 'depth': 1.767, 'time': 519, 'pitch': -44.94, 'roll': 41.87, 'pres': 187}
{'lipoC2': 7.37, 'lipoC3S1': 3.95, 'temp': 30.13, 'lipoC3S3': 11.93, 'lipoC3S2': 7.9, 'rot1': 825, 'rot0': 835, 'rot3': 396, 'rot2': 363, 'state': 'normal', 'yaw': -10.7, 'datetime': '2018-10-09 13:27:54.262660', 'mgs': 0, 'volt': 0.918, 'depth': 1.843, 'time': 519, 'pitch': -44.59, 'roll': 42.64, 'pres': 188}
{'lipoC2': 7.37, 'lipoC3S1': 3.95, 'temp': 30.13, 'lipoC3S3': 11.93, 'lipoC3S2': 7.9, 'rot1': 825, 'rot0': 835, 'rot3': 396, 'rot2': 363, 'state': 'normal', 'yaw': -11.09, 'datetime': '2018-10-09 13:27:54.368319', 'mgs': 0, 'volt': 0.918, 'depth': 1.843, 'time': 520, 'pitch': -44.23, 'roll': 43.01, 'pres': 188}
{'lipoC2': 7.37, 'lipoC3S1': 3.95, 'temp': 30.13, 'lipoC3S3': 11.93, 'lipoC3S2': 7.9, 'rot1': 825, 'rot0': 835, 'rot3': 396, 'rot2': 363, 'state': 'normal', 'yaw': -11.16, 'datetime': '2018-10-09 13:27:54.473294', 'mgs': 0, 'volt': 0.918, 'depth': 1.843, 'time': 520, 'pitch': -43.66, 'roll': 42.9, 'pres': 188}
{'lipoC2': 7.37, 'lipoC3S1': 3.95, 'temp': 30.13, 'lipoC3S3': 11.93, 'lipoC3S2': 7.9, 'rot1': 825, 'rot0': 835, 'rot3': 396, 'rot2': 363, 'state': 'normal', 'yaw': -10.84, 'datetime': '2018-10-09 13:27:54.578224', 'mgs': 0, 'volt': 0.918, 'depth': 1.843, 'time': 520, 'pitch': -42.87, 'roll': 42.31, 'pres': 188}
{'lipoC2': 7.37, 'lipoC3S1': 3.95, 'temp': 30.13, 'lipoC3S3': 11.93, 'lipoC3S2': 7.89, 'rot1': 825, 'rot0': 835, 'rot3': 396, 'rot2': 363, 'state': 'normal', 'yaw': -10.19, 'datetime': '2018-10-09 13:27:54.682581', 'mgs': 0, 'volt': 0.9229, 'depth': 1.92, 'time': 520, 'pitch': -41.88, 'roll': 41.19, 'pres': 189}
{'lipoC2': 7.37, 'lipoC3S1': 3.95, 'temp': 30.13, 'lipoC3S3': 11.93, 'lipoC3S2': 7.89, 'rot1': 825, 'rot0': 835, 'rot3': 396, 'rot2': 363, 'state': 'normal', 'yaw': -9.57, 'datetime': '2018-10-09 13:27:54.786811', 'mgs': 0, 'volt': 0.918, 'depth': 1.843, 'time': 520, 'pitch': -41.0, 'roll': 40.01, 'pres': 188}
{'lipoC2': 7.37, 'lipoC3S1': 3.95, 'temp': 30.13, 'lipoC3S3': 11.93, 'lipoC3S2': 7.9, 'rot1': 825, 'rot0': 835, 'rot3': 396, 'rot2': 363, 'state': 'normal', 'yaw': -8.86, 'datetime': '2018-10-09 13:27:54.891157', 'mgs': 0, 'volt': 0.9229, 'depth': 1.92, 'time': 520, 'pitch': -40.14, 'roll': 38.65, 'pres': 189}
{'lipoC2': 7.37, 'lipoC3S1': 3.95, 'temp': 30.13, 'lipoC3S3': 11.93, 'lipoC3S2': 7.89, 'rot1': 825, 'rot0': 835, 'rot3': 396, 'rot2': 363, 'state': 'normal', 'yaw': -8.08, 'datetime': '2018-10-09 13:27:54.999051', 'mgs': 0, 'volt': 0.9229, 'depth': 1.92, 'time': 520, 'pitch': -39.07, 'roll': 37.42, 'pres': 189}
{'lipoC2': 7.37, 'lipoC3S1': 3.95, 'temp': 30.13, 'lipoC3S3': 11.93, 'lipoC3S2': 7.89, 'rot1': 825, 'rot0': 835, 'rot3': 396, 'rot2': 363, 'state': 'normal', 'yaw': -7.39, 'datetime': '2018-10-09 13:27:55.105913', 'mgs': 0, 'volt': 0.9229, 'depth': 1.92, 'time': 520, 'pitch': -37.93, 'roll': 36.33, 'pres': 189}
{'lipoC2': 7.37, 'lipoC3S1': 3.95, 'temp': 30.13, 'lipoC3S3': 11.93, 'lipoC3S2': 7.89, 'rot1': 825, 'rot0': 835, 'rot3': 396, 'rot2': 363, 'state': 'normal', 'yaw': -7.21, 'datetime': '2018-10-09 13:27:55.210489', 'mgs': 0, 'volt': 0.9229, 'depth': 1.92, 'time': 520, 'pitch': -37.17, 'roll': 35.52, 'pres': 189}
{'lipoC2': 7.37, 'lipoC3S1': 3.95, 'temp': 30.13, 'lipoC3S3': 11.93, 'lipoC3S2': 7.9, 'rot1': 825, 'rot0': 835, 'rot3': 396, 'rot2': 363, 'state': 'normal', 'yaw': -7.5, 'datetime': '2018-10-09 13:27:55.315779', 'mgs': 0, 'volt': 0.9277, 'depth': 1.996, 'time': 521, 'pitch': -37.2, 'roll': 34.95, 'pres': 190}
{'lipoC2': 7.37, 'lipoC3S1': 3.95, 'temp': 30.06, 'lipoC3S3': 11.93, 'lipoC3S2': 7.89, 'rot1': 825, 'rot0': 835, 'rot3': 396, 'rot2': 363, 'state': 'normal', 'yaw': -7.62, 'datetime': '2018-10-09 13:27:55.420225', 'mgs': 0, 'volt': 0.9277, 'depth': 1.996, 'time': 521, 'pitch': -37.33, 'roll': 34.11, 'pres': 190}
{'lipoC2': 7.37, 'lipoC3S1': 3.95, 'temp': 30.06, 'lipoC3S3': 11.93, 'lipoC3S2': 7.89, 'rot1': 825, 'rot0': 835, 'rot3': 396, 'rot2': 363, 'state': 'normal', 'yaw': -7.68, 'datetime': '2018-10-09 13:27:55.525814', 'mgs': 0, 'volt': 0.9277, 'depth': 1.996, 'time': 521, 'pitch': -37.59, 'roll': 33.42, 'pres': 190}
{'lipoC2': 7.37, 'lipoC3S1': 3.95, 'temp': 30.13, 'lipoC3S3': 11.93, 'lipoC3S2': 7.9, 'rot1': 825, 'rot0': 835, 'rot3': 396, 'rot2': 363, 'state': 'normal', 'yaw': -7.74, 'datetime': '2018-10-09 13:27:55.630067', 'mgs': 0, 'volt': 0.9277, 'depth': 1.996, 'time': 521, 'pitch': -38.0, 'roll': 32.98, 'pres': 190}
{'lipoC2': 7.37, 'lipoC3S1': 3.95, 'temp': 30.13, 'lipoC3S3': 11.93, 'lipoC3S2': 7.9, 'rot1': 825, 'rot0': 835, 'rot3': 396, 'rot2': 363, 'state': 'normal', 'yaw': -7.7, 'datetime': '2018-10-09 13:27:55.735707', 'mgs': 0, 'volt': 0.9277, 'depth': 1.996, 'time': 521, 'pitch': -38.34, 'roll': 32.85, 'pres': 190}
{'lipoC2': 7.37, 'lipoC3S1': 3.95, 'temp': 30.13, 'lipoC3S3': 11.93, 'lipoC3S2': 7.9, 'rot1': 825, 'rot0': 835, 'rot3': 396, 'rot2': 363, 'state': 'normal', 'yaw': -7.57, 'datetime': '2018-10-09 13:27:55.840081', 'mgs': 0, 'volt': 0.9277, 'depth': 1.996, 'time': 521, 'pitch': -38.47, 'roll': 33.02, 'pres': 190}
{'lipoC2': 7.37, 'lipoC3S1': 3.95, 'temp': 30.13, 'lipoC3S3': 11.93, 'lipoC3S2': 7.9, 'rot1': 825, 'rot0': 835, 'rot3': 396, 'rot2': 363, 'state': 'normal', 'yaw': -7.46, 'datetime': '2018-10-09 13:27:55.944343', 'mgs': 0, 'volt': 0.9277, 'depth': 1.996, 'time': 521, 'pitch': -38.53, 'roll': 33.39, 'pres': 190}
{'lipoC2': 7.37, 'lipoC3S1': 3.95, 'temp': 30.13, 'lipoC3S3': 11.93, 'lipoC3S2': 7.9, 'rot1': 825, 'rot0': 835, 'rot3': 396, 'rot2': 363, 'state': 'normal', 'yaw': -7.43, 'datetime': '2018-10-09 13:27:56.049070', 'mgs': 0, 'volt': 0.9326, 'depth': 2.072, 'time': 521, 'pitch': -38.67, 'roll': 33.92, 'pres': 191}
{'lipoC2': 7.37, 'lipoC3S1': 3.95, 'temp': 30.13, 'lipoC3S3': 11.93, 'lipoC3S2': 7.89, 'rot1': 825, 'rot0': 835, 'rot3': 396, 'rot2': 363, 'state': 'normal', 'yaw': -7.68, 'datetime': '2018-10-09 13:27:56.150720', 'mgs': 0, 'volt': 0.9326, 'depth': 2.072, 'time': 521, 'pitch': -39.12, 'roll': 34.75, 'pres': 191}
{'lipoC2': 7.37, 'lipoC3S1': 3.95, 'temp': 30.13, 'lipoC3S3': 11.93, 'lipoC3S2': 7.9, 'rot1': 825, 'rot0': 835, 'rot3': 396, 'rot2': 363, 'state': 'normal', 'yaw': -8.23, 'datetime': '2018-10-09 13:27:56.257469', 'mgs': 0, 'volt': 0.9326, 'depth': 2.072, 'time': 521, 'pitch': -39.76, 'roll': 35.73, 'pres': 191}
{'lipoC2': 7.37, 'lipoC3S1': 3.95, 'temp': 30.06, 'lipoC3S3': 11.93, 'lipoC3S2': 7.9, 'rot1': 825, 'rot0': 835, 'rot3': 396, 'rot2': 363, 'state': 'normal', 'yaw': -9.06, 'datetime': '2018-10-09 13:27:56.361779', 'mgs': 0, 'volt': 0.9326, 'depth': 2.072, 'time': 522, 'pitch': -40.63, 'roll': 37.05, 'pres': 191}
{'lipoC2': 7.37, 'lipoC3S1': 3.95, 'temp': 30.06, 'lipoC3S3': 11.93, 'lipoC3S2': 7.9, 'rot1': 825, 'rot0': 835, 'rot3': 396, 'rot2': 363, 'state': 'normal', 'yaw': -9.74, 'datetime': '2018-10-09 13:27:56.466138', 'mgs': 0, 'volt': 0.9326, 'depth': 2.072, 'time': 522, 'pitch': -41.3, 'roll': 38.18, 'pres': 191}
{'lipoC2': 7.37, 'lipoC3S1': 3.95, 'temp': 30.13, 'lipoC3S3': 11.93, 'lipoC3S2': 7.9, 'rot1': 825, 'rot0': 835, 'rot3': 396, 'rot2': 363, 'state': 'normal', 'yaw': -10.11, 'datetime': '2018-10-09 13:27:56.570581', 'mgs': 0, 'volt': 0.9375, 'depth': 2.148, 'time': 522, 'pitch': -41.72, 'roll': 39.08, 'pres': 192}
{'lipoC2': 7.37, 'lipoC3S1': 3.95, 'temp': 30.13, 'lipoC3S3': 11.93, 'lipoC3S2': 7.9, 'rot1': 825, 'rot0': 835, 'rot3': 396, 'rot2': 363, 'state': 'normal', 'yaw': -10.09, 'datetime': '2018-10-09 13:27:56.675164', 'mgs': 0, 'volt': 0.9375, 'depth': 2.148, 'time': 522, 'pitch': -41.71, 'roll': 39.55, 'pres': 192}
{'lipoC2': 7.37, 'lipoC3S1': 3.95, 'temp': 30.06, 'lipoC3S3': 11.93, 'lipoC3S2': 7.9, 'rot1': 825, 'rot0': 835, 'rot3': 396, 'rot2': 363, 'state': 'normal', 'yaw': -9.72, 'datetime': '2018-10-09 13:27:56.780432', 'mgs': 0, 'volt': 0.9424, 'depth': 2.225, 'time': 522, 'pitch': -41.38, 'roll': 39.69, 'pres': 193}
{'lipoC2': 7.37, 'lipoC3S1': 3.95, 'temp': 30.06, 'lipoC3S3': 11.94, 'lipoC3S2': 7.89, 'rot1': 825, 'rot0': 835, 'rot3': 396, 'rot2': 363, 'state': 'normal', 'yaw': -9.15, 'datetime': '2018-10-09 13:27:56.884736', 'mgs': 0, 'volt': 0.9424, 'depth': 2.225, 'time': 522, 'pitch': -40.86, 'roll': 39.58, 'pres': 193}
{'lipoC2': 7.37, 'lipoC3S1': 3.95, 'temp': 30.06, 'lipoC3S3': 11.93, 'lipoC3S2': 7.89, 'rot1': 825, 'rot0': 835, 'rot3': 396, 'rot2': 363, 'state': 'normal', 'yaw': -8.81, 'datetime': '2018-10-09 13:27:56.990372', 'mgs': 0, 'volt': 0.9473, 'depth': 2.301, 'time': 522, 'pitch': -40.55, 'roll': 39.42, 'pres': 194}
{'lipoC2': 7.37, 'lipoC3S1': 3.95, 'temp': 30.06, 'lipoC3S3': 11.93, 'lipoC3S2': 7.89, 'rot1': 825, 'rot0': 835, 'rot3': 396, 'rot2': 363, 'state': 'normal', 'yaw': -8.81, 'datetime': '2018-10-09 13:27:57.094622', 'mgs': 0, 'volt': 0.9473, 'depth': 2.301, 'time': 522, 'pitch': -40.54, 'roll': 39.34, 'pres': 194}
{'lipoC2': 7.37, 'lipoC3S1': 3.95, 'temp': 30.06, 'lipoC3S3': 11.93, 'lipoC3S2': 7.9, 'rot1': 825, 'rot0': 835, 'rot3': 396, 'rot2': 363, 'state': 'normal', 'yaw': -9.2, 'datetime': '2018-10-09 13:27:57.198952', 'mgs': 0, 'volt': 0.9473, 'depth': 2.301, 'time': 522, 'pitch': -40.99, 'roll': 39.33, 'pres': 194}
{'lipoC2': 7.37, 'lipoC3S1': 3.95, 'temp': 30.13, 'lipoC3S3': 11.93, 'lipoC3S2': 7.9, 'rot1': 825, 'rot0': 835, 'rot3': 396, 'rot2': 363, 'state': 'normal', 'yaw': -9.79, 'datetime': '2018-10-09 13:27:57.303304', 'mgs': 0, 'volt': 0.9473, 'depth': 2.301, 'time': 523, 'pitch': -41.71, 'roll': 39.21, 'pres': 194}
{'lipoC2': 7.37, 'lipoC3S1': 3.95, 'temp': 30.13, 'lipoC3S3': 11.94, 'lipoC3S2': 7.89, 'rot1': 825, 'rot0': 835, 'rot3': 396, 'rot2': 363, 'state': 'normal', 'yaw': -10.13, 'datetime': '2018-10-09 13:27:57.407842', 'mgs': 0, 'volt': 0.9473, 'depth': 2.301, 'time': 523, 'pitch': -42.23, 'roll': 38.72, 'pres': 194}
{'lipoC2': 7.37, 'lipoC3S1': 3.95, 'temp': 30.06, 'lipoC3S3': 11.93, 'lipoC3S2': 7.9, 'rot1': 825, 'rot0': 835, 'rot3': 396, 'rot2': 363, 'state': 'normal', 'yaw': -10.09, 'datetime': '2018-10-09 13:27:57.512219', 'mgs': 0, 'volt': 0.9521, 'depth': 2.377, 'time': 523, 'pitch': -42.39, 'roll': 37.74, 'pres': 195}
{'lipoC2': 7.37, 'lipoC3S1': 3.95, 'temp': 30.06, 'lipoC3S3': 11.93, 'lipoC3S2': 7.89, 'rot1': 825, 'rot0': 835, 'rot3': 396, 'rot2': 363, 'state': 'normal', 'yaw': -9.75, 'datetime': '2018-10-09 13:27:57.616495', 'mgs': 0, 'volt': 0.9521, 'depth': 2.377, 'time': 523, 'pitch': -42.09, 'roll': 36.32, 'pres': 195}
{'lipoC2': 7.37, 'lipoC3S1': 3.95, 'temp': 30.06, 'lipoC3S3': 11.93, 'lipoC3S2': 7.89, 'rot1': 825, 'rot0': 835, 'rot3': 396, 'rot2': 363, 'state': 'normal', 'yaw': -9.29, 'datetime': '2018-10-09 13:27:57.722325', 'mgs': 0, 'volt': 0.9521, 'depth': 2.377, 'time': 523, 'pitch': -41.5, 'roll': 34.94, 'pres': 195}
{'lipoC2': 7.37, 'lipoC3S1': 3.95, 'temp': 30.06, 'lipoC3S3': 11.93, 'lipoC3S2': 7.89, 'rot1': 825, 'rot0': 835, 'rot3': 396, 'rot2': 363, 'state': 'normal', 'yaw': -9.04, 'datetime': '2018-10-09 13:27:57.826356', 'mgs': 0, 'volt': 0.9521, 'depth': 2.377, 'time': 523, 'pitch': -40.87, 'roll': 33.8, 'pres': 195}
{'lipoC2': 7.37, 'lipoC3S1': 3.95, 'temp': 30.06, 'lipoC3S3': 11.93, 'lipoC3S2': 7.9, 'rot1': 825, 'rot0': 835, 'rot3': 396, 'rot2': 363, 'state': 'normal', 'yaw': -9.29, 'datetime': '2018-10-09 13:27:57.932098', 'mgs': 0, 'volt': 0.9521, 'depth': 2.377, 'time': 523, 'pitch': -40.77, 'roll': 33.27, 'pres': 195}
{'lipoC2': 7.37, 'lipoC3S1': 3.95, 'temp': 30.13, 'lipoC3S3': 11.93, 'lipoC3S2': 7.89, 'rot1': 825, 'rot0': 835, 'rot3': 396, 'rot2': 363, 'state': 'normal', 'yaw': -10.13, 'datetime': '2018-10-09 13:27:58.036477', 'mgs': 0, 'volt': 0.9521, 'depth': 2.377, 'time': 523, 'pitch': -41.37, 'roll': 33.31, 'pres': 195}
{'lipoC2': 7.37, 'lipoC3S1': 3.95, 'temp': 30.13, 'lipoC3S3': 11.93, 'lipoC3S2': 7.9, 'rot1': 825, 'rot0': 835, 'rot3': 396, 'rot2': 363, 'state': 'normal', 'yaw': -11.22, 'datetime': '2018-10-09 13:27:58.139453', 'mgs': 0, 'volt': 0.9521, 'depth': 2.377, 'time': 523, 'pitch': -42.39, 'roll': 33.74, 'pres': 195}
{'lipoC2': 7.37, 'lipoC3S1': 3.95, 'temp': 30.13, 'lipoC3S3': 11.93, 'lipoC3S2': 7.9, 'rot1': 825, 'rot0': 835, 'rot3': 396, 'rot2': 363, 'state': 'normal', 'yaw': -12.53, 'datetime': '2018-10-09 13:27:58.246320', 'mgs': 0, 'volt': 0.9521, 'depth': 2.377, 'time': 523, 'pitch': -43.58, 'roll': 34.52, 'pres': 195}
{'lipoC2': 7.37, 'lipoC3S1': 3.95, 'temp': 30.13, 'lipoC3S3': 11.93, 'lipoC3S2': 7.9, 'rot1': 825, 'rot0': 835, 'rot3': 396, 'rot2': 363, 'state': 'normal', 'yaw': -13.65, 'datetime': '2018-10-09 13:27:58.350658', 'mgs': 0, 'volt': 0.957, 'depth': 2.454, 'time': 524, 'pitch': -44.42, 'roll': 35.39, 'pres': 196}
{'lipoC2': 7.37, 'lipoC3S1': 3.95, 'temp': 30.13, 'lipoC3S3': 11.93, 'lipoC3S2': 7.89, 'rot1': 825, 'rot0': 835, 'rot3': 396, 'rot2': 363, 'state': 'normal', 'yaw': -14.63, 'datetime': '2018-10-09 13:27:58.454994', 'mgs': 0, 'volt': 0.957, 'depth': 2.454, 'time': 524, 'pitch': -44.92, 'roll': 36.39, 'pres': 196}
{'lipoC2': 7.37, 'lipoC3S1': 3.95, 'temp': 30.13, 'lipoC3S3': 11.93, 'lipoC3S2': 7.89, 'rot1': 825, 'rot0': 835, 'rot3': 396, 'rot2': 363, 'state': 'normal', 'yaw': -15.34, 'datetime': '2018-10-09 13:27:58.559375', 'mgs': 1, 'volt': 0.957, 'depth': 2.454, 'time': 524, 'pitch': -45.12, 'roll': 37.27, 'pres': 196}
{'lipoC2': 7.37, 'lipoC3S1': 3.95, 'temp': 30.13, 'lipoC3S3': 11.93, 'lipoC3S2': 7.9, 'rot1': 0, 'rot0': 0, 'rot3': 0, 'rot2': 0, 'state': 'normal', 'yaw': 0.0, 'datetime': '2018-10-09 13:28:01.589728', 'mgs': 1, 'volt': 0.9717, 'depth': 2.682, 'time': 1, 'pitch': -11.19, 'roll': 6.31, 'pres': 199}
{'lipoC2': 7.37, 'lipoC3S1': 3.95, 'temp': 30.13, 'lipoC3S3': 11.93, 'lipoC3S2': 7.9, 'rot1': 0, 'rot0': 0, 'rot3': 0, 'rot2': 0, 'state': 'normal', 'yaw': 0.66, 'datetime': '2018-10-09 13:28:04.634090', 'mgs': 1, 'volt': 0.9766, 'depth': 2.759, 'time': 1, 'pitch': -7.2, 'roll': 3.69, 'pres': 200}
{'lipoC2': 7.37, 'lipoC3S1': 3.95, 'temp': 30.06, 'lipoC3S3': 11.94, 'lipoC3S2': 7.9, 'rot1': 0, 'rot0': 0, 'rot3': 0, 'rot2': 0, 'state': 'normal', 'yaw': 1.01, 'datetime': '2018-10-09 13:28:04.667980', 'mgs': 1, 'volt': 0.9766, 'depth': 2.759, 'time': 1, 'pitch': -4.51, 'roll': 1.85, 'pres': 200}
{'lipoC2': 7.37, 'lipoC3S1': 3.95, 'temp': 30.06, 'lipoC3S3': 11.94, 'lipoC3S2': 7.9, 'rot1': 0, 'rot0': 0, 'rot3': 0, 'rot2': 0, 'state': 'normal', 'yaw': 1.26, 'datetime': '2018-10-09 13:28:04.686728', 'mgs': 1, 'volt': 0.9766, 'depth': 2.759, 'time': 1, 'pitch': -2.63, 'roll': 0.47, 'pres': 200}
{'lipoC2': 7.37, 'lipoC3S1': 3.95, 'temp': 30.06, 'lipoC3S3': 11.94, 'lipoC3S2': 7.9, 'rot1': 0, 'rot0': 0, 'rot3': 0, 'rot2': 0, 'state': 'normal', 'yaw': 1.47, 'datetime': '2018-10-09 13:28:04.705844', 'mgs': 1, 'volt': 0.9766, 'depth': 2.759, 'time': 1, 'pitch': -1.52, 'roll': -0.56, 'pres': 200}
{'lipoC2': 7.37, 'lipoC3S1': 3.95, 'temp': 30.13, 'lipoC3S3': 11.94, 'lipoC3S2': 7.9, 'rot1': 0, 'rot0': 0, 'rot3': 0, 'rot2': 0, 'state': 'normal', 'yaw': 1.63, 'datetime': '2018-10-09 13:28:04.724894', 'mgs': 0, 'volt': 0.9766, 'depth': 2.759, 'time': 1, 'pitch': -1.1, 'roll': -1.1, 'pres': 200}
{'lipoC2': 7.37, 'lipoC3S1': 3.95, 'temp': 30.13, 'lipoC3S3': 11.94, 'lipoC3S2': 7.9, 'rot1': 0, 'rot0': 0, 'rot3': 0, 'rot2': 0, 'state': 'normal', 'yaw': 1.75, 'datetime': '2018-10-09 13:28:04.743833', 'mgs': 0, 'volt': 0.9766, 'depth': 2.759, 'time': 1, 'pitch': -1.08, 'roll': -1.33, 'pres': 200}
{'lipoC2': 7.37, 'lipoC3S1': 3.95, 'temp': 30.06, 'lipoC3S3': 11.93, 'lipoC3S2': 7.9, 'rot1': 0, 'rot0': 0, 'rot3': 0, 'rot2': 0, 'state': 'normal', 'yaw': 1.88, 'datetime': '2018-10-09 13:28:04.762843', 'mgs': 0, 'volt': 0.9717, 'depth': 2.682, 'time': 1, 'pitch': -1.26, 'roll': -1.39, 'pres': 199}
{'lipoC2': 7.37, 'lipoC3S1': 3.95, 'temp': 30.06, 'lipoC3S3': 11.93, 'lipoC3S2': 7.89, 'rot1': 0, 'rot0': 0, 'rot3': 0, 'rot2': 0, 'state': 'normal', 'yaw': 2.0, 'datetime': '2018-10-09 13:28:04.781157', 'mgs': 0, 'volt': 0.9717, 'depth': 2.682, 'time': 2, 'pitch': -1.4, 'roll': -1.41, 'pres': 199}
{'lipoC2': 7.37, 'lipoC3S1': 3.95, 'temp': 30.13, 'lipoC3S3': 11.93, 'lipoC3S2': 7.9, 'rot1': 0, 'rot0': 0, 'rot3': 0, 'rot2': 0, 'state': 'normal', 'yaw': 2.1, 'datetime': '2018-10-09 13:28:04.800270', 'mgs': 0, 'volt': 0.9717, 'depth': 2.682, 'time': 2, 'pitch': -1.5, 'roll': -1.39, 'pres': 199}
{'lipoC2': 7.37, 'lipoC3S1': 3.95, 'temp': 30.13, 'lipoC3S3': 11.93, 'lipoC3S2': 7.89, 'rot1': 0, 'rot0': 0, 'rot3': 0, 'rot2': 0, 'state': 'normal', 'yaw': 2.21, 'datetime': '2018-10-09 13:28:04.819247', 'mgs': 0, 'volt': 0.9717, 'depth': 2.682, 'time': 2, 'pitch': -1.51, 'roll': -1.36, 'pres': 199}
{'lipoC2': 7.37, 'lipoC3S1': 3.95, 'temp': 30.13, 'lipoC3S3': 11.93, 'lipoC3S2': 7.89, 'rot1': 0, 'rot0': 0, 'rot3': 0, 'rot2': 0, 'state': 'normal', 'yaw': 2.33, 'datetime': '2018-10-09 13:28:04.838263', 'mgs': 0, 'volt': 0.9717, 'depth': 2.682, 'time': 2, 'pitch': -1.46, 'roll': -1.36, 'pres': 199}
{'lipoC2': 7.37, 'lipoC3S1': 3.95, 'temp': 30.13, 'lipoC3S3': 11.94, 'lipoC3S2': 7.9, 'rot1': 0, 'rot0': 0, 'rot3': 0, 'rot2': 0, 'state': 'normal', 'yaw': 2.43, 'datetime': '2018-10-09 13:28:04.857403', 'mgs': 0, 'volt': 0.9717, 'depth': 2.682, 'time': 2, 'pitch': -1.35, 'roll': -1.37, 'pres': 199}
{'lipoC2': 7.37, 'lipoC3S1': 3.95, 'temp': 30.13, 'lipoC3S3': 11.93, 'lipoC3S2': 7.9, 'rot1': 0, 'rot0': 0, 'rot3': 0, 'rot2': 0, 'state': 'normal', 'yaw': 2.54, 'datetime': '2018-10-09 13:28:04.877038', 'mgs': 0, 'volt': 0.9717, 'depth': 2.682, 'time': 2, 'pitch': -1.28, 'roll': -1.38, 'pres': 199}
{'lipoC2': 7.37, 'lipoC3S1': 3.95, 'temp': 30.06, 'lipoC3S3': 11.94, 'lipoC3S2': 7.9, 'rot1': 0, 'rot0': 0, 'rot3': 0, 'rot2': 0, 'state': 'normal', 'yaw': 2.61, 'datetime': '2018-10-09 13:28:04.895397', 'mgs': 0, 'volt': 0.9717, 'depth': 2.682, 'time': 2, 'pitch': -1.45, 'roll': -1.38, 'pres': 199}
{'lipoC2': 7.37, 'lipoC3S1': 3.95, 'temp': 30.06, 'lipoC3S3': 11.94, 'lipoC3S2': 7.9, 'rot1': 0, 'rot0': 0, 'rot3': 0, 'rot2': 0, 'state': 'normal', 'yaw': 2.64, 'datetime': '2018-10-09 13:28:04.915089', 'mgs': 0, 'volt': 0.9668, 'depth': 2.606, 'time': 2, 'pitch': -1.88, 'roll': -1.37, 'pres': 198}
{'lipoC2': 7.37, 'lipoC3S1': 3.95, 'temp': 30.06, 'lipoC3S3': 11.94, 'lipoC3S2': 7.9, 'rot1': 0, 'rot0': 0, 'rot3': 0, 'rot2': 0, 'state': 'normal', 'yaw': 2.66, 'datetime': '2018-10-09 13:28:04.934237', 'mgs': 0, 'volt': 0.9717, 'depth': 2.682, 'time': 2, 'pitch': -2.48, 'roll': -1.36, 'pres': 199}
{'lipoC2': 7.37, 'lipoC3S1': 3.89, 'temp': 30.06, 'lipoC3S3': 11.83, 'lipoC3S2': 7.79, 'rot1': 0, 'rot0': 0, 'rot3': 1, 'rot2': 0, 'state': 'normal', 'yaw': 2.71, 'datetime': '2018-10-09 13:28:04.953438', 'mgs': 0, 'volt': 0.9961, 'depth': 3.064, 'time': 3, 'pitch': -2.89, 'roll': -1.37, 'pres': 204}
{'lipoC2': 7.37, 'lipoC3S1': 3.92, 'temp': 30.06, 'lipoC3S3': 11.88, 'lipoC3S2': 7.84, 'rot1': 0, 'rot0': 0, 'rot3': 2, 'rot2': 1, 'state': 'normal', 'yaw': 2.71, 'datetime': '2018-10-09 13:28:04.972570', 'mgs': 0, 'volt': 0.9912, 'depth': 2.988, 'time': 3, 'pitch': -2.77, 'roll': -1.18, 'pres': 203}
{'lipoC2': 7.37, 'lipoC3S1': 3.9, 'temp': 30.13, 'lipoC3S3': 11.85, 'lipoC3S2': 7.82, 'rot1': 0, 'rot0': 0, 'rot3': 3, 'rot2': 2, 'state': 'normal', 'yaw': 2.65, 'datetime': '2018-10-09 13:28:04.991772', 'mgs': 0, 'volt': 0.9668, 'depth': 2.606, 'time': 3, 'pitch': -1.95, 'roll': -0.75, 'pres': 198}
{'lipoC2': 7.37, 'lipoC3S1': 3.9, 'temp': 30.13, 'lipoC3S3': 11.87, 'lipoC3S2': 7.82, 'rot1': 0, 'rot0': 0, 'rot3': 3, 'rot2': 3, 'state': 'normal', 'yaw': 2.5, 'datetime': '2018-10-09 13:28:05.011211', 'mgs': 0, 'volt': 0.9521, 'depth': 2.377, 'time': 3, 'pitch': -0.48, 'roll': -0.03, 'pres': 195}
{'lipoC2': 7.37, 'lipoC3S1': 3.91, 'temp': 30.13, 'lipoC3S3': 11.88, 'lipoC3S2': 7.83, 'rot1': 0, 'rot0': 0, 'rot3': 4, 'rot2': 3, 'state': 'normal', 'yaw': 2.38, 'datetime': '2018-10-09 13:28:05.030481', 'mgs': 0, 'volt': 0.9717, 'depth': 2.682, 'time': 3, 'pitch': 0.98, 'roll': 0.71, 'pres': 199}
{'lipoC2': 7.37, 'lipoC3S1': 3.91, 'temp': 30.13, 'lipoC3S3': 11.89, 'lipoC3S2': 7.84, 'rot1': 0, 'rot0': 0, 'rot3': 6, 'rot2': 4, 'state': 'normal', 'yaw': 2.25, 'datetime': '2018-10-09 13:28:05.049724', 'mgs': 0, 'volt': 0.9717, 'depth': 2.682, 'time': 3, 'pitch': 2.25, 'roll': 1.39, 'pres': 199}
{'lipoC2': 7.36, 'lipoC3S1': 3.91, 'temp': 30.06, 'lipoC3S3': 11.88, 'lipoC3S2': 7.84, 'rot1': 0, 'rot0': 0, 'rot3': 7, 'rot2': 5, 'state': 'normal', 'yaw': 2.14, 'datetime': '2018-10-09 13:28:05.068996', 'mgs': 0, 'volt': 0.9717, 'depth': 2.682, 'time': 3, 'pitch': 3.23, 'roll': 1.98, 'pres': 199}
{'lipoC2': 7.36, 'lipoC3S1': 3.91, 'temp': 30.06, 'lipoC3S3': 11.88, 'lipoC3S2': 7.85, 'rot1': 0, 'rot0': 0, 'rot3': 8, 'rot2': 6, 'state': 'normal', 'yaw': 2.05, 'datetime': '2018-10-09 13:28:05.088621', 'mgs': 0, 'volt': 0.9717, 'depth': 2.682, 'time': 3, 'pitch': 3.69, 'roll': 2.39, 'pres': 199}
{'lipoC2': 7.36, 'lipoC3S1': 3.92, 'temp': 30.06, 'lipoC3S3': 11.81, 'lipoC3S2': 7.85, 'rot1': 0, 'rot0': 0, 'rot3': 9, 'rot2': 6, 'state': 'normal', 'yaw': 1.96, 'datetime': '2018-10-09 13:28:05.108292', 'mgs': 0, 'volt': 0.957, 'depth': 2.454, 'time': 3, 'pitch': 3.77, 'roll': 2.71, 'pres': 196}
{'lipoC2': 7.37, 'lipoC3S1': 3.93, 'temp': 30.13, 'lipoC3S3': 11.83, 'lipoC3S2': 7.85, 'rot1': 0, 'rot0': 0, 'rot3': 10, 'rot2': 7, 'state': 'normal', 'yaw': 1.86, 'datetime': '2018-10-09 13:28:05.127653', 'mgs': 0, 'volt': 0.9424, 'depth': 2.225, 'time': 3, 'pitch': 3.65, 'roll': 3.09, 'pres': 193}
{'lipoC2': 7.37, 'lipoC3S1': 3.92, 'temp': 30.13, 'lipoC3S3': 11.84, 'lipoC3S2': 7.86, 'rot1': 0, 'rot0': 0, 'rot3': 11, 'rot2': 8, 'state': 'normal', 'yaw': 1.78, 'datetime': '2018-10-09 13:28:05.147008', 'mgs': 0, 'volt': 0.9473, 'depth': 2.301, 'time': 4, 'pitch': 3.56, 'roll': 3.51, 'pres': 194}
{'lipoC2': 7.37, 'lipoC3S1': 3.9, 'temp': 30.13, 'lipoC3S3': 11.84, 'lipoC3S2': 7.81, 'rot1': 0, 'rot0': 0, 'rot3': 12, 'rot2': 9, 'state': 'normal', 'yaw': 1.71, 'datetime': '2018-10-09 13:28:05.166660', 'mgs': 0, 'volt': 0.9229, 'depth': 1.92, 'time': 4, 'pitch': 3.64, 'roll': 3.9, 'pres': 189}
{'lipoC2': 7.37, 'lipoC3S1': 3.9, 'temp': 30.13, 'lipoC3S3': 11.84, 'lipoC3S2': 7.8, 'rot1': 0, 'rot0': 0, 'rot3': 13, 'rot2': 9, 'state': 'normal', 'yaw': 1.63, 'datetime': '2018-10-09 13:28:05.186046', 'mgs': 0, 'volt': 0.918, 'depth': 1.843, 'time': 4, 'pitch': 3.97, 'roll': 4.23, 'pres': 188}
{'lipoC2': 7.37, 'lipoC3S1': 3.93, 'temp': 30.13, 'lipoC3S3': 11.85, 'lipoC3S2': 7.82, 'rot1': 0, 'rot0': 0, 'rot3': 14, 'rot2': 11, 'state': 'normal', 'yaw': 1.59, 'datetime': '2018-10-09 13:28:05.205630', 'mgs': 0, 'volt': 0.918, 'depth': 1.843, 'time': 4, 'pitch': 4.54, 'roll': 4.26, 'pres': 188}
{'lipoC2': 7.37, 'lipoC3S1': 3.9, 'temp': 30.13, 'lipoC3S3': 11.88, 'lipoC3S2': 7.83, 'rot1': 0, 'rot0': 0, 'rot3': 15, 'rot2': 12, 'state': 'normal', 'yaw': 1.53, 'datetime': '2018-10-09 13:28:05.224928', 'mgs': 0, 'volt': 0.9277, 'depth': 1.996, 'time': 4, 'pitch': 5.28, 'roll': 3.82, 'pres': 190}
{'lipoC2': 7.37, 'lipoC3S1': 3.9, 'temp': 30.13, 'lipoC3S3': 11.84, 'lipoC3S2': 7.81, 'rot1': 0, 'rot0': 0, 'rot3': 16, 'rot2': 13, 'state': 'normal', 'yaw': 1.53, 'datetime': '2018-10-09 13:28:05.244232', 'mgs': 0, 'volt': 0.8887, 'depth': 1.385, 'time': 4, 'pitch': 5.94, 'roll': 2.69, 'pres': 182}
{'lipoC2': 7.36, 'lipoC3S1': 3.93, 'temp': 30.13, 'lipoC3S3': 11.83, 'lipoC3S2': 7.85, 'rot1': 0, 'rot0': 0, 'rot3': 17, 'rot2': 14, 'state': 'normal', 'yaw': 1.55, 'datetime': '2018-10-09 13:28:05.263616', 'mgs': 0, 'volt': 0.9082, 'depth': 1.691, 'time': 4, 'pitch': 6.23, 'roll': 1.32, 'pres': 186}
{'lipoC2': 7.37, 'lipoC3S1': 3.91, 'temp': 30.13, 'lipoC3S3': 11.88, 'lipoC3S2': 7.84, 'rot1': 0, 'rot0': 0, 'rot3': 18, 'rot2': 14, 'state': 'normal', 'yaw': 1.57, 'datetime': '2018-10-09 13:28:05.282987', 'mgs': 0, 'volt': 0.8936, 'depth': 1.462, 'time': 4, 'pitch': 6.16, 'roll': -0.03, 'pres': 183}
{'lipoC2': 7.36, 'lipoC3S1': 3.93, 'temp': 30.06, 'lipoC3S3': 11.84, 'lipoC3S2': 7.82, 'rot1': 0, 'rot0': 0, 'rot3': 19, 'rot2': 15, 'state': 'normal', 'yaw': 1.69, 'datetime': '2018-10-09 13:28:05.302657', 'mgs': 0, 'volt': 0.8887, 'depth': 1.385, 'time': 4, 'pitch': 5.63, 'roll': -1.2, 'pres': 182}
{'lipoC2': 7.36, 'lipoC3S1': 3.92, 'temp': 30.06, 'lipoC3S3': 11.84, 'lipoC3S2': 7.85, 'rot1': 0, 'rot0': 0, 'rot3': 20, 'rot2': 16, 'state': 'normal', 'yaw': 1.84, 'datetime': '2018-10-09 13:28:05.322194', 'mgs': 0, 'volt': 0.8984, 'depth': 1.538, 'time': 4, 'pitch': 4.77, 'roll': -1.84, 'pres': 184}
{'lipoC2': 7.37, 'lipoC3S1': 3.92, 'temp': 30.13, 'lipoC3S3': 11.87, 'lipoC3S2': 7.84, 'rot1': 0, 'rot0': 0, 'rot3': 22, 'rot2': 17, 'state': 'normal', 'yaw': 1.98, 'datetime': '2018-10-09 13:28:05.338223', 'mgs': 0, 'volt': 0.874, 'depth': 1.157, 'time': 5, 'pitch': 3.71, 'roll': -1.96, 'pres': 179}
{'lipoC2': 7.36, 'lipoC3S1': 3.93, 'temp': 30.13, 'lipoC3S3': 11.84, 'lipoC3S2': 7.82, 'rot1': 0, 'rot0': 0, 'rot3': 23, 'rot2': 18, 'state': 'normal', 'yaw': 2.09, 'datetime': '2018-10-09 13:28:05.353950', 'mgs': 0, 'volt': 0.8789, 'depth': 1.233, 'time': 5, 'pitch': 2.48, 'roll': -1.43, 'pres': 180}
{'lipoC2': 7.36, 'lipoC3S1': 3.93, 'temp': 30.13, 'lipoC3S3': 11.89, 'lipoC3S2': 7.87, 'rot1': 0, 'rot0': 0, 'rot3': 24, 'rot2': 20, 'state': 'normal', 'yaw': 2.24, 'datetime': '2018-10-09 13:28:05.369719', 'mgs': 0, 'volt': 0.8789, 'depth': 1.233, 'time': 5, 'pitch': 1.53, 'roll': -0.52, 'pres': 180}
{'lipoC2': 7.36, 'lipoC3S1': 3.95, 'temp': 30.13, 'lipoC3S3': 11.88, 'lipoC3S2': 7.84, 'rot1': 0, 'rot0': 0, 'rot3': 25, 'rot2': 20, 'state': 'normal', 'yaw': 2.46, 'datetime': '2018-10-09 13:28:05.385526', 'mgs': 0, 'volt': 0.8643, 'depth': 1.004, 'time': 5, 'pitch': 1.26, 'roll': 0.38, 'pres': 177}
{'lipoC2': 7.36, 'lipoC3S1': 3.93, 'temp': 30.13, 'lipoC3S3': 11.84, 'lipoC3S2': 7.85, 'rot1': 0, 'rot0': 0, 'rot3': 26, 'rot2': 21, 'state': 'normal', 'yaw': 2.77, 'datetime': '2018-10-09 13:28:05.403128', 'mgs': 0, 'volt': 0.8789, 'depth': 1.233, 'time': 5, 'pitch': 1.77, 'roll': 0.91, 'pres': 180}
{'lipoC2': 7.37, 'lipoC3S1': 3.9, 'temp': 30.06, 'lipoC3S3': 11.88, 'lipoC3S2': 7.83, 'rot1': 0, 'rot0': 0, 'rot3': 27, 'rot2': 22, 'state': 'normal', 'yaw': 3.08, 'datetime': '2018-10-09 13:28:05.419201', 'mgs': 0, 'volt': 0.874, 'depth': 1.157, 'time': 5, 'pitch': 2.79, 'roll': 0.74, 'pres': 179}
{'lipoC2': 7.37, 'lipoC3S1': 3.93, 'temp': 30.06, 'lipoC3S3': 11.87, 'lipoC3S2': 7.86, 'rot1': 0, 'rot0': 0, 'rot3': 29, 'rot2': 23, 'state': 'normal', 'yaw': 3.33, 'datetime': '2018-10-09 13:28:05.434833', 'mgs': 0, 'volt': 0.8838, 'depth': 1.309, 'time': 5, 'pitch': 3.74, 'roll': -0.17, 'pres': 181}
{'lipoC2': 7.37, 'lipoC3S1': 3.91, 'temp': 30.06, 'lipoC3S3': 11.89, 'lipoC3S2': 7.85, 'rot1': 0, 'rot0': 0, 'rot3': 30, 'rot2': 24, 'state': 'normal', 'yaw': 3.49, 'datetime': '2018-10-09 13:28:05.450573', 'mgs': 0, 'volt': 0.8838, 'depth': 1.309, 'time': 5, 'pitch': 3.5, 'roll': -1.27, 'pres': 181}
{'lipoC2': 7.36, 'lipoC3S1': 3.93, 'temp': 30.06, 'lipoC3S3': 11.85, 'lipoC3S2': 7.86, 'rot1': 0, 'rot0': 0, 'rot3': 31, 'rot2': 25, 'state': 'normal', 'yaw': 3.66, 'datetime': '2018-10-09 13:28:05.466459', 'mgs': 0, 'volt': 0.8887, 'depth': 1.385, 'time': 5, 'pitch': 2.42, 'roll': -2.08, 'pres': 182}
{'lipoC2': 7.36, 'lipoC3S1': 3.92, 'temp': 30.06, 'lipoC3S3': 11.88, 'lipoC3S2': 7.85, 'rot1': 0, 'rot0': 0, 'rot3': 32, 'rot2': 26, 'state': 'normal', 'yaw': 3.83, 'datetime': '2018-10-09 13:28:05.482194', 'mgs': 0, 'volt': 0.8838, 'depth': 1.309, 'time': 6, 'pitch': 0.78, 'roll': -2.28, 'pres': 181}
{'lipoC2': 7.37, 'lipoC3S1': 3.92, 'temp': 30.13, 'lipoC3S3': 11.87, 'lipoC3S2': 7.84, 'rot1': 0, 'rot0': 0, 'rot3': 33, 'rot2': 26, 'state': 'normal', 'yaw': 4.01, 'datetime': '2018-10-09 13:28:05.498573', 'mgs': 0, 'volt': 0.874, 'depth': 1.157, 'time': 6, 'pitch': -0.34, 'roll': -1.97, 'pres': 179}
{'lipoC2': 7.36, 'lipoC3S1': 3.93, 'temp': 30.13, 'lipoC3S3': 11.85, 'lipoC3S2': 7.82, 'rot1': 0, 'rot0': 0, 'rot3': 35, 'rot2': 27, 'state': 'normal', 'yaw': 4.24, 'datetime': '2018-10-09 13:28:05.516132', 'mgs': 0, 'volt': 0.874, 'depth': 1.157, 'time': 6, 'pitch': -0.59, 'roll': -1.51, 'pres': 179}
{'lipoC2': 7.36, 'lipoC3S1': 3.92, 'temp': 30.0, 'lipoC3S3': 11.9, 'lipoC3S2': 7.86, 'rot1': 0, 'rot0': 0, 'rot3': 36, 'rot2': 28, 'state': 'normal', 'yaw': 4.46, 'datetime': '2018-10-09 13:28:05.531719', 'mgs': 0, 'volt': 0.8838, 'depth': 1.309, 'time': 6, 'pitch': 0.28, 'roll': -1.18, 'pres': 181}
{'lipoC2': 7.36, 'lipoC3S1': 3.9, 'temp': 30.0, 'lipoC3S3': 11.88, 'lipoC3S2': 7.83, 'rot1': 0, 'rot0': 0, 'rot3': 37, 'rot2': 29, 'state': 'normal', 'yaw': 4.62, 'datetime': '2018-10-09 13:28:05.547315', 'mgs': 0, 'volt': 0.8887, 'depth': 1.385, 'time': 6, 'pitch': 1.96, 'roll': -1.2, 'pres': 182}
{'lipoC2': 7.36, 'lipoC3S1': 3.9, 'temp': 30.06, 'lipoC3S3': 11.85, 'lipoC3S2': 7.81, 'rot1': 0, 'rot0': 1, 'rot3': 38, 'rot2': 30, 'state': 'normal', 'yaw': 4.78, 'datetime': '2018-10-09 13:28:05.563067', 'mgs': 0, 'volt': 0.874, 'depth': 1.157, 'time': 6, 'pitch': 3.9, 'roll': -1.41, 'pres': 179}
{'lipoC2': 7.36, 'lipoC3S1': 3.9, 'temp': 30.06, 'lipoC3S3': 11.83, 'lipoC3S2': 7.85, 'rot1': 1, 'rot0': 1, 'rot3': 39, 'rot2': 31, 'state': 'normal', 'yaw': 5.01, 'datetime': '2018-10-09 13:28:05.578667', 'mgs': 0, 'volt': 0.8887, 'depth': 1.385, 'time': 6, 'pitch': 5.8, 'roll': -1.6, 'pres': 182}
{'lipoC2': 7.37, 'lipoC3S1': 3.91, 'temp': 30.06, 'lipoC3S3': 11.88, 'lipoC3S2': 7.83, 'rot1': 1, 'rot0': 1, 'rot3': 40, 'rot2': 31, 'state': 'normal', 'yaw': 5.35, 'datetime': '2018-10-09 13:28:05.594214', 'mgs': 0, 'volt': 0.8984, 'depth': 1.538, 'time': 6, 'pitch': 6.88, 'roll': -1.67, 'pres': 184}
{'lipoC2': 7.36, 'lipoC3S1': 3.91, 'temp': 30.0, 'lipoC3S3': 11.87, 'lipoC3S2': 7.83, 'rot1': 1, 'rot0': 1, 'rot3': 42, 'rot2': 32, 'state': 'normal', 'yaw': 5.75, 'datetime': '2018-10-09 13:28:05.611682', 'mgs': 0, 'volt': 0.8984, 'depth': 1.538, 'time': 6, 'pitch': 7.26, 'roll': -1.63, 'pres': 184}
{'lipoC2': 7.36, 'lipoC3S1': 3.94, 'temp': 30.0, 'lipoC3S3': 11.84, 'lipoC3S2': 7.81, 'rot1': 1, 'rot0': 1, 'rot3': 43, 'rot2': 33, 'state': 'normal', 'yaw': 6.11, 'datetime': '2018-10-09 13:28:05.627817', 'mgs': 0, 'volt': 0.874, 'depth': 1.157, 'time': 6, 'pitch': 6.89, 'roll': -1.6, 'pres': 179}
{'lipoC2': 7.37, 'lipoC3S1': 3.91, 'temp': 30.0, 'lipoC3S3': 11.88, 'lipoC3S2': 7.83, 'rot1': 1, 'rot0': 1, 'rot3': 44, 'rot2': 34, 'state': 'normal', 'yaw': 6.36, 'datetime': '2018-10-09 13:28:05.725824', 'mgs': 0, 'volt': 0.8984, 'depth': 1.538, 'time': 7, 'pitch': 5.99, 'roll': -1.6, 'pres': 184}
{'lipoC2': 7.36, 'lipoC3S1': 3.91, 'temp': 30.0, 'lipoC3S3': 11.84, 'lipoC3S2': 7.82, 'rot1': 1, 'rot0': 2, 'rot3': 45, 'rot2': 35, 'state': 'normal', 'yaw': 6.68, 'datetime': '2018-10-09 13:28:05.829403', 'mgs': 0, 'volt': 0.874, 'depth': 1.157, 'time': 7, 'pitch': 4.74, 'roll': -1.58, 'pres': 179}
{'lipoC2': 7.37, 'lipoC3S1': 3.94, 'temp': 30.06, 'lipoC3S3': 11.85, 'lipoC3S2': 7.85, 'rot1': 2, 'rot0': 2, 'rot3': 46, 'rot2': 36, 'state': 'normal', 'yaw': 7.03, 'datetime': '2018-10-09 13:28:05.932967', 'mgs': 0, 'volt': 0.8838, 'depth': 1.309, 'time': 7, 'pitch': 3.66, 'roll': -1.45, 'pres': 181}
{'lipoC2': 7.36, 'lipoC3S1': 3.9, 'temp': 30.06, 'lipoC3S3': 11.84, 'lipoC3S2': 7.81, 'rot1': 2, 'rot0': 2, 'rot3': 48, 'rot2': 36, 'state': 'normal', 'yaw': 7.36, 'datetime': '2018-10-09 13:28:06.037878', 'mgs': 0, 'volt': 0.8789, 'depth': 1.233, 'time': 7, 'pitch': 2.88, 'roll': -1.17, 'pres': 180}
{'lipoC2': 7.37, 'lipoC3S1': 3.93, 'temp': 30.06, 'lipoC3S3': 11.84, 'lipoC3S2': 7.85, 'rot1': 2, 'rot0': 2, 'rot3': 49, 'rot2': 37, 'state': 'normal', 'yaw': 7.68, 'datetime': '2018-10-09 13:28:06.148034', 'mgs': 0, 'volt': 0.8887, 'depth': 1.385, 'time': 7, 'pitch': 2.29, 'roll': -0.85, 'pres': 182}
{'lipoC2': 7.37, 'lipoC3S1': 3.91, 'temp': 30.06, 'lipoC3S3': 11.89, 'lipoC3S2': 7.84, 'rot1': 2, 'rot0': 2, 'rot3': 50, 'rot2': 38, 'state': 'normal', 'yaw': 7.96, 'datetime': '2018-10-09 13:28:06.251646', 'mgs': 0, 'volt': 0.8838, 'depth': 1.309, 'time': 7, 'pitch': 2.17, 'roll': -0.68, 'pres': 181}
{'lipoC2': 7.37, 'lipoC3S1': 3.9, 'temp': 30.06, 'lipoC3S3': 11.85, 'lipoC3S2': 7.81, 'rot1': 2, 'rot0': 2, 'rot3': 51, 'rot2': 39, 'state': 'normal', 'yaw': 8.25, 'datetime': '2018-10-09 13:28:06.355226', 'mgs': 0, 'volt': 0.874, 'depth': 1.157, 'time': 7, 'pitch': 2.52, 'roll': -0.62, 'pres': 179}
