{'lipoC2': 0.0, 'lipoC3S1': 3.97, 'temp': 26.13, 'lipoC3S3': 12.04, 'lipoC3S2': 7.94, 'rot1': 379, 'rot0': 389, 'rot3': 212, 'rot2': 192, 'state': 'normal', 'yaw': 43.84, 'datetime': '2018-10-03 16:58:36.197229', 'mgs': 0, 'volt': 1.0205, 'depth': 3.445, 'time': 53, 'pitch': -6.85, 'roll': 0.13, 'pres': 209}
{'lipoC2': 0.0, 'lipoC3S1': 3.97, 'temp': 26.13, 'lipoC3S3': 12.04, 'lipoC3S2': 7.94, 'rot1': 0, 'rot0': 0, 'rot3': 0, 'rot2': 0, 'state': 'normal', 'yaw': 0.0, 'datetime': '2018-10-03 16:58:36.219849', 'mgs': 0, 'volt': 1.0205, 'depth': 3.445, 'time': 1, 'pitch': -7.73, 'roll': 0.24, 'pres': 209}
{'lipoC2': 0.0, 'lipoC3S1': 3.97, 'temp': 26.13, 'lipoC3S3': 12.04, 'lipoC3S2': 7.94, 'rot1': 0, 'rot0': 0, 'rot3': 0, 'rot2': 0, 'state': 'normal', 'yaw': 0.12, 'datetime': '2018-10-03 16:58:36.242002', 'mgs': 0, 'volt': 1.0205, 'depth': 3.445, 'time': 1, 'pitch': -7.55, 'roll': 0.18, 'pres': 209}
{'lipoC2': 0.0, 'lipoC3S1': 3.96, 'temp': 26.13, 'lipoC3S3': 12.04, 'lipoC3S2': 7.94, 'rot1': 0, 'rot0': 0, 'rot3': 0, 'rot2': 0, 'state': 'normal', 'yaw': 0.14, 'datetime': '2018-10-03 16:58:36.263989', 'mgs': 0, 'volt': 1.0205, 'depth': 3.445, 'time': 1, 'pitch': -7.48, 'roll': 0.25, 'pres': 209}
{'lipoC2': 0.0, 'lipoC3S1': 3.97, 'temp': 26.13, 'lipoC3S3': 12.04, 'lipoC3S2': 7.94, 'rot1': 0, 'rot0': 0, 'rot3': 0, 'rot2': 0, 'state': 'normal', 'yaw': 0.14, 'datetime': '2018-10-03 16:58:36.273863', 'mgs': 0, 'volt': 1.0205, 'depth': 3.445, 'time': 1, 'pitch': -7.47, 'roll': 0.26, 'pres': 209}
{'lipoC2': 0.0, 'lipoC3S1': 3.97, 'temp': 26.13, 'lipoC3S3': 12.04, 'lipoC3S2': 7.94, 'rot1': 0, 'rot0': 0, 'rot3': 0, 'rot2': 0, 'state': 'normal', 'yaw': 0.13, 'datetime': '2018-10-03 16:58:36.285308', 'mgs': 0, 'volt': 1.0205, 'depth': 3.445, 'time': 1, 'pitch': -7.37, 'roll': 0.3, 'pres': 209}
{'lipoC2': 0.0, 'lipoC3S1': 3.97, 'temp': 26.13, 'lipoC3S3': 12.04, 'lipoC3S2': 7.94, 'rot1': 0, 'rot0': 0, 'rot3': 0, 'rot2': 0, 'state': 'normal', 'yaw': 0.14, 'datetime': '2018-10-03 16:58:36.295089', 'mgs': 0, 'volt': 1.0156, 'depth': 3.369, 'time': 1, 'pitch': -7.28, 'roll': 0.36, 'pres': 208}
{'lipoC2': 0.0, 'lipoC3S1': 3.97, 'temp': 26.13, 'lipoC3S3': 12.04, 'lipoC3S2': 7.94, 'rot1': 0, 'rot0': 0, 'rot3': 0, 'rot2': 0, 'state': 'normal', 'yaw': 0.14, 'datetime': '2018-10-03 16:58:36.304697', 'mgs': 0, 'volt': 1.0156, 'depth': 3.369, 'time': 1, 'pitch': -7.3, 'roll': 0.36, 'pres': 208}
{'lipoC2': 0.0, 'lipoC3S1': 3.97, 'temp': 26.13, 'lipoC3S3': 12.04, 'lipoC3S2': 7.94, 'rot1': 0, 'rot0': 0, 'rot3': 0, 'rot2': 0, 'state': 'normal', 'yaw': 0.14, 'datetime': '2018-10-03 16:58:36.314408', 'mgs': 0, 'volt': 1.0205, 'depth': 3.445, 'time': 1, 'pitch': -7.31, 'roll': 0.36, 'pres': 209}
{'lipoC2': 0.0, 'lipoC3S1': 3.97, 'temp': 26.13, 'lipoC3S3': 12.04, 'lipoC3S2': 7.94, 'rot1': 0, 'rot0': 0, 'rot3': 0, 'rot2': 0, 'state': 'normal', 'yaw': 0.14, 'datetime': '2018-10-03 16:58:36.324031', 'mgs': 0, 'volt': 1.0156, 'depth': 3.369, 'time': 2, 'pitch': -7.36, 'roll': 0.4, 'pres': 208}
{'lipoC2': 0.0, 'lipoC3S1': 3.97, 'temp': 26.13, 'lipoC3S3': 12.04, 'lipoC3S2': 7.94, 'rot1': 0, 'rot0': 0, 'rot3': 0, 'rot2': 0, 'state': 'normal', 'yaw': 0.14, 'datetime': '2018-10-03 16:58:36.333727', 'mgs': 0, 'volt': 1.0156, 'depth': 3.369, 'time': 2, 'pitch': -7.44, 'roll': 0.41, 'pres': 208}
{'lipoC2': 0.0, 'lipoC3S1': 3.97, 'temp': 26.13, 'lipoC3S3': 12.04, 'lipoC3S2': 7.94, 'rot1': 0, 'rot0': 0, 'rot3': 0, 'rot2': 0, 'state': 'normal', 'yaw': 0.14, 'datetime': '2018-10-03 16:58:36.343363', 'mgs': 0, 'volt': 1.0156, 'depth': 3.369, 'time': 2, 'pitch': -7.5, 'roll': 0.4, 'pres': 208}
{'lipoC2': 0.0, 'lipoC3S1': 3.97, 'temp': 26.13, 'lipoC3S3': 12.04, 'lipoC3S2': 7.94, 'rot1': 0, 'rot0': 0, 'rot3': 0, 'rot2': 0, 'state': 'normal', 'yaw': 0.14, 'datetime': '2018-10-03 16:58:36.352920', 'mgs': 0, 'volt': 1.0156, 'depth': 3.369, 'time': 2, 'pitch': -7.5, 'roll': 0.42, 'pres': 208}
{'lipoC2': 0.0, 'lipoC3S1': 3.97, 'temp': 26.13, 'lipoC3S3': 12.04, 'lipoC3S2': 7.94, 'rot1': 0, 'rot0': 0, 'rot3': 0, 'rot2': 0, 'state': 'normal', 'yaw': 0.14, 'datetime': '2018-10-03 16:58:36.362541', 'mgs': 0, 'volt': 1.0156, 'depth': 3.369, 'time': 2, 'pitch': -7.5, 'roll': 0.49, 'pres': 208}
{'lipoC2': 0.0, 'lipoC3S1': 3.97, 'temp': 26.13, 'lipoC3S3': 12.04, 'lipoC3S2': 7.94, 'rot1': 0, 'rot0': 0, 'rot3': 0, 'rot2': 0, 'state': 'normal', 'yaw': 0.2, 'datetime': '2018-10-03 16:58:36.374115', 'mgs': 0, 'volt': 1.0156, 'depth': 3.369, 'time': 2, 'pitch': -7.5, 'roll': 0.51, 'pres': 208}
{'lipoC2': 0.0, 'lipoC3S1': 3.97, 'temp': 26.06, 'lipoC3S3': 12.04, 'lipoC3S2': 7.94, 'rot1': 0, 'rot0': 0, 'rot3': 0, 'rot2': 0, 'state': 'normal', 'yaw': 0.29, 'datetime': '2018-10-03 16:58:36.390082', 'mgs': 0, 'volt': 1.0156, 'depth': 3.369, 'time': 2, 'pitch': -7.54, 'roll': 0.51, 'pres': 208}
{'lipoC2': 0.0, 'lipoC3S1': 3.97, 'temp': 26.06, 'lipoC3S3': 12.04, 'lipoC3S2': 7.94, 'rot1': 0, 'rot0': 0, 'rot3': 0, 'rot2': 0, 'state': 'normal', 'yaw': 0.42, 'datetime': '2018-10-03 16:58:36.493014', 'mgs': 0, 'volt': 1.0205, 'depth': 3.445, 'time': 2, 'pitch': -7.61, 'roll': 0.5, 'pres': 209}
{'lipoC2': 0.0, 'lipoC3S1': 3.97, 'temp': 26.06, 'lipoC3S3': 12.04, 'lipoC3S2': 7.94, 'rot1': 0, 'rot0': 0, 'rot3': 0, 'rot2': 0, 'state': 'normal', 'yaw': 0.56, 'datetime': '2018-10-03 16:58:36.596377', 'mgs': 0, 'volt': 1.0156, 'depth': 3.369, 'time': 2, 'pitch': -7.71, 'roll': 0.48, 'pres': 208}
{'lipoC2': 0.0, 'lipoC3S1': 3.97, 'temp': 26.06, 'lipoC3S3': 12.04, 'lipoC3S2': 7.94, 'rot1': 0, 'rot0': 0, 'rot3': 0, 'rot2': 0, 'state': 'normal', 'yaw': 0.73, 'datetime': '2018-10-03 16:58:36.699515', 'mgs': 0, 'volt': 1.0156, 'depth': 3.369, 'time': 3, 'pitch': -7.82, 'roll': 0.46, 'pres': 208}
{'lipoC2': 0.0, 'lipoC3S1': 3.97, 'temp': 26.06, 'lipoC3S3': 12.04, 'lipoC3S2': 7.94, 'rot1': 0, 'rot0': 0, 'rot3': 0, 'rot2': 0, 'state': 'normal', 'yaw': 0.89, 'datetime': '2018-10-03 16:58:36.802649', 'mgs': 0, 'volt': 1.0156, 'depth': 3.369, 'time': 3, 'pitch': -7.92, 'roll': 0.44, 'pres': 208}
{'lipoC2': 0.0, 'lipoC3S1': 3.97, 'temp': 26.13, 'lipoC3S3': 12.04, 'lipoC3S2': 7.94, 'rot1': 0, 'rot0': 0, 'rot3': 0, 'rot2': 0, 'state': 'normal', 'yaw': 1.06, 'datetime': '2018-10-03 16:58:36.905828', 'mgs': 0, 'volt': 1.0156, 'depth': 3.369, 'time': 3, 'pitch': -7.99, 'roll': 0.41, 'pres': 208}
{'lipoC2': 0.0, 'lipoC3S1': 3.97, 'temp': 26.13, 'lipoC3S3': 12.04, 'lipoC3S2': 7.94, 'rot1': 0, 'rot0': 0, 'rot3': 0, 'rot2': 0, 'state': 'normal', 'yaw': 1.26, 'datetime': '2018-10-03 16:58:37.019161', 'mgs': 0, 'volt': 1.0156, 'depth': 3.369, 'time': 3, 'pitch': -8.0, 'roll': 0.4, 'pres': 208}
{'lipoC2': 0.0, 'lipoC3S1': 3.97, 'temp': 26.13, 'lipoC3S3': 12.04, 'lipoC3S2': 7.94, 'rot1': 0, 'rot0': 0, 'rot3': 0, 'rot2': 0, 'state': 'normal', 'yaw': 1.43, 'datetime': '2018-10-03 16:58:37.122254', 'mgs': 0, 'volt': 1.0156, 'depth': 3.369, 'time': 3, 'pitch': -8.0, 'roll': 0.44, 'pres': 208}
{'lipoC2': 0.0, 'lipoC3S1': 3.97, 'temp': 26.13, 'lipoC3S3': 12.04, 'lipoC3S2': 7.94, 'rot1': 0, 'rot0': 0, 'rot3': 0, 'rot2': 0, 'state': 'normal', 'yaw': 1.63, 'datetime': '2018-10-03 16:58:37.226868', 'mgs': 0, 'volt': 1.0205, 'depth': 3.445, 'time': 3, 'pitch': -8.0, 'roll': 0.44, 'pres': 209}
{'lipoC2': 0.0, 'lipoC3S1': 3.97, 'temp': 26.13, 'lipoC3S3': 12.04, 'lipoC3S2': 7.94, 'rot1': 0, 'rot0': 0, 'rot3': 0, 'rot2': 0, 'state': 'normal', 'yaw': 1.85, 'datetime': '2018-10-03 16:58:37.333084', 'mgs': 0, 'volt': 1.0205, 'depth': 3.445, 'time': 3, 'pitch': -8.0, 'roll': 0.45, 'pres': 209}
{'lipoC2': 0.0, 'lipoC3S1': 3.97, 'temp': 26.13, 'lipoC3S3': 12.04, 'lipoC3S2': 7.94, 'rot1': 0, 'rot0': 0, 'rot3': 0, 'rot2': 0, 'state': 'normal', 'yaw': 2.05, 'datetime': '2018-10-03 16:58:37.432944', 'mgs': 0, 'volt': 1.0205, 'depth': 3.445, 'time': 3, 'pitch': -8.01, 'roll': 0.45, 'pres': 209}
{'lipoC2': 0.0, 'lipoC3S1': 3.97, 'temp': 26.13, 'lipoC3S3': 12.04, 'lipoC3S2': 7.94, 'rot1': 0, 'rot0': 0, 'rot3': 0, 'rot2': 0, 'state': 'normal', 'yaw': 2.27, 'datetime': '2018-10-03 16:58:37.537429', 'mgs': 0, 'volt': 1.0205, 'depth': 3.445, 'time': 3, 'pitch': -8.01, 'roll': 0.47, 'pres': 209}
{'lipoC2': 0.0, 'lipoC3S1': 3.97, 'temp': 26.06, 'lipoC3S3': 12.04, 'lipoC3S2': 7.94, 'rot1': 0, 'rot0': 0, 'rot3': 0, 'rot2': 0, 'state': 'normal', 'yaw': 2.49, 'datetime': '2018-10-03 16:58:37.640554', 'mgs': 0, 'volt': 1.0205, 'depth': 3.445, 'time': 3, 'pitch': -8.01, 'roll': 0.47, 'pres': 209}
{'lipoC2': 0.0, 'lipoC3S1': 3.97, 'temp': 26.06, 'lipoC3S3': 12.04, 'lipoC3S2': 7.94, 'rot1': 0, 'rot0': 0, 'rot3': 0, 'rot2': 0, 'state': 'normal', 'yaw': 2.71, 'datetime': '2018-10-03 16:58:37.743706', 'mgs': 0, 'volt': 1.0205, 'depth': 3.445, 'time': 4, 'pitch': -8.02, 'roll': 0.44, 'pres': 209}
{'lipoC2': 0.0, 'lipoC3S1': 3.97, 'temp': 26.13, 'lipoC3S3': 12.04, 'lipoC3S2': 7.94, 'rot1': 0, 'rot0': 0, 'rot3': 0, 'rot2': 0, 'state': 'normal', 'yaw': 2.9, 'datetime': '2018-10-03 16:58:37.848057', 'mgs': 0, 'volt': 1.0205, 'depth': 3.445, 'time': 4, 'pitch': -8.05, 'roll': 0.42, 'pres': 209}
{'lipoC2': 0.0, 'lipoC3S1': 3.97, 'temp': 26.13, 'lipoC3S3': 12.05, 'lipoC3S2': 7.94, 'rot1': 0, 'rot0': 0, 'rot3': 0, 'rot2': 0, 'state': 'normal', 'yaw': 3.09, 'datetime': '2018-10-03 16:58:37.951539', 'mgs': 0, 'volt': 1.0205, 'depth': 3.445, 'time': 4, 'pitch': -8.15, 'roll': 0.41, 'pres': 209}
{'lipoC2': 0.0, 'lipoC3S1': 3.97, 'temp': 26.13, 'lipoC3S3': 12.05, 'lipoC3S2': 7.94, 'rot1': 0, 'rot0': 0, 'rot3': 0, 'rot2': 0, 'state': 'normal', 'yaw': 3.25, 'datetime': '2018-10-03 16:58:38.054635', 'mgs': 0, 'volt': 1.0205, 'depth': 3.445, 'time': 4, 'pitch': -8.24, 'roll': 0.38, 'pres': 209}
{'lipoC2': 0.0, 'lipoC3S1': 3.97, 'temp': 26.13, 'lipoC3S3': 12.04, 'lipoC3S2': 7.94, 'rot1': 0, 'rot0': 0, 'rot3': 0, 'rot2': 0, 'state': 'normal', 'yaw': 3.4, 'datetime': '2018-10-03 16:58:38.157759', 'mgs': 0, 'volt': 1.0205, 'depth': 3.445, 'time': 4, 'pitch': -8.35, 'roll': 0.36, 'pres': 209}
{'lipoC2': 0.0, 'lipoC3S1': 3.97, 'temp': 26.13, 'lipoC3S3': 12.04, 'lipoC3S2': 7.94, 'rot1': 0, 'rot0': 0, 'rot3': 0, 'rot2': 0, 'state': 'normal', 'yaw': 3.55, 'datetime': '2018-10-03 16:58:38.261093', 'mgs': 0, 'volt': 1.0205, 'depth': 3.445, 'time': 4, 'pitch': -8.46, 'roll': 0.35, 'pres': 209}
{'lipoC2': 0.0, 'lipoC3S1': 3.97, 'temp': 26.13, 'lipoC3S3': 12.04, 'lipoC3S2': 7.94, 'rot1': 0, 'rot0': 0, 'rot3': 0, 'rot2': 0, 'state': 'normal', 'yaw': 3.69, 'datetime': '2018-10-03 16:58:38.364519', 'mgs': 0, 'volt': 1.0205, 'depth': 3.445, 'time': 4, 'pitch': -8.6, 'roll': 0.32, 'pres': 209}
{'lipoC2': 0.0, 'lipoC3S1': 3.97, 'temp': 26.13, 'lipoC3S3': 12.04, 'lipoC3S2': 7.94, 'rot1': 0, 'rot0': 0, 'rot3': 0, 'rot2': 0, 'state': 'normal', 'yaw': 3.79, 'datetime': '2018-10-03 16:58:38.467362', 'mgs': 0, 'volt': 1.0205, 'depth': 3.445, 'time': 4, 'pitch': -8.74, 'roll': 0.31, 'pres': 209}
{'lipoC2': 0.0, 'lipoC3S1': 3.97, 'temp': 26.13, 'lipoC3S3': 12.05, 'lipoC3S2': 7.94, 'rot1': 0, 'rot0': 0, 'rot3': 0, 'rot2': 0, 'state': 'normal', 'yaw': 3.89, 'datetime': '2018-10-03 16:58:38.570481', 'mgs': 0, 'volt': 1.0205, 'depth': 3.445, 'time': 4, 'pitch': -8.9, 'roll': 0.29, 'pres': 209}
{'lipoC2': 0.0, 'lipoC3S1': 3.97, 'temp': 26.13, 'lipoC3S3': 12.05, 'lipoC3S2': 7.94, 'rot1': 0, 'rot0': 0, 'rot3': 0, 'rot2': 0, 'state': 'normal', 'yaw': 3.99, 'datetime': '2018-10-03 16:58:38.673721', 'mgs': 0, 'volt': 1.0205, 'depth': 3.445, 'time': 4, 'pitch': -9.07, 'roll': 0.28, 'pres': 209}
{'lipoC2': 0.0, 'lipoC3S1': 3.97, 'temp': 26.13, 'lipoC3S3': 12.04, 'lipoC3S2': 7.94, 'rot1': 0, 'rot0': 0, 'rot3': 0, 'rot2': 0, 'state': 'normal', 'yaw': 4.1, 'datetime': '2018-10-03 16:58:38.776726', 'mgs': 0, 'volt': 1.0156, 'depth': 3.369, 'time': 5, 'pitch': -9.18, 'roll': 0.26, 'pres': 208}
{'lipoC2': 0.0, 'lipoC3S1': 3.97, 'temp': 26.13, 'lipoC3S3': 12.05, 'lipoC3S2': 7.94, 'rot1': 0, 'rot0': 0, 'rot3': 0, 'rot2': 0, 'state': 'normal', 'yaw': 4.22, 'datetime': '2018-10-03 16:58:38.881582', 'mgs': 0, 'volt': 1.0205, 'depth': 3.445, 'time': 5, 'pitch': -9.21, 'roll': 0.26, 'pres': 209}
{'lipoC2': 0.0, 'lipoC3S1': 3.97, 'temp': 26.13, 'lipoC3S3': 12.04, 'lipoC3S2': 7.94, 'rot1': 0, 'rot0': 0, 'rot3': 0, 'rot2': 0, 'state': 'normal', 'yaw': 4.37, 'datetime': '2018-10-03 16:58:38.984309', 'mgs': 0, 'volt': 1.0156, 'depth': 3.369, 'time': 5, 'pitch': -9.21, 'roll': 0.32, 'pres': 208}
{'lipoC2': 0.0, 'lipoC3S1': 3.97, 'temp': 26.13, 'lipoC3S3': 12.05, 'lipoC3S2': 7.94, 'rot1': 0, 'rot0': 0, 'rot3': 0, 'rot2': 0, 'state': 'normal', 'yaw': 4.51, 'datetime': '2018-10-03 16:58:39.087545', 'mgs': 0, 'volt': 1.0156, 'depth': 3.369, 'time': 5, 'pitch': -9.15, 'roll': 0.38, 'pres': 208}
{'lipoC2': 0.0, 'lipoC3S1': 3.97, 'temp': 26.13, 'lipoC3S3': 12.05, 'lipoC3S2': 7.94, 'rot1': 0, 'rot0': 0, 'rot3': 0, 'rot2': 0, 'state': 'normal', 'yaw': 4.65, 'datetime': '2018-10-03 16:58:39.191841', 'mgs': 0, 'volt': 1.0156, 'depth': 3.369, 'time': 5, 'pitch': -9.07, 'roll': 0.43, 'pres': 208}
{'lipoC2': 0.0, 'lipoC3S1': 3.97, 'temp': 26.13, 'lipoC3S3': 12.05, 'lipoC3S2': 7.94, 'rot1': 0, 'rot0': 0, 'rot3': 0, 'rot2': 0, 'state': 'normal', 'yaw': 4.84, 'datetime': '2018-10-03 16:58:39.294948', 'mgs': 0, 'volt': 1.0156, 'depth': 3.369, 'time': 5, 'pitch': -9.01, 'roll': 0.49, 'pres': 208}
{'lipoC2': 0.0, 'lipoC3S1': 3.97, 'temp': 26.13, 'lipoC3S3': 12.05, 'lipoC3S2': 7.94, 'rot1': 0, 'rot0': 0, 'rot3': 0, 'rot2': 0, 'state': 'normal', 'yaw': 5.02, 'datetime': '2018-10-03 16:58:39.398452', 'mgs': 0, 'volt': 1.0156, 'depth': 3.369, 'time': 5, 'pitch': -8.99, 'roll': 0.47, 'pres': 208}
{'lipoC2': 0.0, 'lipoC3S1': 3.97, 'temp': 26.13, 'lipoC3S3': 12.05, 'lipoC3S2': 7.94, 'rot1': 0, 'rot0': 0, 'rot3': 0, 'rot2': 0, 'state': 'normal', 'yaw': 5.15, 'datetime': '2018-10-03 16:58:39.502630', 'mgs': 0, 'volt': 1.0156, 'depth': 3.369, 'time': 5, 'pitch': -8.99, 'roll': 0.49, 'pres': 208}
{'lipoC2': 0.0, 'lipoC3S1': 3.97, 'temp': 26.13, 'lipoC3S3': 12.05, 'lipoC3S2': 7.94, 'rot1': 0, 'rot0': 0, 'rot3': 0, 'rot2': 0, 'state': 'normal', 'yaw': 5.27, 'datetime': '2018-10-03 16:58:39.605958', 'mgs': 0, 'volt': 1.0156, 'depth': 3.369, 'time': 5, 'pitch': -8.99, 'roll': 0.5, 'pres': 208}
{'lipoC2': 0.0, 'lipoC3S1': 3.97, 'temp': 26.13, 'lipoC3S3': 12.05, 'lipoC3S2': 7.94, 'rot1': 0, 'rot0': 0, 'rot3': 0, 'rot2': 0, 'state': 'normal', 'yaw': 5.32, 'datetime': '2018-10-03 16:58:39.709084', 'mgs': 0, 'volt': 1.0156, 'depth': 3.369, 'time': 6, 'pitch': -8.99, 'roll': 0.5, 'pres': 208}
{'lipoC2': 0.0, 'lipoC3S1': 3.97, 'temp': 26.13, 'lipoC3S3': 12.05, 'lipoC3S2': 7.94, 'rot1': 0, 'rot0': 0, 'rot3': 0, 'rot2': 0, 'state': 'normal', 'yaw': 5.32, 'datetime': '2018-10-03 16:58:39.812397', 'mgs': 0, 'volt': 1.0156, 'depth': 3.369, 'time': 6, 'pitch': -8.99, 'roll': 0.5, 'pres': 208}
{'lipoC2': 0.0, 'lipoC3S1': 3.97, 'temp': 26.13, 'lipoC3S3': 12.05, 'lipoC3S2': 7.95, 'rot1': 0, 'rot0': 0, 'rot3': 0, 'rot2': 0, 'state': 'normal', 'yaw': 5.32, 'datetime': '2018-10-03 16:58:39.916115', 'mgs': 0, 'volt': 1.0156, 'depth': 3.369, 'time': 6, 'pitch': -8.99, 'roll': 0.5, 'pres': 208}
{'lipoC2': 0.0, 'lipoC3S1': 3.97, 'temp': 26.13, 'lipoC3S3': 12.05, 'lipoC3S2': 7.94, 'rot1': 0, 'rot0': 0, 'rot3': 0, 'rot2': 0, 'state': 'normal', 'yaw': 5.37, 'datetime': '2018-10-03 16:58:40.019225', 'mgs': 0, 'volt': 1.0156, 'depth': 3.369, 'time': 6, 'pitch': -8.99, 'roll': 0.5, 'pres': 208}
{'lipoC2': 0.0, 'lipoC3S1': 3.97, 'temp': 26.13, 'lipoC3S3': 12.05, 'lipoC3S2': 7.94, 'rot1': 0, 'rot0': 0, 'rot3': 0, 'rot2': 0, 'state': 'normal', 'yaw': 5.43, 'datetime': '2018-10-03 16:58:40.123652', 'mgs': 0, 'volt': 1.0156, 'depth': 3.369, 'time': 6, 'pitch': -9.06, 'roll': 0.52, 'pres': 208}
{'lipoC2': 0.0, 'lipoC3S1': 3.97, 'temp': 26.13, 'lipoC3S3': 12.05, 'lipoC3S2': 7.94, 'rot1': 0, 'rot0': 0, 'rot3': 0, 'rot2': 0, 'state': 'normal', 'yaw': 5.5, 'datetime': '2018-10-03 16:58:40.227130', 'mgs': 0, 'volt': 1.0156, 'depth': 3.369, 'time': 6, 'pitch': -9.15, 'roll': 0.51, 'pres': 208}
{'lipoC2': 0.0, 'lipoC3S1': 3.97, 'temp': 26.13, 'lipoC3S3': 12.05, 'lipoC3S2': 7.95, 'rot1': 0, 'rot0': 0, 'rot3': 0, 'rot2': 0, 'state': 'normal', 'yaw': 5.59, 'datetime': '2018-10-03 16:58:40.333963', 'mgs': 0, 'volt': 1.0156, 'depth': 3.369, 'time': 6, 'pitch': -9.27, 'roll': 0.51, 'pres': 208}
{'lipoC2': 0.0, 'lipoC3S1': 3.97, 'temp': 26.13, 'lipoC3S3': 12.05, 'lipoC3S2': 7.94, 'rot1': 0, 'rot0': 0, 'rot3': 0, 'rot2': 0, 'state': 'normal', 'yaw': 5.69, 'datetime': '2018-10-03 16:58:40.434780', 'mgs': 0, 'volt': 1.0205, 'depth': 3.445, 'time': 6, 'pitch': -9.36, 'roll': 0.51, 'pres': 209}
{'lipoC2': 0.0, 'lipoC3S1': 3.97, 'temp': 26.13, 'lipoC3S3': 12.05, 'lipoC3S2': 7.95, 'rot1': 0, 'rot0': 0, 'rot3': 0, 'rot2': 0, 'state': 'normal', 'yaw': 5.81, 'datetime': '2018-10-03 16:58:40.538293', 'mgs': 0, 'volt': 1.0156, 'depth': 3.369, 'time': 6, 'pitch': -9.42, 'roll': 0.48, 'pres': 208}
{'lipoC2': 0.0, 'lipoC3S1': 3.97, 'temp': 26.13, 'lipoC3S3': 12.05, 'lipoC3S2': 7.95, 'rot1': 0, 'rot0': 0, 'rot3': 0, 'rot2': 0, 'state': 'normal', 'yaw': 5.94, 'datetime': '2018-10-03 16:58:40.641492', 'mgs': 0, 'volt': 1.0156, 'depth': 3.369, 'time': 6, 'pitch': -9.42, 'roll': 0.49, 'pres': 208}
{'lipoC2': 0.0, 'lipoC3S1': 3.97, 'temp': 26.13, 'lipoC3S3': 12.05, 'lipoC3S2': 7.94, 'rot1': 0, 'rot0': 0, 'rot3': 0, 'rot2': 0, 'state': 'normal', 'yaw': 6.08, 'datetime': '2018-10-03 16:58:40.745849', 'mgs': 0, 'volt': 1.0205, 'depth': 3.445, 'time': 7, 'pitch': -9.42, 'roll': 0.48, 'pres': 209}
{'lipoC2': 0.0, 'lipoC3S1': 3.97, 'temp': 26.13, 'lipoC3S3': 12.05, 'lipoC3S2': 7.94, 'rot1': 0, 'rot0': 0, 'rot3': 0, 'rot2': 0, 'state': 'normal', 'yaw': 6.26, 'datetime': '2018-10-03 16:58:40.849375', 'mgs': 0, 'volt': 1.0205, 'depth': 3.445, 'time': 7, 'pitch': -9.31, 'roll': 0.48, 'pres': 209}
{'lipoC2': 0.0, 'lipoC3S1': 3.97, 'temp': 26.13, 'lipoC3S3': 12.05, 'lipoC3S2': 7.95, 'rot1': 0, 'rot0': 0, 'rot3': 0, 'rot2': 0, 'state': 'normal', 'yaw': 6.51, 'datetime': '2018-10-03 16:58:40.952991', 'mgs': 0, 'volt': 1.0205, 'depth': 3.445, 'time': 7, 'pitch': -8.75, 'roll': 0.47, 'pres': 209}
{'lipoC2': 0.0, 'lipoC3S1': 3.97, 'temp': 26.06, 'lipoC3S3': 12.05, 'lipoC3S2': 7.95, 'rot1': 0, 'rot0': 0, 'rot3': 0, 'rot2': 0, 'state': 'normal', 'yaw': 6.77, 'datetime': '2018-10-03 16:58:41.047154', 'mgs': 0, 'volt': 1.0205, 'depth': 3.445, 'time': 7, 'pitch': -8.11, 'roll': 0.48, 'pres': 209}
{'lipoC2': 0.0, 'lipoC3S1': 3.97, 'temp': 26.06, 'lipoC3S3': 12.05, 'lipoC3S2': 7.95, 'rot1': 0, 'rot0': 0, 'rot3': 0, 'rot2': 0, 'state': 'normal', 'yaw': 7.09, 'datetime': '2018-10-03 16:58:41.154694', 'mgs': 0, 'volt': 1.0205, 'depth': 3.445, 'time': 7, 'pitch': -7.6, 'roll': 0.44, 'pres': 209}
{'lipoC2': 0.0, 'lipoC3S1': 3.97, 'temp': 26.13, 'lipoC3S3': 12.05, 'lipoC3S2': 7.95, 'rot1': 0, 'rot0': 0, 'rot3': 0, 'rot2': 0, 'state': 'normal', 'yaw': 7.53, 'datetime': '2018-10-03 16:58:41.259559', 'mgs': 0, 'volt': 1.0254, 'depth': 3.522, 'time': 7, 'pitch': -7.46, 'roll': 0.36, 'pres': 210}
{'lipoC2': 0.0, 'lipoC3S1': 3.97, 'temp': 26.13, 'lipoC3S3': 12.05, 'lipoC3S2': 7.95, 'rot1': 0, 'rot0': 0, 'rot3': 0, 'rot2': 0, 'state': 'normal', 'yaw': 8.04, 'datetime': '2018-10-03 16:58:41.362768', 'mgs': 0, 'volt': 1.0205, 'depth': 3.445, 'time': 7, 'pitch': -7.76, 'roll': 0.25, 'pres': 209}
{'lipoC2': 0.0, 'lipoC3S1': 3.97, 'temp': 26.06, 'lipoC3S3': 12.05, 'lipoC3S2': 7.95, 'rot1': 0, 'rot0': 0, 'rot3': 0, 'rot2': 0, 'state': 'normal', 'yaw': 8.37, 'datetime': '2018-10-03 16:58:41.459578', 'mgs': 0, 'volt': 1.0205, 'depth': 3.445, 'time': 7, 'pitch': -8.41, 'roll': 0.2, 'pres': 209}
{'lipoC2': 0.0, 'lipoC3S1': 3.97, 'temp': 26.06, 'lipoC3S3': 12.05, 'lipoC3S2': 7.95, 'rot1': 0, 'rot0': 0, 'rot3': 0, 'rot2': 0, 'state': 'normal', 'yaw': 8.38, 'datetime': '2018-10-03 16:58:41.562714', 'mgs': 0, 'volt': 1.0156, 'depth': 3.369, 'time': 7, 'pitch': -9.53, 'roll': 0.27, 'pres': 208}
{'lipoC2': 0.0, 'lipoC3S1': 3.97, 'temp': 26.06, 'lipoC3S3': 12.05, 'lipoC3S2': 7.95, 'rot1': 0, 'rot0': 0, 'rot3': 0, 'rot2': 0, 'state': 'normal', 'yaw': 8.46, 'datetime': '2018-10-03 16:58:41.665835', 'mgs': 0, 'volt': 1.0156, 'depth': 3.369, 'time': 7, 'pitch': -11.08, 'roll': 0.26, 'pres': 208}
{'lipoC2': 0.0, 'lipoC3S1': 3.97, 'temp': 26.06, 'lipoC3S3': 12.05, 'lipoC3S2': 7.94, 'rot1': 0, 'rot0': 0, 'rot3': 0, 'rot2': 0, 'state': 'normal', 'yaw': 8.68, 'datetime': '2018-10-03 16:58:41.768990', 'mgs': 0, 'volt': 1.0156, 'depth': 3.369, 'time': 8, 'pitch': -12.34, 'roll': 0.17, 'pres': 208}
{'lipoC2': 0.0, 'lipoC3S1': 3.97, 'temp': 26.06, 'lipoC3S3': 12.05, 'lipoC3S2': 7.94, 'rot1': 0, 'rot0': 0, 'rot3': 0, 'rot2': 0, 'state': 'normal', 'yaw': 8.78, 'datetime': '2018-10-03 16:58:41.872500', 'mgs': 0, 'volt': 1.0156, 'depth': 3.369, 'time': 8, 'pitch': -12.42, 'roll': 0.14, 'pres': 208}
{'lipoC2': 0.0, 'lipoC3S1': 3.97, 'temp': 26.13, 'lipoC3S3': 12.05, 'lipoC3S2': 7.95, 'rot1': 0, 'rot0': 0, 'rot3': 0, 'rot2': 0, 'state': 'normal', 'yaw': 8.68, 'datetime': '2018-10-03 16:58:41.975606', 'mgs': 0, 'volt': 1.0156, 'depth': 3.369, 'time': 8, 'pitch': -12.34, 'roll': 0.25, 'pres': 208}
{'lipoC2': 0.0, 'lipoC3S1': 3.97, 'temp': 26.13, 'lipoC3S3': 12.05, 'lipoC3S2': 7.95, 'rot1': 0, 'rot0': 0, 'rot3': 0, 'rot2': 0, 'state': 'normal', 'yaw': 8.42, 'datetime': '2018-10-03 16:58:42.079750', 'mgs': 0, 'volt': 1.0107, 'depth': 3.293, 'time': 8, 'pitch': -12.39, 'roll': 0.41, 'pres': 207}
{'lipoC2': 0.0, 'lipoC3S1': 3.97, 'temp': 26.06, 'lipoC3S3': 12.05, 'lipoC3S2': 7.94, 'rot1': 0, 'rot0': 0, 'rot3': 0, 'rot2': 0, 'state': 'normal', 'yaw': 7.99, 'datetime': '2018-10-03 16:58:42.183601', 'mgs': 0, 'volt': 1.0107, 'depth': 3.293, 'time': 8, 'pitch': -12.71, 'roll': 0.68, 'pres': 207}
{'lipoC2': 0.0, 'lipoC3S1': 3.97, 'temp': 26.06, 'lipoC3S3': 12.05, 'lipoC3S2': 7.94, 'rot1': 0, 'rot0': 0, 'rot3': 0, 'rot2': 0, 'state': 'normal', 'yaw': 7.84, 'datetime': '2018-10-03 16:58:42.286728', 'mgs': 0, 'volt': 1.0107, 'depth': 3.293, 'time': 8, 'pitch': -12.69, 'roll': 0.81, 'pres': 207}
{'lipoC2': 0.0, 'lipoC3S1': 3.97, 'temp': 26.06, 'lipoC3S3': 12.05, 'lipoC3S2': 7.94, 'rot1': 0, 'rot0': 0, 'rot3': 0, 'rot2': 0, 'state': 'normal', 'yaw': 7.73, 'datetime': '2018-10-03 16:58:42.391189', 'mgs': 0, 'volt': 1.0107, 'depth': 3.293, 'time': 8, 'pitch': -12.85, 'roll': 0.92, 'pres': 207}
{'lipoC2': 0.0, 'lipoC3S1': 3.97, 'temp': 26.19, 'lipoC3S3': 12.05, 'lipoC3S2': 7.95, 'rot1': 0, 'rot0': 0, 'rot3': 0, 'rot2': 0, 'state': 'normal', 'yaw': 7.34, 'datetime': '2018-10-03 16:58:42.494319', 'mgs': 0, 'volt': 1.0059, 'depth': 3.217, 'time': 8, 'pitch': -13.72, 'roll': 1.22, 'pres': 206}
{'lipoC2': 0.0, 'lipoC3S1': 3.97, 'temp': 26.19, 'lipoC3S3': 12.05, 'lipoC3S2': 7.95, 'rot1': 0, 'rot0': 0, 'rot3': 0, 'rot2': 0, 'state': 'normal', 'yaw': 7.21, 'datetime': '2018-10-03 16:58:42.597554', 'mgs': 0, 'volt': 1.0059, 'depth': 3.217, 'time': 8, 'pitch': -14.3, 'roll': 1.36, 'pres': 206}
{'lipoC2': 0.0, 'lipoC3S1': 3.97, 'temp': 26.19, 'lipoC3S3': 12.05, 'lipoC3S2': 7.95, 'rot1': 0, 'rot0': 0, 'rot3': 0, 'rot2': 0, 'state': 'normal', 'yaw': 7.33, 'datetime': '2018-10-03 16:58:42.702102', 'mgs': 0, 'volt': 1.001, 'depth': 3.14, 'time': 9, 'pitch': -15.17, 'roll': 1.3, 'pres': 205}
{'lipoC2': 0.0, 'lipoC3S1': 3.97, 'temp': 26.19, 'lipoC3S3': 12.05, 'lipoC3S2': 7.94, 'rot1': 0, 'rot0': 0, 'rot3': 0, 'rot2': 0, 'state': 'normal', 'yaw': 6.96, 'datetime': '2018-10-03 16:58:42.805276', 'mgs': 0, 'volt': 1.001, 'depth': 3.14, 'time': 9, 'pitch': -16.08, 'roll': 1.66, 'pres': 205}
{'lipoC2': 0.0, 'lipoC3S1': 3.97, 'temp': 26.13, 'lipoC3S3': 12.05, 'lipoC3S2': 7.95, 'rot1': 0, 'rot0': 0, 'rot3': 0, 'rot2': 0, 'state': 'normal', 'yaw': 5.91, 'datetime': '2018-10-03 16:58:42.908491', 'mgs': 0, 'volt': 1.001, 'depth': 3.14, 'time': 9, 'pitch': -16.02, 'roll': 2.48, 'pres': 205}
{'lipoC2': 0.0, 'lipoC3S1': 3.97, 'temp': 26.13, 'lipoC3S3': 12.05, 'lipoC3S2': 7.95, 'rot1': 0, 'rot0': 0, 'rot3': 0, 'rot2': 0, 'state': 'normal', 'yaw': 4.48, 'datetime': '2018-10-03 16:58:43.011726', 'mgs': 0, 'volt': 1.001, 'depth': 3.14, 'time': 9, 'pitch': -15.12, 'roll': 3.47, 'pres': 205}
{'lipoC2': 0.0, 'lipoC3S1': 3.97, 'temp': 26.13, 'lipoC3S3': 12.05, 'lipoC3S2': 7.95, 'rot1': 0, 'rot0': 0, 'rot3': 0, 'rot2': 0, 'state': 'normal', 'yaw': 2.75, 'datetime': '2018-10-03 16:58:43.115172', 'mgs': 0, 'volt': 1.001, 'depth': 3.14, 'time': 9, 'pitch': -14.39, 'roll': 4.47, 'pres': 205}
{'lipoC2': 0.0, 'lipoC3S1': 3.97, 'temp': 26.19, 'lipoC3S3': 12.05, 'lipoC3S2': 7.95, 'rot1': 0, 'rot0': 0, 'rot3': 0, 'rot2': 0, 'state': 'normal', 'yaw': 0.1, 'datetime': '2018-10-03 16:58:43.218399', 'mgs': 0, 'volt': 1.001, 'depth': 3.14, 'time': 9, 'pitch': -14.37, 'roll': 5.71, 'pres': 205}
{'lipoC2': 0.0, 'lipoC3S1': 3.97, 'temp': 26.19, 'lipoC3S3': 12.05, 'lipoC3S2': 7.95, 'rot1': 0, 'rot0': 0, 'rot3': 0, 'rot2': 0, 'state': 'normal', 'yaw': -2.8, 'datetime': '2018-10-03 16:58:43.327044', 'mgs': 0, 'volt': 1.001, 'depth': 3.14, 'time': 9, 'pitch': -14.83, 'roll': 6.8, 'pres': 205}
{'lipoC2': 0.0, 'lipoC3S1': 3.97, 'temp': 26.19, 'lipoC3S3': 12.05, 'lipoC3S2': 7.95, 'rot1': 0, 'rot0': 0, 'rot3': 0, 'rot2': 0, 'state': 'normal', 'yaw': -5.87, 'datetime': '2018-10-03 16:58:43.424873', 'mgs': 0, 'volt': 0.9961, 'depth': 3.064, 'time': 9, 'pitch': -15.52, 'roll': 7.61, 'pres': 204}
{'lipoC2': 0.0, 'lipoC3S1': 3.97, 'temp': 26.19, 'lipoC3S3': 12.05, 'lipoC3S2': 7.94, 'rot1': 0, 'rot0': 0, 'rot3': 0, 'rot2': 0, 'state': 'normal', 'yaw': -9.14, 'datetime': '2018-10-03 16:58:43.528135', 'mgs': 0, 'volt': 0.9961, 'depth': 3.064, 'time': 9, 'pitch': -16.2, 'roll': 7.83, 'pres': 204}
{'lipoC2': 0.0, 'lipoC3S1': 3.97, 'temp': 26.13, 'lipoC3S3': 12.05, 'lipoC3S2': 7.95, 'rot1': 0, 'rot0': 0, 'rot3': 0, 'rot2': 0, 'state': 'normal', 'yaw': -11.88, 'datetime': '2018-10-03 16:58:43.631348', 'mgs': 0, 'volt': 0.9961, 'depth': 3.064, 'time': 9, 'pitch': -16.7, 'roll': 7.42, 'pres': 204}
{'lipoC2': 0.0, 'lipoC3S1': 3.97, 'temp': 26.13, 'lipoC3S3': 12.05, 'lipoC3S2': 7.95, 'rot1': 0, 'rot0': 0, 'rot3': 0, 'rot2': 0, 'state': 'normal', 'yaw': -14.49, 'datetime': '2018-10-03 16:58:43.736030', 'mgs': 0, 'volt': 0.9912, 'depth': 2.988, 'time': 10, 'pitch': -16.89, 'roll': 6.62, 'pres': 203}
{'lipoC2': 0.0, 'lipoC3S1': 3.97, 'temp': 26.13, 'lipoC3S3': 12.05, 'lipoC3S2': 7.95, 'rot1': 0, 'rot0': 0, 'rot3': 0, 'rot2': 0, 'state': 'normal', 'yaw': -17.32, 'datetime': '2018-10-03 16:58:43.839377', 'mgs': 0, 'volt': 0.9912, 'depth': 2.988, 'time': 10, 'pitch': -16.72, 'roll': 5.46, 'pres': 203}
{'lipoC2': 0.0, 'lipoC3S1': 3.97, 'temp': 26.19, 'lipoC3S3': 12.05, 'lipoC3S2': 7.95, 'rot1': 0, 'rot0': 0, 'rot3': 0, 'rot2': 0, 'state': 'normal', 'yaw': -20.09, 'datetime': '2018-10-03 16:58:43.943587', 'mgs': 0, 'volt': 0.9863, 'depth': 2.911, 'time': 10, 'pitch': -16.32, 'roll': 4.41, 'pres': 202}
{'lipoC2': 0.0, 'lipoC3S1': 3.97, 'temp': 26.19, 'lipoC3S3': 12.05, 'lipoC3S2': 7.95, 'rot1': 0, 'rot0': 0, 'rot3': 0, 'rot2': 0, 'state': 'normal', 'yaw': -23.05, 'datetime': '2018-10-03 16:58:44.047735', 'mgs': 0, 'volt': 0.9863, 'depth': 2.911, 'time': 10, 'pitch': -15.75, 'roll': 3.47, 'pres': 202}
{'lipoC2': 0.0, 'lipoC3S1': 3.97, 'temp': 26.13, 'lipoC3S3': 12.05, 'lipoC3S2': 7.95, 'rot1': 0, 'rot0': 0, 'rot3': 0, 'rot2': 0, 'state': 'normal', 'yaw': -26.66, 'datetime': '2018-10-03 16:58:44.151107', 'mgs': 0, 'volt': 0.9863, 'depth': 2.911, 'time': 10, 'pitch': -14.82, 'roll': 2.76, 'pres': 202}
{'lipoC2': 0.0, 'lipoC3S1': 3.97, 'temp': 26.13, 'lipoC3S3': 12.05, 'lipoC3S2': 7.95, 'rot1': 0, 'rot0': 0, 'rot3': 0, 'rot2': 0, 'state': 'normal', 'yaw': -30.13, 'datetime': '2018-10-03 16:58:44.255656', 'mgs': 0, 'volt': 0.9814, 'depth': 2.835, 'time': 10, 'pitch': -13.76, 'roll': 2.41, 'pres': 201}
{'lipoC2': 0.0, 'lipoC3S1': 3.97, 'temp': 26.19, 'lipoC3S3': 12.05, 'lipoC3S2': 7.95, 'rot1': 0, 'rot0': 0, 'rot3': 0, 'rot2': 0, 'state': 'normal', 'yaw': -34.18, 'datetime': '2018-10-03 16:58:44.359352', 'mgs': 0, 'volt': 0.9814, 'depth': 2.835, 'time': 10, 'pitch': -12.79, 'roll': 2.38, 'pres': 201}
{'lipoC2': 0.0, 'lipoC3S1': 3.97, 'temp': 26.19, 'lipoC3S3': 12.05, 'lipoC3S2': 7.95, 'rot1': 0, 'rot0': 0, 'rot3': 0, 'rot2': 0, 'state': 'normal', 'yaw': -38.07, 'datetime': '2018-10-03 16:58:44.462707', 'mgs': 0, 'volt': 0.9814, 'depth': 2.835, 'time': 10, 'pitch': -12.3, 'roll': 2.71, 'pres': 201}
{'lipoC2': 0.0, 'lipoC3S1': 3.97, 'temp': 26.19, 'lipoC3S3': 12.05, 'lipoC3S2': 7.95, 'rot1': 0, 'rot0': 0, 'rot3': 0, 'rot2': 0, 'state': 'normal', 'yaw': -41.89, 'datetime': '2018-10-03 16:58:44.565850', 'mgs': 0, 'volt': 0.9814, 'depth': 2.835, 'time': 10, 'pitch': -12.27, 'roll': 3.14, 'pres': 201}
{'lipoC2': 0.0, 'lipoC3S1': 3.97, 'temp': 26.19, 'lipoC3S3': 12.05, 'lipoC3S2': 7.95, 'rot1': 0, 'rot0': 0, 'rot3': 0, 'rot2': 0, 'state': 'normal', 'yaw': -45.49, 'datetime': '2018-10-03 16:58:44.669345', 'mgs': 0, 'volt': 0.9814, 'depth': 2.835, 'time': 10, 'pitch': -12.32, 'roll': 3.57, 'pres': 201}
{'lipoC2': 0.0, 'lipoC3S1': 3.97, 'temp': 26.19, 'lipoC3S3': 12.05, 'lipoC3S2': 7.95, 'rot1': 0, 'rot0': 0, 'rot3': 0, 'rot2': 0, 'state': 'normal', 'yaw': -49.33, 'datetime': '2018-10-03 16:58:44.772787', 'mgs': 0, 'volt': 0.9766, 'depth': 2.759, 'time': 11, 'pitch': -12.06, 'roll': 4.1, 'pres': 200}
{'lipoC2': 0.0, 'lipoC3S1': 3.97, 'temp': 26.13, 'lipoC3S3': 12.05, 'lipoC3S2': 7.95, 'rot1': 0, 'rot0': 0, 'rot3': 0, 'rot2': 0, 'state': 'normal', 'yaw': -52.55, 'datetime': '2018-10-03 16:58:44.876194', 'mgs': 0, 'volt': 0.9766, 'depth': 2.759, 'time': 11, 'pitch': -11.62, 'roll': 4.49, 'pres': 200}
{'lipoC2': 0.0, 'lipoC3S1': 3.97, 'temp': 26.13, 'lipoC3S3': 12.05, 'lipoC3S2': 7.95, 'rot1': 0, 'rot0': 0, 'rot3': 0, 'rot2': 0, 'state': 'normal', 'yaw': -55.52, 'datetime': '2018-10-03 16:58:44.979251', 'mgs': 0, 'volt': 0.9814, 'depth': 2.835, 'time': 11, 'pitch': -10.95, 'roll': 4.78, 'pres': 201}
{'lipoC2': 0.0, 'lipoC3S1': 3.97, 'temp': 26.13, 'lipoC3S3': 12.05, 'lipoC3S2': 7.95, 'rot1': 0, 'rot0': 0, 'rot3': 0, 'rot2': 0, 'state': 'normal', 'yaw': -58.39, 'datetime': '2018-10-03 16:58:45.082507', 'mgs': 0, 'volt': 0.9814, 'depth': 2.835, 'time': 11, 'pitch': -10.0, 'roll': 4.85, 'pres': 201}
{'lipoC2': 0.0, 'lipoC3S1': 3.97, 'temp': 26.13, 'lipoC3S3': 12.05, 'lipoC3S2': 7.95, 'rot1': 0, 'rot0': 0, 'rot3': 0, 'rot2': 0, 'state': 'normal', 'yaw': -60.83, 'datetime': '2018-10-03 16:58:45.185724', 'mgs': 0, 'volt': 0.9814, 'depth': 2.835, 'time': 11, 'pitch': -9.0, 'roll': 4.79, 'pres': 201}
{'lipoC2': 0.0, 'lipoC3S1': 3.97, 'temp': 26.13, 'lipoC3S3': 12.05, 'lipoC3S2': 7.95, 'rot1': 0, 'rot0': 0, 'rot3': 0, 'rot2': 0, 'state': 'normal', 'yaw': -63.09, 'datetime': '2018-10-03 16:58:45.290287', 'mgs': 0, 'volt': 0.9814, 'depth': 2.835, 'time': 11, 'pitch': -7.76, 'roll': 4.65, 'pres': 201}
{'lipoC2': 0.0, 'lipoC3S1': 3.97, 'temp': 26.19, 'lipoC3S3': 12.05, 'lipoC3S2': 7.95, 'rot1': 0, 'rot0': 0, 'rot3': 0, 'rot2': 0, 'state': 'normal', 'yaw': -65.87, 'datetime': '2018-10-03 16:58:45.393564', 'mgs': 0, 'volt': 0.9814, 'depth': 2.835, 'time': 11, 'pitch': -6.11, 'roll': 4.67, 'pres': 201}
{'lipoC2': 0.0, 'lipoC3S1': 3.97, 'temp': 26.19, 'lipoC3S3': 12.05, 'lipoC3S2': 7.95, 'rot1': 0, 'rot0': 0, 'rot3': 0, 'rot2': 0, 'state': 'normal', 'yaw': -68.83, 'datetime': '2018-10-03 16:58:45.500783', 'mgs': 0, 'volt': 0.9814, 'depth': 2.835, 'time': 11, 'pitch': -5.06, 'roll': 4.93, 'pres': 201}
{'lipoC2': 0.0, 'lipoC3S1': 3.97, 'temp': 26.19, 'lipoC3S3': 12.05, 'lipoC3S2': 7.95, 'rot1': 0, 'rot0': 0, 'rot3': 0, 'rot2': 0, 'state': 'normal', 'yaw': -71.91, 'datetime': '2018-10-03 16:58:45.607962', 'mgs': 0, 'volt': 0.9814, 'depth': 2.835, 'time': 11, 'pitch': -4.82, 'roll': 5.2, 'pres': 201}
{'lipoC2': 0.0, 'lipoC3S1': 3.97, 'temp': 26.19, 'lipoC3S3': 12.05, 'lipoC3S2': 7.95, 'rot1': 0, 'rot0': 0, 'rot3': 0, 'rot2': 0, 'state': 'normal', 'yaw': -75.07, 'datetime': '2018-10-03 16:58:45.711231', 'mgs': 0, 'volt': 0.9814, 'depth': 2.835, 'time': 12, 'pitch': -4.81, 'roll': 5.4, 'pres': 201}
{'lipoC2': 0.0, 'lipoC3S1': 3.97, 'temp': 26.19, 'lipoC3S3': 12.05, 'lipoC3S2': 7.95, 'rot1': 0, 'rot0': 0, 'rot3': 0, 'rot2': 0, 'state': 'normal', 'yaw': -77.74, 'datetime': '2018-10-03 16:58:45.815439', 'mgs': 0, 'volt': 0.9814, 'depth': 2.835, 'time': 12, 'pitch': -4.59, 'roll': 5.48, 'pres': 201}
{'lipoC2': 0.0, 'lipoC3S1': 3.97, 'temp': 26.19, 'lipoC3S3': 12.05, 'lipoC3S2': 7.95, 'rot1': 0, 'rot0': 0, 'rot3': 0, 'rot2': 0, 'state': 'normal', 'yaw': -80.09, 'datetime': '2018-10-03 16:58:45.919397', 'mgs': 0, 'volt': 0.9766, 'depth': 2.759, 'time': 12, 'pitch': -4.42, 'roll': 5.35, 'pres': 200}
{'lipoC2': 0.0, 'lipoC3S1': 3.97, 'temp': 26.19, 'lipoC3S3': 12.05, 'lipoC3S2': 7.95, 'rot1': 0, 'rot0': 0, 'rot3': 0, 'rot2': 0, 'state': 'normal', 'yaw': -82.01, 'datetime': '2018-10-03 16:58:46.022748', 'mgs': 0, 'volt': 0.9766, 'depth': 2.759, 'time': 12, 'pitch': -4.67, 'roll': 4.81, 'pres': 200}
{'lipoC2': 0.0, 'lipoC3S1': 3.97, 'temp': 26.19, 'lipoC3S3': 12.05, 'lipoC3S2': 7.95, 'rot1': 0, 'rot0': 0, 'rot3': 0, 'rot2': 0, 'state': 'normal', 'yaw': -83.08, 'datetime': '2018-10-03 16:58:46.126008', 'mgs': 0, 'volt': 0.9766, 'depth': 2.759, 'time': 12, 'pitch': -5.24, 'roll': 3.94, 'pres': 200}
{'lipoC2': 0.0, 'lipoC3S1': 3.97, 'temp': 26.19, 'lipoC3S3': 12.05, 'lipoC3S2': 7.95, 'rot1': 0, 'rot0': 0, 'rot3': 0, 'rot2': 0, 'state': 'normal', 'yaw': -83.7, 'datetime': '2018-10-03 16:58:46.229421', 'mgs': 0, 'volt': 0.9717, 'depth': 2.682, 'time': 12, 'pitch': -5.78, 'roll': 2.89, 'pres': 199}
{'lipoC2': 0.0, 'lipoC3S1': 3.97, 'temp': 26.13, 'lipoC3S3': 12.05, 'lipoC3S2': 7.95, 'rot1': 0, 'rot0': 0, 'rot3': 0, 'rot2': 0, 'state': 'normal', 'yaw': -84.12, 'datetime': '2018-10-03 16:58:46.332977', 'mgs': 0, 'volt': 0.9717, 'depth': 2.682, 'time': 12, 'pitch': -5.95, 'roll': 1.77, 'pres': 199}
{'lipoC2': 0.0, 'lipoC3S1': 3.97, 'temp': 26.13, 'lipoC3S3': 12.05, 'lipoC3S2': 7.95, 'rot1': 0, 'rot0': 0, 'rot3': 0, 'rot2': 0, 'state': 'normal', 'yaw': -84.37, 'datetime': '2018-10-03 16:58:46.436755', 'mgs': 0, 'volt': 0.9717, 'depth': 2.682, 'time': 12, 'pitch': -5.73, 'roll': 0.92, 'pres': 199}
{'lipoC2': 0.0, 'lipoC3S1': 3.97, 'temp': 26.19, 'lipoC3S3': 12.05, 'lipoC3S2': 7.95, 'rot1': 0, 'rot0': 0, 'rot3': 0, 'rot2': 0, 'state': 'normal', 'yaw': -84.5, 'datetime': '2018-10-03 16:58:46.539142', 'mgs': 0, 'volt': 0.9717, 'depth': 2.682, 'time': 12, 'pitch': -5.33, 'roll': 0.25, 'pres': 199}
{'lipoC2': 0.0, 'lipoC3S1': 3.97, 'temp': 26.19, 'lipoC3S3': 12.05, 'lipoC3S2': 7.95, 'rot1': 0, 'rot0': 0, 'rot3': 0, 'rot2': 0, 'state': 'normal', 'yaw': -84.53, 'datetime': '2018-10-03 16:58:46.642416', 'mgs': 0, 'volt': 0.9717, 'depth': 2.682, 'time': 12, 'pitch': -4.98, 'roll': -0.26, 'pres': 199}
{'lipoC2': 0.0, 'lipoC3S1': 3.97, 'temp': 26.19, 'lipoC3S3': 12.05, 'lipoC3S2': 7.95, 'rot1': 0, 'rot0': 0, 'rot3': 0, 'rot2': 0, 'state': 'normal', 'yaw': -84.66, 'datetime': '2018-10-03 16:58:46.745725', 'mgs': 0, 'volt': 0.9717, 'depth': 2.682, 'time': 13, 'pitch': -4.79, 'roll': -0.39, 'pres': 199}
{'lipoC2': 0.0, 'lipoC3S1': 3.97, 'temp': 26.19, 'lipoC3S3': 12.05, 'lipoC3S2': 7.95, 'rot1': 0, 'rot0': 0, 'rot3': 0, 'rot2': 0, 'state': 'normal', 'yaw': -84.86, 'datetime': '2018-10-03 16:58:46.850181', 'mgs': 0, 'volt': 0.9668, 'depth': 2.606, 'time': 13, 'pitch': -4.7, 'roll': -0.24, 'pres': 198}
{'lipoC2': 0.0, 'lipoC3S1': 3.97, 'temp': 26.19, 'lipoC3S3': 12.05, 'lipoC3S2': 7.95, 'rot1': 0, 'rot0': 0, 'rot3': 0, 'rot2': 0, 'state': 'normal', 'yaw': -85.17, 'datetime': '2018-10-03 16:58:46.953479', 'mgs': 0, 'volt': 0.9717, 'depth': 2.682, 'time': 13, 'pitch': -4.73, 'roll': 0.23, 'pres': 199}
{'lipoC2': 0.0, 'lipoC3S1': 3.97, 'temp': 26.13, 'lipoC3S3': 12.05, 'lipoC3S2': 7.95, 'rot1': 0, 'rot0': 0, 'rot3': 0, 'rot2': 0, 'state': 'normal', 'yaw': -85.49, 'datetime': '2018-10-03 16:58:47.057095', 'mgs': 0, 'volt': 0.9717, 'depth': 2.682, 'time': 13, 'pitch': -4.91, 'roll': 0.91, 'pres': 199}
{'lipoC2': 0.0, 'lipoC3S1': 3.97, 'temp': 26.13, 'lipoC3S3': 12.05, 'lipoC3S2': 7.95, 'rot1': 0, 'rot0': 0, 'rot3': 0, 'rot2': 0, 'state': 'normal', 'yaw': -85.87, 'datetime': '2018-10-03 16:58:47.161348', 'mgs': 0, 'volt': 0.9717, 'depth': 2.682, 'time': 13, 'pitch': -5.22, 'roll': 1.75, 'pres': 199}
{'lipoC2': 0.0, 'lipoC3S1': 3.97, 'temp': 26.19, 'lipoC3S3': 12.05, 'lipoC3S2': 7.95, 'rot1': 0, 'rot0': 0, 'rot3': 0, 'rot2': 0, 'state': 'normal', 'yaw': -86.35, 'datetime': '2018-10-03 16:58:47.264688', 'mgs': 0, 'volt': 0.9717, 'depth': 2.682, 'time': 13, 'pitch': -5.67, 'roll': 2.82, 'pres': 199}
{'lipoC2': 0.0, 'lipoC3S1': 3.97, 'temp': 26.19, 'lipoC3S3': 12.05, 'lipoC3S2': 7.95, 'rot1': 0, 'rot0': 0, 'rot3': 0, 'rot2': 0, 'state': 'normal', 'yaw': -86.83, 'datetime': '2018-10-03 16:58:47.368838', 'mgs': 0, 'volt': 0.9766, 'depth': 2.759, 'time': 13, 'pitch': -6.12, 'roll': 3.82, 'pres': 200}
{'lipoC2': 0.0, 'lipoC3S1': 3.97, 'temp': 26.19, 'lipoC3S3': 12.05, 'lipoC3S2': 7.95, 'rot1': 0, 'rot0': 0, 'rot3': 0, 'rot2': 0, 'state': 'normal', 'yaw': -87.32, 'datetime': '2018-10-03 16:58:47.473093', 'mgs': 0, 'volt': 0.9766, 'depth': 2.759, 'time': 13, 'pitch': -6.54, 'roll': 4.77, 'pres': 200}
{'lipoC2': 0.0, 'lipoC3S1': 3.97, 'temp': 26.25, 'lipoC3S3': 12.05, 'lipoC3S2': 7.95, 'rot1': 0, 'rot0': 0, 'rot3': 0, 'rot2': 0, 'state': 'normal', 'yaw': -87.85, 'datetime': '2018-10-03 16:58:47.576607', 'mgs': 0, 'volt': 0.9814, 'depth': 2.835, 'time': 13, 'pitch': -6.93, 'roll': 5.78, 'pres': 201}
{'lipoC2': 0.0, 'lipoC3S1': 3.97, 'temp': 26.25, 'lipoC3S3': 12.05, 'lipoC3S2': 7.95, 'rot1': 0, 'rot0': 0, 'rot3': 0, 'rot2': 0, 'state': 'normal', 'yaw': -88.23, 'datetime': '2018-10-03 16:58:47.679895', 'mgs': 0, 'volt': 0.9814, 'depth': 2.835, 'time': 13, 'pitch': -7.14, 'roll': 6.75, 'pres': 201}
{'lipoC2': 0.0, 'lipoC3S1': 3.97, 'temp': 26.13, 'lipoC3S3': 12.05, 'lipoC3S2': 7.95, 'rot1': 0, 'rot0': 0, 'rot3': 0, 'rot2': 0, 'state': 'normal', 'yaw': -88.45, 'datetime': '2018-10-03 16:58:47.783147', 'mgs': 0, 'volt': 0.9863, 'depth': 2.911, 'time': 14, 'pitch': -7.25, 'roll': 7.71, 'pres': 202}
{'lipoC2': 0.0, 'lipoC3S1': 3.97, 'temp': 26.13, 'lipoC3S3': 12.05, 'lipoC3S2': 7.95, 'rot1': 0, 'rot0': 0, 'rot3': 0, 'rot2': 0, 'state': 'normal', 'yaw': -88.49, 'datetime': '2018-10-03 16:58:47.886649', 'mgs': 0, 'volt': 0.9912, 'depth': 2.988, 'time': 14, 'pitch': -7.39, 'roll': 8.76, 'pres': 203}
{'lipoC2': 0.0, 'lipoC3S1': 3.97, 'temp': 26.25, 'lipoC3S3': 12.05, 'lipoC3S2': 7.95, 'rot1': 0, 'rot0': 0, 'rot3': 0, 'rot2': 0, 'state': 'normal', 'yaw': -88.25, 'datetime': '2018-10-03 16:58:47.990373', 'mgs': 0, 'volt': 1.001, 'depth': 3.14, 'time': 14, 'pitch': -7.52, 'roll': 9.38, 'pres': 205}
{'lipoC2': 0.0, 'lipoC3S1': 3.97, 'temp': 26.25, 'lipoC3S3': 12.05, 'lipoC3S2': 7.95, 'rot1': 0, 'rot0': 0, 'rot3': 0, 'rot2': 0, 'state': 'normal', 'yaw': -87.74, 'datetime': '2018-10-03 16:58:48.093029', 'mgs': 0, 'volt': 1.001, 'depth': 3.14, 'time': 14, 'pitch': -7.83, 'roll': 9.38, 'pres': 205}
{'lipoC2': 0.0, 'lipoC3S1': 3.97, 'temp': 26.25, 'lipoC3S3': 12.05, 'lipoC3S2': 7.95, 'rot1': 0, 'rot0': 0, 'rot3': 0, 'rot2': 0, 'state': 'normal', 'yaw': -86.9, 'datetime': '2018-10-03 16:58:48.196220', 'mgs': 0, 'volt': 1.0059, 'depth': 3.217, 'time': 14, 'pitch': -8.63, 'roll': 8.74, 'pres': 206}
{'lipoC2': 0.0, 'lipoC3S1': 3.97, 'temp': 26.19, 'lipoC3S3': 12.05, 'lipoC3S2': 7.95, 'rot1': 0, 'rot0': 0, 'rot3': 0, 'rot2': 0, 'state': 'normal', 'yaw': -85.98, 'datetime': '2018-10-03 16:58:48.299505', 'mgs': 0, 'volt': 1.0059, 'depth': 3.217, 'time': 14, 'pitch': -9.59, 'roll': 7.64, 'pres': 206}
{'lipoC2': 0.0, 'lipoC3S1': 3.97, 'temp': 26.19, 'lipoC3S3': 12.05, 'lipoC3S2': 7.95, 'rot1': 0, 'rot0': 0, 'rot3': 0, 'rot2': 0, 'state': 'normal', 'yaw': -85.05, 'datetime': '2018-10-03 16:58:48.403850', 'mgs': 0, 'volt': 1.0107, 'depth': 3.293, 'time': 14, 'pitch': -10.3, 'roll': 6.12, 'pres': 207}
{'lipoC2': 0.0, 'lipoC3S1': 3.97, 'temp': 26.13, 'lipoC3S3': 12.05, 'lipoC3S2': 7.95, 'rot1': 0, 'rot0': 0, 'rot3': 0, 'rot2': 0, 'state': 'normal', 'yaw': -84.5, 'datetime': '2018-10-03 16:58:48.507611', 'mgs': 0, 'volt': 1.0156, 'depth': 3.369, 'time': 14, 'pitch': -9.47, 'roll': 3.93, 'pres': 208}
{'lipoC2': 0.0, 'lipoC3S1': 3.97, 'temp': 26.13, 'lipoC3S3': 12.05, 'lipoC3S2': 7.95, 'rot1': 0, 'rot0': 0, 'rot3': 0, 'rot2': 0, 'state': 'normal', 'yaw': -84.28, 'datetime': '2018-10-03 16:58:48.610457', 'mgs': 0, 'volt': 1.0205, 'depth': 3.445, 'time': 14, 'pitch': -8.38, 'roll': 3.38, 'pres': 209}
{'lipoC2': 0.0, 'lipoC3S1': 3.97, 'temp': 26.13, 'lipoC3S3': 12.05, 'lipoC3S2': 7.95, 'rot1': 0, 'rot0': 0, 'rot3': 0, 'rot2': 0, 'state': 'normal', 'yaw': -84.54, 'datetime': '2018-10-03 16:58:48.714956', 'mgs': 0, 'volt': 1.0107, 'depth': 3.293, 'time': 15, 'pitch': -7.58, 'roll': 4.05, 'pres': 207}
{'lipoC2': 0.0, 'lipoC3S1': 3.97, 'temp': 26.13, 'lipoC3S3': 12.05, 'lipoC3S2': 7.95, 'rot1': 0, 'rot0': 0, 'rot3': 0, 'rot2': 0, 'state': 'normal', 'yaw': -84.56, 'datetime': '2018-10-03 16:58:48.818194', 'mgs': 0, 'volt': 1.0205, 'depth': 3.445, 'time': 15, 'pitch': -7.73, 'roll': 3.81, 'pres': 209}
{'lipoC2': 0.0, 'lipoC3S1': 3.97, 'temp': 26.13, 'lipoC3S3': 12.05, 'lipoC3S2': 7.95, 'rot1': 0, 'rot0': 0, 'rot3': 0, 'rot2': 0, 'state': 'normal', 'yaw': -84.26, 'datetime': '2018-10-03 16:58:48.921489', 'mgs': 0, 'volt': 1.0156, 'depth': 3.369, 'time': 15, 'pitch': -8.26, 'roll': 3.79, 'pres': 208}
{'lipoC2': 0.0, 'lipoC3S1': 3.97, 'temp': 26.19, 'lipoC3S3': 12.05, 'lipoC3S2': 7.95, 'rot1': 0, 'rot0': 0, 'rot3': 0, 'rot2': 0, 'state': 'normal', 'yaw': -83.8, 'datetime': '2018-10-03 16:58:49.026054', 'mgs': 0, 'volt': 1.0156, 'depth': 3.369, 'time': 15, 'pitch': -8.52, 'roll': 3.84, 'pres': 208}
{'lipoC2': 0.0, 'lipoC3S1': 3.97, 'temp': 26.19, 'lipoC3S3': 12.05, 'lipoC3S2': 7.95, 'rot1': 0, 'rot0': 0, 'rot3': 0, 'rot2': 0, 'state': 'normal', 'yaw': -83.09, 'datetime': '2018-10-03 16:58:49.129317', 'mgs': 0, 'volt': 1.0205, 'depth': 3.445, 'time': 15, 'pitch': -8.72, 'roll': 3.76, 'pres': 209}
{'lipoC2': 0.0, 'lipoC3S1': 3.97, 'temp': 26.19, 'lipoC3S3': 12.05, 'lipoC3S2': 7.95, 'rot1': 0, 'rot0': 0, 'rot3': 0, 'rot2': 0, 'state': 'normal', 'yaw': -82.61, 'datetime': '2018-10-03 16:58:49.232620', 'mgs': 0, 'volt': 1.0156, 'depth': 3.369, 'time': 15, 'pitch': -8.82, 'roll': 3.83, 'pres': 208}
{'lipoC2': 0.0, 'lipoC3S1': 3.97, 'temp': 26.19, 'lipoC3S3': 12.05, 'lipoC3S2': 7.95, 'rot1': 0, 'rot0': 0, 'rot3': 0, 'rot2': 0, 'state': 'normal', 'yaw': -82.12, 'datetime': '2018-10-03 16:58:49.335230', 'mgs': 0, 'volt': 1.0205, 'depth': 3.445, 'time': 15, 'pitch': -8.74, 'roll': 3.93, 'pres': 209}
{'lipoC2': 0.0, 'lipoC3S1': 3.97, 'temp': 26.19, 'lipoC3S3': 12.05, 'lipoC3S2': 7.95, 'rot1': 0, 'rot0': 0, 'rot3': 0, 'rot2': 0, 'state': 'normal', 'yaw': -81.69, 'datetime': '2018-10-03 16:58:49.437167', 'mgs': 0, 'volt': 1.0156, 'depth': 3.369, 'time': 15, 'pitch': -8.66, 'roll': 3.87, 'pres': 208}
{'lipoC2': 0.0, 'lipoC3S1': 3.97, 'temp': 26.19, 'lipoC3S3': 12.05, 'lipoC3S2': 7.95, 'rot1': 0, 'rot0': 0, 'rot3': 0, 'rot2': 0, 'state': 'normal', 'yaw': -81.69, 'datetime': '2018-10-03 16:58:49.542402', 'mgs': 0, 'volt': 1.0205, 'depth': 3.445, 'time': 15, 'pitch': -8.65, 'roll': 3.96, 'pres': 209}
{'lipoC2': 0.0, 'lipoC3S1': 3.97, 'temp': 26.19, 'lipoC3S3': 12.05, 'lipoC3S2': 7.95, 'rot1': 0, 'rot0': 0, 'rot3': 0, 'rot2': 0, 'state': 'normal', 'yaw': -81.75, 'datetime': '2018-10-03 16:58:49.647123', 'mgs': 0, 'volt': 1.0156, 'depth': 3.369, 'time': 15, 'pitch': -8.57, 'roll': 4.04, 'pres': 208}
{'lipoC2': 0.0, 'lipoC3S1': 3.97, 'temp': 26.13, 'lipoC3S3': 12.05, 'lipoC3S2': 7.95, 'rot1': 0, 'rot0': 0, 'rot3': 0, 'rot2': 0, 'state': 'normal', 'yaw': -81.78, 'datetime': '2018-10-03 16:58:49.750281', 'mgs': 0, 'volt': 1.0156, 'depth': 3.369, 'time': 16, 'pitch': -8.6, 'roll': 4.04, 'pres': 208}
{'lipoC2': 0.0, 'lipoC3S1': 3.97, 'temp': 26.13, 'lipoC3S3': 12.05, 'lipoC3S2': 7.95, 'rot1': 0, 'rot0': 0, 'rot3': 0, 'rot2': 0, 'state': 'normal', 'yaw': -81.87, 'datetime': '2018-10-03 16:58:49.853559', 'mgs': 0, 'volt': 1.0156, 'depth': 3.369, 'time': 16, 'pitch': -8.8, 'roll': 4.06, 'pres': 208}
{'lipoC2': 0.0, 'lipoC3S1': 3.97, 'temp': 26.25, 'lipoC3S3': 12.05, 'lipoC3S2': 7.95, 'rot1': 0, 'rot0': 0, 'rot3': 0, 'rot2': 0, 'state': 'normal', 'yaw': -81.9, 'datetime': '2018-10-03 16:58:49.958097', 'mgs': 0, 'volt': 1.0156, 'depth': 3.369, 'time': 16, 'pitch': -9.11, 'roll': 4.0, 'pres': 208}
{'lipoC2': 0.0, 'lipoC3S1': 3.97, 'temp': 26.25, 'lipoC3S3': 12.05, 'lipoC3S2': 7.95, 'rot1': 0, 'rot0': 0, 'rot3': 0, 'rot2': 0, 'state': 'normal', 'yaw': -81.91, 'datetime': '2018-10-03 16:58:50.061352', 'mgs': 0, 'volt': 1.0156, 'depth': 3.369, 'time': 16, 'pitch': -9.41, 'roll': 3.95, 'pres': 208}
{'lipoC2': 0.0, 'lipoC3S1': 3.97, 'temp': 26.19, 'lipoC3S3': 12.05, 'lipoC3S2': 7.95, 'rot1': 0, 'rot0': 0, 'rot3': 0, 'rot2': 0, 'state': 'normal', 'yaw': -81.93, 'datetime': '2018-10-03 16:58:50.164605', 'mgs': 0, 'volt': 1.0107, 'depth': 3.293, 'time': 16, 'pitch': -9.55, 'roll': 3.95, 'pres': 207}
{'lipoC2': 0.0, 'lipoC3S1': 3.97, 'temp': 26.19, 'lipoC3S3': 12.05, 'lipoC3S2': 7.95, 'rot1': 0, 'rot0': 0, 'rot3': 0, 'rot2': 0, 'state': 'normal', 'yaw': -81.93, 'datetime': '2018-10-03 16:58:50.269182', 'mgs': 0, 'volt': 1.0107, 'depth': 3.293, 'time': 16, 'pitch': -9.61, 'roll': 4.04, 'pres': 207}
{'lipoC2': 0.0, 'lipoC3S1': 3.97, 'temp': 26.19, 'lipoC3S3': 12.05, 'lipoC3S2': 7.95, 'rot1': 0, 'rot0': 0, 'rot3': 0, 'rot2': 0, 'state': 'normal', 'yaw': -81.96, 'datetime': '2018-10-03 16:58:50.372562', 'mgs': 0, 'volt': 1.0107, 'depth': 3.293, 'time': 16, 'pitch': -9.6, 'roll': 4.18, 'pres': 207}
{'lipoC2': 0.0, 'lipoC3S1': 3.97, 'temp': 26.19, 'lipoC3S3': 12.05, 'lipoC3S2': 7.95, 'rot1': 0, 'rot0': 0, 'rot3': 0, 'rot2': 0, 'state': 'normal', 'yaw': -82.03, 'datetime': '2018-10-03 16:58:50.476189', 'mgs': 0, 'volt': 1.0107, 'depth': 3.293, 'time': 16, 'pitch': -9.6, 'roll': 4.37, 'pres': 207}
{'lipoC2': 0.0, 'lipoC3S1': 3.97, 'temp': 26.19, 'lipoC3S3': 12.05, 'lipoC3S2': 7.95, 'rot1': 0, 'rot0': 0, 'rot3': 0, 'rot2': 0, 'state': 'normal', 'yaw': -82.12, 'datetime': '2018-10-03 16:58:50.580700', 'mgs': 0, 'volt': 1.0107, 'depth': 3.293, 'time': 16, 'pitch': -9.56, 'roll': 4.61, 'pres': 207}
{'lipoC2': 0.0, 'lipoC3S1': 3.97, 'temp': 26.19, 'lipoC3S3': 12.05, 'lipoC3S2': 7.95, 'rot1': 0, 'rot0': 0, 'rot3': 0, 'rot2': 0, 'state': 'normal', 'yaw': -82.21, 'datetime': '2018-10-03 16:58:50.683919', 'mgs': 0, 'volt': 1.0156, 'depth': 3.369, 'time': 16, 'pitch': -9.42, 'roll': 4.9, 'pres': 208}
{'lipoC2': 0.0, 'lipoC3S1': 3.97, 'temp': 26.19, 'lipoC3S3': 12.05, 'lipoC3S2': 7.95, 'rot1': 0, 'rot0': 0, 'rot3': 0, 'rot2': 0, 'state': 'normal', 'yaw': -82.3, 'datetime': '2018-10-03 16:58:50.787178', 'mgs': 0, 'volt': 1.0156, 'depth': 3.369, 'time': 17, 'pitch': -9.22, 'roll': 5.19, 'pres': 208}
{'lipoC2': 0.0, 'lipoC3S1': 3.97, 'temp': 26.19, 'lipoC3S3': 12.05, 'lipoC3S2': 7.95, 'rot1': 0, 'rot0': 0, 'rot3': 0, 'rot2': 0, 'state': 'normal', 'yaw': -82.39, 'datetime': '2018-10-03 16:58:50.890666', 'mgs': 0, 'volt': 1.0156, 'depth': 3.369, 'time': 17, 'pitch': -8.98, 'roll': 5.47, 'pres': 208}
{'lipoC2': 0.0, 'lipoC3S1': 3.97, 'temp': 26.19, 'lipoC3S3': 12.05, 'lipoC3S2': 7.95, 'rot1': 0, 'rot0': 0, 'rot3': 0, 'rot2': 0, 'state': 'normal', 'yaw': -82.48, 'datetime': '2018-10-03 16:58:50.993831', 'mgs': 0, 'volt': 1.0156, 'depth': 3.369, 'time': 17, 'pitch': -8.7, 'roll': 5.76, 'pres': 208}
{'lipoC2': 0.0, 'lipoC3S1': 3.97, 'temp': 26.19, 'lipoC3S3': 12.05, 'lipoC3S2': 7.95, 'rot1': 0, 'rot0': 0, 'rot3': 0, 'rot2': 0, 'state': 'normal', 'yaw': -82.55, 'datetime': '2018-10-03 16:58:51.097059', 'mgs': 0, 'volt': 1.0156, 'depth': 3.369, 'time': 17, 'pitch': -8.48, 'roll': 5.88, 'pres': 208}
{'lipoC2': 0.0, 'lipoC3S1': 3.97, 'temp': 26.25, 'lipoC3S3': 12.05, 'lipoC3S2': 7.95, 'rot1': 0, 'rot0': 0, 'rot3': 0, 'rot2': 0, 'state': 'normal', 'yaw': -82.64, 'datetime': '2018-10-03 16:58:51.200275', 'mgs': 0, 'volt': 1.0156, 'depth': 3.369, 'time': 17, 'pitch': -8.28, 'roll': 5.71, 'pres': 208}
{'lipoC2': 0.0, 'lipoC3S1': 3.97, 'temp': 26.25, 'lipoC3S3': 12.05, 'lipoC3S2': 7.95, 'rot1': 0, 'rot0': 0, 'rot3': 0, 'rot2': 0, 'state': 'normal', 'yaw': -82.74, 'datetime': '2018-10-03 16:58:51.303608', 'mgs': 0, 'volt': 1.0156, 'depth': 3.369, 'time': 17, 'pitch': -8.09, 'roll': 5.53, 'pres': 208}
{'lipoC2': 0.0, 'lipoC3S1': 3.97, 'temp': 26.19, 'lipoC3S3': 12.05, 'lipoC3S2': 7.95, 'rot1': 0, 'rot0': 0, 'rot3': 0, 'rot2': 0, 'state': 'normal', 'yaw': -82.84, 'datetime': '2018-10-03 16:58:51.412864', 'mgs': 0, 'volt': 1.0156, 'depth': 3.369, 'time': 17, 'pitch': -7.91, 'roll': 5.33, 'pres': 208}
{'lipoC2': 0.0, 'lipoC3S1': 3.97, 'temp': 26.19, 'lipoC3S3': 12.05, 'lipoC3S2': 7.95, 'rot1': 0, 'rot0': 0, 'rot3': 0, 'rot2': 0, 'state': 'normal', 'yaw': -82.94, 'datetime': '2018-10-03 16:58:51.511053', 'mgs': 0, 'volt': 1.0156, 'depth': 3.369, 'time': 17, 'pitch': -7.78, 'roll': 5.18, 'pres': 208}
{'lipoC2': 0.0, 'lipoC3S1': 3.97, 'temp': 26.19, 'lipoC3S3': 12.05, 'lipoC3S2': 7.95, 'rot1': 0, 'rot0': 0, 'rot3': 0, 'rot2': 0, 'state': 'normal', 'yaw': -83.08, 'datetime': '2018-10-03 16:58:51.614449', 'mgs': 0, 'volt': 1.0156, 'depth': 3.369, 'time': 17, 'pitch': -7.74, 'roll': 5.06, 'pres': 208}
{'lipoC2': 0.0, 'lipoC3S1': 3.97, 'temp': 26.19, 'lipoC3S3': 12.05, 'lipoC3S2': 7.95, 'rot1': 0, 'rot0': 0, 'rot3': 0, 'rot2': 0, 'state': 'normal', 'yaw': -83.22, 'datetime': '2018-10-03 16:58:51.717792', 'mgs': 0, 'volt': 1.0156, 'depth': 3.369, 'time': 18, 'pitch': -7.76, 'roll': 4.98, 'pres': 208}
{'lipoC2': 0.0, 'lipoC3S1': 3.97, 'temp': 26.19, 'lipoC3S3': 12.05, 'lipoC3S2': 7.95, 'rot1': 0, 'rot0': 0, 'rot3': 0, 'rot2': 0, 'state': 'normal', 'yaw': -83.38, 'datetime': '2018-10-03 16:58:51.822252', 'mgs': 0, 'volt': 1.0156, 'depth': 3.369, 'time': 18, 'pitch': -7.86, 'roll': 4.98, 'pres': 208}
{'lipoC2': 0.0, 'lipoC3S1': 3.97, 'temp': 26.19, 'lipoC3S3': 12.05, 'lipoC3S2': 7.95, 'rot1': 0, 'rot0': 0, 'rot3': 0, 'rot2': 0, 'state': 'normal', 'yaw': -83.57, 'datetime': '2018-10-03 16:58:51.925580', 'mgs': 0, 'volt': 1.0156, 'depth': 3.369, 'time': 18, 'pitch': -8.04, 'roll': 5.0, 'pres': 208}
{'lipoC2': 0.0, 'lipoC3S1': 3.97, 'temp': 26.19, 'lipoC3S3': 12.05, 'lipoC3S2': 7.95, 'rot1': 0, 'rot0': 0, 'rot3': 0, 'rot2': 0, 'state': 'normal', 'yaw': -83.76, 'datetime': '2018-10-03 16:58:52.028800', 'mgs': 0, 'volt': 1.0156, 'depth': 3.369, 'time': 18, 'pitch': -8.23, 'roll': 5.03, 'pres': 208}
{'lipoC2': 0.0, 'lipoC3S1': 3.97, 'temp': 26.19, 'lipoC3S3': 12.06, 'lipoC3S2': 7.95, 'rot1': 0, 'rot0': 0, 'rot3': 0, 'rot2': 0, 'state': 'normal', 'yaw': -83.96, 'datetime': '2018-10-03 16:58:52.133391', 'mgs': 0, 'volt': 1.0205, 'depth': 3.445, 'time': 18, 'pitch': -8.44, 'roll': 5.12, 'pres': 209}
{'lipoC2': 0.0, 'lipoC3S1': 3.97, 'temp': 26.19, 'lipoC3S3': 12.05, 'lipoC3S2': 7.95, 'rot1': 0, 'rot0': 0, 'rot3': 0, 'rot2': 0, 'state': 'normal', 'yaw': -84.18, 'datetime': '2018-10-03 16:58:52.236635', 'mgs': 0, 'volt': 1.0205, 'depth': 3.445, 'time': 18, 'pitch': -8.65, 'roll': 5.28, 'pres': 209}
{'lipoC2': 0.0, 'lipoC3S1': 3.97, 'temp': 26.13, 'lipoC3S3': 12.05, 'lipoC3S2': 7.95, 'rot1': 0, 'rot0': 0, 'rot3': 0, 'rot2': 0, 'state': 'normal', 'yaw': -84.39, 'datetime': '2018-10-03 16:58:52.342742', 'mgs': 0, 'volt': 1.0205, 'depth': 3.445, 'time': 18, 'pitch': -8.85, 'roll': 5.44, 'pres': 209}
{'lipoC2': 0.0, 'lipoC3S1': 3.97, 'temp': 26.13, 'lipoC3S3': 12.05, 'lipoC3S2': 7.95, 'rot1': 0, 'rot0': 0, 'rot3': 0, 'rot2': 0, 'state': 'normal', 'yaw': -84.6, 'datetime': '2018-10-03 16:58:52.443221', 'mgs': 0, 'volt': 1.0205, 'depth': 3.445, 'time': 18, 'pitch': -9.06, 'roll': 5.59, 'pres': 209}
{'lipoC2': 0.0, 'lipoC3S1': 3.97, 'temp': 26.13, 'lipoC3S3': 12.06, 'lipoC3S2': 7.95, 'rot1': 0, 'rot0': 0, 'rot3': 0, 'rot2': 0, 'state': 'normal', 'yaw': -84.82, 'datetime': '2018-10-03 16:58:52.546571', 'mgs': 0, 'volt': 1.0205, 'depth': 3.445, 'time': 18, 'pitch': -9.27, 'roll': 5.4, 'pres': 209}
{'lipoC2': 0.0, 'lipoC3S1': 3.97, 'temp': 26.19, 'lipoC3S3': 12.05, 'lipoC3S2': 7.95, 'rot1': 0, 'rot0': 0, 'rot3': 0, 'rot2': 0, 'state': 'normal', 'yaw': -85.09, 'datetime': '2018-10-03 16:58:52.649871', 'mgs': 0, 'volt': 1.0205, 'depth': 3.445, 'time': 18, 'pitch': -9.49, 'roll': 5.23, 'pres': 209}
{'lipoC2': 0.0, 'lipoC3S1': 3.97, 'temp': 26.19, 'lipoC3S3': 12.06, 'lipoC3S2': 7.95, 'rot1': 0, 'rot0': 0, 'rot3': 0, 'rot2': 0, 'state': 'normal', 'yaw': -85.33, 'datetime': '2018-10-03 16:58:52.753095', 'mgs': 0, 'volt': 1.0205, 'depth': 3.445, 'time': 19, 'pitch': -9.67, 'roll': 5.11, 'pres': 209}
{'lipoC2': 0.0, 'lipoC3S1': 3.97, 'temp': 26.25, 'lipoC3S3': 12.05, 'lipoC3S2': 7.95, 'rot1': 0, 'rot0': 0, 'rot3': 0, 'rot2': 0, 'state': 'normal', 'yaw': -85.58, 'datetime': '2018-10-03 16:58:52.856331', 'mgs': 0, 'volt': 1.0205, 'depth': 3.445, 'time': 19, 'pitch': -9.8, 'roll': 5.04, 'pres': 209}
{'lipoC2': 0.0, 'lipoC3S1': 3.97, 'temp': 26.25, 'lipoC3S3': 12.05, 'lipoC3S2': 7.95, 'rot1': 0, 'rot0': 0, 'rot3': 0, 'rot2': 0, 'state': 'normal', 'yaw': -85.84, 'datetime': '2018-10-03 16:58:52.959660', 'mgs': 0, 'volt': 1.0205, 'depth': 3.445, 'time': 19, 'pitch': -9.86, 'roll': 5.02, 'pres': 209}
{'lipoC2': 0.0, 'lipoC3S1': 3.97, 'temp': 26.19, 'lipoC3S3': 12.05, 'lipoC3S2': 7.95, 'rot1': 0, 'rot0': 0, 'rot3': 0, 'rot2': 0, 'state': 'normal', 'yaw': -86.09, 'datetime': '2018-10-03 16:58:53.063089', 'mgs': 0, 'volt': 1.0205, 'depth': 3.445, 'time': 19, 'pitch': -9.84, 'roll': 5.06, 'pres': 209}
{'lipoC2': 0.0, 'lipoC3S1': 3.97, 'temp': 26.19, 'lipoC3S3': 12.05, 'lipoC3S2': 7.95, 'rot1': 0, 'rot0': 0, 'rot3': 0, 'rot2': 0, 'state': 'normal', 'yaw': -86.32, 'datetime': '2018-10-03 16:58:53.167765', 'mgs': 0, 'volt': 1.0205, 'depth': 3.445, 'time': 19, 'pitch': -9.93, 'roll': 5.1, 'pres': 209}
{'lipoC2': 0.0, 'lipoC3S1': 3.97, 'temp': 26.19, 'lipoC3S3': 12.05, 'lipoC3S2': 7.95, 'rot1': 0, 'rot0': 0, 'rot3': 0, 'rot2': 0, 'state': 'normal', 'yaw': -86.53, 'datetime': '2018-10-03 16:58:53.270279', 'mgs': 0, 'volt': 1.0205, 'depth': 3.445, 'time': 19, 'pitch': -10.05, 'roll': 5.1, 'pres': 209}
{'lipoC2': 0.0, 'lipoC3S1': 3.97, 'temp': 26.19, 'lipoC3S3': 12.05, 'lipoC3S2': 7.95, 'rot1': 0, 'rot0': 0, 'rot3': 0, 'rot2': 0, 'state': 'normal', 'yaw': -86.72, 'datetime': '2018-10-03 16:58:53.374346', 'mgs': 0, 'volt': 1.0156, 'depth': 3.369, 'time': 19, 'pitch': -10.05, 'roll': 5.13, 'pres': 208}
{'lipoC2': 0.0, 'lipoC3S1': 3.97, 'temp': 26.19, 'lipoC3S3': 12.05, 'lipoC3S2': 7.95, 'rot1': 0, 'rot0': 0, 'rot3': 0, 'rot2': 0, 'state': 'normal', 'yaw': -86.91, 'datetime': '2018-10-03 16:58:53.479451', 'mgs': 0, 'volt': 1.0205, 'depth': 3.445, 'time': 19, 'pitch': -10.04, 'roll': 5.19, 'pres': 209}
{'lipoC2': 0.0, 'lipoC3S1': 3.97, 'temp': 26.19, 'lipoC3S3': 12.05, 'lipoC3S2': 7.95, 'rot1': 0, 'rot0': 0, 'rot3': 0, 'rot2': 0, 'state': 'normal', 'yaw': -87.11, 'datetime': '2018-10-03 16:58:53.582600', 'mgs': 0, 'volt': 1.0205, 'depth': 3.445, 'time': 19, 'pitch': -9.98, 'roll': 5.29, 'pres': 209}
{'lipoC2': 0.0, 'lipoC3S1': 3.97, 'temp': 26.19, 'lipoC3S3': 12.05, 'lipoC3S2': 7.95, 'rot1': 0, 'rot0': 0, 'rot3': 0, 'rot2': 0, 'state': 'normal', 'yaw': -87.24, 'datetime': '2018-10-03 16:58:53.687117', 'mgs': 0, 'volt': 1.0156, 'depth': 3.369, 'time': 19, 'pitch': -9.97, 'roll': 5.31, 'pres': 208}
{'lipoC2': 0.0, 'lipoC3S1': 3.97, 'temp': 26.19, 'lipoC3S3': 12.05, 'lipoC3S2': 7.95, 'rot1': 0, 'rot0': 0, 'rot3': 0, 'rot2': 0, 'state': 'normal', 'yaw': -87.36, 'datetime': '2018-10-03 16:58:53.790648', 'mgs': 0, 'volt': 1.0156, 'depth': 3.369, 'time': 20, 'pitch': -9.91, 'roll': 5.33, 'pres': 208}
{'lipoC2': 0.0, 'lipoC3S1': 3.97, 'temp': 26.19, 'lipoC3S3': 12.05, 'lipoC3S2': 7.95, 'rot1': 0, 'rot0': 0, 'rot3': 0, 'rot2': 0, 'state': 'normal', 'yaw': -87.39, 'datetime': '2018-10-03 16:58:53.894206', 'mgs': 0, 'volt': 1.0156, 'depth': 3.369, 'time': 20, 'pitch': -9.78, 'roll': 5.4, 'pres': 208}
{'lipoC2': 0.0, 'lipoC3S1': 3.97, 'temp': 26.19, 'lipoC3S3': 12.05, 'lipoC3S2': 7.95, 'rot1': 0, 'rot0': 0, 'rot3': 0, 'rot2': 0, 'state': 'normal', 'yaw': -87.38, 'datetime': '2018-10-03 16:58:53.997797', 'mgs': 0, 'volt': 1.0156, 'depth': 3.369, 'time': 20, 'pitch': -9.64, 'roll': 5.47, 'pres': 208}
{'lipoC2': 0.0, 'lipoC3S1': 3.97, 'temp': 26.19, 'lipoC3S3': 12.05, 'lipoC3S2': 7.95, 'rot1': 0, 'rot0': 0, 'rot3': 0, 'rot2': 0, 'state': 'normal', 'yaw': -87.37, 'datetime': '2018-10-03 16:58:54.101174', 'mgs': 0, 'volt': 1.0156, 'depth': 3.369, 'time': 20, 'pitch': -9.53, 'roll': 5.48, 'pres': 208}
{'lipoC2': 0.0, 'lipoC3S1': 3.97, 'temp': 26.19, 'lipoC3S3': 12.05, 'lipoC3S2': 7.95, 'rot1': 0, 'rot0': 0, 'rot3': 0, 'rot2': 0, 'state': 'normal', 'yaw': -87.35, 'datetime': '2018-10-03 16:58:54.204291', 'mgs': 0, 'volt': 1.0156, 'depth': 3.369, 'time': 20, 'pitch': -9.4, 'roll': 5.57, 'pres': 208}
{'lipoC2': 0.0, 'lipoC3S1': 3.97, 'temp': 26.19, 'lipoC3S3': 12.05, 'lipoC3S2': 7.95, 'rot1': 0, 'rot0': 0, 'rot3': 0, 'rot2': 0, 'state': 'normal', 'yaw': -87.34, 'datetime': '2018-10-03 16:58:54.308861', 'mgs': 0, 'volt': 1.0156, 'depth': 3.369, 'time': 20, 'pitch': -9.27, 'roll': 5.69, 'pres': 208}
{'lipoC2': 0.0, 'lipoC3S1': 3.97, 'temp': 26.19, 'lipoC3S3': 12.05, 'lipoC3S2': 7.95, 'rot1': 0, 'rot0': 0, 'rot3': 0, 'rot2': 0, 'state': 'normal', 'yaw': -87.33, 'datetime': '2018-10-03 16:58:54.412028', 'mgs': 0, 'volt': 1.0156, 'depth': 3.369, 'time': 20, 'pitch': -9.14, 'roll': 5.83, 'pres': 208}
{'lipoC2': 0.0, 'lipoC3S1': 3.97, 'temp': 26.13, 'lipoC3S3': 12.06, 'lipoC3S2': 7.95, 'rot1': 0, 'rot0': 0, 'rot3': 0, 'rot2': 0, 'state': 'normal', 'yaw': -87.33, 'datetime': '2018-10-03 16:58:54.515338', 'mgs': 0, 'volt': 1.0156, 'depth': 3.369, 'time': 20, 'pitch': -9.12, 'roll': 5.95, 'pres': 208}
{'lipoC2': 0.0, 'lipoC3S1': 3.97, 'temp': 26.13, 'lipoC3S3': 12.06, 'lipoC3S2': 7.95, 'rot1': 0, 'rot0': 0, 'rot3': 0, 'rot2': 0, 'state': 'normal', 'yaw': -87.33, 'datetime': '2018-10-03 16:58:54.620651', 'mgs': 0, 'volt': 1.0156, 'depth': 3.369, 'time': 20, 'pitch': -9.13, 'roll': 6.03, 'pres': 208}
{'lipoC2': 0.0, 'lipoC3S1': 3.97, 'temp': 26.13, 'lipoC3S3': 12.06, 'lipoC3S2': 7.95, 'rot1': 0, 'rot0': 0, 'rot3': 0, 'rot2': 0, 'state': 'normal', 'yaw': -87.34, 'datetime': '2018-10-03 16:58:54.723245', 'mgs': 0, 'volt': 1.0156, 'depth': 3.369, 'time': 21, 'pitch': -9.24, 'roll': 6.03, 'pres': 208}
{'lipoC2': 0.0, 'lipoC3S1': 3.97, 'temp': 26.19, 'lipoC3S3': 12.06, 'lipoC3S2': 7.95, 'rot1': 0, 'rot0': 0, 'rot3': 0, 'rot2': 0, 'state': 'normal', 'yaw': -87.35, 'datetime': '2018-10-03 16:58:54.826548', 'mgs': 0, 'volt': 1.0156, 'depth': 3.369, 'time': 21, 'pitch': -9.37, 'roll': 6.01, 'pres': 208}
{'lipoC2': 0.0, 'lipoC3S1': 3.97, 'temp': 26.19, 'lipoC3S3': 12.05, 'lipoC3S2': 7.95, 'rot1': 0, 'rot0': 0, 'rot3': 0, 'rot2': 0, 'state': 'normal', 'yaw': -87.39, 'datetime': '2018-10-03 16:58:54.931016', 'mgs': 0, 'volt': 1.0156, 'depth': 3.369, 'time': 21, 'pitch': -9.51, 'roll': 5.91, 'pres': 208}
{'lipoC2': 0.0, 'lipoC3S1': 3.97, 'temp': 26.13, 'lipoC3S3': 12.05, 'lipoC3S2': 7.95, 'rot1': 0, 'rot0': 0, 'rot3': 0, 'rot2': 0, 'state': 'normal', 'yaw': -87.46, 'datetime': '2018-10-03 16:58:55.034430', 'mgs': 0, 'volt': 1.0156, 'depth': 3.369, 'time': 21, 'pitch': -9.67, 'roll': 5.83, 'pres': 208}
{'lipoC2': 0.0, 'lipoC3S1': 3.97, 'temp': 26.13, 'lipoC3S3': 12.05, 'lipoC3S2': 7.95, 'rot1': 0, 'rot0': 0, 'rot3': 0, 'rot2': 0, 'state': 'normal', 'yaw': -87.53, 'datetime': '2018-10-03 16:58:55.137658', 'mgs': 0, 'volt': 1.0156, 'depth': 3.369, 'time': 21, 'pitch': -9.79, 'roll': 5.79, 'pres': 208}
{'lipoC2': 0.0, 'lipoC3S1': 3.97, 'temp': 26.19, 'lipoC3S3': 12.05, 'lipoC3S2': 7.95, 'rot1': 0, 'rot0': 0, 'rot3': 0, 'rot2': 0, 'state': 'normal', 'yaw': -87.61, 'datetime': '2018-10-03 16:58:55.242160', 'mgs': 0, 'volt': 1.0205, 'depth': 3.445, 'time': 21, 'pitch': -9.89, 'roll': 5.8, 'pres': 209}
