{'lipoC2': 8.2, 'lipoC3S1': 3.99, 'temp': 26.13, 'lipoC3S3': 12.12, 'lipoC3S2': 8.01, 'rot1': 0, 'rot0': 0, 'rot3': 0, 'rot2': 0, 'state': 'normal', 'yaw': 0.0, 'datetime': '2018-10-05 14:24:51.566780', 'mgs': 1, 'volt': 0.7813, 'depth': -0.293, 'time': 1, 'pitch': 73.21, 'roll': -82.09, 'pres': 160}
{'lipoC2': 8.2, 'lipoC3S1': 3.99, 'temp': 26.13, 'lipoC3S3': 12.12, 'lipoC3S2': 8.01, 'rot1': 0, 'rot0': 0, 'rot3': 0, 'rot2': 0, 'state': 'normal', 'yaw': 0.0, 'datetime': '2018-10-05 14:24:57.598130', 'mgs': 1, 'volt': 0.7813, 'depth': -0.293, 'time': 1, 'pitch': 73.21, 'roll': -82.09, 'pres': 160}
{'lipoC2': 8.2, 'lipoC3S1': 3.99, 'temp': 26.13, 'lipoC3S3': 12.12, 'lipoC3S2': 8.01, 'rot1': 0, 'rot0': 0, 'rot3': 0, 'rot2': 0, 'state': 'normal', 'yaw': 0.0, 'datetime': '2018-10-05 14:24:57.621079', 'mgs': 1, 'volt': 0.7861, 'depth': -0.217, 'time': 1, 'pitch': 73.21, 'roll': -82.09, 'pres': 161}
{'lipoC2': 8.2, 'lipoC3S1': 3.99, 'temp': 26.13, 'lipoC3S3': 12.12, 'lipoC3S2': 8.01, 'rot1': 0, 'rot0': 0, 'rot3': 0, 'rot2': 0, 'state': 'normal', 'yaw': 0.0, 'datetime': '2018-10-05 14:24:57.641346', 'mgs': 1, 'volt': 0.7813, 'depth': -0.293, 'time': 1, 'pitch': 73.21, 'roll': -82.09, 'pres': 160}
{'lipoC2': 8.2, 'lipoC3S1': 3.99, 'temp': 26.13, 'lipoC3S3': 12.12, 'lipoC3S2': 8.01, 'rot1': 0, 'rot0': 0, 'rot3': 0, 'rot2': 0, 'state': 'normal', 'yaw': 0.0, 'datetime': '2018-10-05 14:24:57.651302', 'mgs': 1, 'volt': 0.7813, 'depth': -0.293, 'time': 1, 'pitch': 73.21, 'roll': -82.09, 'pres': 160}
{'lipoC2': 8.2, 'lipoC3S1': 3.99, 'temp': 26.13, 'lipoC3S3': 12.12, 'lipoC3S2': 8.01, 'rot1': 0, 'rot0': 0, 'rot3': 0, 'rot2': 0, 'state': 'normal', 'yaw': 0.0, 'datetime': '2018-10-05 14:24:57.661233', 'mgs': 1, 'volt': 0.7813, 'depth': -0.293, 'time': 1, 'pitch': 73.21, 'roll': -82.09, 'pres': 160}
{'lipoC2': 8.2, 'lipoC3S1': 3.99, 'temp': 26.13, 'lipoC3S3': 12.12, 'lipoC3S2': 8.01, 'rot1': 0, 'rot0': 0, 'rot3': 0, 'rot2': 0, 'state': 'normal', 'yaw': 0.0, 'datetime': '2018-10-05 14:24:57.671115', 'mgs': 1, 'volt': 0.7813, 'depth': -0.293, 'time': 1, 'pitch': 73.21, 'roll': -82.09, 'pres': 160}
{'lipoC2': 8.2, 'lipoC3S1': 3.99, 'temp': 26.13, 'lipoC3S3': 12.12, 'lipoC3S2': 8.01, 'rot1': 0, 'rot0': 0, 'rot3': 0, 'rot2': 0, 'state': 'normal', 'yaw': 0.0, 'datetime': '2018-10-05 14:24:57.681040', 'mgs': 1, 'volt': 0.7813, 'depth': -0.293, 'time': 2, 'pitch': 73.21, 'roll': -82.09, 'pres': 160}
{'lipoC2': 8.2, 'lipoC3S1': 3.99, 'temp': 26.13, 'lipoC3S3': 12.12, 'lipoC3S2': 8.01, 'rot1': 0, 'rot0': 0, 'rot3': 0, 'rot2': 0, 'state': 'normal', 'yaw': 0.0, 'datetime': '2018-10-05 14:24:57.690958', 'mgs': 1, 'volt': 0.7813, 'depth': -0.293, 'time': 2, 'pitch': 73.21, 'roll': -82.09, 'pres': 160}
{'lipoC2': 8.2, 'lipoC3S1': 3.99, 'temp': 26.13, 'lipoC3S3': 12.12, 'lipoC3S2': 8.01, 'rot1': 0, 'rot0': 0, 'rot3': 0, 'rot2': 0, 'state': 'normal', 'yaw': 0.0, 'datetime': '2018-10-05 14:24:57.700862', 'mgs': 1, 'volt': 0.7813, 'depth': -0.293, 'time': 2, 'pitch': 73.21, 'roll': -82.09, 'pres': 160}
{'lipoC2': 8.2, 'lipoC3S1': 3.99, 'temp': 26.13, 'lipoC3S3': 12.12, 'lipoC3S2': 8.01, 'rot1': 0, 'rot0': 0, 'rot3': 0, 'rot2': 0, 'state': 'normal', 'yaw': 0.0, 'datetime': '2018-10-05 14:24:57.710788', 'mgs': 1, 'volt': 0.7813, 'depth': -0.293, 'time': 2, 'pitch': 73.21, 'roll': -82.09, 'pres': 160}
{'lipoC2': 8.2, 'lipoC3S1': 3.99, 'temp': 26.13, 'lipoC3S3': 12.12, 'lipoC3S2': 8.01, 'rot1': 0, 'rot0': 0, 'rot3': 0, 'rot2': 0, 'state': 'normal', 'yaw': 0.0, 'datetime': '2018-10-05 14:24:57.720716', 'mgs': 1, 'volt': 0.7813, 'depth': -0.293, 'time': 2, 'pitch': 73.21, 'roll': -82.09, 'pres': 160}
{'lipoC2': 8.2, 'lipoC3S1': 3.99, 'temp': 26.13, 'lipoC3S3': 12.12, 'lipoC3S2': 8.01, 'rot1': 0, 'rot0': 0, 'rot3': 0, 'rot2': 0, 'state': 'normal', 'yaw': 0.0, 'datetime': '2018-10-05 14:24:57.730617', 'mgs': 1, 'volt': 0.7813, 'depth': -0.293, 'time': 2, 'pitch': 73.21, 'roll': -82.09, 'pres': 160}
{'lipoC2': 8.2, 'lipoC3S1': 3.99, 'temp': 26.13, 'lipoC3S3': 12.12, 'lipoC3S2': 8.01, 'rot1': 0, 'rot0': 0, 'rot3': 0, 'rot2': 0, 'state': 'normal', 'yaw': 0.03, 'datetime': '2018-10-05 14:24:57.740540', 'mgs': 1, 'volt': 0.7813, 'depth': -0.293, 'time': 2, 'pitch': 73.21, 'roll': -82.06, 'pres': 160}
{'lipoC2': 8.2, 'lipoC3S1': 3.99, 'temp': 26.13, 'lipoC3S3': 12.12, 'lipoC3S2': 8.01, 'rot1': 0, 'rot0': 0, 'rot3': 0, 'rot2': 0, 'state': 'normal', 'yaw': -0.17, 'datetime': '2018-10-05 14:24:57.750589', 'mgs': 1, 'volt': 0.7861, 'depth': -0.217, 'time': 2, 'pitch': 73.22, 'roll': -82.26, 'pres': 161}
{'lipoC2': 8.2, 'lipoC3S1': 3.99, 'temp': 26.13, 'lipoC3S3': 12.12, 'lipoC3S2': 8.01, 'rot1': 0, 'rot0': 0, 'rot3': 0, 'rot2': 0, 'state': 'normal', 'yaw': -0.14, 'datetime': '2018-10-05 14:24:57.760504', 'mgs': 1, 'volt': 0.7861, 'depth': -0.217, 'time': 2, 'pitch': 73.24, 'roll': -82.23, 'pres': 161}
{'lipoC2': 8.2, 'lipoC3S1': 3.99, 'temp': 26.13, 'lipoC3S3': 12.12, 'lipoC3S2': 8.01, 'rot1': 0, 'rot0': 0, 'rot3': 0, 'rot2': 0, 'state': 'normal', 'yaw': -0.17, 'datetime': '2018-10-05 14:24:57.770410', 'mgs': 1, 'volt': 0.7813, 'depth': -0.293, 'time': 3, 'pitch': 73.24, 'roll': -82.27, 'pres': 160}
{'lipoC2': 8.2, 'lipoC3S1': 3.99, 'temp': 26.13, 'lipoC3S3': 12.12, 'lipoC3S2': 8.01, 'rot1': 0, 'rot0': 0, 'rot3': 0, 'rot2': 0, 'state': 'normal', 'yaw': -0.06, 'datetime': '2018-10-05 14:24:57.780314', 'mgs': 1, 'volt': 0.7813, 'depth': -0.293, 'time': 3, 'pitch': 73.21, 'roll': -82.15, 'pres': 160}
{'lipoC2': 8.2, 'lipoC3S1': 3.99, 'temp': 26.13, 'lipoC3S3': 12.12, 'lipoC3S2': 8.01, 'rot1': 0, 'rot0': 0, 'rot3': 0, 'rot2': 0, 'state': 'normal', 'yaw': -0.09, 'datetime': '2018-10-05 14:24:57.790218', 'mgs': 1, 'volt': 0.7813, 'depth': -0.293, 'time': 3, 'pitch': 73.21, 'roll': -82.19, 'pres': 160}
{'lipoC2': 8.2, 'lipoC3S1': 3.99, 'temp': 26.13, 'lipoC3S3': 12.12, 'lipoC3S2': 8.01, 'rot1': 0, 'rot0': 0, 'rot3': 0, 'rot2': 0, 'state': 'normal', 'yaw': -0.06, 'datetime': '2018-10-05 14:24:57.800121', 'mgs': 1, 'volt': 0.7813, 'depth': -0.293, 'time': 3, 'pitch': 73.21, 'roll': -82.15, 'pres': 160}
{'lipoC2': 8.2, 'lipoC3S1': 3.99, 'temp': 26.06, 'lipoC3S3': 12.12, 'lipoC3S2': 8.01, 'rot1': 0, 'rot0': 0, 'rot3': 0, 'rot2': 0, 'state': 'normal', 'yaw': 0.0, 'datetime': '2018-10-05 14:24:57.810024', 'mgs': 1, 'volt': 0.7861, 'depth': -0.217, 'time': 1, 'pitch': 73.22, 'roll': -82.26, 'pres': 161}
{'lipoC2': 8.2, 'lipoC3S1': 3.99, 'temp': 26.06, 'lipoC3S3': 12.12, 'lipoC3S2': 8.01, 'rot1': 0, 'rot0': 0, 'rot3': 0, 'rot2': 0, 'state': 'normal', 'yaw': 0.03, 'datetime': '2018-10-05 14:24:57.819922', 'mgs': 1, 'volt': 0.7861, 'depth': -0.217, 'time': 1, 'pitch': 73.22, 'roll': -82.23, 'pres': 161}
{'lipoC2': 8.2, 'lipoC3S1': 3.99, 'temp': 26.06, 'lipoC3S3': 12.12, 'lipoC3S2': 8.01, 'rot1': 0, 'rot0': 0, 'rot3': 0, 'rot2': 0, 'state': 'normal', 'yaw': -0.03, 'datetime': '2018-10-05 14:24:57.829814', 'mgs': 1, 'volt': 0.7813, 'depth': -0.293, 'time': 1, 'pitch': 73.22, 'roll': -82.29, 'pres': 160}
{'lipoC2': 8.2, 'lipoC3S1': 4.0, 'temp': 26.06, 'lipoC3S3': 12.12, 'lipoC3S2': 8.01, 'rot1': 0, 'rot0': 0, 'rot3': 0, 'rot2': 0, 'state': 'normal', 'yaw': -0.02, 'datetime': '2018-10-05 14:24:57.839734', 'mgs': 1, 'volt': 0.7861, 'depth': -0.217, 'time': 1, 'pitch': 73.24, 'roll': -82.29, 'pres': 161}
{'lipoC2': 8.2, 'lipoC3S1': 4.0, 'temp': 26.06, 'lipoC3S3': 12.12, 'lipoC3S2': 8.01, 'rot1': 0, 'rot0': 0, 'rot3': 0, 'rot2': 0, 'state': 'normal', 'yaw': -0.03, 'datetime': '2018-10-05 14:24:57.849694', 'mgs': 1, 'volt': 0.7813, 'depth': -0.293, 'time': 1, 'pitch': 73.22, 'roll': -82.29, 'pres': 160}
{'lipoC2': 8.2, 'lipoC3S1': 4.0, 'temp': 26.06, 'lipoC3S3': 12.12, 'lipoC3S2': 8.01, 'rot1': 0, 'rot0': 0, 'rot3': 0, 'rot2': 0, 'state': 'normal', 'yaw': 0.07, 'datetime': '2018-10-05 14:24:57.859624', 'mgs': 1, 'volt': 0.7861, 'depth': -0.217, 'time': 1, 'pitch': 73.22, 'roll': -82.2, 'pres': 161}
{'lipoC2': 8.2, 'lipoC3S1': 4.0, 'temp': 26.06, 'lipoC3S3': 12.12, 'lipoC3S2': 8.01, 'rot1': 0, 'rot0': 0, 'rot3': 0, 'rot2': 0, 'state': 'normal', 'yaw': 0.01, 'datetime': '2018-10-05 14:24:57.869520', 'mgs': 1, 'volt': 0.7861, 'depth': -0.217, 'time': 1, 'pitch': 73.22, 'roll': -82.26, 'pres': 161}
{'lipoC2': 8.2, 'lipoC3S1': 3.99, 'temp': 26.06, 'lipoC3S3': 12.12, 'lipoC3S2': 8.01, 'rot1': 0, 'rot0': 0, 'rot3': 0, 'rot2': 0, 'state': 'normal', 'yaw': 0.06, 'datetime': '2018-10-05 14:24:57.879487', 'mgs': 1, 'volt': 0.7813, 'depth': -0.293, 'time': 1, 'pitch': 73.2, 'roll': -82.21, 'pres': 160}
{'lipoC2': 8.2, 'lipoC3S1': 4.0, 'temp': 26.06, 'lipoC3S3': 12.12, 'lipoC3S2': 8.01, 'rot1': 0, 'rot0': 0, 'rot3': 0, 'rot2': 0, 'state': 'normal', 'yaw': 0.0, 'datetime': '2018-10-05 14:24:57.889520', 'mgs': 1, 'volt': 0.7813, 'depth': -0.293, 'time': 2, 'pitch': 73.22, 'roll': -82.27, 'pres': 160}
{'lipoC2': 8.2, 'lipoC3S1': 3.99, 'temp': 26.06, 'lipoC3S3': 12.12, 'lipoC3S2': 8.01, 'rot1': 0, 'rot0': 0, 'rot3': 0, 'rot2': 0, 'state': 'normal', 'yaw': 0.03, 'datetime': '2018-10-05 14:24:57.899458', 'mgs': 1, 'volt': 0.7861, 'depth': -0.217, 'time': 2, 'pitch': 73.22, 'roll': -82.24, 'pres': 161}
{'lipoC2': 8.2, 'lipoC3S1': 3.99, 'temp': 26.06, 'lipoC3S3': 12.12, 'lipoC3S2': 8.01, 'rot1': 0, 'rot0': 0, 'rot3': 0, 'rot2': 0, 'state': 'normal', 'yaw': 0.0, 'datetime': '2018-10-05 14:24:57.909398', 'mgs': 1, 'volt': 0.7813, 'depth': -0.293, 'time': 2, 'pitch': 73.22, 'roll': -82.27, 'pres': 160}
{'lipoC2': 8.2, 'lipoC3S1': 3.99, 'temp': 26.06, 'lipoC3S3': 12.12, 'lipoC3S2': 8.01, 'rot1': 0, 'rot0': 0, 'rot3': 0, 'rot2': 0, 'state': 'normal', 'yaw': 0.02, 'datetime': '2018-10-05 14:24:57.919298', 'mgs': 1, 'volt': 0.7813, 'depth': -0.293, 'time': 2, 'pitch': 73.22, 'roll': -82.24, 'pres': 160}
{'lipoC2': 8.2, 'lipoC3S1': 4.0, 'temp': 26.06, 'lipoC3S3': 12.12, 'lipoC3S2': 8.01, 'rot1': 0, 'rot0': 0, 'rot3': 0, 'rot2': 0, 'state': 'normal', 'yaw': 0.02, 'datetime': '2018-10-05 14:24:57.929214', 'mgs': 1, 'volt': 0.7861, 'depth': -0.217, 'time': 2, 'pitch': 73.2, 'roll': -82.25, 'pres': 161}
{'lipoC2': 8.2, 'lipoC3S1': 4.0, 'temp': 26.06, 'lipoC3S3': 12.12, 'lipoC3S2': 8.01, 'rot1': 0, 'rot0': 0, 'rot3': 0, 'rot2': 0, 'state': 'normal', 'yaw': -0.01, 'datetime': '2018-10-05 14:24:57.939143', 'mgs': 1, 'volt': 0.7861, 'depth': -0.217, 'time': 2, 'pitch': 73.2, 'roll': -82.28, 'pres': 161}
{'lipoC2': 8.2, 'lipoC3S1': 4.0, 'temp': 26.0, 'lipoC3S3': 12.12, 'lipoC3S2': 8.01, 'rot1': 0, 'rot0': 0, 'rot3': 0, 'rot2': 0, 'state': 'normal', 'yaw': 0.02, 'datetime': '2018-10-05 14:24:57.949040', 'mgs': 1, 'volt': 0.7813, 'depth': -0.293, 'time': 2, 'pitch': 73.22, 'roll': -82.24, 'pres': 160}
{'lipoC2': 8.2, 'lipoC3S1': 4.0, 'temp': 26.0, 'lipoC3S3': 12.12, 'lipoC3S2': 8.01, 'rot1': 0, 'rot0': 0, 'rot3': 0, 'rot2': 0, 'state': 'normal', 'yaw': -0.04, 'datetime': '2018-10-05 14:24:57.958926', 'mgs': 1, 'volt': 0.7861, 'depth': -0.217, 'time': 2, 'pitch': 73.22, 'roll': -82.3, 'pres': 161}
{'lipoC2': 8.2, 'lipoC3S1': 4.0, 'temp': 26.06, 'lipoC3S3': 12.12, 'lipoC3S2': 8.01, 'rot1': 0, 'rot0': 0, 'rot3': 0, 'rot2': 0, 'state': 'normal', 'yaw': -0.04, 'datetime': '2018-10-05 14:24:57.968837', 'mgs': 1, 'volt': 0.7861, 'depth': -0.217, 'time': 2, 'pitch': 73.22, 'roll': -82.3, 'pres': 161}
{'lipoC2': 8.2, 'lipoC3S1': 3.99, 'temp': 26.06, 'lipoC3S3': 12.12, 'lipoC3S2': 8.01, 'rot1': 0, 'rot0': 0, 'rot3': 0, 'rot2': 0, 'state': 'normal', 'yaw': -0.04, 'datetime': '2018-10-05 14:24:57.978741', 'mgs': 1, 'volt': 0.7813, 'depth': -0.293, 'time': 3, 'pitch': 73.22, 'roll': -82.3, 'pres': 160}
{'lipoC2': 8.2, 'lipoC3S1': 3.99, 'temp': 26.06, 'lipoC3S3': 12.12, 'lipoC3S2': 8.01, 'rot1': 0, 'rot0': 0, 'rot3': 0, 'rot2': 0, 'state': 'normal', 'yaw': -0.04, 'datetime': '2018-10-05 14:24:57.988686', 'mgs': 1, 'volt': 0.7813, 'depth': -0.293, 'time': 3, 'pitch': 73.22, 'roll': -82.3, 'pres': 160}
{'lipoC2': 8.2, 'lipoC3S1': 3.99, 'temp': 26.06, 'lipoC3S3': 12.12, 'lipoC3S2': 8.01, 'rot1': 0, 'rot0': 0, 'rot3': 0, 'rot2': 0, 'state': 'normal', 'yaw': 0.0, 'datetime': '2018-10-05 14:24:57.998579', 'mgs': 1, 'volt': 0.7813, 'depth': -0.293, 'time': 3, 'pitch': 73.22, 'roll': -82.27, 'pres': 160}
{'lipoC2': 8.2, 'lipoC3S1': 3.99, 'temp': 26.06, 'lipoC3S3': 12.12, 'lipoC3S2': 8.01, 'rot1': 0, 'rot0': 0, 'rot3': 0, 'rot2': 0, 'state': 'normal', 'yaw': 0.0, 'datetime': '2018-10-05 14:24:58.008510', 'mgs': 1, 'volt': 0.7813, 'depth': -0.293, 'time': 3, 'pitch': 73.22, 'roll': -82.27, 'pres': 160}
{'lipoC2': 8.2, 'lipoC3S1': 3.99, 'temp': 26.06, 'lipoC3S3': 12.12, 'lipoC3S2': 8.01, 'rot1': 0, 'rot0': 0, 'rot3': 0, 'rot2': 0, 'state': 'normal', 'yaw': -0.07, 'datetime': '2018-10-05 14:24:58.018538', 'mgs': 1, 'volt': 0.7813, 'depth': -0.293, 'time': 3, 'pitch': 73.22, 'roll': -82.33, 'pres': 160}
{'lipoC2': 8.2, 'lipoC3S1': 4.0, 'temp': 26.06, 'lipoC3S3': 12.12, 'lipoC3S2': 8.01, 'rot1': 0, 'rot0': 0, 'rot3': 0, 'rot2': 0, 'state': 'normal', 'yaw': -0.07, 'datetime': '2018-10-05 14:24:58.028461', 'mgs': 1, 'volt': 0.7813, 'depth': -0.293, 'time': 3, 'pitch': 73.22, 'roll': -82.33, 'pres': 160}
{'lipoC2': 8.2, 'lipoC3S1': 4.0, 'temp': 26.06, 'lipoC3S3': 12.12, 'lipoC3S2': 8.01, 'rot1': 0, 'rot0': 0, 'rot3': 0, 'rot2': 0, 'state': 'normal', 'yaw': -0.1, 'datetime': '2018-10-05 14:24:58.038389', 'mgs': 1, 'volt': 0.7861, 'depth': -0.217, 'time': 3, 'pitch': 73.22, 'roll': -82.37, 'pres': 161}
{'lipoC2': 8.2, 'lipoC3S1': 4.0, 'temp': 26.06, 'lipoC3S3': 12.12, 'lipoC3S2': 8.01, 'rot1': 0, 'rot0': 0, 'rot3': 0, 'rot2': 0, 'state': 'normal', 'yaw': -0.1, 'datetime': '2018-10-05 14:24:58.048299', 'mgs': 1, 'volt': 0.7813, 'depth': -0.293, 'time': 3, 'pitch': 73.22, 'roll': -82.37, 'pres': 160}
{'lipoC2': 8.2, 'lipoC3S1': 4.0, 'temp': 26.06, 'lipoC3S3': 12.12, 'lipoC3S2': 8.01, 'rot1': 0, 'rot0': 0, 'rot3': 0, 'rot2': 0, 'state': 'normal', 'yaw': -0.1, 'datetime': '2018-10-05 14:24:58.058186', 'mgs': 1, 'volt': 0.7813, 'depth': -0.293, 'time': 3, 'pitch': 73.22, 'roll': -82.37, 'pres': 160}
{'lipoC2': 8.2, 'lipoC3S1': 4.0, 'temp': 26.06, 'lipoC3S3': 12.12, 'lipoC3S2': 8.01, 'rot1': 0, 'rot0': 0, 'rot3': 0, 'rot2': 0, 'state': 'normal', 'yaw': -0.1, 'datetime': '2018-10-05 14:24:58.068078', 'mgs': 1, 'volt': 0.7861, 'depth': -0.217, 'time': 3, 'pitch': 73.22, 'roll': -82.37, 'pres': 161}
{'lipoC2': 8.2, 'lipoC3S1': 3.99, 'temp': 26.06, 'lipoC3S3': 12.12, 'lipoC3S2': 8.01, 'rot1': 0, 'rot0': 0, 'rot3': 0, 'rot2': 0, 'state': 'normal', 'yaw': -0.1, 'datetime': '2018-10-05 14:24:58.077981', 'mgs': 1, 'volt': 0.7813, 'depth': -0.293, 'time': 4, 'pitch': 73.22, 'roll': -82.37, 'pres': 160}
{'lipoC2': 8.2, 'lipoC3S1': 3.99, 'temp': 26.06, 'lipoC3S3': 12.12, 'lipoC3S2': 8.01, 'rot1': 0, 'rot0': 0, 'rot3': 0, 'rot2': 0, 'state': 'normal', 'yaw': -0.1, 'datetime': '2018-10-05 14:24:58.087854', 'mgs': 1, 'volt': 0.7813, 'depth': -0.293, 'time': 4, 'pitch': 73.22, 'roll': -82.37, 'pres': 160}
{'lipoC2': 8.2, 'lipoC3S1': 3.99, 'temp': 26.06, 'lipoC3S3': 12.12, 'lipoC3S2': 8.01, 'rot1': 0, 'rot0': 0, 'rot3': 0, 'rot2': 0, 'state': 'normal', 'yaw': -0.1, 'datetime': '2018-10-05 14:24:58.097794', 'mgs': 1, 'volt': 0.7813, 'depth': -0.293, 'time': 4, 'pitch': 73.22, 'roll': -82.37, 'pres': 160}
{'lipoC2': 8.2, 'lipoC3S1': 3.99, 'temp': 26.06, 'lipoC3S3': 12.12, 'lipoC3S2': 8.01, 'rot1': 0, 'rot0': 0, 'rot3': 0, 'rot2': 0, 'state': 'normal', 'yaw': -0.1, 'datetime': '2018-10-05 14:24:58.107738', 'mgs': 1, 'volt': 0.7813, 'depth': -0.293, 'time': 4, 'pitch': 73.22, 'roll': -82.37, 'pres': 160}
{'lipoC2': 8.2, 'lipoC3S1': 4.0, 'temp': 26.06, 'lipoC3S3': 12.12, 'lipoC3S2': 8.01, 'rot1': 0, 'rot0': 0, 'rot3': 0, 'rot2': 0, 'state': 'normal', 'yaw': -0.1, 'datetime': '2018-10-05 14:24:58.117664', 'mgs': 1, 'volt': 0.7861, 'depth': -0.217, 'time': 4, 'pitch': 73.22, 'roll': -82.37, 'pres': 161}
{'lipoC2': 8.2, 'lipoC3S1': 4.0, 'temp': 26.06, 'lipoC3S3': 12.12, 'lipoC3S2': 8.01, 'rot1': 0, 'rot0': 0, 'rot3': 0, 'rot2': 0, 'state': 'normal', 'yaw': -0.1, 'datetime': '2018-10-05 14:24:58.127556', 'mgs': 1, 'volt': 0.7861, 'depth': -0.217, 'time': 4, 'pitch': 73.22, 'roll': -82.37, 'pres': 161}
{'lipoC2': 8.2, 'lipoC3S1': 4.0, 'temp': 26.0, 'lipoC3S3': 12.12, 'lipoC3S2': 8.01, 'rot1': 0, 'rot0': 0, 'rot3': 0, 'rot2': 0, 'state': 'normal', 'yaw': -0.1, 'datetime': '2018-10-05 14:24:58.137469', 'mgs': 1, 'volt': 0.7861, 'depth': -0.217, 'time': 4, 'pitch': 73.22, 'roll': -82.37, 'pres': 161}
{'lipoC2': 8.2, 'lipoC3S1': 4.0, 'temp': 26.0, 'lipoC3S3': 12.12, 'lipoC3S2': 8.01, 'rot1': 0, 'rot0': 0, 'rot3': 0, 'rot2': 0, 'state': 'normal', 'yaw': -0.1, 'datetime': '2018-10-05 14:24:58.147366', 'mgs': 1, 'volt': 0.7861, 'depth': -0.217, 'time': 4, 'pitch': 73.22, 'roll': -82.37, 'pres': 161}
{'lipoC2': 8.2, 'lipoC3S1': 4.0, 'temp': 26.06, 'lipoC3S3': 12.12, 'lipoC3S2': 8.01, 'rot1': 0, 'rot0': 0, 'rot3': 0, 'rot2': 0, 'state': 'normal', 'yaw': -0.04, 'datetime': '2018-10-05 14:24:58.156863', 'mgs': 1, 'volt': 0.7861, 'depth': -0.217, 'time': 4, 'pitch': 73.2, 'roll': -82.3, 'pres': 161}
{'lipoC2': 8.2, 'lipoC3S1': 3.99, 'temp': 26.06, 'lipoC3S3': 12.12, 'lipoC3S2': 8.01, 'rot1': 0, 'rot0': 0, 'rot3': 0, 'rot2': 0, 'state': 'normal', 'yaw': -0.04, 'datetime': '2018-10-05 14:24:58.166237', 'mgs': 1, 'volt': 0.7813, 'depth': -0.293, 'time': 4, 'pitch': 73.2, 'roll': -82.3, 'pres': 160}
{'lipoC2': 8.2, 'lipoC3S1': 3.99, 'temp': 26.06, 'lipoC3S3': 12.12, 'lipoC3S2': 8.01, 'rot1': 0, 'rot0': 0, 'rot3': 0, 'rot2': 0, 'state': 'normal', 'yaw': 0.06, 'datetime': '2018-10-05 14:24:58.175606', 'mgs': 1, 'volt': 0.7813, 'depth': -0.293, 'time': 5, 'pitch': 73.2, 'roll': -82.21, 'pres': 160}
{'lipoC2': 8.2, 'lipoC3S1': 3.99, 'temp': 26.06, 'lipoC3S3': 12.12, 'lipoC3S2': 8.01, 'rot1': 0, 'rot0': 0, 'rot3': 0, 'rot2': 0, 'state': 'normal', 'yaw': 0.03, 'datetime': '2018-10-05 14:24:58.184975', 'mgs': 1, 'volt': 0.7861, 'depth': -0.217, 'time': 5, 'pitch': 73.22, 'roll': -82.24, 'pres': 161}
{'lipoC2': 8.2, 'lipoC3S1': 3.99, 'temp': 26.06, 'lipoC3S3': 12.12, 'lipoC3S2': 8.01, 'rot1': 0, 'rot0': 0, 'rot3': 0, 'rot2': 0, 'state': 'normal', 'yaw': 0.06, 'datetime': '2018-10-05 14:24:58.194278', 'mgs': 1, 'volt': 0.7813, 'depth': -0.293, 'time': 5, 'pitch': 73.2, 'roll': -82.21, 'pres': 160}
{'lipoC2': 8.2, 'lipoC3S1': 3.99, 'temp': 26.06, 'lipoC3S3': 12.12, 'lipoC3S2': 8.01, 'rot1': 0, 'rot0': 0, 'rot3': 0, 'rot2': 0, 'state': 'normal', 'yaw': 0.06, 'datetime': '2018-10-05 14:24:58.203601', 'mgs': 1, 'volt': 0.7813, 'depth': -0.293, 'time': 5, 'pitch': 73.2, 'roll': -82.21, 'pres': 160}
{'lipoC2': 8.2, 'lipoC3S1': 4.0, 'temp': 26.06, 'lipoC3S3': 12.12, 'lipoC3S2': 8.01, 'rot1': 0, 'rot0': 0, 'rot3': 0, 'rot2': 0, 'state': 'normal', 'yaw': 0.06, 'datetime': '2018-10-05 14:24:58.212922', 'mgs': 1, 'volt': 0.7813, 'depth': -0.293, 'time': 5, 'pitch': 73.2, 'roll': -82.21, 'pres': 160}
{'lipoC2': 8.2, 'lipoC3S1': 4.0, 'temp': 26.0, 'lipoC3S3': 12.12, 'lipoC3S2': 8.01, 'rot1': 0, 'rot0': 0, 'rot3': 0, 'rot2': 0, 'state': 'normal', 'yaw': 0.06, 'datetime': '2018-10-05 14:24:58.222265', 'mgs': 1, 'volt': 0.7861, 'depth': -0.217, 'time': 5, 'pitch': 73.2, 'roll': -82.21, 'pres': 161}
{'lipoC2': 8.2, 'lipoC3S1': 4.0, 'temp': 26.0, 'lipoC3S3': 12.12, 'lipoC3S2': 8.01, 'rot1': 0, 'rot0': 0, 'rot3': 0, 'rot2': 0, 'state': 'normal', 'yaw': 0.03, 'datetime': '2018-10-05 14:24:58.231613', 'mgs': 1, 'volt': 0.7861, 'depth': -0.217, 'time': 5, 'pitch': 73.22, 'roll': -82.24, 'pres': 161}
{'lipoC2': 8.2, 'lipoC3S1': 4.0, 'temp': 26.0, 'lipoC3S3': 12.12, 'lipoC3S2': 8.01, 'rot1': 0, 'rot0': 0, 'rot3': 0, 'rot2': 0, 'state': 'normal', 'yaw': 0.02, 'datetime': '2018-10-05 14:24:58.240945', 'mgs': 1, 'volt': 0.7813, 'depth': -0.293, 'time': 5, 'pitch': 73.22, 'roll': -82.24, 'pres': 160}
{'lipoC2': 8.2, 'lipoC3S1': 4.0, 'temp': 26.0, 'lipoC3S3': 12.12, 'lipoC3S2': 8.01, 'rot1': 0, 'rot0': 0, 'rot3': 0, 'rot2': 0, 'state': 'normal', 'yaw': 0.09, 'datetime': '2018-10-05 14:24:58.250301', 'mgs': 1, 'volt': 0.7813, 'depth': -0.293, 'time': 5, 'pitch': 73.2, 'roll': -82.18, 'pres': 160}
{'lipoC2': 8.2, 'lipoC3S1': 3.99, 'temp': 26.0, 'lipoC3S3': 12.1, 'lipoC3S2': 8.0, 'rot1': 0, 'rot0': 0, 'rot3': 0, 'rot2': 0, 'state': 'normal', 'yaw': -0.07, 'datetime': '2018-10-05 14:24:58.259670', 'mgs': 1, 'volt': 0.7813, 'depth': -0.293, 'time': 6, 'pitch': 73.22, 'roll': -82.33, 'pres': 160}
{'lipoC2': 8.2, 'lipoC3S1': 3.99, 'temp': 26.0, 'lipoC3S3': 12.1, 'lipoC3S2': 8.0, 'rot1': 0, 'rot0': 0, 'rot3': 0, 'rot2': 0, 'state': 'normal', 'yaw': -0.01, 'datetime': '2018-10-05 14:24:58.269057', 'mgs': 1, 'volt': 0.7813, 'depth': -0.293, 'time': 6, 'pitch': 73.22, 'roll': -82.27, 'pres': 160}
{'lipoC2': 8.2, 'lipoC3S1': 3.99, 'temp': 26.0, 'lipoC3S3': 12.1, 'lipoC3S2': 8.0, 'rot1': 0, 'rot0': 0, 'rot3': 0, 'rot2': 0, 'state': 'normal', 'yaw': -0.04, 'datetime': '2018-10-05 14:24:58.278580', 'mgs': 1, 'volt': 0.7813, 'depth': -0.293, 'time': 6, 'pitch': 73.22, 'roll': -82.32, 'pres': 160}
{'lipoC2': 8.19, 'lipoC3S1': 3.99, 'temp': 25.94, 'lipoC3S3': 12.1, 'lipoC3S2': 8.0, 'rot1': 0, 'rot0': 0, 'rot3': 0, 'rot2': 0, 'state': 'normal', 'yaw': 0.05, 'datetime': '2018-10-05 14:24:58.288015', 'mgs': 1, 'volt': 0.7861, 'depth': -0.217, 'time': 6, 'pitch': 73.2, 'roll': -82.22, 'pres': 161}
{'lipoC2': 8.19, 'lipoC3S1': 3.99, 'temp': 25.94, 'lipoC3S3': 12.1, 'lipoC3S2': 8.0, 'rot1': 0, 'rot0': 0, 'rot3': 0, 'rot2': 0, 'state': 'normal', 'yaw': -0.01, 'datetime': '2018-10-05 14:24:58.297419', 'mgs': 1, 'volt': 0.7813, 'depth': -0.293, 'time': 6, 'pitch': 73.22, 'roll': -82.28, 'pres': 160}
{'lipoC2': 8.2, 'lipoC3S1': 3.99, 'temp': 25.94, 'lipoC3S3': 12.1, 'lipoC3S2': 8.0, 'rot1': 0, 'rot0': 0, 'rot3': 0, 'rot2': 0, 'state': 'normal', 'yaw': 0.02, 'datetime': '2018-10-05 14:24:58.306746', 'mgs': 1, 'volt': 0.7813, 'depth': -0.293, 'time': 6, 'pitch': 73.22, 'roll': -82.25, 'pres': 160}
{'lipoC2': 8.19, 'lipoC3S1': 3.99, 'temp': 25.94, 'lipoC3S3': 12.1, 'lipoC3S2': 8.0, 'rot1': 0, 'rot0': 0, 'rot3': 0, 'rot2': 0, 'state': 'normal', 'yaw': 0.02, 'datetime': '2018-10-05 14:24:58.316114', 'mgs': 1, 'volt': 0.7813, 'depth': -0.293, 'time': 6, 'pitch': 73.2, 'roll': -82.25, 'pres': 160}
{'lipoC2': 8.2, 'lipoC3S1': 3.99, 'temp': 25.94, 'lipoC3S3': 12.1, 'lipoC3S2': 8.0, 'rot1': 0, 'rot0': 0, 'rot3': 0, 'rot2': 0, 'state': 'normal', 'yaw': 0.02, 'datetime': '2018-10-05 14:24:58.390219', 'mgs': 1, 'volt': 0.7813, 'depth': -0.293, 'time': 6, 'pitch': 73.2, 'roll': -82.25, 'pres': 160}
{'lipoC2': 8.2, 'lipoC3S1': 3.99, 'temp': 25.94, 'lipoC3S3': 12.1, 'lipoC3S2': 8.0, 'rot1': 0, 'rot0': 0, 'rot3': 0, 'rot2': 0, 'state': 'normal', 'yaw': -0.01, 'datetime': '2018-10-05 14:24:58.493778', 'mgs': 1, 'volt': 0.7813, 'depth': -0.293, 'time': 6, 'pitch': 73.22, 'roll': -82.28, 'pres': 160}
{'lipoC2': 8.2, 'lipoC3S1': 3.99, 'temp': 25.94, 'lipoC3S3': 12.12, 'lipoC3S2': 8.0, 'rot1': 0, 'rot0': 0, 'rot3': 0, 'rot2': 0, 'state': 'normal', 'yaw': 0.02, 'datetime': '2018-10-05 14:24:58.597137', 'mgs': 1, 'volt': 0.7813, 'depth': -0.293, 'time': 6, 'pitch': 73.2, 'roll': -82.25, 'pres': 160}
{'lipoC2': 8.2, 'lipoC3S1': 3.99, 'temp': 26.0, 'lipoC3S3': 12.1, 'lipoC3S2': 8.0, 'rot1': 0, 'rot0': 0, 'rot3': 0, 'rot2': 0, 'state': 'normal', 'yaw': 0.02, 'datetime': '2018-10-05 14:24:58.701820', 'mgs': 1, 'volt': 0.7813, 'depth': -0.293, 'time': 7, 'pitch': 73.22, 'roll': -82.25, 'pres': 160}
{'lipoC2': 8.2, 'lipoC3S1': 3.99, 'temp': 26.0, 'lipoC3S3': 12.1, 'lipoC3S2': 8.0, 'rot1': 0, 'rot0': 0, 'rot3': 0, 'rot2': 0, 'state': 'normal', 'yaw': 0.02, 'datetime': '2018-10-05 14:24:58.805258', 'mgs': 1, 'volt': 0.7813, 'depth': -0.293, 'time': 7, 'pitch': 73.22, 'roll': -82.25, 'pres': 160}
{'lipoC2': 8.2, 'lipoC3S1': 3.99, 'temp': 26.0, 'lipoC3S3': 12.1, 'lipoC3S2': 8.0, 'rot1': 0, 'rot0': 0, 'rot3': 0, 'rot2': 0, 'state': 'normal', 'yaw': 0.02, 'datetime': '2018-10-05 14:24:58.908599', 'mgs': 1, 'volt': 0.7813, 'depth': -0.293, 'time': 7, 'pitch': 73.22, 'roll': -82.25, 'pres': 160}
{'lipoC2': 8.2, 'lipoC3S1': 3.99, 'temp': 26.0, 'lipoC3S3': 12.1, 'lipoC3S2': 8.0, 'rot1': 0, 'rot0': 0, 'rot3': 0, 'rot2': 0, 'state': 'normal', 'yaw': 0.02, 'datetime': '2018-10-05 14:24:59.011965', 'mgs': 1, 'volt': 0.7813, 'depth': -0.293, 'time': 7, 'pitch': 73.22, 'roll': -82.25, 'pres': 160}
{'lipoC2': 8.2, 'lipoC3S1': 3.99, 'temp': 26.0, 'lipoC3S3': 12.1, 'lipoC3S2': 8.0, 'rot1': 0, 'rot0': 0, 'rot3': 0, 'rot2': 0, 'state': 'normal', 'yaw': -0.02, 'datetime': '2018-10-05 14:24:59.116240', 'mgs': 1, 'volt': 0.7813, 'depth': -0.293, 'time': 7, 'pitch': 73.2, 'roll': -82.29, 'pres': 160}
{'lipoC2': 8.2, 'lipoC3S1': 3.99, 'temp': 26.0, 'lipoC3S3': 12.1, 'lipoC3S2': 8.0, 'rot1': 0, 'rot0': 0, 'rot3': 0, 'rot2': 0, 'state': 'normal', 'yaw': -0.02, 'datetime': '2018-10-05 14:24:59.219589', 'mgs': 1, 'volt': 0.7813, 'depth': -0.293, 'time': 7, 'pitch': 73.2, 'roll': -82.29, 'pres': 160}
{'lipoC2': 8.2, 'lipoC3S1': 3.99, 'temp': 26.0, 'lipoC3S3': 12.1, 'lipoC3S2': 8.0, 'rot1': 0, 'rot0': 0, 'rot3': 0, 'rot2': 0, 'state': 'normal', 'yaw': -0.02, 'datetime': '2018-10-05 14:24:59.324327', 'mgs': 1, 'volt': 0.7813, 'depth': -0.293, 'time': 7, 'pitch': 73.2, 'roll': -82.29, 'pres': 160}
{'lipoC2': 8.2, 'lipoC3S1': 3.99, 'temp': 26.0, 'lipoC3S3': 12.1, 'lipoC3S2': 8.0, 'rot1': 0, 'rot0': 0, 'rot3': 0, 'rot2': 0, 'state': 'normal', 'yaw': -0.02, 'datetime': '2018-10-05 14:24:59.427732', 'mgs': 1, 'volt': 0.7813, 'depth': -0.293, 'time': 7, 'pitch': 73.2, 'roll': -82.29, 'pres': 160}
{'lipoC2': 8.2, 'lipoC3S1': 3.99, 'temp': 26.0, 'lipoC3S3': 12.1, 'lipoC3S2': 8.0, 'rot1': 0, 'rot0': 0, 'rot3': 0, 'rot2': 0, 'state': 'normal', 'yaw': -0.02, 'datetime': '2018-10-05 14:24:59.531127', 'mgs': 1, 'volt': 0.7813, 'depth': -0.293, 'time': 7, 'pitch': 73.2, 'roll': -82.29, 'pres': 160}
{'lipoC2': 8.2, 'lipoC3S1': 3.99, 'temp': 26.0, 'lipoC3S3': 12.1, 'lipoC3S2': 8.0, 'rot1': 0, 'rot0': 0, 'rot3': 0, 'rot2': 0, 'state': 'normal', 'yaw': -0.02, 'datetime': '2018-10-05 14:24:59.635820', 'mgs': 1, 'volt': 0.7813, 'depth': -0.293, 'time': 7, 'pitch': 73.2, 'roll': -82.29, 'pres': 160}
{'lipoC2': 8.2, 'lipoC3S1': 3.99, 'temp': 26.0, 'lipoC3S3': 12.1, 'lipoC3S2': 8.0, 'rot1': 0, 'rot0': 0, 'rot3': 0, 'rot2': 0, 'state': 'normal', 'yaw': -0.02, 'datetime': '2018-10-05 14:24:59.739226', 'mgs': 1, 'volt': 0.7813, 'depth': -0.293, 'time': 8, 'pitch': 73.2, 'roll': -82.29, 'pres': 160}
{'lipoC2': 8.2, 'lipoC3S1': 3.99, 'temp': 26.0, 'lipoC3S3': 12.1, 'lipoC3S2': 8.0, 'rot1': 0, 'rot0': 0, 'rot3': 0, 'rot2': 0, 'state': 'normal', 'yaw': -0.02, 'datetime': '2018-10-05 14:24:59.842660', 'mgs': 1, 'volt': 0.7813, 'depth': -0.293, 'time': 8, 'pitch': 73.2, 'roll': -82.29, 'pres': 160}
{'lipoC2': 8.2, 'lipoC3S1': 3.99, 'temp': 26.0, 'lipoC3S3': 12.1, 'lipoC3S2': 8.0, 'rot1': 0, 'rot0': 0, 'rot3': 0, 'rot2': 0, 'state': 'normal', 'yaw': -0.02, 'datetime': '2018-10-05 14:24:59.947358', 'mgs': 1, 'volt': 0.7813, 'depth': -0.293, 'time': 8, 'pitch': 73.2, 'roll': -82.29, 'pres': 160}
{'lipoC2': 8.2, 'lipoC3S1': 3.99, 'temp': 26.0, 'lipoC3S3': 12.1, 'lipoC3S2': 8.0, 'rot1': 0, 'rot0': 0, 'rot3': 0, 'rot2': 0, 'state': 'normal', 'yaw': -0.02, 'datetime': '2018-10-05 14:25:00.050781', 'mgs': 1, 'volt': 0.7813, 'depth': -0.293, 'time': 8, 'pitch': 73.2, 'roll': -82.29, 'pres': 160}
{'lipoC2': 8.2, 'lipoC3S1': 3.99, 'temp': 26.0, 'lipoC3S3': 12.1, 'lipoC3S2': 8.0, 'rot1': 0, 'rot0': 0, 'rot3': 0, 'rot2': 0, 'state': 'normal', 'yaw': -0.02, 'datetime': '2018-10-05 14:25:00.154916', 'mgs': 1, 'volt': 0.7813, 'depth': -0.293, 'time': 8, 'pitch': 73.2, 'roll': -82.29, 'pres': 160}
{'lipoC2': 8.2, 'lipoC3S1': 3.99, 'temp': 26.0, 'lipoC3S3': 12.1, 'lipoC3S2': 8.0, 'rot1': 0, 'rot0': 0, 'rot3': 0, 'rot2': 0, 'state': 'normal', 'yaw': -0.05, 'datetime': '2018-10-05 14:25:00.259506', 'mgs': 1, 'volt': 0.7813, 'depth': -0.293, 'time': 8, 'pitch': 73.21, 'roll': -82.32, 'pres': 160}
{'lipoC2': 8.2, 'lipoC3S1': 3.99, 'temp': 26.0, 'lipoC3S3': 12.1, 'lipoC3S2': 8.0, 'rot1': 0, 'rot0': 0, 'rot3': 0, 'rot2': 0, 'state': 'normal', 'yaw': -0.01, 'datetime': '2018-10-05 14:25:00.362836', 'mgs': 1, 'volt': 0.7813, 'depth': -0.293, 'time': 8, 'pitch': 73.2, 'roll': -82.28, 'pres': 160}
{'lipoC2': 8.2, 'lipoC3S1': 3.99, 'temp': 26.0, 'lipoC3S3': 12.1, 'lipoC3S2': 8.0, 'rot1': 0, 'rot0': 0, 'rot3': 0, 'rot2': 0, 'state': 'normal', 'yaw': 0.05, 'datetime': '2018-10-05 14:25:00.466226', 'mgs': 1, 'volt': 0.7813, 'depth': -0.293, 'time': 8, 'pitch': 73.2, 'roll': -82.22, 'pres': 160}
{'lipoC2': 8.2, 'lipoC3S1': 3.99, 'temp': 26.0, 'lipoC3S3': 12.1, 'lipoC3S2': 8.0, 'rot1': 0, 'rot0': 0, 'rot3': 0, 'rot2': 0, 'state': 'normal', 'yaw': 0.08, 'datetime': '2018-10-05 14:25:00.570374', 'mgs': 1, 'volt': 0.7813, 'depth': -0.293, 'time': 8, 'pitch': 73.2, 'roll': -82.19, 'pres': 160}
{'lipoC2': 8.2, 'lipoC3S1': 3.99, 'temp': 26.0, 'lipoC3S3': 12.1, 'lipoC3S2': 8.0, 'rot1': 0, 'rot0': 0, 'rot3': 0, 'rot2': 0, 'state': 'normal', 'yaw': 0.08, 'datetime': '2018-10-05 14:25:00.673773', 'mgs': 1, 'volt': 0.7813, 'depth': -0.293, 'time': 9, 'pitch': 73.2, 'roll': -82.19, 'pres': 160}
{'lipoC2': 8.2, 'lipoC3S1': 3.99, 'temp': 26.0, 'lipoC3S3': 12.1, 'lipoC3S2': 8.0, 'rot1': 0, 'rot0': 0, 'rot3': 0, 'rot2': 0, 'state': 'normal', 'yaw': 0.12, 'datetime': '2018-10-05 14:25:00.778480', 'mgs': 1, 'volt': 0.7813, 'depth': -0.293, 'time': 9, 'pitch': 73.2, 'roll': -82.16, 'pres': 160}
{'lipoC2': 8.2, 'lipoC3S1': 3.99, 'temp': 25.94, 'lipoC3S3': 12.1, 'lipoC3S2': 8.0, 'rot1': 0, 'rot0': 0, 'rot3': 0, 'rot2': 0, 'state': 'normal', 'yaw': 0.12, 'datetime': '2018-10-05 14:25:00.881856', 'mgs': 1, 'volt': 0.7813, 'depth': -0.293, 'time': 9, 'pitch': 73.2, 'roll': -82.16, 'pres': 160}
{'lipoC2': 8.2, 'lipoC3S1': 3.99, 'temp': 25.94, 'lipoC3S3': 12.1, 'lipoC3S2': 8.0, 'rot1': 0, 'rot0': 0, 'rot3': 0, 'rot2': 0, 'state': 'normal', 'yaw': 0.12, 'datetime': '2018-10-05 14:25:00.985305', 'mgs': 1, 'volt': 0.7813, 'depth': -0.293, 'time': 9, 'pitch': 73.2, 'roll': -82.16, 'pres': 160}
{'lipoC2': 8.2, 'lipoC3S1': 3.99, 'temp': 26.0, 'lipoC3S3': 12.1, 'lipoC3S2': 8.0, 'rot1': 0, 'rot0': 0, 'rot3': 0, 'rot2': 0, 'state': 'normal', 'yaw': 0.12, 'datetime': '2018-10-05 14:25:01.090031', 'mgs': 1, 'volt': 0.7861, 'depth': -0.217, 'time': 9, 'pitch': 73.2, 'roll': -82.16, 'pres': 161}
{'lipoC2': 8.2, 'lipoC3S1': 3.99, 'temp': 26.0, 'lipoC3S3': 12.1, 'lipoC3S2': 8.0, 'rot1': 0, 'rot0': 0, 'rot3': 0, 'rot2': 0, 'state': 'normal', 'yaw': 0.12, 'datetime': '2018-10-05 14:25:01.193393', 'mgs': 1, 'volt': 0.7813, 'depth': -0.293, 'time': 9, 'pitch': 73.2, 'roll': -82.16, 'pres': 160}
{'lipoC2': 8.2, 'lipoC3S1': 3.99, 'temp': 26.0, 'lipoC3S3': 12.1, 'lipoC3S2': 8.0, 'rot1': 0, 'rot0': 0, 'rot3': 0, 'rot2': 0, 'state': 'normal', 'yaw': 0.12, 'datetime': '2018-10-05 14:25:01.296810', 'mgs': 1, 'volt': 0.7813, 'depth': -0.293, 'time': 9, 'pitch': 73.2, 'roll': -82.16, 'pres': 160}
{'lipoC2': 8.2, 'lipoC3S1': 3.99, 'temp': 26.0, 'lipoC3S3': 12.1, 'lipoC3S2': 8.0, 'rot1': 0, 'rot0': 0, 'rot3': 0, 'rot2': 0, 'state': 'normal', 'yaw': 0.12, 'datetime': '2018-10-05 14:25:01.401454', 'mgs': 1, 'volt': 0.7813, 'depth': -0.293, 'time': 9, 'pitch': 73.2, 'roll': -82.16, 'pres': 160}
{'lipoC2': 8.2, 'lipoC3S1': 3.99, 'temp': 26.0, 'lipoC3S3': 12.1, 'lipoC3S2': 8.0, 'rot1': 0, 'rot0': 0, 'rot3': 0, 'rot2': 0, 'state': 'normal', 'yaw': 0.12, 'datetime': '2018-10-05 14:25:01.504890', 'mgs': 1, 'volt': 0.7813, 'depth': -0.293, 'time': 9, 'pitch': 73.2, 'roll': -82.16, 'pres': 160}
{'lipoC2': 8.2, 'lipoC3S1': 3.99, 'temp': 26.0, 'lipoC3S3': 12.1, 'lipoC3S2': 8.0, 'rot1': 0, 'rot0': 0, 'rot3': 0, 'rot2': 0, 'state': 'normal', 'yaw': 0.12, 'datetime': '2018-10-05 14:25:01.608275', 'mgs': 1, 'volt': 0.7813, 'depth': -0.293, 'time': 9, 'pitch': 73.2, 'roll': -82.16, 'pres': 160}
{'lipoC2': 8.2, 'lipoC3S1': 3.99, 'temp': 26.0, 'lipoC3S3': 12.1, 'lipoC3S2': 8.0, 'rot1': 0, 'rot0': 0, 'rot3': 0, 'rot2': 0, 'state': 'normal', 'yaw': 0.12, 'datetime': '2018-10-05 14:25:01.713068', 'mgs': 1, 'volt': 0.7813, 'depth': -0.293, 'time': 10, 'pitch': 73.2, 'roll': -82.16, 'pres': 160}
{'lipoC2': 8.2, 'lipoC3S1': 3.99, 'temp': 26.0, 'lipoC3S3': 12.1, 'lipoC3S2': 8.0, 'rot1': 0, 'rot0': 0, 'rot3': 0, 'rot2': 0, 'state': 'normal', 'yaw': 0.12, 'datetime': '2018-10-05 14:25:01.816662', 'mgs': 1, 'volt': 0.7813, 'depth': -0.293, 'time': 10, 'pitch': 73.2, 'roll': -82.16, 'pres': 160}
{'lipoC2': 8.2, 'lipoC3S1': 3.99, 'temp': 26.0, 'lipoC3S3': 12.1, 'lipoC3S2': 8.0, 'rot1': 0, 'rot0': 0, 'rot3': 0, 'rot2': 0, 'state': 'normal', 'yaw': 0.12, 'datetime': '2018-10-05 14:25:01.920101', 'mgs': 1, 'volt': 0.7813, 'depth': -0.293, 'time': 10, 'pitch': 73.2, 'roll': -82.16, 'pres': 160}
{'lipoC2': 8.2, 'lipoC3S1': 3.99, 'temp': 26.0, 'lipoC3S3': 12.1, 'lipoC3S2': 8.0, 'rot1': 0, 'rot0': 0, 'rot3': 0, 'rot2': 0, 'state': 'normal', 'yaw': 0.12, 'datetime': '2018-10-05 14:25:02.024652', 'mgs': 1, 'volt': 0.7813, 'depth': -0.293, 'time': 10, 'pitch': 73.2, 'roll': -82.16, 'pres': 160}
{'lipoC2': 8.2, 'lipoC3S1': 3.99, 'temp': 26.0, 'lipoC3S3': 12.1, 'lipoC3S2': 8.0, 'rot1': 0, 'rot0': 0, 'rot3': 0, 'rot2': 0, 'state': 'normal', 'yaw': 0.12, 'datetime': '2018-10-05 14:25:02.128118', 'mgs': 1, 'volt': 0.7813, 'depth': -0.293, 'time': 10, 'pitch': 73.2, 'roll': -82.16, 'pres': 160}
{'lipoC2': 8.2, 'lipoC3S1': 3.99, 'temp': 26.0, 'lipoC3S3': 12.1, 'lipoC3S2': 8.0, 'rot1': 0, 'rot0': 0, 'rot3': 0, 'rot2': 0, 'state': 'normal', 'yaw': 0.12, 'datetime': '2018-10-05 14:25:02.232884', 'mgs': 1, 'volt': 0.7813, 'depth': -0.293, 'time': 10, 'pitch': 73.2, 'roll': -82.16, 'pres': 160}
{'lipoC2': 8.2, 'lipoC3S1': 3.99, 'temp': 26.0, 'lipoC3S3': 12.1, 'lipoC3S2': 8.0, 'rot1': 0, 'rot0': 0, 'rot3': 0, 'rot2': 0, 'state': 'normal', 'yaw': 0.12, 'datetime': '2018-10-05 14:25:02.336439', 'mgs': 1, 'volt': 0.7813, 'depth': -0.293, 'time': 10, 'pitch': 73.2, 'roll': -82.16, 'pres': 160}
{'lipoC2': 8.2, 'lipoC3S1': 3.99, 'temp': 26.0, 'lipoC3S3': 12.1, 'lipoC3S2': 8.0, 'rot1': 0, 'rot0': 0, 'rot3': 0, 'rot2': 0, 'state': 'normal', 'yaw': 0.08, 'datetime': '2018-10-05 14:25:02.439878', 'mgs': 1, 'volt': 0.7813, 'depth': -0.293, 'time': 10, 'pitch': 73.21, 'roll': -82.19, 'pres': 160}
{'lipoC2': 8.2, 'lipoC3S1': 3.99, 'temp': 26.0, 'lipoC3S3': 12.1, 'lipoC3S2': 8.0, 'rot1': 0, 'rot0': 0, 'rot3': 0, 'rot2': 0, 'state': 'normal', 'yaw': 0.08, 'datetime': '2018-10-05 14:25:02.544714', 'mgs': 1, 'volt': 0.7813, 'depth': -0.293, 'time': 10, 'pitch': 73.2, 'roll': -82.19, 'pres': 160}
{'lipoC2': 8.2, 'lipoC3S1': 3.99, 'temp': 26.0, 'lipoC3S3': 12.1, 'lipoC3S2': 8.0, 'rot1': 0, 'rot0': 0, 'rot3': 0, 'rot2': 0, 'state': 'normal', 'yaw': 0.05, 'datetime': '2018-10-05 14:25:02.648178', 'mgs': 1, 'volt': 0.7813, 'depth': -0.293, 'time': 11, 'pitch': 73.2, 'roll': -82.22, 'pres': 160}
{'lipoC2': 8.2, 'lipoC3S1': 3.99, 'temp': 26.0, 'lipoC3S3': 12.1, 'lipoC3S2': 8.0, 'rot1': 0, 'rot0': 0, 'rot3': 0, 'rot2': 0, 'state': 'normal', 'yaw': -0.05, 'datetime': '2018-10-05 14:25:02.751982', 'mgs': 1, 'volt': 0.7813, 'depth': -0.293, 'time': 11, 'pitch': 73.21, 'roll': -82.32, 'pres': 160}
{'lipoC2': 8.2, 'lipoC3S1': 3.99, 'temp': 25.94, 'lipoC3S3': 12.1, 'lipoC3S2': 8.0, 'rot1': 0, 'rot0': 0, 'rot3': 0, 'rot2': 0, 'state': 'normal', 'yaw': -0.01, 'datetime': '2018-10-05 14:25:02.856724', 'mgs': 1, 'volt': 0.7813, 'depth': -0.293, 'time': 11, 'pitch': 73.22, 'roll': -82.28, 'pres': 160}
{'lipoC2': 8.2, 'lipoC3S1': 3.99, 'temp': 25.94, 'lipoC3S3': 12.1, 'lipoC3S2': 8.0, 'rot1': 0, 'rot0': 0, 'rot3': 0, 'rot2': 0, 'state': 'normal', 'yaw': -0.04, 'datetime': '2018-10-05 14:25:02.960280', 'mgs': 1, 'volt': 0.7813, 'depth': -0.293, 'time': 11, 'pitch': 73.23, 'roll': -82.29, 'pres': 160}
{'lipoC2': 8.2, 'lipoC3S1': 3.99, 'temp': 26.0, 'lipoC3S3': 12.1, 'lipoC3S2': 8.0, 'rot1': 0, 'rot0': 0, 'rot3': 0, 'rot2': 0, 'state': 'normal', 'yaw': 0.03, 'datetime': '2018-10-05 14:25:03.064973', 'mgs': 1, 'volt': 0.7813, 'depth': -0.293, 'time': 11, 'pitch': 73.22, 'roll': -82.23, 'pres': 160}
{'lipoC2': 8.2, 'lipoC3S1': 3.99, 'temp': 26.0, 'lipoC3S3': 12.1, 'lipoC3S2': 8.0, 'rot1': 0, 'rot0': 0, 'rot3': 0, 'rot2': 0, 'state': 'normal', 'yaw': -0.13, 'datetime': '2018-10-05 14:25:03.175744', 'mgs': 1, 'volt': 0.7813, 'depth': -0.293, 'time': 11, 'pitch': 73.22, 'roll': -82.39, 'pres': 160}
{'lipoC2': 8.2, 'lipoC3S1': 3.99, 'temp': 26.0, 'lipoC3S3': 12.1, 'lipoC3S2': 8.0, 'rot1': 0, 'rot0': 0, 'rot3': 0, 'rot2': 0, 'state': 'normal', 'yaw': -0.03, 'datetime': '2018-10-05 14:25:03.272424', 'mgs': 1, 'volt': 0.7813, 'depth': -0.293, 'time': 11, 'pitch': 73.23, 'roll': -82.28, 'pres': 160}
{'lipoC2': 8.2, 'lipoC3S1': 3.99, 'temp': 26.0, 'lipoC3S3': 12.1, 'lipoC3S2': 8.0, 'rot1': 0, 'rot0': 0, 'rot3': 0, 'rot2': 0, 'state': 'normal', 'yaw': -0.09, 'datetime': '2018-10-05 14:25:03.375892', 'mgs': 1, 'volt': 0.7813, 'depth': -0.293, 'time': 11, 'pitch': 73.23, 'roll': -82.34, 'pres': 160}
{'lipoC2': 8.2, 'lipoC3S1': 3.99, 'temp': 26.0, 'lipoC3S3': 12.1, 'lipoC3S2': 8.0, 'rot1': 0, 'rot0': 0, 'rot3': 0, 'rot2': 0, 'state': 'normal', 'yaw': -0.03, 'datetime': '2018-10-05 14:25:03.483408', 'mgs': 1, 'volt': 0.7861, 'depth': -0.217, 'time': 11, 'pitch': 73.21, 'roll': -82.28, 'pres': 161}
{'lipoC2': 8.2, 'lipoC3S1': 3.99, 'temp': 26.0, 'lipoC3S3': 12.1, 'lipoC3S2': 8.0, 'rot1': 0, 'rot0': 0, 'rot3': 0, 'rot2': 0, 'state': 'normal', 'yaw': -0.06, 'datetime': '2018-10-05 14:25:03.588936', 'mgs': 1, 'volt': 0.7813, 'depth': -0.293, 'time': 11, 'pitch': 73.21, 'roll': -82.31, 'pres': 160}
{'lipoC2': 8.2, 'lipoC3S1': 3.99, 'temp': 26.0, 'lipoC3S3': 12.1, 'lipoC3S2': 8.0, 'rot1': 0, 'rot0': 0, 'rot3': 0, 'rot2': 0, 'state': 'normal', 'yaw': -0.08, 'datetime': '2018-10-05 14:25:03.693558', 'mgs': 1, 'volt': 0.7813, 'depth': -0.293, 'time': 12, 'pitch': 73.23, 'roll': -82.33, 'pres': 160}
{'lipoC2': 8.2, 'lipoC3S1': 3.99, 'temp': 26.0, 'lipoC3S3': 12.1, 'lipoC3S2': 8.0, 'rot1': 0, 'rot0': 0, 'rot3': 0, 'rot2': 0, 'state': 'normal', 'yaw': -0.21, 'datetime': '2018-10-05 14:25:03.797309', 'mgs': 1, 'volt': 0.7813, 'depth': -0.293, 'time': 12, 'pitch': 73.24, 'roll': -82.45, 'pres': 160}
{'lipoC2': 8.2, 'lipoC3S1': 3.99, 'temp': 26.0, 'lipoC3S3': 12.1, 'lipoC3S2': 8.0, 'rot1': 0, 'rot0': 0, 'rot3': 0, 'rot2': 0, 'state': 'normal', 'yaw': -0.13, 'datetime': '2018-10-05 14:25:03.900707', 'mgs': 1, 'volt': 0.7813, 'depth': -0.293, 'time': 12, 'pitch': 73.26, 'roll': -82.37, 'pres': 160}
{'lipoC2': 8.2, 'lipoC3S1': 3.99, 'temp': 26.0, 'lipoC3S3': 12.1, 'lipoC3S2': 8.0, 'rot1': 0, 'rot0': 0, 'rot3': 0, 'rot2': 0, 'state': 'normal', 'yaw': -0.11, 'datetime': '2018-10-05 14:25:04.005616', 'mgs': 1, 'volt': 0.7813, 'depth': -0.293, 'time': 12, 'pitch': 73.25, 'roll': -82.34, 'pres': 160}
{'lipoC2': 8.19, 'lipoC3S1': 3.99, 'temp': 26.0, 'lipoC3S3': 12.1, 'lipoC3S2': 8.0, 'rot1': 0, 'rot0': 0, 'rot3': 0, 'rot2': 0, 'state': 'normal', 'yaw': -0.02, 'datetime': '2018-10-05 14:25:04.109459', 'mgs': 1, 'volt': 0.7813, 'depth': -0.293, 'time': 12, 'pitch': 73.25, 'roll': -82.24, 'pres': 160}
{'lipoC2': 8.2, 'lipoC3S1': 3.99, 'temp': 26.0, 'lipoC3S3': 12.1, 'lipoC3S2': 8.0, 'rot1': 0, 'rot0': 0, 'rot3': 0, 'rot2': 0, 'state': 'normal', 'yaw': -0.01, 'datetime': '2018-10-05 14:25:04.213902', 'mgs': 1, 'volt': 0.7813, 'depth': -0.293, 'time': 12, 'pitch': 73.26, 'roll': -82.24, 'pres': 160}
{'lipoC2': 8.2, 'lipoC3S1': 3.99, 'temp': 25.94, 'lipoC3S3': 12.1, 'lipoC3S2': 8.0, 'rot1': 0, 'rot0': 0, 'rot3': 0, 'rot2': 0, 'state': 'normal', 'yaw': -0.08, 'datetime': '2018-10-05 14:25:04.317764', 'mgs': 1, 'volt': 0.7813, 'depth': -0.293, 'time': 12, 'pitch': 73.27, 'roll': -82.3, 'pres': 160}
{'lipoC2': 8.2, 'lipoC3S1': 3.99, 'temp': 25.94, 'lipoC3S3': 12.1, 'lipoC3S2': 8.0, 'rot1': 0, 'rot0': 0, 'rot3': 0, 'rot2': 0, 'state': 'normal', 'yaw': -0.08, 'datetime': '2018-10-05 14:25:04.421220', 'mgs': 1, 'volt': 0.7813, 'depth': -0.293, 'time': 12, 'pitch': 73.25, 'roll': -82.31, 'pres': 160}
{'lipoC2': 8.2, 'lipoC3S1': 3.99, 'temp': 26.0, 'lipoC3S3': 12.1, 'lipoC3S2': 8.0, 'rot1': 0, 'rot0': 0, 'rot3': 0, 'rot2': 0, 'state': 'normal', 'yaw': -0.02, 'datetime': '2018-10-05 14:25:04.525984', 'mgs': 1, 'volt': 0.7813, 'depth': -0.293, 'time': 12, 'pitch': 73.25, 'roll': -82.25, 'pres': 160}
{'lipoC2': 8.2, 'lipoC3S1': 3.99, 'temp': 26.0, 'lipoC3S3': 12.1, 'lipoC3S2': 8.0, 'rot1': 0, 'rot0': 0, 'rot3': 0, 'rot2': 0, 'state': 'normal', 'yaw': -0.0, 'datetime': '2018-10-05 14:25:04.629430', 'mgs': 1, 'volt': 0.7813, 'depth': -0.293, 'time': 12, 'pitch': 73.25, 'roll': -82.23, 'pres': 160}
{'lipoC2': 8.2, 'lipoC3S1': 3.99, 'temp': 25.94, 'lipoC3S3': 12.1, 'lipoC3S2': 8.0, 'rot1': 0, 'rot0': 0, 'rot3': 0, 'rot2': 0, 'state': 'normal', 'yaw': -0.04, 'datetime': '2018-10-05 14:25:04.733121', 'mgs': 1, 'volt': 0.7813, 'depth': -0.293, 'time': 13, 'pitch': 73.23, 'roll': -82.25, 'pres': 160}
{'lipoC2': 8.2, 'lipoC3S1': 3.99, 'temp': 25.94, 'lipoC3S3': 12.1, 'lipoC3S2': 8.0, 'rot1': 0, 'rot0': 0, 'rot3': 0, 'rot2': 0, 'state': 'normal', 'yaw': -0.04, 'datetime': '2018-10-05 14:25:04.836832', 'mgs': 1, 'volt': 0.7813, 'depth': -0.293, 'time': 13, 'pitch': 73.24, 'roll': -82.26, 'pres': 160}
{'lipoC2': 8.2, 'lipoC3S1': 3.99, 'temp': 25.94, 'lipoC3S3': 12.1, 'lipoC3S2': 8.0, 'rot1': 0, 'rot0': 0, 'rot3': 0, 'rot2': 0, 'state': 'normal', 'yaw': -0.07, 'datetime': '2018-10-05 14:25:04.940172', 'mgs': 1, 'volt': 0.7813, 'depth': -0.293, 'time': 13, 'pitch': 73.24, 'roll': -82.29, 'pres': 160}
{'lipoC2': 8.2, 'lipoC3S1': 3.99, 'temp': 25.88, 'lipoC3S3': 12.1, 'lipoC3S2': 8.0, 'rot1': 0, 'rot0': 0, 'rot3': 0, 'rot2': 0, 'state': 'normal', 'yaw': -0.04, 'datetime': '2018-10-05 14:25:05.043635', 'mgs': 1, 'volt': 0.7813, 'depth': -0.293, 'time': 13, 'pitch': 73.24, 'roll': -82.26, 'pres': 160}
{'lipoC2': 8.2, 'lipoC3S1': 3.99, 'temp': 25.88, 'lipoC3S3': 12.1, 'lipoC3S2': 8.0, 'rot1': 0, 'rot0': 0, 'rot3': 0, 'rot2': 0, 'state': 'normal', 'yaw': -0.05, 'datetime': '2018-10-05 14:25:05.148528', 'mgs': 1, 'volt': 0.7813, 'depth': -0.293, 'time': 13, 'pitch': 73.24, 'roll': -82.27, 'pres': 160}
{'lipoC2': 8.2, 'lipoC3S1': 3.99, 'temp': 25.94, 'lipoC3S3': 12.1, 'lipoC3S2': 8.0, 'rot1': 0, 'rot0': 0, 'rot3': 0, 'rot2': 0, 'state': 'normal', 'yaw': -0.13, 'datetime': '2018-10-05 14:25:05.252018', 'mgs': 1, 'volt': 0.7813, 'depth': -0.293, 'time': 13, 'pitch': 73.25, 'roll': -82.35, 'pres': 160}
{'lipoC2': 8.2, 'lipoC3S1': 3.99, 'temp': 25.94, 'lipoC3S3': 12.1, 'lipoC3S2': 8.0, 'rot1': 0, 'rot0': 0, 'rot3': 0, 'rot2': 0, 'state': 'normal', 'yaw': -0.05, 'datetime': '2018-10-05 14:25:05.355788', 'mgs': 1, 'volt': 0.7813, 'depth': -0.293, 'time': 13, 'pitch': 73.22, 'roll': -82.27, 'pres': 160}
{'lipoC2': 8.2, 'lipoC3S1': 3.99, 'temp': 25.94, 'lipoC3S3': 12.1, 'lipoC3S2': 8.0, 'rot1': 0, 'rot0': 0, 'rot3': 0, 'rot2': 0, 'state': 'normal', 'yaw': -0.14, 'datetime': '2018-10-05 14:25:05.460324', 'mgs': 1, 'volt': 0.7813, 'depth': -0.293, 'time': 13, 'pitch': 73.24, 'roll': -82.36, 'pres': 160}
{'lipoC2': 8.2, 'lipoC3S1': 3.99, 'temp': 25.94, 'lipoC3S3': 12.1, 'lipoC3S2': 8.0, 'rot1': 0, 'rot0': 0, 'rot3': 0, 'rot2': 0, 'state': 'normal', 'yaw': -0.11, 'datetime': '2018-10-05 14:25:05.563905', 'mgs': 1, 'volt': 0.7813, 'depth': -0.293, 'time': 13, 'pitch': 73.24, 'roll': -82.33, 'pres': 160}
{'lipoC2': 8.2, 'lipoC3S1': 3.99, 'temp': 25.94, 'lipoC3S3': 12.1, 'lipoC3S2': 8.0, 'rot1': 0, 'rot0': 0, 'rot3': 0, 'rot2': 0, 'state': 'normal', 'yaw': -0.14, 'datetime': '2018-10-05 14:25:05.668541', 'mgs': 1, 'volt': 0.7813, 'depth': -0.293, 'time': 14, 'pitch': 73.24, 'roll': -82.36, 'pres': 160}
{'lipoC2': 8.2, 'lipoC3S1': 3.99, 'temp': 25.94, 'lipoC3S3': 12.1, 'lipoC3S2': 8.0, 'rot1': 0, 'rot0': 0, 'rot3': 0, 'rot2': 0, 'state': 'normal', 'yaw': -0.11, 'datetime': '2018-10-05 14:25:05.772310', 'mgs': 1, 'volt': 0.7813, 'depth': -0.293, 'time': 14, 'pitch': 73.24, 'roll': -82.33, 'pres': 160}
{'lipoC2': 8.2, 'lipoC3S1': 3.99, 'temp': 25.94, 'lipoC3S3': 12.1, 'lipoC3S2': 8.0, 'rot1': 0, 'rot0': 0, 'rot3': 0, 'rot2': 0, 'state': 'normal', 'yaw': -0.11, 'datetime': '2018-10-05 14:25:05.875835', 'mgs': 1, 'volt': 0.7813, 'depth': -0.293, 'time': 14, 'pitch': 73.24, 'roll': -82.33, 'pres': 160}
{'lipoC2': 8.2, 'lipoC3S1': 3.99, 'temp': 25.94, 'lipoC3S3': 12.1, 'lipoC3S2': 8.0, 'rot1': 0, 'rot0': 0, 'rot3': 0, 'rot2': 0, 'state': 'normal', 'yaw': -0.15, 'datetime': '2018-10-05 14:25:05.980598', 'mgs': 1, 'volt': 0.7813, 'depth': -0.293, 'time': 14, 'pitch': 73.22, 'roll': -82.36, 'pres': 160}
{'lipoC2': 8.2, 'lipoC3S1': 3.99, 'temp': 25.94, 'lipoC3S3': 12.1, 'lipoC3S2': 8.0, 'rot1': 0, 'rot0': 0, 'rot3': 0, 'rot2': 0, 'state': 'normal', 'yaw': -0.15, 'datetime': '2018-10-05 14:25:06.084106', 'mgs': 1, 'volt': 0.7813, 'depth': -0.293, 'time': 14, 'pitch': 73.22, 'roll': -82.36, 'pres': 160}
{'lipoC2': 8.2, 'lipoC3S1': 3.99, 'temp': 25.94, 'lipoC3S3': 12.1, 'lipoC3S2': 8.0, 'rot1': 0, 'rot0': 0, 'rot3': 0, 'rot2': 0, 'state': 'normal', 'yaw': -0.18, 'datetime': '2018-10-05 14:25:06.187567', 'mgs': 1, 'volt': 0.7813, 'depth': -0.293, 'time': 14, 'pitch': 73.24, 'roll': -82.4, 'pres': 160}
{'lipoC2': 8.2, 'lipoC3S1': 3.99, 'temp': 25.94, 'lipoC3S3': 12.1, 'lipoC3S2': 8.0, 'rot1': 0, 'rot0': 0, 'rot3': 0, 'rot2': 0, 'state': 'normal', 'yaw': -0.15, 'datetime': '2018-10-05 14:25:06.291924', 'mgs': 1, 'volt': 0.7813, 'depth': -0.293, 'time': 14, 'pitch': 73.24, 'roll': -82.37, 'pres': 160}
{'lipoC2': 8.2, 'lipoC3S1': 3.99, 'temp': 25.94, 'lipoC3S3': 12.1, 'lipoC3S2': 8.0, 'rot1': 0, 'rot0': 0, 'rot3': 0, 'rot2': 0, 'state': 'normal', 'yaw': -0.21, 'datetime': '2018-10-05 14:25:06.395199', 'mgs': 1, 'volt': 0.7813, 'depth': -0.293, 'time': 14, 'pitch': 73.24, 'roll': -82.43, 'pres': 160}
{'lipoC2': 8.19, 'lipoC3S1': 3.99, 'temp': 25.94, 'lipoC3S3': 12.1, 'lipoC3S2': 8.0, 'rot1': 0, 'rot0': 0, 'rot3': 0, 'rot2': 0, 'state': 'normal', 'yaw': -0.21, 'datetime': '2018-10-05 14:25:06.499170', 'mgs': 1, 'volt': 0.7813, 'depth': -0.293, 'time': 14, 'pitch': 73.24, 'roll': -82.43, 'pres': 160}
{'lipoC2': 8.2, 'lipoC3S1': 3.99, 'temp': 25.94, 'lipoC3S3': 12.1, 'lipoC3S2': 8.0, 'rot1': 0, 'rot0': 0, 'rot3': 0, 'rot2': 0, 'state': 'normal', 'yaw': -0.25, 'datetime': '2018-10-05 14:25:06.603773', 'mgs': 1, 'volt': 0.7813, 'depth': -0.293, 'time': 14, 'pitch': 73.24, 'roll': -82.46, 'pres': 160}
{'lipoC2': 8.2, 'lipoC3S1': 3.99, 'temp': 25.94, 'lipoC3S3': 12.1, 'lipoC3S2': 8.0, 'rot1': 0, 'rot0': 0, 'rot3': 0, 'rot2': 0, 'state': 'normal', 'yaw': -0.25, 'datetime': '2018-10-05 14:25:06.707256', 'mgs': 1, 'volt': 0.7861, 'depth': -0.217, 'time': 15, 'pitch': 73.24, 'roll': -82.46, 'pres': 161}
{'lipoC2': 8.2, 'lipoC3S1': 3.99, 'temp': 25.94, 'lipoC3S3': 12.1, 'lipoC3S2': 8.0, 'rot1': 0, 'rot0': 0, 'rot3': 0, 'rot2': 0, 'state': 'normal', 'yaw': -0.25, 'datetime': '2018-10-05 14:25:06.812110', 'mgs': 1, 'volt': 0.7813, 'depth': -0.293, 'time': 15, 'pitch': 73.24, 'roll': -82.46, 'pres': 160}
{'lipoC2': 8.2, 'lipoC3S1': 3.99, 'temp': 25.94, 'lipoC3S3': 12.1, 'lipoC3S2': 8.0, 'rot1': 0, 'rot0': 0, 'rot3': 0, 'rot2': 0, 'state': 'normal', 'yaw': -0.25, 'datetime': '2018-10-05 14:25:06.915651', 'mgs': 1, 'volt': 0.7813, 'depth': -0.293, 'time': 15, 'pitch': 73.24, 'roll': -82.46, 'pres': 160}
{'lipoC2': 8.2, 'lipoC3S1': 3.99, 'temp': 25.94, 'lipoC3S3': 12.1, 'lipoC3S2': 8.0, 'rot1': 0, 'rot0': 0, 'rot3': 0, 'rot2': 0, 'state': 'normal', 'yaw': -0.25, 'datetime': '2018-10-05 14:25:07.019395', 'mgs': 1, 'volt': 0.7813, 'depth': -0.293, 'time': 15, 'pitch': 73.24, 'roll': -82.46, 'pres': 160}
{'lipoC2': 8.2, 'lipoC3S1': 3.99, 'temp': 25.94, 'lipoC3S3': 12.1, 'lipoC3S2': 8.0, 'rot1': 0, 'rot0': 0, 'rot3': 0, 'rot2': 0, 'state': 'normal', 'yaw': -0.25, 'datetime': '2018-10-05 14:25:07.123959', 'mgs': 1, 'volt': 0.7813, 'depth': -0.293, 'time': 15, 'pitch': 73.24, 'roll': -82.46, 'pres': 160}
{'lipoC2': 8.2, 'lipoC3S1': 3.99, 'temp': 26.0, 'lipoC3S3': 12.1, 'lipoC3S2': 8.0, 'rot1': 0, 'rot0': 0, 'rot3': 0, 'rot2': 0, 'state': 'normal', 'yaw': -0.22, 'datetime': '2018-10-05 14:25:07.227651', 'mgs': 1, 'volt': 0.7813, 'depth': -0.293, 'time': 15, 'pitch': 73.23, 'roll': -82.43, 'pres': 160}
{'lipoC2': 8.2, 'lipoC3S1': 3.99, 'temp': 26.0, 'lipoC3S3': 12.1, 'lipoC3S2': 8.0, 'rot1': 0, 'rot0': 0, 'rot3': 0, 'rot2': 0, 'state': 'normal', 'yaw': -0.35, 'datetime': '2018-10-05 14:25:07.331067', 'mgs': 1, 'volt': 0.7813, 'depth': -0.293, 'time': 15, 'pitch': 73.26, 'roll': -82.57, 'pres': 160}
{'lipoC2': 8.19, 'lipoC3S1': 3.99, 'temp': 26.0, 'lipoC3S3': 12.1, 'lipoC3S2': 8.0, 'rot1': 0, 'rot0': 0, 'rot3': 0, 'rot2': 0, 'state': 'normal', 'yaw': -0.2, 'datetime': '2018-10-05 14:25:07.435733', 'mgs': 1, 'volt': 0.7813, 'depth': -0.293, 'time': 15, 'pitch': 73.23, 'roll': -82.41, 'pres': 160}
{'lipoC2': 8.2, 'lipoC3S1': 3.99, 'temp': 26.0, 'lipoC3S3': 12.1, 'lipoC3S2': 8.0, 'rot1': 0, 'rot0': 0, 'rot3': 0, 'rot2': 0, 'state': 'normal', 'yaw': -0.34, 'datetime': '2018-10-05 14:25:07.539382', 'mgs': 1, 'volt': 0.7813, 'depth': -0.293, 'time': 15, 'pitch': 73.23, 'roll': -82.54, 'pres': 160}
{'lipoC2': 8.2, 'lipoC3S1': 3.99, 'temp': 25.94, 'lipoC3S3': 12.1, 'lipoC3S2': 8.0, 'rot1': 0, 'rot0': 0, 'rot3': 0, 'rot2': 0, 'state': 'normal', 'yaw': -0.34, 'datetime': '2018-10-05 14:25:07.642917', 'mgs': 1, 'volt': 0.7813, 'depth': -0.293, 'time': 15, 'pitch': 73.23, 'roll': -82.54, 'pres': 160}
{'lipoC2': 8.2, 'lipoC3S1': 3.99, 'temp': 25.94, 'lipoC3S3': 12.1, 'lipoC3S2': 8.0, 'rot1': 0, 'rot0': 0, 'rot3': 0, 'rot2': 0, 'state': 'normal', 'yaw': -0.27, 'datetime': '2018-10-05 14:25:07.747434', 'mgs': 1, 'volt': 0.7813, 'depth': -0.293, 'time': 16, 'pitch': 73.23, 'roll': -82.47, 'pres': 160}
{'lipoC2': 8.2, 'lipoC3S1': 3.99, 'temp': 25.94, 'lipoC3S3': 12.1, 'lipoC3S2': 8.0, 'rot1': 0, 'rot0': 0, 'rot3': 0, 'rot2': 0, 'state': 'normal', 'yaw': -0.41, 'datetime': '2018-10-05 14:25:07.850819', 'mgs': 1, 'volt': 0.7813, 'depth': -0.293, 'time': 16, 'pitch': 73.22, 'roll': -82.59, 'pres': 160}
{'lipoC2': 8.2, 'lipoC3S1': 3.99, 'temp': 25.94, 'lipoC3S3': 12.1, 'lipoC3S2': 8.0, 'rot1': 0, 'rot0': 0, 'rot3': 0, 'rot2': 0, 'state': 'normal', 'yaw': -0.41, 'datetime': '2018-10-05 14:25:07.955381', 'mgs': 1, 'volt': 0.7813, 'depth': -0.293, 'time': 16, 'pitch': 73.22, 'roll': -82.61, 'pres': 160}
{'lipoC2': 8.2, 'lipoC3S1': 3.99, 'temp': 25.94, 'lipoC3S3': 12.1, 'lipoC3S2': 8.0, 'rot1': 0, 'rot0': 0, 'rot3': 0, 'rot2': 0, 'state': 'normal', 'yaw': -0.34, 'datetime': '2018-10-05 14:25:08.058977', 'mgs': 1, 'volt': 0.7813, 'depth': -0.293, 'time': 16, 'pitch': 73.22, 'roll': -82.53, 'pres': 160}
{'lipoC2': 8.2, 'lipoC3S1': 3.99, 'temp': 25.94, 'lipoC3S3': 12.1, 'lipoC3S2': 8.0, 'rot1': 0, 'rot0': 0, 'rot3': 0, 'rot2': 0, 'state': 'normal', 'yaw': -0.31, 'datetime': '2018-10-05 14:25:08.162451', 'mgs': 1, 'volt': 0.7813, 'depth': -0.293, 'time': 16, 'pitch': 73.23, 'roll': -82.5, 'pres': 160}
{'lipoC2': 8.2, 'lipoC3S1': 3.99, 'temp': 25.94, 'lipoC3S3': 12.1, 'lipoC3S2': 8.0, 'rot1': 0, 'rot0': 0, 'rot3': 0, 'rot2': 0, 'state': 'normal', 'yaw': -0.45, 'datetime': '2018-10-05 14:25:08.267193', 'mgs': 1, 'volt': 0.7813, 'depth': -0.293, 'time': 16, 'pitch': 73.22, 'roll': -82.64, 'pres': 160}
{'lipoC2': 8.2, 'lipoC3S1': 3.99, 'temp': 26.0, 'lipoC3S3': 12.1, 'lipoC3S2': 8.0, 'rot1': 0, 'rot0': 0, 'rot3': 0, 'rot2': 0, 'state': 'normal', 'yaw': -0.26, 'datetime': '2018-10-05 14:25:08.370771', 'mgs': 1, 'volt': 0.7813, 'depth': -0.293, 'time': 16, 'pitch': 73.21, 'roll': -82.44, 'pres': 160}
{'lipoC2': 8.19, 'lipoC3S1': 3.99, 'temp': 26.0, 'lipoC3S3': 12.1, 'lipoC3S2': 8.0, 'rot1': 0, 'rot0': 0, 'rot3': 0, 'rot2': 0, 'state': 'normal', 'yaw': -0.35, 'datetime': '2018-10-05 14:25:08.474531', 'mgs': 1, 'volt': 0.7813, 'depth': -0.293, 'time': 16, 'pitch': 73.21, 'roll': -82.53, 'pres': 160}
{'lipoC2': 8.2, 'lipoC3S1': 3.99, 'temp': 26.0, 'lipoC3S3': 12.1, 'lipoC3S2': 8.0, 'rot1': 0, 'rot0': 0, 'rot3': 0, 'rot2': 0, 'state': 'normal', 'yaw': -0.32, 'datetime': '2018-10-05 14:25:08.573373', 'mgs': 1, 'volt': 0.7813, 'depth': -0.293, 'time': 16, 'pitch': 73.23, 'roll': -82.5, 'pres': 160}
{'lipoC2': 8.2, 'lipoC3S1': 3.99, 'temp': 26.0, 'lipoC3S3': 12.1, 'lipoC3S2': 8.0, 'rot1': 0, 'rot0': 0, 'rot3': 0, 'rot2': 0, 'state': 'normal', 'yaw': -0.32, 'datetime': '2018-10-05 14:25:08.681234', 'mgs': 1, 'volt': 0.7813, 'depth': -0.293, 'time': 17, 'pitch': 73.23, 'roll': -82.5, 'pres': 160}
{'lipoC2': 8.2, 'lipoC3S1': 3.99, 'temp': 26.0, 'lipoC3S3': 12.1, 'lipoC3S2': 8.0, 'rot1': 0, 'rot0': 0, 'rot3': 0, 'rot2': 0, 'state': 'normal', 'yaw': -0.32, 'datetime': '2018-10-05 14:25:08.787172', 'mgs': 1, 'volt': 0.7813, 'depth': -0.293, 'time': 17, 'pitch': 73.23, 'roll': -82.5, 'pres': 160}
{'lipoC2': 8.19, 'lipoC3S1': 3.99, 'temp': 26.0, 'lipoC3S3': 12.1, 'lipoC3S2': 8.0, 'rot1': 0, 'rot0': 0, 'rot3': 0, 'rot2': 0, 'state': 'normal', 'yaw': -0.25, 'datetime': '2018-10-05 14:25:08.891181', 'mgs': 1, 'volt': 0.7813, 'depth': -0.293, 'time': 17, 'pitch': 73.21, 'roll': -82.43, 'pres': 160}
{'lipoC2': 8.2, 'lipoC3S1': 3.99, 'temp': 26.0, 'lipoC3S3': 12.1, 'lipoC3S2': 8.0, 'rot1': 0, 'rot0': 0, 'rot3': 0, 'rot2': 0, 'state': 'normal', 'yaw': -0.35, 'datetime': '2018-10-05 14:25:08.994710', 'mgs': 1, 'volt': 0.7813, 'depth': -0.293, 'time': 17, 'pitch': 73.23, 'roll': -82.53, 'pres': 160}
{'lipoC2': 8.2, 'lipoC3S1': 3.99, 'temp': 26.0, 'lipoC3S3': 12.1, 'lipoC3S2': 8.0, 'rot1': 0, 'rot0': 0, 'rot3': 0, 'rot2': 0, 'state': 'normal', 'yaw': -0.31, 'datetime': '2018-10-05 14:25:09.098324', 'mgs': 1, 'volt': 0.7813, 'depth': -0.293, 'time': 17, 'pitch': 73.23, 'roll': -82.49, 'pres': 160}
{'lipoC2': 8.2, 'lipoC3S1': 3.99, 'temp': 26.0, 'lipoC3S3': 12.1, 'lipoC3S2': 8.0, 'rot1': 0, 'rot0': 0, 'rot3': 0, 'rot2': 0, 'state': 'normal', 'yaw': -0.31, 'datetime': '2018-10-05 14:25:09.202102', 'mgs': 1, 'volt': 0.7813, 'depth': -0.293, 'time': 17, 'pitch': 73.21, 'roll': -82.49, 'pres': 160}
{'lipoC2': 8.2, 'lipoC3S1': 3.99, 'temp': 26.0, 'lipoC3S3': 12.1, 'lipoC3S2': 8.0, 'rot1': 0, 'rot0': 0, 'rot3': 0, 'rot2': 0, 'state': 'normal', 'yaw': -0.28, 'datetime': '2018-10-05 14:25:09.305799', 'mgs': 1, 'volt': 0.7813, 'depth': -0.293, 'time': 17, 'pitch': 73.23, 'roll': -82.46, 'pres': 160}
{'lipoC2': 8.2, 'lipoC3S1': 3.99, 'temp': 26.0, 'lipoC3S3': 12.1, 'lipoC3S2': 8.0, 'rot1': 0, 'rot0': 0, 'rot3': 0, 'rot2': 0, 'state': 'normal', 'yaw': -0.28, 'datetime': '2018-10-05 14:25:09.410573', 'mgs': 1, 'volt': 0.7813, 'depth': -0.293, 'time': 17, 'pitch': 73.21, 'roll': -82.46, 'pres': 160}
{'lipoC2': 8.2, 'lipoC3S1': 3.99, 'temp': 26.0, 'lipoC3S3': 12.1, 'lipoC3S2': 8.0, 'rot1': 0, 'rot0': 0, 'rot3': 0, 'rot2': 0, 'state': 'normal', 'yaw': -0.28, 'datetime': '2018-10-05 14:25:09.513837', 'mgs': 1, 'volt': 0.7813, 'depth': -0.293, 'time': 17, 'pitch': 73.21, 'roll': -82.46, 'pres': 160}
{'lipoC2': 8.19, 'lipoC3S1': 3.99, 'temp': 26.0, 'lipoC3S3': 12.1, 'lipoC3S2': 8.0, 'rot1': 0, 'rot0': 0, 'rot3': 0, 'rot2': 0, 'state': 'normal', 'yaw': -0.28, 'datetime': '2018-10-05 14:25:09.617453', 'mgs': 1, 'volt': 0.7813, 'depth': -0.293, 'time': 17, 'pitch': 73.21, 'roll': -82.46, 'pres': 160}
{'lipoC2': 8.2, 'lipoC3S1': 3.99, 'temp': 26.0, 'lipoC3S3': 12.1, 'lipoC3S2': 8.0, 'rot1': 0, 'rot0': 0, 'rot3': 0, 'rot2': 0, 'state': 'normal', 'yaw': -0.28, 'datetime': '2018-10-05 14:25:09.722310', 'mgs': 1, 'volt': 0.7813, 'depth': -0.293, 'time': 18, 'pitch': 73.21, 'roll': -82.46, 'pres': 160}
{'lipoC2': 8.2, 'lipoC3S1': 3.99, 'temp': 26.0, 'lipoC3S3': 12.1, 'lipoC3S2': 8.0, 'rot1': 0, 'rot0': 0, 'rot3': 0, 'rot2': 0, 'state': 'normal', 'yaw': -0.31, 'datetime': '2018-10-05 14:25:09.825814', 'mgs': 1, 'volt': 0.7813, 'depth': -0.293, 'time': 18, 'pitch': 73.23, 'roll': -82.49, 'pres': 160}
{'lipoC2': 8.19, 'lipoC3S1': 3.99, 'temp': 26.0, 'lipoC3S3': 12.1, 'lipoC3S2': 8.0, 'rot1': 0, 'rot0': 0, 'rot3': 0, 'rot2': 0, 'state': 'normal', 'yaw': -0.35, 'datetime': '2018-10-05 14:25:09.929845', 'mgs': 1, 'volt': 0.7813, 'depth': -0.293, 'time': 18, 'pitch': 73.21, 'roll': -82.52, 'pres': 160}
{'lipoC2': 8.19, 'lipoC3S1': 3.99, 'temp': 26.0, 'lipoC3S3': 12.1, 'lipoC3S2': 8.0, 'rot1': 0, 'rot0': 0, 'rot3': 0, 'rot2': 0, 'state': 'normal', 'yaw': -0.35, 'datetime': '2018-10-05 14:25:10.034118', 'mgs': 1, 'volt': 0.7813, 'depth': -0.293, 'time': 18, 'pitch': 73.22, 'roll': -82.53, 'pres': 160}
{'lipoC2': 8.2, 'lipoC3S1': 3.99, 'temp': 26.0, 'lipoC3S3': 12.1, 'lipoC3S2': 8.0, 'rot1': 0, 'rot0': 0, 'rot3': 0, 'rot2': 0, 'state': 'normal', 'yaw': -0.31, 'datetime': '2018-10-05 14:25:10.137693', 'mgs': 1, 'volt': 0.7813, 'depth': -0.293, 'time': 18, 'pitch': 73.23, 'roll': -82.49, 'pres': 160}
{'lipoC2': 8.2, 'lipoC3S1': 3.99, 'temp': 26.0, 'lipoC3S3': 12.1, 'lipoC3S2': 8.0, 'rot1': 0, 'rot0': 0, 'rot3': 0, 'rot2': 0, 'state': 'normal', 'yaw': -0.31, 'datetime': '2018-10-05 14:25:10.242249', 'mgs': 1, 'volt': 0.7861, 'depth': -0.217, 'time': 18, 'pitch': 73.23, 'roll': -82.49, 'pres': 161}
{'lipoC2': 8.2, 'lipoC3S1': 3.99, 'temp': 26.0, 'lipoC3S3': 12.1, 'lipoC3S2': 8.0, 'rot1': 0, 'rot0': 0, 'rot3': 0, 'rot2': 0, 'state': 'normal', 'yaw': -0.31, 'datetime': '2018-10-05 14:25:10.345979', 'mgs': 1, 'volt': 0.7813, 'depth': -0.293, 'time': 18, 'pitch': 73.23, 'roll': -82.49, 'pres': 160}
{'lipoC2': 8.2, 'lipoC3S1': 3.99, 'temp': 26.0, 'lipoC3S3': 12.1, 'lipoC3S2': 8.0, 'rot1': 0, 'rot0': 0, 'rot3': 0, 'rot2': 0, 'state': 'normal', 'yaw': -0.31, 'datetime': '2018-10-05 14:25:10.449453', 'mgs': 1, 'volt': 0.7813, 'depth': -0.293, 'time': 18, 'pitch': 73.23, 'roll': -82.49, 'pres': 160}
{'lipoC2': 8.2, 'lipoC3S1': 3.99, 'temp': 26.0, 'lipoC3S3': 12.1, 'lipoC3S2': 8.0, 'rot1': 0, 'rot0': 0, 'rot3': 0, 'rot2': 0, 'state': 'normal', 'yaw': -0.28, 'datetime': '2018-10-05 14:25:10.553043', 'mgs': 1, 'volt': 0.7813, 'depth': -0.293, 'time': 18, 'pitch': 73.23, 'roll': -82.46, 'pres': 160}
{'lipoC2': 8.2, 'lipoC3S1': 3.99, 'temp': 26.0, 'lipoC3S3': 12.1, 'lipoC3S2': 8.0, 'rot1': 0, 'rot0': 0, 'rot3': 0, 'rot2': 0, 'state': 'normal', 'yaw': -0.28, 'datetime': '2018-10-05 14:25:10.656621', 'mgs': 1, 'volt': 0.7813, 'depth': -0.293, 'time': 18, 'pitch': 73.23, 'roll': -82.46, 'pres': 160}
{'lipoC2': 8.19, 'lipoC3S1': 3.99, 'temp': 26.0, 'lipoC3S3': 12.1, 'lipoC3S2': 8.0, 'rot1': 0, 'rot0': 0, 'rot3': 0, 'rot2': 0, 'state': 'normal', 'yaw': -0.28, 'datetime': '2018-10-05 14:25:10.760459', 'mgs': 1, 'volt': 0.7813, 'depth': -0.293, 'time': 19, 'pitch': 73.23, 'roll': -82.46, 'pres': 160}
{'lipoC2': 8.2, 'lipoC3S1': 3.99, 'temp': 25.94, 'lipoC3S3': 12.1, 'lipoC3S2': 8.0, 'rot1': 0, 'rot0': 0, 'rot3': 0, 'rot2': 0, 'state': 'normal', 'yaw': -0.28, 'datetime': '2018-10-05 14:25:10.865049', 'mgs': 1, 'volt': 0.7813, 'depth': -0.293, 'time': 19, 'pitch': 73.23, 'roll': -82.46, 'pres': 160}
{'lipoC2': 8.2, 'lipoC3S1': 3.99, 'temp': 25.94, 'lipoC3S3': 12.1, 'lipoC3S2': 8.0, 'rot1': 0, 'rot0': 0, 'rot3': 0, 'rot2': 0, 'state': 'normal', 'yaw': -0.28, 'datetime': '2018-10-05 14:25:10.968391', 'mgs': 1, 'volt': 0.7813, 'depth': -0.293, 'time': 19, 'pitch': 73.23, 'roll': -82.46, 'pres': 160}
{'lipoC2': 8.2, 'lipoC3S1': 3.99, 'temp': 25.94, 'lipoC3S3': 12.1, 'lipoC3S2': 8.0, 'rot1': 0, 'rot0': 0, 'rot3': 0, 'rot2': 0, 'state': 'normal', 'yaw': -0.28, 'datetime': '2018-10-05 14:25:11.071978', 'mgs': 1, 'volt': 0.7813, 'depth': -0.293, 'time': 19, 'pitch': 73.23, 'roll': -82.46, 'pres': 160}
{'lipoC2': 8.2, 'lipoC3S1': 3.99, 'temp': 25.94, 'lipoC3S3': 12.1, 'lipoC3S2': 8.0, 'rot1': 0, 'rot0': 0, 'rot3': 0, 'rot2': 0, 'state': 'normal', 'yaw': -0.28, 'datetime': '2018-10-05 14:25:11.176874', 'mgs': 1, 'volt': 0.7813, 'depth': -0.293, 'time': 19, 'pitch': 73.23, 'roll': -82.46, 'pres': 160}
{'lipoC2': 8.2, 'lipoC3S1': 3.99, 'temp': 25.94, 'lipoC3S3': 12.1, 'lipoC3S2': 8.0, 'rot1': 0, 'rot0': 0, 'rot3': 0, 'rot2': 0, 'state': 'normal', 'yaw': -0.28, 'datetime': '2018-10-05 14:25:11.280394', 'mgs': 1, 'volt': 0.7813, 'depth': -0.293, 'time': 19, 'pitch': 73.23, 'roll': -82.46, 'pres': 160}
