{'lipoC2': 7.29, 'lipoC3S1': 3.83, 'temp': 26.94, 'lipoC3S3': 11.58, 'lipoC3S2': 7.67, 'rot1': 0, 'rot0': 0, 'rot3': 0, 'rot2': 0, 'state': 'normal', 'yaw': 0.0, 'datetime': '2018-10-09 20:17:49.445930', 'mgs': 0, 'volt': 0.8398, 'depth': 0.623, 'time': 1, 'pitch': 8.45, 'roll': -1.48, 'pres': 172}
{'lipoC2': 7.29, 'lipoC3S1': 3.83, 'temp': 26.88, 'lipoC3S3': 11.58, 'lipoC3S2': 7.67, 'rot1': 0, 'rot0': 0, 'rot3': 0, 'rot2': 0, 'state': 'normal', 'yaw': -0.01, 'datetime': '2018-10-09 20:17:52.472968', 'mgs': 0, 'volt': 0.8398, 'depth': 0.623, 'time': 1, 'pitch': 8.6, 'roll': -1.64, 'pres': 172}
{'lipoC2': 7.29, 'lipoC3S1': 3.83, 'temp': 26.88, 'lipoC3S3': 11.58, 'lipoC3S2': 7.67, 'rot1': 0, 'rot0': 0, 'rot3': 0, 'rot2': 0, 'state': 'normal', 'yaw': 0.07, 'datetime': '2018-10-09 20:17:52.504594', 'mgs': 0, 'volt': 0.8398, 'depth': 0.623, 'time': 1, 'pitch': 8.83, 'roll': -1.74, 'pres': 172}
{'lipoC2': 7.29, 'lipoC3S1': 3.83, 'temp': 26.88, 'lipoC3S3': 11.58, 'lipoC3S2': 7.67, 'rot1': 0, 'rot0': 0, 'rot3': 0, 'rot2': 0, 'state': 'normal', 'yaw': 0.19, 'datetime': '2018-10-09 20:17:52.534360', 'mgs': 0, 'volt': 0.8398, 'depth': 0.623, 'time': 1, 'pitch': 9.11, 'roll': -1.73, 'pres': 172}
{'lipoC2': 7.29, 'lipoC3S1': 3.83, 'temp': 26.88, 'lipoC3S3': 11.58, 'lipoC3S2': 7.67, 'rot1': 0, 'rot0': 0, 'rot3': 0, 'rot2': 0, 'state': 'normal', 'yaw': 0.32, 'datetime': '2018-10-09 20:17:52.553108', 'mgs': 0, 'volt': 0.8398, 'depth': 0.623, 'time': 1, 'pitch': 9.24, 'roll': -1.6, 'pres': 172}
{'lipoC2': 7.29, 'lipoC3S1': 3.83, 'temp': 26.88, 'lipoC3S3': 11.59, 'lipoC3S2': 7.67, 'rot1': 0, 'rot0': 0, 'rot3': 0, 'rot2': 0, 'state': 'normal', 'yaw': 0.46, 'datetime': '2018-10-09 20:17:52.568829', 'mgs': 0, 'volt': 0.8398, 'depth': 0.623, 'time': 1, 'pitch': 9.26, 'roll': -1.36, 'pres': 172}
{'lipoC2': 7.29, 'lipoC3S1': 3.83, 'temp': 26.88, 'lipoC3S3': 11.58, 'lipoC3S2': 7.67, 'rot1': 0, 'rot0': 0, 'rot3': 0, 'rot2': 0, 'state': 'normal', 'yaw': 0.6, 'datetime': '2018-10-09 20:17:52.584565', 'mgs': 0, 'volt': 0.8398, 'depth': 0.623, 'time': 1, 'pitch': 9.26, 'roll': -1.02, 'pres': 172}
{'lipoC2': 7.29, 'lipoC3S1': 3.83, 'temp': 26.88, 'lipoC3S3': 11.59, 'lipoC3S2': 7.67, 'rot1': 0, 'rot0': 0, 'rot3': 0, 'rot2': 0, 'state': 'normal', 'yaw': 0.71, 'datetime': '2018-10-09 20:17:52.600292', 'mgs': 0, 'volt': 0.8398, 'depth': 0.623, 'time': 2, 'pitch': 9.28, 'roll': -0.68, 'pres': 172}
{'lipoC2': 7.29, 'lipoC3S1': 3.83, 'temp': 26.88, 'lipoC3S3': 11.58, 'lipoC3S2': 7.67, 'rot1': 0, 'rot0': 0, 'rot3': 0, 'rot2': 0, 'state': 'normal', 'yaw': 0.82, 'datetime': '2018-10-09 20:17:52.616005', 'mgs': 0, 'volt': 0.8398, 'depth': 0.623, 'time': 2, 'pitch': 9.39, 'roll': -0.38, 'pres': 172}
{'lipoC2': 7.29, 'lipoC3S1': 3.83, 'temp': 26.88, 'lipoC3S3': 11.58, 'lipoC3S2': 7.67, 'rot1': 0, 'rot0': 0, 'rot3': 0, 'rot2': 0, 'state': 'normal', 'yaw': 0.97, 'datetime': '2018-10-09 20:17:52.631722', 'mgs': 0, 'volt': 0.8447, 'depth': 0.699, 'time': 2, 'pitch': 9.4, 'roll': -0.13, 'pres': 173}
{'lipoC2': 7.29, 'lipoC3S1': 3.83, 'temp': 26.88, 'lipoC3S3': 11.58, 'lipoC3S2': 7.67, 'rot1': 0, 'rot0': 0, 'rot3': 0, 'rot2': 0, 'state': 'normal', 'yaw': 1.12, 'datetime': '2018-10-09 20:17:52.647442', 'mgs': 0, 'volt': 0.8398, 'depth': 0.623, 'time': 2, 'pitch': 9.4, 'roll': 0.02, 'pres': 172}
{'lipoC2': 7.29, 'lipoC3S1': 3.83, 'temp': 26.88, 'lipoC3S3': 11.58, 'lipoC3S2': 7.67, 'rot1': 0, 'rot0': 0, 'rot3': 0, 'rot2': 0, 'state': 'normal', 'yaw': 1.23, 'datetime': '2018-10-09 20:17:52.663137', 'mgs': 0, 'volt': 0.8447, 'depth': 0.699, 'time': 2, 'pitch': 9.32, 'roll': 0.13, 'pres': 173}
{'lipoC2': 7.29, 'lipoC3S1': 3.83, 'temp': 26.88, 'lipoC3S3': 11.58, 'lipoC3S2': 7.67, 'rot1': 0, 'rot0': 0, 'rot3': 0, 'rot2': 0, 'state': 'normal', 'yaw': 1.25, 'datetime': '2018-10-09 20:17:52.678872', 'mgs': 0, 'volt': 0.8398, 'depth': 0.623, 'time': 2, 'pitch': 9.18, 'roll': 0.17, 'pres': 172}
{'lipoC2': 7.29, 'lipoC3S1': 3.83, 'temp': 26.88, 'lipoC3S3': 11.58, 'lipoC3S2': 7.67, 'rot1': 0, 'rot0': 0, 'rot3': 0, 'rot2': 0, 'state': 'normal', 'yaw': 0.0, 'datetime': '2018-10-09 20:17:52.694552', 'mgs': 0, 'volt': 0.8496, 'depth': 0.775, 'time': 1, 'pitch': 8.49, 'roll': 0.44, 'pres': 174}
{'lipoC2': 7.29, 'lipoC3S1': 3.83, 'temp': 26.88, 'lipoC3S3': 11.58, 'lipoC3S2': 7.67, 'rot1': 0, 'rot0': 0, 'rot3': 0, 'rot2': 0, 'state': 'normal', 'yaw': 0.0, 'datetime': '2018-10-09 20:17:52.710403', 'mgs': 0, 'volt': 0.8496, 'depth': 0.775, 'time': 1, 'pitch': 8.49, 'roll': 0.44, 'pres': 174}
{'lipoC2': 7.29, 'lipoC3S1': 3.83, 'temp': 26.88, 'lipoC3S3': 11.59, 'lipoC3S2': 7.67, 'rot1': 0, 'rot0': 0, 'rot3': 0, 'rot2': 0, 'state': 'normal', 'yaw': -0.01, 'datetime': '2018-10-09 20:17:52.726101', 'mgs': 0, 'volt': 0.8447, 'depth': 0.699, 'time': 1, 'pitch': 8.44, 'roll': 0.44, 'pres': 173}
{'lipoC2': 7.29, 'lipoC3S1': 3.83, 'temp': 26.88, 'lipoC3S3': 11.59, 'lipoC3S2': 7.67, 'rot1': 0, 'rot0': 0, 'rot3': 0, 'rot2': 0, 'state': 'normal', 'yaw': -0.01, 'datetime': '2018-10-09 20:17:52.741293', 'mgs': 0, 'volt': 0.8496, 'depth': 0.775, 'time': 1, 'pitch': 8.43, 'roll': 0.43, 'pres': 174}
{'lipoC2': 7.29, 'lipoC3S1': 3.83, 'temp': 26.88, 'lipoC3S3': 11.59, 'lipoC3S2': 7.67, 'rot1': 0, 'rot0': 0, 'rot3': 0, 'rot2': 0, 'state': 'normal', 'yaw': -0.09, 'datetime': '2018-10-09 20:17:52.756484', 'mgs': 0, 'volt': 0.8496, 'depth': 0.775, 'time': 1, 'pitch': 8.53, 'roll': 0.35, 'pres': 174}
{'lipoC2': 7.29, 'lipoC3S1': 3.83, 'temp': 26.94, 'lipoC3S3': 11.59, 'lipoC3S2': 7.67, 'rot1': 0, 'rot0': 0, 'rot3': 0, 'rot2': 0, 'state': 'normal', 'yaw': -0.11, 'datetime': '2018-10-09 20:17:52.771727', 'mgs': 0, 'volt': 0.8496, 'depth': 0.775, 'time': 1, 'pitch': 8.71, 'roll': 0.23, 'pres': 174}
{'lipoC2': 7.29, 'lipoC3S1': 3.83, 'temp': 26.94, 'lipoC3S3': 11.59, 'lipoC3S2': 7.67, 'rot1': 0, 'rot0': 0, 'rot3': 0, 'rot2': 0, 'state': 'normal', 'yaw': -0.11, 'datetime': '2018-10-09 20:17:52.786898', 'mgs': 0, 'volt': 0.8496, 'depth': 0.775, 'time': 1, 'pitch': 8.86, 'roll': 0.1, 'pres': 174}
{'lipoC2': 7.29, 'lipoC3S1': 3.83, 'temp': 26.94, 'lipoC3S3': 11.58, 'lipoC3S2': 7.67, 'rot1': 0, 'rot0': 0, 'rot3': 0, 'rot2': 0, 'state': 'normal', 'yaw': -0.11, 'datetime': '2018-10-09 20:17:52.802075', 'mgs': 0, 'volt': 0.8496, 'depth': 0.775, 'time': 1, 'pitch': 8.92, 'roll': -0.0, 'pres': 174}
{'lipoC2': 7.29, 'lipoC3S1': 3.83, 'temp': 26.94, 'lipoC3S3': 11.58, 'lipoC3S2': 7.67, 'rot1': 0, 'rot0': 0, 'rot3': 0, 'rot2': 0, 'state': 'normal', 'yaw': -0.11, 'datetime': '2018-10-09 20:17:52.817273', 'mgs': 0, 'volt': 0.8447, 'depth': 0.699, 'time': 2, 'pitch': 8.92, 'roll': -0.04, 'pres': 173}
{'lipoC2': 7.29, 'lipoC3S1': 3.83, 'temp': 26.88, 'lipoC3S3': 11.59, 'lipoC3S2': 7.67, 'rot1': 0, 'rot0': 0, 'rot3': 0, 'rot2': 0, 'state': 'normal', 'yaw': -0.11, 'datetime': '2018-10-09 20:17:52.832570', 'mgs': 0, 'volt': 0.8447, 'depth': 0.699, 'time': 2, 'pitch': 8.92, 'roll': -0.04, 'pres': 173}
{'lipoC2': 7.29, 'lipoC3S1': 3.83, 'temp': 26.88, 'lipoC3S3': 11.59, 'lipoC3S2': 7.66, 'rot1': 0, 'rot0': 0, 'rot3': 0, 'rot2': 0, 'state': 'normal', 'yaw': -0.11, 'datetime': '2018-10-09 20:17:52.847783', 'mgs': 0, 'volt': 0.8447, 'depth': 0.699, 'time': 2, 'pitch': 8.92, 'roll': -0.04, 'pres': 173}
{'lipoC2': 7.29, 'lipoC3S1': 3.83, 'temp': 26.88, 'lipoC3S3': 11.59, 'lipoC3S2': 7.67, 'rot1': 0, 'rot0': 0, 'rot3': 0, 'rot2': 0, 'state': 'normal', 'yaw': -0.11, 'datetime': '2018-10-09 20:17:52.862962', 'mgs': 0, 'volt': 0.8447, 'depth': 0.699, 'time': 2, 'pitch': 8.92, 'roll': 0.03, 'pres': 173}
{'lipoC2': 7.29, 'lipoC3S1': 3.83, 'temp': 26.94, 'lipoC3S3': 11.59, 'lipoC3S2': 7.67, 'rot1': 0, 'rot0': 0, 'rot3': 0, 'rot2': 0, 'state': 'normal', 'yaw': -0.02, 'datetime': '2018-10-09 20:17:52.878150', 'mgs': 0, 'volt': 0.8496, 'depth': 0.775, 'time': 2, 'pitch': 8.92, 'roll': 0.13, 'pres': 174}
{'lipoC2': 7.29, 'lipoC3S1': 3.83, 'temp': 26.94, 'lipoC3S3': 11.59, 'lipoC3S2': 7.67, 'rot1': 0, 'rot0': 0, 'rot3': 0, 'rot2': 0, 'state': 'normal', 'yaw': 0.17, 'datetime': '2018-10-09 20:17:52.893347', 'mgs': 0, 'volt': 0.8496, 'depth': 0.775, 'time': 2, 'pitch': 8.93, 'roll': 0.26, 'pres': 174}
{'lipoC2': 7.29, 'lipoC3S1': 3.83, 'temp': 26.88, 'lipoC3S3': 11.59, 'lipoC3S2': 7.67, 'rot1': 0, 'rot0': 0, 'rot3': 0, 'rot2': 0, 'state': 'normal', 'yaw': 0.42, 'datetime': '2018-10-09 20:17:52.908631', 'mgs': 0, 'volt': 0.8496, 'depth': 0.775, 'time': 2, 'pitch': 9.0, 'roll': 0.37, 'pres': 174}
{'lipoC2': 7.29, 'lipoC3S1': 3.83, 'temp': 26.88, 'lipoC3S3': 11.59, 'lipoC3S2': 7.67, 'rot1': 0, 'rot0': 0, 'rot3': 0, 'rot2': 0, 'state': 'normal', 'yaw': 0.68, 'datetime': '2018-10-09 20:17:52.923944', 'mgs': 0, 'volt': 0.8496, 'depth': 0.775, 'time': 2, 'pitch': 9.13, 'roll': 0.42, 'pres': 174}
{'lipoC2': 7.29, 'lipoC3S1': 3.83, 'temp': 26.88, 'lipoC3S3': 11.59, 'lipoC3S2': 7.67, 'rot1': 0, 'rot0': 0, 'rot3': 0, 'rot2': 0, 'state': 'normal', 'yaw': 0.91, 'datetime': '2018-10-09 20:17:52.939148', 'mgs': 0, 'volt': 0.8496, 'depth': 0.775, 'time': 2, 'pitch': 9.25, 'roll': 0.47, 'pres': 174}
{'lipoC2': 7.29, 'lipoC3S1': 3.79, 'temp': 26.88, 'lipoC3S3': 11.54, 'lipoC3S2': 7.63, 'rot1': 0, 'rot0': 0, 'rot3': 0, 'rot2': 0, 'state': 'normal', 'yaw': 1.06, 'datetime': '2018-10-09 20:17:52.954346', 'mgs': 0, 'volt': 0.874, 'depth': 1.157, 'time': 3, 'pitch': 9.25, 'roll': 0.55, 'pres': 179}
{'lipoC2': 7.29, 'lipoC3S1': 3.79, 'temp': 26.88, 'lipoC3S3': 11.55, 'lipoC3S2': 7.62, 'rot1': 0, 'rot0': 0, 'rot3': 1, 'rot2': 0, 'state': 'normal', 'yaw': 1.09, 'datetime': '2018-10-09 20:17:52.969481', 'mgs': 0, 'volt': 0.8496, 'depth': 0.775, 'time': 3, 'pitch': 9.12, 'roll': 0.59, 'pres': 174}
{'lipoC2': 7.29, 'lipoC3S1': 3.81, 'temp': 26.88, 'lipoC3S3': 11.55, 'lipoC3S2': 7.65, 'rot1': 0, 'rot0': 0, 'rot3': 1, 'rot2': 1, 'state': 'normal', 'yaw': 1.07, 'datetime': '2018-10-09 20:17:52.984647', 'mgs': 0, 'volt': 0.8643, 'depth': 1.004, 'time': 3, 'pitch': 8.83, 'roll': 0.6, 'pres': 177}
{'lipoC2': 7.28, 'lipoC3S1': 3.82, 'temp': 26.88, 'lipoC3S3': 11.54, 'lipoC3S2': 7.64, 'rot1': 0, 'rot0': 0, 'rot3': 2, 'rot2': 1, 'state': 'normal', 'yaw': 0.98, 'datetime': '2018-10-09 20:17:52.999753', 'mgs': 0, 'volt': 0.8594, 'depth': 0.928, 'time': 3, 'pitch': 8.58, 'roll': 0.58, 'pres': 176}
{'lipoC2': 7.29, 'lipoC3S1': 3.81, 'temp': 26.81, 'lipoC3S3': 11.55, 'lipoC3S2': 7.64, 'rot1': 0, 'rot0': 0, 'rot3': 3, 'rot2': 2, 'state': 'normal', 'yaw': 0.85, 'datetime': '2018-10-09 20:17:53.014921', 'mgs': 0, 'volt': 0.8643, 'depth': 1.004, 'time': 3, 'pitch': 8.42, 'roll': 0.55, 'pres': 177}
{'lipoC2': 7.29, 'lipoC3S1': 3.82, 'temp': 26.81, 'lipoC3S3': 11.54, 'lipoC3S2': 7.64, 'rot1': 0, 'rot0': 0, 'rot3': 3, 'rot2': 2, 'state': 'normal', 'yaw': 0.6, 'datetime': '2018-10-09 20:17:53.086551', 'mgs': 0, 'volt': 0.8545, 'depth': 0.851, 'time': 3, 'pitch': 8.25, 'roll': 0.52, 'pres': 175}
{'lipoC2': 7.29, 'lipoC3S1': 3.82, 'temp': 26.81, 'lipoC3S3': 11.5, 'lipoC3S2': 7.58, 'rot1': 0, 'rot0': 0, 'rot3': 4, 'rot2': 3, 'state': 'normal', 'yaw': 0.38, 'datetime': '2018-10-09 20:17:53.189783', 'mgs': 0, 'volt': 0.8545, 'depth': 0.851, 'time': 3, 'pitch': 8.14, 'roll': 0.47, 'pres': 175}
{'lipoC2': 7.29, 'lipoC3S1': 3.78, 'temp': 26.81, 'lipoC3S3': 11.55, 'lipoC3S2': 7.61, 'rot1': 0, 'rot0': 0, 'rot3': 5, 'rot2': 4, 'state': 'normal', 'yaw': 0.19, 'datetime': '2018-10-09 20:17:53.297531', 'mgs': 0, 'volt': 0.8594, 'depth': 0.928, 'time': 3, 'pitch': 8.16, 'roll': 0.34, 'pres': 176}
{'lipoC2': 7.29, 'lipoC3S1': 3.78, 'temp': 26.81, 'lipoC3S3': 11.55, 'lipoC3S2': 7.61, 'rot1': 0, 'rot0': 0, 'rot3': 5, 'rot2': 4, 'state': 'normal', 'yaw': 0.03, 'datetime': '2018-10-09 20:17:53.402865', 'mgs': 0, 'volt': 0.8594, 'depth': 0.928, 'time': 3, 'pitch': 8.28, 'roll': 0.17, 'pres': 176}
{'lipoC2': 7.29, 'lipoC3S1': 3.8, 'temp': 26.81, 'lipoC3S3': 11.55, 'lipoC3S2': 7.64, 'rot1': 0, 'rot0': 0, 'rot3': 6, 'rot2': 5, 'state': 'normal', 'yaw': -0.07, 'datetime': '2018-10-09 20:17:53.506078', 'mgs': 0, 'volt': 0.8643, 'depth': 1.004, 'time': 3, 'pitch': 8.45, 'roll': -0.03, 'pres': 177}
{'lipoC2': 7.29, 'lipoC3S1': 3.82, 'temp': 26.81, 'lipoC3S3': 11.55, 'lipoC3S2': 7.64, 'rot1': 0, 'rot0': 0, 'rot3': 6, 'rot2': 5, 'state': 'normal', 'yaw': -0.16, 'datetime': '2018-10-09 20:17:53.609435', 'mgs': 0, 'volt': 0.8838, 'depth': 1.309, 'time': 4, 'pitch': 8.68, 'roll': -0.22, 'pres': 181}
{'lipoC2': 7.29, 'lipoC3S1': 3.83, 'temp': 26.94, 'lipoC3S3': 11.58, 'lipoC3S2': 7.66, 'rot1': 0, 'rot0': 0, 'rot3': 7, 'rot2': 6, 'state': 'normal', 'yaw': -0.21, 'datetime': '2018-10-09 20:17:53.712613', 'mgs': 0, 'volt': 0.8691, 'depth': 1.08, 'time': 4, 'pitch': 8.95, 'roll': -0.37, 'pres': 178}
{'lipoC2': 7.29, 'lipoC3S1': 3.83, 'temp': 26.94, 'lipoC3S3': 11.58, 'lipoC3S2': 7.66, 'rot1': 0, 'rot0': 0, 'rot3': 7, 'rot2': 6, 'state': 'normal', 'yaw': -0.26, 'datetime': '2018-10-09 20:17:53.815811', 'mgs': 0, 'volt': 0.874, 'depth': 1.157, 'time': 4, 'pitch': 9.38, 'roll': -0.49, 'pres': 179}
{'lipoC2': 7.29, 'lipoC3S1': 3.83, 'temp': 26.94, 'lipoC3S3': 11.58, 'lipoC3S2': 7.66, 'rot1': 0, 'rot0': 0, 'rot3': 7, 'rot2': 6, 'state': 'normal', 'yaw': -0.26, 'datetime': '2018-10-09 20:17:53.918999', 'mgs': 0, 'volt': 0.874, 'depth': 1.157, 'time': 4, 'pitch': 9.79, 'roll': -0.6, 'pres': 179}
{'lipoC2': 7.29, 'lipoC3S1': 3.83, 'temp': 26.94, 'lipoC3S3': 11.56, 'lipoC3S2': 7.66, 'rot1': 0, 'rot0': 0, 'rot3': 7, 'rot2': 6, 'state': 'normal', 'yaw': -0.25, 'datetime': '2018-10-09 20:17:54.023507', 'mgs': 0, 'volt': 0.874, 'depth': 1.157, 'time': 4, 'pitch': 10.2, 'roll': -0.7, 'pres': 179}
{'lipoC2': 7.29, 'lipoC3S1': 3.83, 'temp': 26.94, 'lipoC3S3': 11.58, 'lipoC3S2': 7.66, 'rot1': 0, 'rot0': 0, 'rot3': 7, 'rot2': 6, 'state': 'normal', 'yaw': -0.15, 'datetime': '2018-10-09 20:17:54.126753', 'mgs': 0, 'volt': 0.8789, 'depth': 1.233, 'time': 4, 'pitch': 10.61, 'roll': -0.77, 'pres': 180}
{'lipoC2': 7.28, 'lipoC3S1': 3.82, 'temp': 26.88, 'lipoC3S3': 11.54, 'lipoC3S2': 7.64, 'rot1': 0, 'rot0': 0, 'rot3': 7, 'rot2': 6, 'state': 'normal', 'yaw': 0.01, 'datetime': '2018-10-09 20:17:54.230668', 'mgs': 0, 'volt': 0.8789, 'depth': 1.233, 'time': 4, 'pitch': 10.94, 'roll': -0.8, 'pres': 180}
{'lipoC2': 7.29, 'lipoC3S1': 3.82, 'temp': 26.88, 'lipoC3S3': 11.54, 'lipoC3S2': 7.64, 'rot1': 1, 'rot0': 1, 'rot3': 8, 'rot2': 7, 'state': 'normal', 'yaw': 0.19, 'datetime': '2018-10-09 20:17:54.335168', 'mgs': 0, 'volt': 0.8887, 'depth': 1.385, 'time': 4, 'pitch': 11.28, 'roll': -0.77, 'pres': 182}
{'lipoC2': 7.28, 'lipoC3S1': 3.82, 'temp': 26.88, 'lipoC3S3': 11.51, 'lipoC3S2': 7.58, 'rot1': 1, 'rot0': 1, 'rot3': 8, 'rot2': 7, 'state': 'normal', 'yaw': 0.4, 'datetime': '2018-10-09 20:17:54.438425', 'mgs': 0, 'volt': 0.8838, 'depth': 1.309, 'time': 4, 'pitch': 11.73, 'roll': -0.73, 'pres': 181}
{'lipoC2': 7.28, 'lipoC3S1': 3.82, 'temp': 26.88, 'lipoC3S3': 11.54, 'lipoC3S2': 7.64, 'rot1': 1, 'rot0': 1, 'rot3': 9, 'rot2': 8, 'state': 'normal', 'yaw': 0.63, 'datetime': '2018-10-09 20:17:54.542035', 'mgs': 0, 'volt': 0.8984, 'depth': 1.538, 'time': 4, 'pitch': 12.16, 'roll': -0.68, 'pres': 184}
{'lipoC2': 7.29, 'lipoC3S1': 3.82, 'temp': 26.88, 'lipoC3S3': 11.47, 'lipoC3S2': 7.64, 'rot1': 1, 'rot0': 1, 'rot3': 10, 'rot2': 9, 'state': 'normal', 'yaw': 0.88, 'datetime': '2018-10-09 20:17:54.646481', 'mgs': 0, 'volt': 0.8789, 'depth': 1.233, 'time': 5, 'pitch': 12.57, 'roll': -0.63, 'pres': 180}
{'lipoC2': 7.29, 'lipoC3S1': 3.82, 'temp': 26.88, 'lipoC3S3': 11.47, 'lipoC3S2': 7.64, 'rot1': 2, 'rot0': 1, 'rot3': 10, 'rot2': 9, 'state': 'normal', 'yaw': 1.19, 'datetime': '2018-10-09 20:17:54.749914', 'mgs': 0, 'volt': 0.8789, 'depth': 1.233, 'time': 5, 'pitch': 12.94, 'roll': -0.53, 'pres': 180}
{'lipoC2': 7.28, 'lipoC3S1': 3.82, 'temp': 26.88, 'lipoC3S3': 11.56, 'lipoC3S2': 7.64, 'rot1': 2, 'rot0': 2, 'rot3': 11, 'rot2': 10, 'state': 'normal', 'yaw': 1.49, 'datetime': '2018-10-09 20:17:54.853505', 'mgs': 0, 'volt': 0.9131, 'depth': 1.767, 'time': 5, 'pitch': 13.16, 'roll': -0.37, 'pres': 187}
{'lipoC2': 7.29, 'lipoC3S1': 3.81, 'temp': 26.88, 'lipoC3S3': 11.55, 'lipoC3S2': 7.64, 'rot1': 2, 'rot0': 2, 'rot3': 11, 'rot2': 10, 'state': 'normal', 'yaw': 1.81, 'datetime': '2018-10-09 20:17:54.957196', 'mgs': 0, 'volt': 0.9082, 'depth': 1.691, 'time': 5, 'pitch': 13.21, 'roll': -0.16, 'pres': 186}
{'lipoC2': 7.29, 'lipoC3S1': 3.81, 'temp': 26.88, 'lipoC3S3': 11.55, 'lipoC3S2': 7.63, 'rot1': 2, 'rot0': 2, 'rot3': 12, 'rot2': 11, 'state': 'normal', 'yaw': 2.2, 'datetime': '2018-10-09 20:17:55.060888', 'mgs': 0, 'volt': 0.8838, 'depth': 1.309, 'time': 5, 'pitch': 13.09, 'roll': 0.09, 'pres': 181}
{'lipoC2': 7.29, 'lipoC3S1': 3.78, 'temp': 26.94, 'lipoC3S3': 11.54, 'lipoC3S2': 7.6, 'rot1': 3, 'rot0': 2, 'rot3': 13, 'rot2': 12, 'state': 'normal', 'yaw': 2.54, 'datetime': '2018-10-09 20:17:55.164364', 'mgs': 0, 'volt': 0.8838, 'depth': 1.309, 'time': 5, 'pitch': 12.88, 'roll': 0.31, 'pres': 181}
{'lipoC2': 7.29, 'lipoC3S1': 3.82, 'temp': 26.94, 'lipoC3S3': 11.54, 'lipoC3S2': 7.64, 'rot1': 3, 'rot0': 2, 'rot3': 13, 'rot2': 12, 'state': 'normal', 'yaw': 2.85, 'datetime': '2018-10-09 20:17:55.268119', 'mgs': 0, 'volt': 0.8887, 'depth': 1.385, 'time': 5, 'pitch': 12.63, 'roll': 0.51, 'pres': 182}
{'lipoC2': 7.29, 'lipoC3S1': 3.83, 'temp': 26.88, 'lipoC3S3': 11.54, 'lipoC3S2': 7.64, 'rot1': 3, 'rot0': 3, 'rot3': 14, 'rot2': 13, 'state': 'normal', 'yaw': 3.19, 'datetime': '2018-10-09 20:17:55.371776', 'mgs': 0, 'volt': 0.8984, 'depth': 1.538, 'time': 5, 'pitch': 12.34, 'roll': 0.7, 'pres': 184}
{'lipoC2': 7.29, 'lipoC3S1': 3.82, 'temp': 26.88, 'lipoC3S3': 11.51, 'lipoC3S2': 7.59, 'rot1': 3, 'rot0': 3, 'rot3': 15, 'rot2': 13, 'state': 'normal', 'yaw': 3.5, 'datetime': '2018-10-09 20:17:55.476737', 'mgs': 0, 'volt': 0.8789, 'depth': 1.233, 'time': 5, 'pitch': 12.06, 'roll': 0.82, 'pres': 180}
{'lipoC2': 7.29, 'lipoC3S1': 3.82, 'temp': 26.88, 'lipoC3S3': 11.47, 'lipoC3S2': 7.63, 'rot1': 3, 'rot0': 3, 'rot3': 15, 'rot2': 14, 'state': 'normal', 'yaw': 3.83, 'datetime': '2018-10-09 20:17:55.580210', 'mgs': 0, 'volt': 0.8643, 'depth': 1.004, 'time': 6, 'pitch': 11.74, 'roll': 0.89, 'pres': 177}
{'lipoC2': 7.29, 'lipoC3S1': 3.83, 'temp': 26.88, 'lipoC3S3': 11.56, 'lipoC3S2': 7.66, 'rot1': 3, 'rot0': 3, 'rot3': 16, 'rot2': 14, 'state': 'normal', 'yaw': 4.15, 'datetime': '2018-10-09 20:17:55.683772', 'mgs': 0, 'volt': 0.874, 'depth': 1.157, 'time': 6, 'pitch': 11.44, 'roll': 0.96, 'pres': 179}
{'lipoC2': 7.29, 'lipoC3S1': 3.82, 'temp': 26.88, 'lipoC3S3': 11.51, 'lipoC3S2': 7.66, 'rot1': 4, 'rot0': 4, 'rot3': 16, 'rot2': 14, 'state': 'normal', 'yaw': 4.47, 'datetime': '2018-10-09 20:17:55.788621', 'mgs': 0, 'volt': 0.874, 'depth': 1.157, 'time': 6, 'pitch': 11.05, 'roll': 1.03, 'pres': 179}
{'lipoC2': 7.29, 'lipoC3S1': 3.83, 'temp': 26.88, 'lipoC3S3': 11.56, 'lipoC3S2': 7.66, 'rot1': 4, 'rot0': 4, 'rot3': 16, 'rot2': 14, 'state': 'normal', 'yaw': 4.83, 'datetime': '2018-10-09 20:17:55.892205', 'mgs': 0, 'volt': 0.874, 'depth': 1.157, 'time': 6, 'pitch': 10.6, 'roll': 1.09, 'pres': 179}
{'lipoC2': 7.29, 'lipoC3S1': 3.82, 'temp': 26.88, 'lipoC3S3': 11.58, 'lipoC3S2': 7.66, 'rot1': 4, 'rot0': 4, 'rot3': 16, 'rot2': 14, 'state': 'normal', 'yaw': 5.17, 'datetime': '2018-10-09 20:17:55.997108', 'mgs': 0, 'volt': 0.8691, 'depth': 1.08, 'time': 6, 'pitch': 10.28, 'roll': 1.16, 'pres': 178}
{'lipoC2': 7.29, 'lipoC3S1': 3.82, 'temp': 26.81, 'lipoC3S3': 11.56, 'lipoC3S2': 7.66, 'rot1': 4, 'rot0': 4, 'rot3': 16, 'rot2': 14, 'state': 'normal', 'yaw': 5.53, 'datetime': '2018-10-09 20:17:56.101135', 'mgs': 0, 'volt': 0.8691, 'depth': 1.08, 'time': 6, 'pitch': 10.08, 'roll': 1.19, 'pres': 178}
{'lipoC2': 7.29, 'lipoC3S1': 3.83, 'temp': 26.81, 'lipoC3S3': 11.56, 'lipoC3S2': 7.66, 'rot1': 4, 'rot0': 4, 'rot3': 16, 'rot2': 14, 'state': 'normal', 'yaw': 5.92, 'datetime': '2018-10-09 20:17:56.204756', 'mgs': 0, 'volt': 0.8643, 'depth': 1.004, 'time': 6, 'pitch': 9.97, 'roll': 1.17, 'pres': 177}
{'lipoC2': 7.29, 'lipoC3S1': 3.83, 'temp': 26.81, 'lipoC3S3': 11.56, 'lipoC3S2': 7.66, 'rot1': 4, 'rot0': 4, 'rot3': 16, 'rot2': 14, 'state': 'normal', 'yaw': 6.27, 'datetime': '2018-10-09 20:17:56.308271', 'mgs': 0, 'volt': 0.8691, 'depth': 1.08, 'time': 6, 'pitch': 9.92, 'roll': 1.13, 'pres': 178}
{'lipoC2': 7.29, 'lipoC3S1': 3.83, 'temp': 26.88, 'lipoC3S3': 11.56, 'lipoC3S2': 7.66, 'rot1': 5, 'rot0': 4, 'rot3': 16, 'rot2': 14, 'state': 'normal', 'yaw': 6.63, 'datetime': '2018-10-09 20:17:56.411998', 'mgs': 0, 'volt': 0.8691, 'depth': 1.08, 'time': 6, 'pitch': 9.87, 'roll': 1.09, 'pres': 178}
{'lipoC2': 7.29, 'lipoC3S1': 3.83, 'temp': 26.88, 'lipoC3S3': 11.56, 'lipoC3S2': 7.66, 'rot1': 5, 'rot0': 5, 'rot3': 16, 'rot2': 14, 'state': 'normal', 'yaw': 7.05, 'datetime': '2018-10-09 20:17:56.515659', 'mgs': 0, 'volt': 0.8691, 'depth': 1.08, 'time': 6, 'pitch': 9.87, 'roll': 1.05, 'pres': 178}
{'lipoC2': 7.29, 'lipoC3S1': 3.83, 'temp': 26.88, 'lipoC3S3': 11.56, 'lipoC3S2': 7.66, 'rot1': 5, 'rot0': 5, 'rot3': 16, 'rot2': 14, 'state': 'normal', 'yaw': 7.42, 'datetime': '2018-10-09 20:17:56.613361', 'mgs': 0, 'volt': 0.8594, 'depth': 0.928, 'time': 7, 'pitch': 9.98, 'roll': 1.04, 'pres': 176}
{'lipoC2': 7.29, 'lipoC3S1': 3.82, 'temp': 26.88, 'lipoC3S3': 11.56, 'lipoC3S2': 7.66, 'rot1': 5, 'rot0': 5, 'rot3': 16, 'rot2': 14, 'state': 'normal', 'yaw': 7.84, 'datetime': '2018-10-09 20:17:56.717086', 'mgs': 0, 'volt': 0.8691, 'depth': 1.08, 'time': 7, 'pitch': 10.28, 'roll': 1.08, 'pres': 178}
{'lipoC2': 7.29, 'lipoC3S1': 3.83, 'temp': 26.88, 'lipoC3S3': 11.58, 'lipoC3S2': 7.66, 'rot1': 5, 'rot0': 5, 'rot3': 16, 'rot2': 14, 'state': 'normal', 'yaw': 8.22, 'datetime': '2018-10-09 20:17:56.820687', 'mgs': 0, 'volt': 0.8691, 'depth': 1.08, 'time': 7, 'pitch': 10.67, 'roll': 1.14, 'pres': 178}
{'lipoC2': 7.29, 'lipoC3S1': 3.82, 'temp': 26.88, 'lipoC3S3': 11.58, 'lipoC3S2': 7.66, 'rot1': 5, 'rot0': 5, 'rot3': 16, 'rot2': 14, 'state': 'normal', 'yaw': 8.62, 'datetime': '2018-10-09 20:17:56.925514', 'mgs': 0, 'volt': 0.874, 'depth': 1.157, 'time': 7, 'pitch': 11.07, 'roll': 1.22, 'pres': 179}
{'lipoC2': 7.29, 'lipoC3S1': 3.83, 'temp': 26.88, 'lipoC3S3': 11.58, 'lipoC3S2': 7.66, 'rot1': 5, 'rot0': 5, 'rot3': 16, 'rot2': 14, 'state': 'normal', 'yaw': 9.04, 'datetime': '2018-10-09 20:17:57.029087', 'mgs': 0, 'volt': 0.8691, 'depth': 1.08, 'time': 7, 'pitch': 11.46, 'roll': 1.3, 'pres': 178}
{'lipoC2': 7.29, 'lipoC3S1': 3.83, 'temp': 26.88, 'lipoC3S3': 11.56, 'lipoC3S2': 7.66, 'rot1': 6, 'rot0': 5, 'rot3': 16, 'rot2': 14, 'state': 'normal', 'yaw': 9.41, 'datetime': '2018-10-09 20:17:57.133193', 'mgs': 0, 'volt': 0.874, 'depth': 1.157, 'time': 7, 'pitch': 11.76, 'roll': 1.37, 'pres': 179}
{'lipoC2': 7.29, 'lipoC3S1': 3.83, 'temp': 26.88, 'lipoC3S3': 11.58, 'lipoC3S2': 7.66, 'rot1': 6, 'rot0': 5, 'rot3': 16, 'rot2': 14, 'state': 'normal', 'yaw': 9.77, 'datetime': '2018-10-09 20:17:57.237879', 'mgs': 0, 'volt': 0.8789, 'depth': 1.233, 'time': 7, 'pitch': 12.01, 'roll': 1.49, 'pres': 180}
{'lipoC2': 7.29, 'lipoC3S1': 3.79, 'temp': 26.81, 'lipoC3S3': 11.55, 'lipoC3S2': 7.65, 'rot1': 6, 'rot0': 5, 'rot3': 16, 'rot2': 15, 'state': 'normal', 'yaw': 10.15, 'datetime': '2018-10-09 20:17:57.341502', 'mgs': 0, 'volt': 0.8789, 'depth': 1.233, 'time': 7, 'pitch': 12.26, 'roll': 1.68, 'pres': 180}
{'lipoC2': 7.29, 'lipoC3S1': 3.82, 'temp': 26.81, 'lipoC3S3': 11.47, 'lipoC3S2': 7.64, 'rot1': 6, 'rot0': 5, 'rot3': 16, 'rot2': 15, 'state': 'normal', 'yaw': 10.49, 'datetime': '2018-10-09 20:17:57.446326', 'mgs': 0, 'volt': 0.8789, 'depth': 1.233, 'time': 7, 'pitch': 12.52, 'roll': 1.92, 'pres': 180}
{'lipoC2': 7.28, 'lipoC3S1': 3.82, 'temp': 26.88, 'lipoC3S3': 11.54, 'lipoC3S2': 7.64, 'rot1': 6, 'rot0': 5, 'rot3': 17, 'rot2': 16, 'state': 'normal', 'yaw': 10.86, 'datetime': '2018-10-09 20:17:57.549946', 'mgs': 0, 'volt': 0.8936, 'depth': 1.462, 'time': 7, 'pitch': 12.86, 'roll': 2.2, 'pres': 183}
{'lipoC2': 7.29, 'lipoC3S1': 3.81, 'temp': 26.88, 'lipoC3S3': 11.55, 'lipoC3S2': 7.64, 'rot1': 6, 'rot0': 5, 'rot3': 17, 'rot2': 16, 'state': 'normal', 'yaw': 11.16, 'datetime': '2018-10-09 20:17:57.653526', 'mgs': 0, 'volt': 0.8984, 'depth': 1.538, 'time': 8, 'pitch': 13.14, 'roll': 2.43, 'pres': 184}
{'lipoC2': 7.29, 'lipoC3S1': 3.79, 'temp': 26.88, 'lipoC3S3': 11.55, 'lipoC3S2': 7.63, 'rot1': 6, 'rot0': 5, 'rot3': 18, 'rot2': 17, 'state': 'normal', 'yaw': 11.41, 'datetime': '2018-10-09 20:17:57.757105', 'mgs': 0, 'volt': 0.8789, 'depth': 1.233, 'time': 8, 'pitch': 13.38, 'roll': 2.63, 'pres': 180}
{'lipoC2': 7.29, 'lipoC3S1': 3.85, 'temp': 26.88, 'lipoC3S3': 11.54, 'lipoC3S2': 7.6, 'rot1': 6, 'rot0': 5, 'rot3': 19, 'rot2': 17, 'state': 'normal', 'yaw': 11.63, 'datetime': '2018-10-09 20:17:57.860729', 'mgs': 0, 'volt': 0.8789, 'depth': 1.233, 'time': 8, 'pitch': 13.6, 'roll': 2.84, 'pres': 180}
{'lipoC2': 7.29, 'lipoC3S1': 3.82, 'temp': 26.88, 'lipoC3S3': 11.5, 'lipoC3S2': 7.63, 'rot1': 6, 'rot0': 5, 'rot3': 19, 'rot2': 18, 'state': 'normal', 'yaw': 11.84, 'datetime': '2018-10-09 20:17:57.964291', 'mgs': 0, 'volt': 0.8789, 'depth': 1.233, 'time': 8, 'pitch': 13.75, 'roll': 3.06, 'pres': 180}
{'lipoC2': 7.29, 'lipoC3S1': 3.82, 'temp': 26.88, 'lipoC3S3': 11.54, 'lipoC3S2': 7.64, 'rot1': 6, 'rot0': 5, 'rot3': 20, 'rot2': 18, 'state': 'normal', 'yaw': 12.03, 'datetime': '2018-10-09 20:17:58.074515', 'mgs': 0, 'volt': 0.8838, 'depth': 1.309, 'time': 8, 'pitch': 13.78, 'roll': 3.22, 'pres': 181}
{'lipoC2': 7.29, 'lipoC3S1': 3.82, 'temp': 26.88, 'lipoC3S3': 11.55, 'lipoC3S2': 7.65, 'rot1': 6, 'rot0': 5, 'rot3': 20, 'rot2': 19, 'state': 'normal', 'yaw': 12.23, 'datetime': '2018-10-09 20:17:58.177384', 'mgs': 0, 'volt': 0.8936, 'depth': 1.462, 'time': 8, 'pitch': 13.74, 'roll': 3.38, 'pres': 183}
{'lipoC2': 7.29, 'lipoC3S1': 3.8, 'temp': 26.88, 'lipoC3S3': 11.55, 'lipoC3S2': 7.65, 'rot1': 6, 'rot0': 5, 'rot3': 21, 'rot2': 19, 'state': 'normal', 'yaw': 12.41, 'datetime': '2018-10-09 20:17:58.280866', 'mgs': 0, 'volt': 0.8936, 'depth': 1.462, 'time': 8, 'pitch': 13.62, 'roll': 3.5, 'pres': 183}
{'lipoC2': 7.28, 'lipoC3S1': 3.81, 'temp': 26.88, 'lipoC3S3': 11.46, 'lipoC3S2': 7.61, 'rot1': 6, 'rot0': 6, 'rot3': 22, 'rot2': 20, 'state': 'normal', 'yaw': 12.55, 'datetime': '2018-10-09 20:17:58.385712', 'mgs': 0, 'volt': 0.874, 'depth': 1.157, 'time': 8, 'pitch': 13.5, 'roll': 3.59, 'pres': 179}
{'lipoC2': 7.29, 'lipoC3S1': 3.81, 'temp': 26.88, 'lipoC3S3': 11.5, 'lipoC3S2': 7.62, 'rot1': 7, 'rot0': 7, 'rot3': 22, 'rot2': 21, 'state': 'normal', 'yaw': 12.5, 'datetime': '2018-10-09 20:17:58.489274', 'mgs': 0, 'volt': 0.9131, 'depth': 1.767, 'time': 8, 'pitch': 13.84, 'roll': 3.61, 'pres': 187}
{'lipoC2': 7.29, 'lipoC3S1': 3.74, 'temp': 26.88, 'lipoC3S3': 11.51, 'lipoC3S2': 7.62, 'rot1': 8, 'rot0': 8, 'rot3': 23, 'rot2': 21, 'state': 'normal', 'yaw': 12.21, 'datetime': '2018-10-09 20:17:58.594011', 'mgs': 0, 'volt': 0.8936, 'depth': 1.462, 'time': 9, 'pitch': 14.7, 'roll': 3.55, 'pres': 183}
{'lipoC2': 7.29, 'lipoC3S1': 3.78, 'temp': 26.88, 'lipoC3S3': 11.51, 'lipoC3S2': 7.62, 'rot1': 9, 'rot0': 9, 'rot3': 24, 'rot2': 22, 'state': 'normal', 'yaw': 11.7, 'datetime': '2018-10-09 20:17:58.698219', 'mgs': 0, 'volt': 0.8691, 'depth': 1.08, 'time': 9, 'pitch': 15.89, 'roll': 3.41, 'pres': 178}
{'lipoC2': 7.29, 'lipoC3S1': 3.78, 'temp': 26.88, 'lipoC3S3': 11.51, 'lipoC3S2': 7.52, 'rot1': 10, 'rot0': 10, 'rot3': 24, 'rot2': 22, 'state': 'normal', 'yaw': 10.89, 'datetime': '2018-10-09 20:17:58.802299', 'mgs': 0, 'volt': 0.8691, 'depth': 1.08, 'time': 9, 'pitch': 17.29, 'roll': 3.2, 'pres': 178}
{'lipoC2': 7.29, 'lipoC3S1': 3.85, 'temp': 26.88, 'lipoC3S3': 11.54, 'lipoC3S2': 7.57, 'rot1': 11, 'rot0': 11, 'rot3': 25, 'rot2': 23, 'state': 'normal', 'yaw': 9.94, 'datetime': '2018-10-09 20:17:58.907560', 'mgs': 0, 'volt': 0.874, 'depth': 1.157, 'time': 9, 'pitch': 18.6, 'roll': 3.01, 'pres': 179}
{'lipoC2': 7.29, 'lipoC3S1': 3.82, 'temp': 26.88, 'lipoC3S3': 11.52, 'lipoC3S2': 7.63, 'rot1': 11, 'rot0': 12, 'rot3': 25, 'rot2': 23, 'state': 'normal', 'yaw': 8.68, 'datetime': '2018-10-09 20:17:59.011568', 'mgs': 0, 'volt': 0.9082, 'depth': 1.691, 'time': 9, 'pitch': 19.92, 'roll': 2.67, 'pres': 186}
{'lipoC2': 7.29, 'lipoC3S1': 3.81, 'temp': 26.88, 'lipoC3S3': 11.44, 'lipoC3S2': 7.63, 'rot1': 12, 'rot0': 13, 'rot3': 25, 'rot2': 23, 'state': 'normal', 'yaw': 7.49, 'datetime': '2018-10-09 20:17:59.115525', 'mgs': 0, 'volt': 0.874, 'depth': 1.157, 'time': 9, 'pitch': 21.04, 'roll': 2.26, 'pres': 179}
{'lipoC2': 7.29, 'lipoC3S1': 3.84, 'temp': 26.88, 'lipoC3S3': 11.54, 'lipoC3S2': 7.57, 'rot1': 13, 'rot0': 14, 'rot3': 25, 'rot2': 23, 'state': 'normal', 'yaw': 6.28, 'datetime': '2018-10-09 20:17:59.219676', 'mgs': 0, 'volt': 0.874, 'depth': 1.157, 'time': 9, 'pitch': 22.08, 'roll': 1.82, 'pres': 179}
{'lipoC2': 7.29, 'lipoC3S1': 3.82, 'temp': 26.88, 'lipoC3S3': 11.52, 'lipoC3S2': 7.63, 'rot1': 14, 'rot0': 16, 'rot3': 25, 'rot2': 23, 'state': 'normal', 'yaw': 4.96, 'datetime': '2018-10-09 20:17:59.323728', 'mgs': 0, 'volt': 0.9082, 'depth': 1.691, 'time': 9, 'pitch': 23.03, 'roll': 1.31, 'pres': 186}
{'lipoC2': 7.29, 'lipoC3S1': 3.81, 'temp': 26.88, 'lipoC3S3': 11.47, 'lipoC3S2': 7.56, 'rot1': 15, 'rot0': 17, 'rot3': 25, 'rot2': 23, 'state': 'normal', 'yaw': 3.77, 'datetime': '2018-10-09 20:17:59.427758', 'mgs': 0, 'volt': 0.8691, 'depth': 1.08, 'time': 9, 'pitch': 23.64, 'roll': 0.85, 'pres': 178}
{'lipoC2': 7.29, 'lipoC3S1': 3.78, 'temp': 26.88, 'lipoC3S3': 11.52, 'lipoC3S2': 7.63, 'rot1': 16, 'rot0': 18, 'rot3': 25, 'rot2': 23, 'state': 'normal', 'yaw': 2.48, 'datetime': '2018-10-09 20:17:59.531642', 'mgs': 0, 'volt': 0.8594, 'depth': 0.928, 'time': 9, 'pitch': 23.99, 'roll': 0.37, 'pres': 176}
{'lipoC2': 7.28, 'lipoC3S1': 3.81, 'temp': 26.88, 'lipoC3S3': 11.56, 'lipoC3S2': 7.62, 'rot1': 17, 'rot0': 19, 'rot3': 25, 'rot2': 23, 'state': 'normal', 'yaw': 1.34, 'datetime': '2018-10-09 20:17:59.635993', 'mgs': 0, 'volt': 0.8691, 'depth': 1.08, 'time': 10, 'pitch': 24.04, 'roll': -0.05, 'pres': 178}
{'lipoC2': 7.29, 'lipoC3S1': 3.81, 'temp': 26.88, 'lipoC3S3': 11.34, 'lipoC3S2': 7.62, 'rot1': 18, 'rot0': 20, 'rot3': 25, 'rot2': 23, 'state': 'normal', 'yaw': 0.36, 'datetime': '2018-10-09 20:17:59.741082', 'mgs': 0, 'volt': 0.8691, 'depth': 1.08, 'time': 10, 'pitch': 23.95, 'roll': -0.41, 'pres': 178}
{'lipoC2': 7.29, 'lipoC3S1': 3.81, 'temp': 26.88, 'lipoC3S3': 11.52, 'lipoC3S2': 7.54, 'rot1': 20, 'rot0': 21, 'rot3': 25, 'rot2': 23, 'state': 'normal', 'yaw': -0.5, 'datetime': '2018-10-09 20:17:59.845135', 'mgs': 0, 'volt': 0.8691, 'depth': 1.08, 'time': 10, 'pitch': 23.76, 'roll': -0.67, 'pres': 178}
{'lipoC2': 7.29, 'lipoC3S1': 3.81, 'temp': 26.88, 'lipoC3S3': 11.51, 'lipoC3S2': 7.5, 'rot1': 21, 'rot0': 23, 'rot3': 25, 'rot2': 23, 'state': 'normal', 'yaw': -1.1, 'datetime': '2018-10-09 20:17:59.950571', 'mgs': 0, 'volt': 0.8691, 'depth': 1.08, 'time': 10, 'pitch': 23.56, 'roll': -0.8, 'pres': 178}
{'lipoC2': 7.29, 'lipoC3S1': 3.77, 'temp': 26.81, 'lipoC3S3': 11.52, 'lipoC3S2': 7.63, 'rot1': 22, 'rot0': 24, 'rot3': 25, 'rot2': 23, 'state': 'normal', 'yaw': -1.57, 'datetime': '2018-10-09 20:18:00.054660', 'mgs': 0, 'volt': 0.8691, 'depth': 1.08, 'time': 10, 'pitch': 23.26, 'roll': -0.84, 'pres': 178}
{'lipoC2': 7.29, 'lipoC3S1': 3.77, 'temp': 26.81, 'lipoC3S3': 11.52, 'lipoC3S2': 7.63, 'rot1': 23, 'rot0': 25, 'rot3': 25, 'rot2': 23, 'state': 'normal', 'yaw': -1.87, 'datetime': '2018-10-09 20:18:00.159944', 'mgs': 0, 'volt': 0.8643, 'depth': 1.004, 'time': 10, 'pitch': 22.92, 'roll': -0.85, 'pres': 177}
{'lipoC2': 7.28, 'lipoC3S1': 3.82, 'temp': 26.81, 'lipoC3S3': 11.5, 'lipoC3S2': 7.62, 'rot1': 24, 'rot0': 26, 'rot3': 25, 'rot2': 23, 'state': 'normal', 'yaw': -2.08, 'datetime': '2018-10-09 20:18:00.264085', 'mgs': 0, 'volt': 0.8838, 'depth': 1.309, 'time': 10, 'pitch': 22.43, 'roll': -0.85, 'pres': 181}
{'lipoC2': 7.29, 'lipoC3S1': 3.81, 'temp': 26.81, 'lipoC3S3': 11.43, 'lipoC3S2': 7.61, 'rot1': 25, 'rot0': 27, 'rot3': 25, 'rot2': 23, 'state': 'normal', 'yaw': -2.22, 'datetime': '2018-10-09 20:18:00.368179', 'mgs': 0, 'volt': 0.8643, 'depth': 1.004, 'time': 10, 'pitch': 21.91, 'roll': -0.83, 'pres': 177}
{'lipoC2': 7.29, 'lipoC3S1': 3.73, 'temp': 26.88, 'lipoC3S3': 11.52, 'lipoC3S2': 7.6, 'rot1': 27, 'rot0': 28, 'rot3': 25, 'rot2': 23, 'state': 'normal', 'yaw': -2.33, 'datetime': '2018-10-09 20:18:00.472319', 'mgs': 0, 'volt': 0.8594, 'depth': 0.928, 'time': 10, 'pitch': 21.37, 'roll': -0.81, 'pres': 176}
{'lipoC2': 7.29, 'lipoC3S1': 3.82, 'temp': 26.88, 'lipoC3S3': 11.51, 'lipoC3S2': 7.63, 'rot1': 28, 'rot0': 29, 'rot3': 25, 'rot2': 23, 'state': 'normal', 'yaw': -2.43, 'datetime': '2018-10-09 20:18:00.576418', 'mgs': 0, 'volt': 0.9131, 'depth': 1.767, 'time': 11, 'pitch': 20.8, 'roll': -0.74, 'pres': 187}
{'lipoC2': 7.28, 'lipoC3S1': 3.81, 'temp': 26.88, 'lipoC3S3': 11.5, 'lipoC3S2': 7.62, 'rot1': 29, 'rot0': 31, 'rot3': 25, 'rot2': 23, 'state': 'normal', 'yaw': -2.46, 'datetime': '2018-10-09 20:18:00.680513', 'mgs': 0, 'volt': 0.8594, 'depth': 0.928, 'time': 11, 'pitch': 20.31, 'roll': -0.67, 'pres': 176}
{'lipoC2': 7.29, 'lipoC3S1': 3.81, 'temp': 26.88, 'lipoC3S3': 11.35, 'lipoC3S2': 7.62, 'rot1': 30, 'rot0': 32, 'rot3': 25, 'rot2': 23, 'state': 'normal', 'yaw': -2.45, 'datetime': '2018-10-09 20:18:00.784862', 'mgs': 0, 'volt': 0.8594, 'depth': 0.928, 'time': 11, 'pitch': 19.84, 'roll': -0.63, 'pres': 176}
{'lipoC2': 7.29, 'lipoC3S1': 3.81, 'temp': 26.88, 'lipoC3S3': 11.52, 'lipoC3S2': 7.52, 'rot1': 31, 'rot0': 33, 'rot3': 25, 'rot2': 23, 'state': 'normal', 'yaw': -2.46, 'datetime': '2018-10-09 20:18:00.888948', 'mgs': 0, 'volt': 0.8594, 'depth': 0.928, 'time': 11, 'pitch': 19.35, 'roll': -0.62, 'pres': 176}
{'lipoC2': 7.29, 'lipoC3S1': 3.81, 'temp': 26.81, 'lipoC3S3': 11.47, 'lipoC3S2': 7.49, 'rot1': 32, 'rot0': 34, 'rot3': 25, 'rot2': 23, 'state': 'normal', 'yaw': -2.45, 'datetime': '2018-10-09 20:18:00.994344', 'mgs': 0, 'volt': 0.8594, 'depth': 0.928, 'time': 11, 'pitch': 18.95, 'roll': -0.62, 'pres': 176}
{'lipoC2': 7.29, 'lipoC3S1': 3.73, 'temp': 26.81, 'lipoC3S3': 11.52, 'lipoC3S2': 7.62, 'rot1': 33, 'rot0': 35, 'rot3': 25, 'rot2': 23, 'state': 'normal', 'yaw': -2.45, 'datetime': '2018-10-09 20:18:01.098636', 'mgs': 0, 'volt': 0.8643, 'depth': 1.004, 'time': 11, 'pitch': 18.58, 'roll': -0.62, 'pres': 177}
{'lipoC2': 7.29, 'lipoC3S1': 3.78, 'temp': 26.88, 'lipoC3S3': 11.52, 'lipoC3S2': 7.57, 'rot1': 35, 'rot0': 36, 'rot3': 25, 'rot2': 23, 'state': 'normal', 'yaw': -2.55, 'datetime': '2018-10-09 20:18:01.203818', 'mgs': 0, 'volt': 0.8643, 'depth': 1.004, 'time': 11, 'pitch': 18.3, 'roll': -0.65, 'pres': 177}
{'lipoC2': 7.29, 'lipoC3S1': 3.82, 'temp': 26.88, 'lipoC3S3': 11.51, 'lipoC3S2': 7.63, 'rot1': 36, 'rot0': 37, 'rot3': 25, 'rot2': 23, 'state': 'normal', 'yaw': -2.68, 'datetime': '2018-10-09 20:18:01.307964', 'mgs': 0, 'volt': 0.9229, 'depth': 1.92, 'time': 11, 'pitch': 18.07, 'roll': -0.75, 'pres': 189}
{'lipoC2': 7.28, 'lipoC3S1': 3.75, 'temp': 26.88, 'lipoC3S3': 11.47, 'lipoC3S2': 7.6, 'rot1': 37, 'rot0': 38, 'rot3': 25, 'rot2': 23, 'state': 'normal', 'yaw': -2.79, 'datetime': '2018-10-09 20:18:01.413326', 'mgs': 0, 'volt': 0.8887, 'depth': 1.385, 'time': 11, 'pitch': 17.9, 'roll': -0.84, 'pres': 182}
{'lipoC2': 7.27, 'lipoC3S1': 3.8, 'temp': 26.88, 'lipoC3S3': 11.39, 'lipoC3S2': 7.59, 'rot1': 38, 'rot0': 40, 'rot3': 26, 'rot2': 24, 'state': 'normal', 'yaw': -2.93, 'datetime': '2018-10-09 20:18:01.517502', 'mgs': 0, 'volt': 0.8984, 'depth': 1.538, 'time': 11, 'pitch': 17.93, 'roll': -0.88, 'pres': 184}
{'lipoC2': 7.29, 'lipoC3S1': 3.8, 'temp': 26.88, 'lipoC3S3': 11.31, 'lipoC3S2': 7.54, 'rot1': 39, 'rot0': 41, 'rot3': 26, 'rot2': 24, 'state': 'normal', 'yaw': -3.08, 'datetime': '2018-10-09 20:18:01.621627', 'mgs': 0, 'volt': 0.8643, 'depth': 1.004, 'time': 12, 'pitch': 18.23, 'roll': -0.88, 'pres': 177}
{'lipoC2': 7.29, 'lipoC3S1': 3.71, 'temp': 26.88, 'lipoC3S3': 11.52, 'lipoC3S2': 7.57, 'rot1': 40, 'rot0': 42, 'rot3': 27, 'rot2': 25, 'state': 'normal', 'yaw': -3.23, 'datetime': '2018-10-09 20:18:01.725623', 'mgs': 0, 'volt': 0.8691, 'depth': 1.08, 'time': 12, 'pitch': 18.69, 'roll': -0.87, 'pres': 178}
{'lipoC2': 7.29, 'lipoC3S1': 3.8, 'temp': 26.88, 'lipoC3S3': 11.51, 'lipoC3S2': 7.62, 'rot1': 41, 'rot0': 43, 'rot3': 27, 'rot2': 25, 'state': 'normal', 'yaw': -3.25, 'datetime': '2018-10-09 20:18:01.829775', 'mgs': 0, 'volt': 0.8838, 'depth': 1.309, 'time': 12, 'pitch': 19.19, 'roll': -0.88, 'pres': 181}
{'lipoC2': 7.28, 'lipoC3S1': 3.81, 'temp': 26.88, 'lipoC3S3': 11.48, 'lipoC3S2': 7.61, 'rot1': 42, 'rot0': 44, 'rot3': 27, 'rot2': 25, 'state': 'normal', 'yaw': -3.26, 'datetime': '2018-10-09 20:18:01.933919', 'mgs': 0, 'volt': 0.8691, 'depth': 1.08, 'time': 12, 'pitch': 19.59, 'roll': -0.88, 'pres': 178}
{'lipoC2': 7.28, 'lipoC3S1': 3.81, 'temp': 26.88, 'lipoC3S3': 11.48, 'lipoC3S2': 7.62, 'rot1': 43, 'rot0': 45, 'rot3': 27, 'rot2': 25, 'state': 'normal', 'yaw': -3.27, 'datetime': '2018-10-09 20:18:02.038264', 'mgs': 0, 'volt': 0.874, 'depth': 1.157, 'time': 12, 'pitch': 19.93, 'roll': -0.88, 'pres': 179}
{'lipoC2': 7.29, 'lipoC3S1': 3.81, 'temp': 26.88, 'lipoC3S3': 11.48, 'lipoC3S2': 7.5, 'rot1': 45, 'rot0': 46, 'rot3': 27, 'rot2': 25, 'state': 'normal', 'yaw': -3.28, 'datetime': '2018-10-09 20:18:02.142382', 'mgs': 0, 'volt': 0.8691, 'depth': 1.08, 'time': 12, 'pitch': 20.24, 'roll': -0.99, 'pres': 178}
{'lipoC2': 7.29, 'lipoC3S1': 3.83, 'temp': 26.88, 'lipoC3S3': 11.56, 'lipoC3S2': 7.66, 'rot1': 45, 'rot0': 47, 'rot3': 27, 'rot2': 25, 'state': 'normal', 'yaw': -3.28, 'datetime': '2018-10-09 20:18:02.247686', 'mgs': 0, 'volt': 0.874, 'depth': 1.157, 'time': 12, 'pitch': 20.39, 'roll': -1.14, 'pres': 179}
{'lipoC2': 7.29, 'lipoC3S1': 3.79, 'temp': 26.88, 'lipoC3S3': 11.5, 'lipoC3S2': 7.61, 'rot1': 45, 'rot0': 47, 'rot3': 28, 'rot2': 26, 'state': 'normal', 'yaw': -3.27, 'datetime': '2018-10-09 20:18:02.351768', 'mgs': 0, 'volt': 0.9033, 'depth': 1.614, 'time': 12, 'pitch': 19.84, 'roll': -1.31, 'pres': 185}
{'lipoC2': 7.29, 'lipoC3S1': 3.79, 'temp': 26.88, 'lipoC3S3': 11.52, 'lipoC3S2': 7.62, 'rot1': 45, 'rot0': 47, 'rot3': 28, 'rot2': 26, 'state': 'normal', 'yaw': -3.23, 'datetime': '2018-10-09 20:18:02.457168', 'mgs': 0, 'volt': 0.8984, 'depth': 1.538, 'time': 12, 'pitch': 18.62, 'roll': -1.51, 'pres': 184}
{'lipoC2': 7.29, 'lipoC3S1': 3.82, 'temp': 26.88, 'lipoC3S3': 11.51, 'lipoC3S2': 7.63, 'rot1': 45, 'rot0': 47, 'rot3': 29, 'rot2': 27, 'state': 'normal', 'yaw': -3.17, 'datetime': '2018-10-09 20:18:02.561485', 'mgs': 0, 'volt': 0.8936, 'depth': 1.462, 'time': 12, 'pitch': 16.88, 'roll': -1.71, 'pres': 183}
{'lipoC2': 7.29, 'lipoC3S1': 3.82, 'temp': 26.81, 'lipoC3S3': 11.48, 'lipoC3S2': 7.63, 'rot1': 45, 'rot0': 47, 'rot3': 30, 'rot2': 28, 'state': 'normal', 'yaw': -3.12, 'datetime': '2018-10-09 20:18:02.666493', 'mgs': 0, 'volt': 0.8838, 'depth': 1.309, 'time': 13, 'pitch': 15.17, 'roll': -1.88, 'pres': 181}
{'lipoC2': 7.29, 'lipoC3S1': 3.78, 'temp': 26.81, 'lipoC3S3': 11.51, 'lipoC3S2': 7.61, 'rot1': 45, 'rot0': 47, 'rot3': 31, 'rot2': 28, 'state': 'normal', 'yaw': -3.07, 'datetime': '2018-10-09 20:18:02.770444', 'mgs': 0, 'volt': 0.8789, 'depth': 1.233, 'time': 13, 'pitch': 13.17, 'roll': -2.11, 'pres': 180}
{'lipoC2': 7.29, 'lipoC3S1': 3.8, 'temp': 26.88, 'lipoC3S3': 11.51, 'lipoC3S2': 7.63, 'rot1': 45, 'rot0': 47, 'rot3': 32, 'rot2': 29, 'state': 'normal', 'yaw': -3.0, 'datetime': '2018-10-09 20:18:02.874552', 'mgs': 0, 'volt': 0.8936, 'depth': 1.462, 'time': 13, 'pitch': 11.27, 'roll': -2.33, 'pres': 183}
{'lipoC2': 7.29, 'lipoC3S1': 3.81, 'temp': 26.88, 'lipoC3S3': 11.47, 'lipoC3S2': 7.56, 'rot1': 45, 'rot0': 47, 'rot3': 32, 'rot2': 30, 'state': 'normal', 'yaw': -2.95, 'datetime': '2018-10-09 20:18:02.978642', 'mgs': 0, 'volt': 0.8838, 'depth': 1.309, 'time': 13, 'pitch': 9.39, 'roll': -2.58, 'pres': 181}
{'lipoC2': 7.29, 'lipoC3S1': 3.78, 'temp': 26.88, 'lipoC3S3': 11.54, 'lipoC3S2': 7.59, 'rot1': 45, 'rot0': 47, 'rot3': 33, 'rot2': 30, 'state': 'normal', 'yaw': -2.97, 'datetime': '2018-10-09 20:18:03.082555', 'mgs': 0, 'volt': 0.9033, 'depth': 1.614, 'time': 13, 'pitch': 7.47, 'roll': -2.81, 'pres': 185}
{'lipoC2': 7.29, 'lipoC3S1': 3.82, 'temp': 26.88, 'lipoC3S3': 11.52, 'lipoC3S2': 7.63, 'rot1': 45, 'rot0': 47, 'rot3': 34, 'rot2': 31, 'state': 'normal', 'yaw': -3.05, 'datetime': '2018-10-09 20:18:03.186619', 'mgs': 0, 'volt': 0.8936, 'depth': 1.462, 'time': 13, 'pitch': 6.0, 'roll': -3.01, 'pres': 183}
{'lipoC2': 7.29, 'lipoC3S1': 3.82, 'temp': 26.88, 'lipoC3S3': 11.44, 'lipoC3S2': 7.62, 'rot1': 45, 'rot0': 47, 'rot3': 35, 'rot2': 31, 'state': 'normal', 'yaw': -3.17, 'datetime': '2018-10-09 20:18:03.290853', 'mgs': 0, 'volt': 0.8984, 'depth': 1.538, 'time': 13, 'pitch': 4.88, 'roll': -3.13, 'pres': 184}
{'lipoC2': 7.29, 'lipoC3S1': 3.78, 'temp': 26.94, 'lipoC3S3': 11.51, 'lipoC3S2': 7.59, 'rot1': 45, 'rot0': 47, 'rot3': 36, 'rot2': 32, 'state': 'normal', 'yaw': -3.33, 'datetime': '2018-10-09 20:18:03.394836', 'mgs': 0, 'volt': 0.8984, 'depth': 1.538, 'time': 13, 'pitch': 4.06, 'roll': -3.15, 'pres': 184}
{'lipoC2': 7.29, 'lipoC3S1': 3.78, 'temp': 26.94, 'lipoC3S3': 11.51, 'lipoC3S2': 7.59, 'rot1': 45, 'rot0': 47, 'rot3': 36, 'rot2': 33, 'state': 'normal', 'yaw': -3.52, 'datetime': '2018-10-09 20:18:03.500169', 'mgs': 0, 'volt': 0.9033, 'depth': 1.614, 'time': 13, 'pitch': 3.69, 'roll': -3.08, 'pres': 185}
{'lipoC2': 7.29, 'lipoC3S1': 3.81, 'temp': 26.88, 'lipoC3S3': 11.52, 'lipoC3S2': 7.63, 'rot1': 45, 'rot0': 47, 'rot3': 37, 'rot2': 33, 'state': 'normal', 'yaw': -3.78, 'datetime': '2018-10-09 20:18:03.604235', 'mgs': 0, 'volt': 0.9277, 'depth': 1.996, 'time': 14, 'pitch': 3.66, 'roll': -2.93, 'pres': 190}
{'lipoC2': 7.29, 'lipoC3S1': 3.81, 'temp': 26.88, 'lipoC3S3': 11.52, 'lipoC3S2': 7.63, 'rot1': 45, 'rot0': 47, 'rot3': 38, 'rot2': 34, 'state': 'normal', 'yaw': -4.07, 'datetime': '2018-10-09 20:18:03.709416', 'mgs': 0, 'volt': 0.9326, 'depth': 2.072, 'time': 14, 'pitch': 3.96, 'roll': -2.78, 'pres': 191}
{'lipoC2': 7.29, 'lipoC3S1': 3.82, 'temp': 26.88, 'lipoC3S3': 11.48, 'lipoC3S2': 7.57, 'rot1': 45, 'rot0': 47, 'rot3': 39, 'rot2': 35, 'state': 'normal', 'yaw': -4.43, 'datetime': '2018-10-09 20:18:03.813516', 'mgs': 0, 'volt': 0.9229, 'depth': 1.92, 'time': 14, 'pitch': 4.61, 'roll': -2.56, 'pres': 189}
{'lipoC2': 7.29, 'lipoC3S1': 3.79, 'temp': 26.88, 'lipoC3S3': 11.52, 'lipoC3S2': 7.62, 'rot1': 45, 'rot0': 47, 'rot3': 39, 'rot2': 35, 'state': 'normal', 'yaw': -4.76, 'datetime': '2018-10-09 20:18:03.917501', 'mgs': 0, 'volt': 0.9277, 'depth': 1.996, 'time': 14, 'pitch': 5.37, 'roll': -2.34, 'pres': 190}
{'lipoC2': 7.29, 'lipoC3S1': 3.77, 'temp': 26.88, 'lipoC3S3': 11.51, 'lipoC3S2': 7.59, 'rot1': 45, 'rot0': 47, 'rot3': 40, 'rot2': 36, 'state': 'normal', 'yaw': -5.12, 'datetime': '2018-10-09 20:18:04.023023', 'mgs': 0, 'volt': 0.9375, 'depth': 2.148, 'time': 14, 'pitch': 6.23, 'roll': -2.17, 'pres': 192}
{'lipoC2': 7.29, 'lipoC3S1': 3.8, 'temp': 26.88, 'lipoC3S3': 11.52, 'lipoC3S2': 7.64, 'rot1': 45, 'rot0': 47, 'rot3': 41, 'rot2': 37, 'state': 'normal', 'yaw': -5.52, 'datetime': '2018-10-09 20:18:04.127172', 'mgs': 0, 'volt': 0.9619, 'depth': 2.53, 'time': 14, 'pitch': 7.17, 'roll': -1.97, 'pres': 197}
{'lipoC2': 7.29, 'lipoC3S1': 3.82, 'temp': 26.88, 'lipoC3S3': 11.47, 'lipoC3S2': 7.63, 'rot1': 45, 'rot0': 47, 'rot3': 42, 'rot2': 37, 'state': 'normal', 'yaw': -5.89, 'datetime': '2018-10-09 20:18:04.231083', 'mgs': 0, 'volt': 0.9424, 'depth': 2.225, 'time': 14, 'pitch': 7.97, 'roll': -1.78, 'pres': 193}
{'lipoC2': 7.29, 'lipoC3S1': 3.78, 'temp': 26.88, 'lipoC3S3': 11.55, 'lipoC3S2': 7.61, 'rot1': 45, 'rot0': 47, 'rot3': 42, 'rot2': 38, 'state': 'normal', 'yaw': -6.3, 'datetime': '2018-10-09 20:18:04.335104', 'mgs': 0, 'volt': 0.9619, 'depth': 2.53, 'time': 14, 'pitch': 8.79, 'roll': -1.6, 'pres': 197}
{'lipoC2': 7.29, 'lipoC3S1': 3.82, 'temp': 26.88, 'lipoC3S3': 11.54, 'lipoC3S2': 7.64, 'rot1': 45, 'rot0': 47, 'rot3': 43, 'rot2': 38, 'state': 'normal', 'yaw': -6.64, 'datetime': '2018-10-09 20:18:04.439130', 'mgs': 0, 'volt': 0.9814, 'depth': 2.835, 'time': 14, 'pitch': 9.45, 'roll': -1.49, 'pres': 201}
{'lipoC2': 7.29, 'lipoC3S1': 3.82, 'temp': 26.88, 'lipoC3S3': 11.48, 'lipoC3S2': 7.63, 'rot1': 45, 'rot0': 47, 'rot3': 44, 'rot2': 39, 'state': 'normal', 'yaw': -6.99, 'datetime': '2018-10-09 20:18:04.543101', 'mgs': 0, 'volt': 0.9717, 'depth': 2.682, 'time': 14, 'pitch': 10.0, 'roll': -1.45, 'pres': 199}
{'lipoC2': 7.29, 'lipoC3S1': 3.79, 'temp': 26.88, 'lipoC3S3': 11.54, 'lipoC3S2': 7.63, 'rot1': 45, 'rot0': 47, 'rot3': 44, 'rot2': 39, 'state': 'normal', 'yaw': -7.37, 'datetime': '2018-10-09 20:18:04.647169', 'mgs': 0, 'volt': 0.9814, 'depth': 2.835, 'time': 15, 'pitch': 10.5, 'roll': -1.51, 'pres': 201}
{'lipoC2': 7.29, 'lipoC3S1': 3.79, 'temp': 26.88, 'lipoC3S3': 11.54, 'lipoC3S2': 7.65, 'rot1': 45, 'rot0': 47, 'rot3': 45, 'rot2': 40, 'state': 'normal', 'yaw': -7.7, 'datetime': '2018-10-09 20:18:04.751463', 'mgs': 0, 'volt': 0.9863, 'depth': 2.911, 'time': 15, 'pitch': 10.84, 'roll': -1.59, 'pres': 202}
{'lipoC2': 7.29, 'lipoC3S1': 3.82, 'temp': 26.94, 'lipoC3S3': 11.54, 'lipoC3S2': 7.61, 'rot1': 45, 'rot0': 47, 'rot3': 45, 'rot2': 41, 'state': 'normal', 'yaw': -8.03, 'datetime': '2018-10-09 20:18:04.856019', 'mgs': 0, 'volt': 0.9912, 'depth': 2.988, 'time': 15, 'pitch': 11.07, 'roll': -1.74, 'pres': 203}
{'lipoC2': 7.29, 'lipoC3S1': 3.82, 'temp': 26.94, 'lipoC3S3': 11.55, 'lipoC3S2': 7.65, 'rot1': 45, 'rot0': 47, 'rot3': 46, 'rot2': 41, 'state': 'normal', 'yaw': -8.35, 'datetime': '2018-10-09 20:18:04.960109', 'mgs': 0, 'volt': 0.9961, 'depth': 3.064, 'time': 15, 'pitch': 11.23, 'roll': -1.93, 'pres': 204}
{'lipoC2': 7.29, 'lipoC3S1': 3.82, 'temp': 26.88, 'lipoC3S3': 11.56, 'lipoC3S2': 7.65, 'rot1': 45, 'rot0': 47, 'rot3': 46, 'rot2': 41, 'state': 'normal', 'yaw': -8.65, 'datetime': '2018-10-09 20:18:05.065349', 'mgs': 0, 'volt': 1.001, 'depth': 3.14, 'time': 15, 'pitch': 11.39, 'roll': -2.15, 'pres': 205}
{'lipoC2': 7.29, 'lipoC3S1': 3.82, 'temp': 26.88, 'lipoC3S3': 11.56, 'lipoC3S2': 7.65, 'rot1': 45, 'rot0': 47, 'rot3': 46, 'rot2': 41, 'state': 'normal', 'yaw': -8.96, 'datetime': '2018-10-09 20:18:05.169399', 'mgs': 0, 'volt': 1.0059, 'depth': 3.217, 'time': 15, 'pitch': 11.54, 'roll': -2.38, 'pres': 206}
{'lipoC2': 7.28, 'lipoC3S1': 3.81, 'temp': 26.88, 'lipoC3S3': 11.52, 'lipoC3S2': 7.62, 'rot1': 46, 'rot0': 47, 'rot3': 46, 'rot2': 41, 'state': 'normal', 'yaw': -9.23, 'datetime': '2018-10-09 20:18:05.274764', 'mgs': 0, 'volt': 1.0107, 'depth': 3.293, 'time': 15, 'pitch': 11.66, 'roll': -2.61, 'pres': 207}
{'lipoC2': 7.29, 'lipoC3S1': 3.84, 'temp': 26.88, 'lipoC3S3': 11.52, 'lipoC3S2': 7.57, 'rot1': 47, 'rot0': 48, 'rot3': 46, 'rot2': 41, 'state': 'normal', 'yaw': -9.36, 'datetime': '2018-10-09 20:18:05.378697', 'mgs': 0, 'volt': 1.0156, 'depth': 3.369, 'time': 15, 'pitch': 12.14, 'roll': -2.85, 'pres': 208}
{'lipoC2': 7.28, 'lipoC3S1': 3.81, 'temp': 26.88, 'lipoC3S3': 11.48, 'lipoC3S2': 7.61, 'rot1': 48, 'rot0': 49, 'rot3': 46, 'rot2': 41, 'state': 'normal', 'yaw': -9.17, 'datetime': '2018-10-09 20:18:05.482734', 'mgs': 0, 'volt': 1.0791, 'depth': 4.361, 'time': 15, 'pitch': 13.04, 'roll': -3.01, 'pres': 221}
{'lipoC2': 7.28, 'lipoC3S1': 3.81, 'temp': 26.88, 'lipoC3S3': 11.35, 'lipoC3S2': 7.6, 'rot1': 49, 'rot0': 50, 'rot3': 47, 'rot2': 42, 'state': 'normal', 'yaw': -8.74, 'datetime': '2018-10-09 20:18:05.586987', 'mgs': 0, 'volt': 1.0254, 'depth': 3.522, 'time': 16, 'pitch': 14.31, 'roll': -3.07, 'pres': 210}
{'lipoC2': 7.29, 'lipoC3S1': 3.77, 'temp': 26.88, 'lipoC3S3': 11.55, 'lipoC3S2': 7.47, 'rot1': 50, 'rot0': 51, 'rot3': 48, 'rot2': 42, 'state': 'normal', 'yaw': -8.08, 'datetime': '2018-10-09 20:18:05.690976', 'mgs': 0, 'volt': 1.0303, 'depth': 3.598, 'time': 16, 'pitch': 16.05, 'roll': -3.05, 'pres': 211}
{'lipoC2': 7.29, 'lipoC3S1': 3.73, 'temp': 26.94, 'lipoC3S3': 11.5, 'lipoC3S2': 7.62, 'rot1': 51, 'rot0': 52, 'rot3': 48, 'rot2': 43, 'state': 'normal', 'yaw': -7.32, 'datetime': '2018-10-09 20:18:05.795102', 'mgs': 0, 'volt': 1.0596, 'depth': 4.056, 'time': 16, 'pitch': 17.75, 'roll': -2.95, 'pres': 217}
{'lipoC2': 7.29, 'lipoC3S1': 3.81, 'temp': 26.94, 'lipoC3S3': 11.47, 'lipoC3S2': 7.61, 'rot1': 52, 'rot0': 52, 'rot3': 49, 'rot2': 43, 'state': 'normal', 'yaw': -6.37, 'datetime': '2018-10-09 20:18:05.899196', 'mgs': 0, 'volt': 1.084, 'depth': 4.437, 'time': 16, 'pitch': 19.63, 'roll': -2.73, 'pres': 222}
{'lipoC2': 7.29, 'lipoC3S1': 3.8, 'temp': 26.94, 'lipoC3S3': 11.27, 'lipoC3S2': 7.55, 'rot1': 53, 'rot0': 53, 'rot3': 49, 'rot2': 44, 'state': 'normal', 'yaw': -5.45, 'datetime': '2018-10-09 20:18:06.003432', 'mgs': 0, 'volt': 1.0596, 'depth': 4.056, 'time': 16, 'pitch': 20.37, 'roll': -2.47, 'pres': 217}
{'lipoC2': 7.28, 'lipoC3S1': 3.8, 'temp': 26.88, 'lipoC3S3': 11.4, 'lipoC3S2': 7.59, 'rot1': 54, 'rot0': 54, 'rot3': 50, 'rot2': 44, 'state': 'normal', 'yaw': -4.49, 'datetime': '2018-10-09 20:18:06.106481', 'mgs': 0, 'volt': 1.04, 'depth': 3.751, 'time': 16, 'pitch': 19.94, 'roll': -2.28, 'pres': 213}
{'lipoC2': 7.29, 'lipoC3S1': 3.81, 'temp': 26.88, 'lipoC3S3': 11.38, 'lipoC3S2': 7.56, 'rot1': 56, 'rot0': 55, 'rot3': 51, 'rot2': 45, 'state': 'normal', 'yaw': -3.45, 'datetime': '2018-10-09 20:18:06.210377', 'mgs': 0, 'volt': 1.0352, 'depth': 3.674, 'time': 16, 'pitch': 19.75, 'roll': -1.97, 'pres': 212}
{'lipoC2': 7.3, 'lipoC3S1': 3.8, 'temp': 26.88, 'lipoC3S3': 11.32, 'lipoC3S2': 7.54, 'rot1': 57, 'rot0': 57, 'rot3': 51, 'rot2': 46, 'state': 'normal', 'yaw': -2.62, 'datetime': '2018-10-09 20:18:06.315848', 'mgs': 0, 'volt': 1.0352, 'depth': 3.674, 'time': 16, 'pitch': 19.93, 'roll': -1.67, 'pres': 212}
{'lipoC2': 7.29, 'lipoC3S1': 3.78, 'temp': 26.88, 'lipoC3S3': 11.48, 'lipoC3S2': 7.51, 'rot1': 58, 'rot0': 58, 'rot3': 52, 'rot2': 46, 'state': 'normal', 'yaw': -1.83, 'datetime': '2018-10-09 20:18:06.419681', 'mgs': 0, 'volt': 1.0352, 'depth': 3.674, 'time': 16, 'pitch': 20.45, 'roll': -1.27, 'pres': 212}
{'lipoC2': 7.29, 'lipoC3S1': 3.76, 'temp': 26.88, 'lipoC3S3': 11.5, 'lipoC3S2': 7.48, 'rot1': 59, 'rot0': 59, 'rot3': 52, 'rot2': 47, 'state': 'normal', 'yaw': -1.21, 'datetime': '2018-10-09 20:18:06.525037', 'mgs': 0, 'volt': 1.0352, 'depth': 3.674, 'time': 16, 'pitch': 21.16, 'roll': -0.86, 'pres': 212}
{'lipoC2': 7.29, 'lipoC3S1': 3.76, 'temp': 26.88, 'lipoC3S3': 11.47, 'lipoC3S2': 7.6, 'rot1': 60, 'rot0': 60, 'rot3': 53, 'rot2': 47, 'state': 'normal', 'yaw': -0.63, 'datetime': '2018-10-09 20:18:06.629411', 'mgs': 0, 'volt': 1.0596, 'depth': 4.056, 'time': 17, 'pitch': 22.13, 'roll': -0.42, 'pres': 217}
{'lipoC2': 7.27, 'lipoC3S1': 3.8, 'temp': 26.88, 'lipoC3S3': 11.4, 'lipoC3S2': 7.59, 'rot1': 61, 'rot0': 61, 'rot3': 54, 'rot2': 48, 'state': 'normal', 'yaw': -0.13, 'datetime': '2018-10-09 20:18:06.737765', 'mgs': 0, 'volt': 1.0596, 'depth': 4.056, 'time': 17, 'pitch': 23.12, 'roll': -0.01, 'pres': 217}
{'lipoC2': 7.29, 'lipoC3S1': 3.8, 'temp': 26.88, 'lipoC3S3': 11.36, 'lipoC3S2': 7.54, 'rot1': 62, 'rot0': 62, 'rot3': 54, 'rot2': 49, 'state': 'normal', 'yaw': 0.36, 'datetime': '2018-10-09 20:18:06.837646', 'mgs': 0, 'volt': 1.0352, 'depth': 3.674, 'time': 17, 'pitch': 24.17, 'roll': 0.4, 'pres': 212}
{'lipoC2': 7.29, 'lipoC3S1': 3.7, 'temp': 26.88, 'lipoC3S3': 11.48, 'lipoC3S2': 7.57, 'rot1': 63, 'rot0': 63, 'rot3': 55, 'rot2': 49, 'state': 'normal', 'yaw': 0.86, 'datetime': '2018-10-09 20:18:06.945721', 'mgs': 0, 'volt': 1.0156, 'depth': 3.369, 'time': 17, 'pitch': 25.35, 'roll': 0.83, 'pres': 208}
{'lipoC2': 7.28, 'lipoC3S1': 3.81, 'temp': 26.88, 'lipoC3S3': 11.47, 'lipoC3S2': 7.6, 'rot1': 64, 'rot0': 65, 'rot3': 56, 'rot2': 50, 'state': 'normal', 'yaw': 1.25, 'datetime': '2018-10-09 20:18:07.050155', 'mgs': 0, 'volt': 1.1035, 'depth': 4.742, 'time': 17, 'pitch': 26.39, 'roll': 1.16, 'pres': 226}
{'lipoC2': 7.29, 'lipoC3S1': 3.81, 'temp': 26.88, 'lipoC3S3': 11.47, 'lipoC3S2': 7.6, 'rot1': 66, 'rot0': 66, 'rot3': 56, 'rot2': 50, 'state': 'normal', 'yaw': 1.56, 'datetime': '2018-10-09 20:18:07.150297', 'mgs': 0, 'volt': 1.0938, 'depth': 4.59, 'time': 17, 'pitch': 27.35, 'roll': 1.4, 'pres': 224}
{'lipoC2': 7.28, 'lipoC3S1': 3.8, 'temp': 26.88, 'lipoC3S3': 11.42, 'lipoC3S2': 7.59, 'rot1': 67, 'rot0': 67, 'rot3': 57, 'rot2': 51, 'state': 'normal', 'yaw': 1.82, 'datetime': '2018-10-09 20:18:07.260900', 'mgs': 0, 'volt': 1.0303, 'depth': 3.598, 'time': 17, 'pitch': 28.27, 'roll': 1.53, 'pres': 211}
{'lipoC2': 7.28, 'lipoC3S1': 3.8, 'temp': 26.88, 'lipoC3S3': 11.39, 'lipoC3S2': 7.59, 'rot1': 68, 'rot0': 68, 'rot3': 57, 'rot2': 51, 'state': 'normal', 'yaw': 2.01, 'datetime': '2018-10-09 20:18:07.366163', 'mgs': 0, 'volt': 1.0254, 'depth': 3.522, 'time': 17, 'pitch': 28.95, 'roll': 1.61, 'pres': 210}
{'lipoC2': 7.29, 'lipoC3S1': 3.76, 'temp': 26.88, 'lipoC3S3': 11.43, 'lipoC3S2': 7.42, 'rot1': 69, 'rot0': 69, 'rot3': 58, 'rot2': 52, 'state': 'normal', 'yaw': 2.18, 'datetime': '2018-10-09 20:18:07.470082', 'mgs': 0, 'volt': 1.0254, 'depth': 3.522, 'time': 17, 'pitch': 29.56, 'roll': 1.64, 'pres': 210}
{'lipoC2': 7.29, 'lipoC3S1': 3.8, 'temp': 26.94, 'lipoC3S3': 11.39, 'lipoC3S2': 7.6, 'rot1': 70, 'rot0': 70, 'rot3': 58, 'rot2': 53, 'state': 'normal', 'yaw': 2.23, 'datetime': '2018-10-09 20:18:07.575517', 'mgs': 0, 'volt': 1.0205, 'depth': 3.445, 'time': 17, 'pitch': 29.99, 'roll': 1.57, 'pres': 209}
{'lipoC2': 7.29, 'lipoC3S1': 3.69, 'temp': 26.94, 'lipoC3S3': 11.48, 'lipoC3S2': 7.58, 'rot1': 71, 'rot0': 71, 'rot3': 59, 'rot2': 53, 'state': 'normal', 'yaw': 2.23, 'datetime': '2018-10-09 20:18:07.679606', 'mgs': 0, 'volt': 1.0156, 'depth': 3.369, 'time': 18, 'pitch': 30.34, 'roll': 1.44, 'pres': 208}
{'lipoC2': 7.29, 'lipoC3S1': 3.76, 'temp': 26.88, 'lipoC3S3': 11.48, 'lipoC3S2': 7.48, 'rot1': 73, 'rot0': 72, 'rot3': 60, 'rot2': 54, 'state': 'normal', 'yaw': 2.09, 'datetime': '2018-10-09 20:18:07.785094', 'mgs': 0, 'volt': 1.0107, 'depth': 3.293, 'time': 18, 'pitch': 30.54, 'roll': 1.26, 'pres': 207}
{'lipoC2': 7.29, 'lipoC3S1': 3.75, 'temp': 26.88, 'lipoC3S3': 11.47, 'lipoC3S2': 7.6, 'rot1': 74, 'rot0': 74, 'rot3': 60, 'rot2': 54, 'state': 'normal', 'yaw': 1.88, 'datetime': '2018-10-09 20:18:07.889123', 'mgs': 0, 'volt': 1.0254, 'depth': 3.522, 'time': 18, 'pitch': 30.62, 'roll': 1.06, 'pres': 210}
{'lipoC2': 7.27, 'lipoC3S1': 3.8, 'temp': 26.94, 'lipoC3S3': 11.46, 'lipoC3S2': 7.59, 'rot1': 75, 'rot0': 75, 'rot3': 61, 'rot2': 55, 'state': 'normal', 'yaw': 1.72, 'datetime': '2018-10-09 20:18:07.993427', 'mgs': 0, 'volt': 1.0303, 'depth': 3.598, 'time': 18, 'pitch': 30.62, 'roll': 0.93, 'pres': 211}
{'lipoC2': 7.27, 'lipoC3S1': 3.8, 'temp': 26.94, 'lipoC3S3': 11.38, 'lipoC3S2': 7.58, 'rot1': 76, 'rot0': 76, 'rot3': 61, 'rot2': 55, 'state': 'normal', 'yaw': 1.62, 'datetime': '2018-10-09 20:18:08.098379', 'mgs': 0, 'volt': 0.9912, 'depth': 2.988, 'time': 18, 'pitch': 30.61, 'roll': 0.84, 'pres': 203}
{'lipoC2': 7.29, 'lipoC3S1': 3.82, 'temp': 26.94, 'lipoC3S3': 11.42, 'lipoC3S2': 7.41, 'rot1': 77, 'rot0': 77, 'rot3': 62, 'rot2': 56, 'state': 'normal', 'yaw': 1.5, 'datetime': '2018-10-09 20:18:08.202600', 'mgs': 0, 'volt': 0.9912, 'depth': 2.988, 'time': 18, 'pitch': 30.62, 'roll': 0.79, 'pres': 203}
{'lipoC2': 7.29, 'lipoC3S1': 3.8, 'temp': 26.88, 'lipoC3S3': 11.4, 'lipoC3S2': 7.6, 'rot1': 78, 'rot0': 78, 'rot3': 62, 'rot2': 56, 'state': 'normal', 'yaw': 1.38, 'datetime': '2018-10-09 20:18:08.307889', 'mgs': 0, 'volt': 0.9814, 'depth': 2.835, 'time': 18, 'pitch': 30.61, 'roll': 0.72, 'pres': 201}
{'lipoC2': 7.29, 'lipoC3S1': 3.78, 'temp': 26.88, 'lipoC3S3': 11.51, 'lipoC3S2': 7.56, 'rot1': 79, 'rot0': 79, 'rot3': 62, 'rot2': 56, 'state': 'normal', 'yaw': 1.23, 'datetime': '2018-10-09 20:18:08.412379', 'mgs': 0, 'volt': 0.9766, 'depth': 2.759, 'time': 18, 'pitch': 30.4, 'roll': 0.65, 'pres': 200}
{'lipoC2': 7.28, 'lipoC3S1': 3.81, 'temp': 26.94, 'lipoC3S3': 11.48, 'lipoC3S2': 7.61, 'rot1': 80, 'rot0': 80, 'rot3': 62, 'rot2': 56, 'state': 'normal', 'yaw': 1.08, 'datetime': '2018-10-09 20:18:08.516863', 'mgs': 0, 'volt': 0.9814, 'depth': 2.835, 'time': 18, 'pitch': 30.02, 'roll': 0.57, 'pres': 201}
{'lipoC2': 7.29, 'lipoC3S1': 3.79, 'temp': 26.94, 'lipoC3S3': 11.38, 'lipoC3S2': 7.48, 'rot1': 81, 'rot0': 81, 'rot3': 62, 'rot2': 56, 'state': 'normal', 'yaw': 0.89, 'datetime': '2018-10-09 20:18:08.610861', 'mgs': 0, 'volt': 0.9668, 'depth': 2.606, 'time': 19, 'pitch': 29.49, 'roll': 0.52, 'pres': 198}
{'lipoC2': 7.29, 'lipoC3S1': 3.76, 'temp': 26.88, 'lipoC3S3': 11.48, 'lipoC3S2': 7.49, 'rot1': 83, 'rot0': 83, 'rot3': 62, 'rot2': 56, 'state': 'normal', 'yaw': 0.76, 'datetime': '2018-10-09 20:18:08.714821', 'mgs': 0, 'volt': 0.9619, 'depth': 2.53, 'time': 19, 'pitch': 28.88, 'roll': 0.5, 'pres': 197}
{'lipoC2': 7.29, 'lipoC3S1': 3.68, 'temp': 26.88, 'lipoC3S3': 11.48, 'lipoC3S2': 7.58, 'rot1': 84, 'rot0': 84, 'rot3': 63, 'rot2': 57, 'state': 'normal', 'yaw': 0.71, 'datetime': '2018-10-09 20:18:08.820049', 'mgs': 0, 'volt': 0.957, 'depth': 2.454, 'time': 19, 'pitch': 28.17, 'roll': 0.46, 'pres': 196}
{'lipoC2': 7.28, 'lipoC3S1': 3.8, 'temp': 26.88, 'lipoC3S3': 11.46, 'lipoC3S2': 7.59, 'rot1': 85, 'rot0': 85, 'rot3': 63, 'rot2': 57, 'state': 'normal', 'yaw': 0.69, 'datetime': '2018-10-09 20:18:08.924144', 'mgs': 0, 'volt': 1.0205, 'depth': 3.445, 'time': 19, 'pitch': 27.37, 'roll': 0.44, 'pres': 209}
{'lipoC2': 7.28, 'lipoC3S1': 3.77, 'temp': 26.88, 'lipoC3S3': 11.47, 'lipoC3S2': 7.59, 'rot1': 86, 'rot0': 86, 'rot3': 64, 'rot2': 58, 'state': 'normal', 'yaw': 0.69, 'datetime': '2018-10-09 20:18:09.029538', 'mgs': 0, 'volt': 1.04, 'depth': 3.751, 'time': 19, 'pitch': 26.64, 'roll': 0.45, 'pres': 213}
{'lipoC2': 7.27, 'lipoC3S1': 3.8, 'temp': 26.88, 'lipoC3S3': 11.38, 'lipoC3S2': 7.58, 'rot1': 87, 'rot0': 87, 'rot3': 65, 'rot2': 58, 'state': 'normal', 'yaw': 0.68, 'datetime': '2018-10-09 20:18:09.133650', 'mgs': 0, 'volt': 0.9424, 'depth': 2.225, 'time': 19, 'pitch': 25.88, 'roll': 0.44, 'pres': 193}
{'lipoC2': 7.29, 'lipoC3S1': 3.82, 'temp': 26.88, 'lipoC3S3': 11.35, 'lipoC3S2': 7.54, 'rot1': 88, 'rot0': 88, 'rot3': 65, 'rot2': 59, 'state': 'normal', 'yaw': 0.67, 'datetime': '2018-10-09 20:18:09.237765', 'mgs': 0, 'volt': 0.9424, 'depth': 2.225, 'time': 19, 'pitch': 25.2, 'roll': 0.45, 'pres': 193}
{'lipoC2': 7.29, 'lipoC3S1': 3.76, 'temp': 26.88, 'lipoC3S3': 11.4, 'lipoC3S2': 7.41, 'rot1': 89, 'rot0': 89, 'rot3': 66, 'rot2': 60, 'state': 'normal', 'yaw': 0.72, 'datetime': '2018-10-09 20:18:09.352220', 'mgs': 0, 'volt': 0.9424, 'depth': 2.225, 'time': 19, 'pitch': 24.53, 'roll': 0.48, 'pres': 193}
{'lipoC2': 7.29, 'lipoC3S1': 3.7, 'temp': 26.94, 'lipoC3S3': 11.47, 'lipoC3S2': 7.6, 'rot1': 90, 'rot0': 90, 'rot3': 67, 'rot2': 60, 'state': 'normal', 'yaw': 0.89, 'datetime': '2018-10-09 20:18:09.456960', 'mgs': 0, 'volt': 0.9619, 'depth': 2.53, 'time': 19, 'pitch': 23.78, 'roll': 0.58, 'pres': 197}
{'lipoC2': 7.28, 'lipoC3S1': 3.8, 'temp': 26.94, 'lipoC3S3': 11.46, 'lipoC3S2': 7.59, 'rot1': 91, 'rot0': 92, 'rot3': 67, 'rot2': 61, 'state': 'normal', 'yaw': 1.06, 'datetime': '2018-10-09 20:18:09.555920', 'mgs': 0, 'volt': 1.0107, 'depth': 3.293, 'time': 19, 'pitch': 23.08, 'roll': 0.67, 'pres': 207}
{'lipoC2': 7.28, 'lipoC3S1': 3.8, 'temp': 26.94, 'lipoC3S3': 11.39, 'lipoC3S2': 7.58, 'rot1': 93, 'rot0': 93, 'rot3': 68, 'rot2': 61, 'state': 'normal', 'yaw': 1.26, 'datetime': '2018-10-09 20:18:09.661383', 'mgs': 0, 'volt': 0.9375, 'depth': 2.148, 'time': 20, 'pitch': 22.35, 'roll': 0.75, 'pres': 192}
{'lipoC2': 7.29, 'lipoC3S1': 3.76, 'temp': 26.94, 'lipoC3S3': 11.4, 'lipoC3S2': 7.49, 'rot1': 94, 'rot0': 94, 'rot3': 69, 'rot2': 62, 'state': 'normal', 'yaw': 1.46, 'datetime': '2018-10-09 20:18:09.765573', 'mgs': 0, 'volt': 0.9375, 'depth': 2.148, 'time': 20, 'pitch': 21.76, 'roll': 0.82, 'pres': 192}
{'lipoC2': 7.29, 'lipoC3S1': 3.8, 'temp': 26.94, 'lipoC3S3': 11.46, 'lipoC3S2': 7.59, 'rot1': 95, 'rot0': 95, 'rot3': 69, 'rot2': 62, 'state': 'normal', 'yaw': 1.66, 'datetime': '2018-10-09 20:18:09.870303', 'mgs': 0, 'volt': 1.001, 'depth': 3.14, 'time': 20, 'pitch': 21.25, 'roll': 0.89, 'pres': 205}
