{'lipoC2': 7.54, 'lipoC3S1': 4.13, 'temp': 30.81, 'lipoC3S3': 12.48, 'lipoC3S2': 8.26, 'rot1': 0, 'rot0': 0, 'rot3': 78, 'rot2': 65, 'state': 'normal', 'yaw': 25.81, 'datetime': '2018-10-09 12:06:36.988437', 'mgs': 0, 'volt': 0.9229, 'depth': 1.92, 'time': 20, 'pitch': 15.63, 'roll': -4.83, 'pres': 189}
{'lipoC2': 7.55, 'lipoC3S1': 4.13, 'temp': 30.81, 'lipoC3S3': 12.48, 'lipoC3S2': 8.26, 'rot1': 0, 'rot0': 0, 'rot3': 78, 'rot2': 65, 'state': 'normal', 'yaw': 24.31, 'datetime': '2018-10-09 12:06:37.018995', 'mgs': 0, 'volt': 0.9229, 'depth': 1.92, 'time': 20, 'pitch': 15.94, 'roll': -5.11, 'pres': 189}
{'lipoC2': 7.54, 'lipoC3S1': 4.13, 'temp': 30.88, 'lipoC3S3': 12.48, 'lipoC3S2': 8.26, 'rot1': 0, 'rot0': 0, 'rot3': 78, 'rot2': 65, 'state': 'normal', 'yaw': 23.17, 'datetime': '2018-10-09 12:06:37.033181', 'mgs': 0, 'volt': 0.918, 'depth': 1.843, 'time': 20, 'pitch': 15.82, 'roll': -5.04, 'pres': 188}
{'lipoC2': 7.54, 'lipoC3S1': 4.13, 'temp': 30.88, 'lipoC3S3': 12.48, 'lipoC3S2': 8.25, 'rot1': 0, 'rot0': 0, 'rot3': 78, 'rot2': 65, 'state': 'normal', 'yaw': 22.0, 'datetime': '2018-10-09 12:06:37.042972', 'mgs': 0, 'volt': 0.9229, 'depth': 1.92, 'time': 20, 'pitch': 15.87, 'roll': -4.85, 'pres': 189}
{'lipoC2': 7.55, 'lipoC3S1': 4.13, 'temp': 30.94, 'lipoC3S3': 12.48, 'lipoC3S2': 8.26, 'rot1': 0, 'rot0': 0, 'rot3': 78, 'rot2': 65, 'state': 'normal', 'yaw': 21.26, 'datetime': '2018-10-09 12:06:37.053056', 'mgs': 0, 'volt': 0.9229, 'depth': 1.92, 'time': 20, 'pitch': 15.92, 'roll': -4.25, 'pres': 189}
{'lipoC2': 7.55, 'lipoC3S1': 4.13, 'temp': 30.94, 'lipoC3S3': 12.48, 'lipoC3S2': 8.26, 'rot1': 0, 'rot0': 0, 'rot3': 78, 'rot2': 65, 'state': 'normal', 'yaw': 21.1, 'datetime': '2018-10-09 12:06:37.062691', 'mgs': 0, 'volt': 0.9229, 'depth': 1.92, 'time': 20, 'pitch': 15.68, 'roll': -3.53, 'pres': 189}
{'lipoC2': 7.55, 'lipoC3S1': 4.13, 'temp': 30.94, 'lipoC3S3': 12.48, 'lipoC3S2': 8.26, 'rot1': 0, 'rot0': 0, 'rot3': 78, 'rot2': 65, 'state': 'normal', 'yaw': 20.74, 'datetime': '2018-10-09 12:06:37.072532', 'mgs': 0, 'volt': 0.9229, 'depth': 1.92, 'time': 21, 'pitch': 15.27, 'roll': -2.81, 'pres': 189}
{'lipoC2': 7.55, 'lipoC3S1': 4.13, 'temp': 30.94, 'lipoC3S3': 12.48, 'lipoC3S2': 8.25, 'rot1': 0, 'rot0': 0, 'rot3': 78, 'rot2': 65, 'state': 'normal', 'yaw': 20.29, 'datetime': '2018-10-09 12:06:37.082265', 'mgs': 0, 'volt': 0.9229, 'depth': 1.92, 'time': 21, 'pitch': 14.55, 'roll': -1.79, 'pres': 189}
{'lipoC2': 7.55, 'lipoC3S1': 4.13, 'temp': 30.94, 'lipoC3S3': 12.48, 'lipoC3S2': 8.26, 'rot1': 0, 'rot0': 0, 'rot3': 78, 'rot2': 65, 'state': 'normal', 'yaw': 20.32, 'datetime': '2018-10-09 12:06:37.091964', 'mgs': 0, 'volt': 0.9229, 'depth': 1.92, 'time': 21, 'pitch': 13.43, 'roll': -0.7, 'pres': 189}
{'lipoC2': 7.55, 'lipoC3S1': 4.13, 'temp': 30.94, 'lipoC3S3': 12.48, 'lipoC3S2': 8.25, 'rot1': 0, 'rot0': 0, 'rot3': 78, 'rot2': 65, 'state': 'normal', 'yaw': 20.42, 'datetime': '2018-10-09 12:06:37.101597', 'mgs': 0, 'volt': 0.9229, 'depth': 1.92, 'time': 21, 'pitch': 11.99, 'roll': 0.23, 'pres': 189}
{'lipoC2': 7.55, 'lipoC3S1': 4.13, 'temp': 30.94, 'lipoC3S3': 12.48, 'lipoC3S2': 8.25, 'rot1': 0, 'rot0': 0, 'rot3': 78, 'rot2': 65, 'state': 'normal', 'yaw': 20.33, 'datetime': '2018-10-09 12:06:37.111264', 'mgs': 0, 'volt': 0.9229, 'depth': 1.92, 'time': 21, 'pitch': 10.66, 'roll': 0.98, 'pres': 189}
{'lipoC2': 7.54, 'lipoC3S1': 4.13, 'temp': 30.94, 'lipoC3S3': 12.48, 'lipoC3S2': 8.25, 'rot1': 0, 'rot0': 0, 'rot3': 78, 'rot2': 65, 'state': 'normal', 'yaw': 20.36, 'datetime': '2018-10-09 12:06:37.120897', 'mgs': 0, 'volt': 0.918, 'depth': 1.843, 'time': 21, 'pitch': 9.82, 'roll': 1.52, 'pres': 188}
{'lipoC2': 7.55, 'lipoC3S1': 4.13, 'temp': 30.94, 'lipoC3S3': 12.48, 'lipoC3S2': 8.25, 'rot1': 0, 'rot0': 0, 'rot3': 78, 'rot2': 65, 'state': 'normal', 'yaw': 20.64, 'datetime': '2018-10-09 12:06:37.131151', 'mgs': 0, 'volt': 0.9131, 'depth': 1.767, 'time': 21, 'pitch': 9.09, 'roll': 1.89, 'pres': 187}
{'lipoC2': 7.55, 'lipoC3S1': 4.13, 'temp': 30.94, 'lipoC3S3': 12.48, 'lipoC3S2': 8.25, 'rot1': 0, 'rot0': 0, 'rot3': 78, 'rot2': 65, 'state': 'normal', 'yaw': 21.07, 'datetime': '2018-10-09 12:06:37.142736', 'mgs': 0, 'volt': 0.9082, 'depth': 1.691, 'time': 21, 'pitch': 7.89, 'roll': 2.31, 'pres': 186}
{'lipoC2': 7.55, 'lipoC3S1': 4.13, 'temp': 30.94, 'lipoC3S3': 12.48, 'lipoC3S2': 8.25, 'rot1': 0, 'rot0': 0, 'rot3': 78, 'rot2': 65, 'state': 'normal', 'yaw': 21.25, 'datetime': '2018-10-09 12:06:37.152906', 'mgs': 0, 'volt': 0.9033, 'depth': 1.614, 'time': 21, 'pitch': 6.13, 'roll': 2.69, 'pres': 185}
{'lipoC2': 7.54, 'lipoC3S1': 4.13, 'temp': 30.94, 'lipoC3S3': 12.48, 'lipoC3S2': 8.25, 'rot1': 0, 'rot0': 0, 'rot3': 78, 'rot2': 65, 'state': 'normal', 'yaw': 21.46, 'datetime': '2018-10-09 12:06:37.162568', 'mgs': 0, 'volt': 0.9033, 'depth': 1.614, 'time': 21, 'pitch': 4.16, 'roll': 2.84, 'pres': 185}
{'lipoC2': 7.54, 'lipoC3S1': 4.13, 'temp': 30.94, 'lipoC3S3': 12.48, 'lipoC3S2': 8.25, 'rot1': 0, 'rot0': 0, 'rot3': 78, 'rot2': 65, 'state': 'normal', 'yaw': 21.66, 'datetime': '2018-10-09 12:06:37.172229', 'mgs': 0, 'volt': 0.9033, 'depth': 1.614, 'time': 22, 'pitch': 2.45, 'roll': 2.68, 'pres': 185}
{'lipoC2': 7.55, 'lipoC3S1': 4.13, 'temp': 30.94, 'lipoC3S3': 12.48, 'lipoC3S2': 8.25, 'rot1': 0, 'rot0': 0, 'rot3': 78, 'rot2': 65, 'state': 'normal', 'yaw': 21.94, 'datetime': '2018-10-09 12:06:37.181914', 'mgs': 0, 'volt': 0.8984, 'depth': 1.538, 'time': 22, 'pitch': 1.07, 'roll': 2.06, 'pres': 184}
{'lipoC2': 7.54, 'lipoC3S1': 4.13, 'temp': 30.88, 'lipoC3S3': 12.48, 'lipoC3S2': 8.25, 'rot1': 0, 'rot0': 0, 'rot3': 78, 'rot2': 65, 'state': 'normal', 'yaw': 22.32, 'datetime': '2018-10-09 12:06:37.191575', 'mgs': 0, 'volt': 0.8984, 'depth': 1.538, 'time': 22, 'pitch': 0.04, 'roll': 1.24, 'pres': 184}
{'lipoC2': 7.54, 'lipoC3S1': 4.13, 'temp': 30.88, 'lipoC3S3': 12.48, 'lipoC3S2': 8.25, 'rot1': 0, 'rot0': 0, 'rot3': 78, 'rot2': 65, 'state': 'normal', 'yaw': 22.74, 'datetime': '2018-10-09 12:06:37.201357', 'mgs': 0, 'volt': 0.8936, 'depth': 1.462, 'time': 22, 'pitch': -0.51, 'roll': 0.44, 'pres': 183}
{'lipoC2': 7.55, 'lipoC3S1': 4.13, 'temp': 30.88, 'lipoC3S3': 12.48, 'lipoC3S2': 8.25, 'rot1': 0, 'rot0': 0, 'rot3': 78, 'rot2': 65, 'state': 'normal', 'yaw': 23.04, 'datetime': '2018-10-09 12:06:37.253465', 'mgs': 0, 'volt': 0.8936, 'depth': 1.462, 'time': 22, 'pitch': -0.56, 'roll': -0.07, 'pres': 183}
{'lipoC2': 7.54, 'lipoC3S1': 4.13, 'temp': 30.88, 'lipoC3S3': 12.48, 'lipoC3S2': 8.25, 'rot1': 0, 'rot0': 0, 'rot3': 78, 'rot2': 65, 'state': 'normal', 'yaw': 23.12, 'datetime': '2018-10-09 12:06:37.358098', 'mgs': 0, 'volt': 0.8936, 'depth': 1.462, 'time': 22, 'pitch': -0.32, 'roll': -0.49, 'pres': 183}
{'lipoC2': 7.55, 'lipoC3S1': 4.13, 'temp': 30.88, 'lipoC3S3': 12.48, 'lipoC3S2': 8.25, 'rot1': 0, 'rot0': 0, 'rot3': 78, 'rot2': 65, 'state': 'normal', 'yaw': 22.81, 'datetime': '2018-10-09 12:06:37.461448', 'mgs': 0, 'volt': 0.8936, 'depth': 1.462, 'time': 22, 'pitch': -0.09, 'roll': -0.84, 'pres': 183}
{'lipoC2': 7.54, 'lipoC3S1': 4.13, 'temp': 30.88, 'lipoC3S3': 12.48, 'lipoC3S2': 8.25, 'rot1': 0, 'rot0': 0, 'rot3': 78, 'rot2': 65, 'state': 'normal', 'yaw': 22.5, 'datetime': '2018-10-09 12:06:37.565134', 'mgs': 0, 'volt': 0.8936, 'depth': 1.462, 'time': 22, 'pitch': -0.07, 'roll': -1.19, 'pres': 183}
{'lipoC2': 7.55, 'lipoC3S1': 4.13, 'temp': 30.88, 'lipoC3S3': 12.48, 'lipoC3S2': 8.25, 'rot1': 0, 'rot0': 0, 'rot3': 78, 'rot2': 65, 'state': 'normal', 'yaw': 22.39, 'datetime': '2018-10-09 12:06:37.669473', 'mgs': 0, 'volt': 0.8936, 'depth': 1.462, 'time': 22, 'pitch': -0.05, 'roll': -1.59, 'pres': 183}
{'lipoC2': 7.54, 'lipoC3S1': 4.13, 'temp': 30.94, 'lipoC3S3': 12.48, 'lipoC3S2': 8.25, 'rot1': 0, 'rot0': 0, 'rot3': 78, 'rot2': 65, 'state': 'normal', 'yaw': 22.46, 'datetime': '2018-10-09 12:06:37.779118', 'mgs': 0, 'volt': 0.8936, 'depth': 1.462, 'time': 23, 'pitch': 0.36, 'roll': -2.12, 'pres': 183}
{'lipoC2': 7.54, 'lipoC3S1': 4.13, 'temp': 30.94, 'lipoC3S3': 12.48, 'lipoC3S2': 8.25, 'rot1': 0, 'rot0': 0, 'rot3': 78, 'rot2': 65, 'state': 'normal', 'yaw': 22.68, 'datetime': '2018-10-09 12:06:37.882822', 'mgs': 0, 'volt': 0.8984, 'depth': 1.538, 'time': 23, 'pitch': 1.43, 'roll': -2.66, 'pres': 184}
{'lipoC2': 7.54, 'lipoC3S1': 4.13, 'temp': 30.94, 'lipoC3S3': 12.48, 'lipoC3S2': 8.25, 'rot1': 0, 'rot0': 0, 'rot3': 78, 'rot2': 65, 'state': 'normal', 'yaw': 22.97, 'datetime': '2018-10-09 12:06:37.984167', 'mgs': 0, 'volt': 0.8984, 'depth': 1.538, 'time': 23, 'pitch': 3.3, 'roll': -3.14, 'pres': 184}
{'lipoC2': 7.54, 'lipoC3S1': 4.13, 'temp': 30.94, 'lipoC3S3': 12.48, 'lipoC3S2': 8.25, 'rot1': 0, 'rot0': 0, 'rot3': 78, 'rot2': 65, 'state': 'normal', 'yaw': 23.29, 'datetime': '2018-10-09 12:06:38.087351', 'mgs': 0, 'volt': 0.9033, 'depth': 1.614, 'time': 23, 'pitch': 5.9, 'roll': -3.41, 'pres': 185}
{'lipoC2': 7.54, 'lipoC3S1': 4.13, 'temp': 30.94, 'lipoC3S3': 12.48, 'lipoC3S2': 8.25, 'rot1': 0, 'rot0': 0, 'rot3': 78, 'rot2': 65, 'state': 'normal', 'yaw': 23.56, 'datetime': '2018-10-09 12:06:38.192783', 'mgs': 0, 'volt': 0.8984, 'depth': 1.538, 'time': 23, 'pitch': 8.0, 'roll': -3.43, 'pres': 184}
{'lipoC2': 7.55, 'lipoC3S1': 4.13, 'temp': 30.94, 'lipoC3S3': 12.48, 'lipoC3S2': 8.25, 'rot1': 0, 'rot0': 0, 'rot3': 78, 'rot2': 65, 'state': 'normal', 'yaw': 23.76, 'datetime': '2018-10-09 12:06:38.290770', 'mgs': 0, 'volt': 0.9033, 'depth': 1.614, 'time': 23, 'pitch': 9.14, 'roll': -3.29, 'pres': 185}
{'lipoC2': 7.55, 'lipoC3S1': 4.13, 'temp': 30.94, 'lipoC3S3': 12.48, 'lipoC3S2': 8.25, 'rot1': 0, 'rot0': 0, 'rot3': 78, 'rot2': 65, 'state': 'normal', 'yaw': 23.87, 'datetime': '2018-10-09 12:06:38.394152', 'mgs': 0, 'volt': 0.9033, 'depth': 1.614, 'time': 23, 'pitch': 9.19, 'roll': -3.04, 'pres': 185}
{'lipoC2': 7.54, 'lipoC3S1': 4.13, 'temp': 30.94, 'lipoC3S3': 12.48, 'lipoC3S2': 8.25, 'rot1': 0, 'rot0': 0, 'rot3': 78, 'rot2': 65, 'state': 'normal', 'yaw': 23.91, 'datetime': '2018-10-09 12:06:38.502434', 'mgs': 0, 'volt': 0.9033, 'depth': 1.614, 'time': 23, 'pitch': 8.53, 'roll': -2.75, 'pres': 185}
{'lipoC2': 7.54, 'lipoC3S1': 4.13, 'temp': 30.94, 'lipoC3S3': 12.48, 'lipoC3S2': 8.25, 'rot1': 0, 'rot0': 0, 'rot3': 78, 'rot2': 65, 'state': 'normal', 'yaw': 23.96, 'datetime': '2018-10-09 12:06:38.607436', 'mgs': 0, 'volt': 0.9033, 'depth': 1.614, 'time': 23, 'pitch': 7.55, 'roll': -2.37, 'pres': 185}
{'lipoC2': 7.54, 'lipoC3S1': 4.13, 'temp': 30.94, 'lipoC3S3': 12.48, 'lipoC3S2': 8.25, 'rot1': 0, 'rot0': 0, 'rot3': 78, 'rot2': 65, 'state': 'normal', 'yaw': 24.13, 'datetime': '2018-10-09 12:06:38.710729', 'mgs': 0, 'volt': 0.9033, 'depth': 1.614, 'time': 23, 'pitch': 6.57, 'roll': -1.95, 'pres': 185}
{'lipoC2': 7.54, 'lipoC3S1': 4.13, 'temp': 30.94, 'lipoC3S3': 12.48, 'lipoC3S2': 8.25, 'rot1': 0, 'rot0': 0, 'rot3': 78, 'rot2': 65, 'state': 'normal', 'yaw': 24.29, 'datetime': '2018-10-09 12:06:38.814943', 'mgs': 0, 'volt': 0.9033, 'depth': 1.614, 'time': 24, 'pitch': 5.94, 'roll': -1.58, 'pres': 185}
{'lipoC2': 7.55, 'lipoC3S1': 4.13, 'temp': 30.94, 'lipoC3S3': 12.48, 'lipoC3S2': 8.25, 'rot1': 0, 'rot0': 0, 'rot3': 78, 'rot2': 65, 'state': 'normal', 'yaw': 24.41, 'datetime': '2018-10-09 12:06:38.918542', 'mgs': 0, 'volt': 0.9033, 'depth': 1.614, 'time': 24, 'pitch': 5.63, 'roll': -1.13, 'pres': 185}
{'lipoC2': 7.54, 'lipoC3S1': 4.13, 'temp': 30.94, 'lipoC3S3': 12.48, 'lipoC3S2': 8.25, 'rot1': 0, 'rot0': 0, 'rot3': 78, 'rot2': 65, 'state': 'normal', 'yaw': 24.44, 'datetime': '2018-10-09 12:06:39.021836', 'mgs': 0, 'volt': 0.9033, 'depth': 1.614, 'time': 24, 'pitch': 5.64, 'roll': -0.62, 'pres': 185}
{'lipoC2': 7.54, 'lipoC3S1': 4.13, 'temp': 30.94, 'lipoC3S3': 12.48, 'lipoC3S2': 8.25, 'rot1': 0, 'rot0': 0, 'rot3': 78, 'rot2': 65, 'state': 'normal', 'yaw': 24.48, 'datetime': '2018-10-09 12:06:39.125922', 'mgs': 0, 'volt': 0.9033, 'depth': 1.614, 'time': 24, 'pitch': 5.75, 'roll': -0.04, 'pres': 185}
{'lipoC2': 7.54, 'lipoC3S1': 4.13, 'temp': 30.94, 'lipoC3S3': 12.48, 'lipoC3S2': 8.25, 'rot1': 0, 'rot0': 0, 'rot3': 78, 'rot2': 65, 'state': 'normal', 'yaw': 24.49, 'datetime': '2018-10-09 12:06:39.229514', 'mgs': 0, 'volt': 0.9033, 'depth': 1.614, 'time': 24, 'pitch': 5.73, 'roll': 0.52, 'pres': 185}
{'lipoC2': 7.55, 'lipoC3S1': 4.13, 'temp': 30.94, 'lipoC3S3': 12.48, 'lipoC3S2': 8.25, 'rot1': 0, 'rot0': 0, 'rot3': 78, 'rot2': 65, 'state': 'normal', 'yaw': 24.56, 'datetime': '2018-10-09 12:06:39.332893', 'mgs': 0, 'volt': 0.9033, 'depth': 1.614, 'time': 24, 'pitch': 5.53, 'roll': 0.99, 'pres': 185}
{'lipoC2': 7.55, 'lipoC3S1': 4.13, 'temp': 30.94, 'lipoC3S3': 12.48, 'lipoC3S2': 8.25, 'rot1': 0, 'rot0': 0, 'rot3': 78, 'rot2': 65, 'state': 'normal', 'yaw': 25.25, 'datetime': '2018-10-09 12:06:39.436250', 'mgs': 0, 'volt': 0.8984, 'depth': 1.538, 'time': 24, 'pitch': 5.53, 'roll': 1.37, 'pres': 184}
{'lipoC2': 7.55, 'lipoC3S1': 4.13, 'temp': 30.94, 'lipoC3S3': 12.48, 'lipoC3S2': 8.25, 'rot1': 0, 'rot0': 0, 'rot3': 78, 'rot2': 65, 'state': 'normal', 'yaw': 26.0, 'datetime': '2018-10-09 12:06:39.539796', 'mgs': 0, 'volt': 0.9033, 'depth': 1.614, 'time': 24, 'pitch': 5.48, 'roll': 1.54, 'pres': 185}
{'lipoC2': 7.55, 'lipoC3S1': 4.13, 'temp': 30.94, 'lipoC3S3': 12.48, 'lipoC3S2': 8.25, 'rot1': 0, 'rot0': 0, 'rot3': 78, 'rot2': 65, 'state': 'normal', 'yaw': 26.79, 'datetime': '2018-10-09 12:06:39.643020', 'mgs': 0, 'volt': 0.9033, 'depth': 1.614, 'time': 24, 'pitch': 5.07, 'roll': 1.7, 'pres': 185}
{'lipoC2': 7.55, 'lipoC3S1': 4.13, 'temp': 31.0, 'lipoC3S3': 12.48, 'lipoC3S2': 8.25, 'rot1': 0, 'rot0': 0, 'rot3': 78, 'rot2': 65, 'state': 'normal', 'yaw': 27.45, 'datetime': '2018-10-09 12:06:39.746509', 'mgs': 0, 'volt': 0.9033, 'depth': 1.614, 'time': 24, 'pitch': 4.59, 'roll': 1.84, 'pres': 185}
{'lipoC2': 7.54, 'lipoC3S1': 4.13, 'temp': 31.0, 'lipoC3S3': 12.48, 'lipoC3S2': 8.25, 'rot1': 0, 'rot0': 0, 'rot3': 78, 'rot2': 65, 'state': 'normal', 'yaw': 28.06, 'datetime': '2018-10-09 12:06:39.850000', 'mgs': 0, 'volt': 0.9082, 'depth': 1.691, 'time': 25, 'pitch': 4.26, 'roll': 1.91, 'pres': 186}
{'lipoC2': 7.55, 'lipoC3S1': 4.13, 'temp': 30.94, 'lipoC3S3': 12.48, 'lipoC3S2': 8.25, 'rot1': 0, 'rot0': 0, 'rot3': 78, 'rot2': 65, 'state': 'normal', 'yaw': 28.74, 'datetime': '2018-10-09 12:06:39.953523', 'mgs': 0, 'volt': 0.9033, 'depth': 1.614, 'time': 25, 'pitch': 4.29, 'roll': 1.79, 'pres': 185}
{'lipoC2': 7.54, 'lipoC3S1': 4.13, 'temp': 30.94, 'lipoC3S3': 12.48, 'lipoC3S2': 8.25, 'rot1': 0, 'rot0': 0, 'rot3': 78, 'rot2': 65, 'state': 'normal', 'yaw': 29.35, 'datetime': '2018-10-09 12:06:40.056730', 'mgs': 0, 'volt': 0.9033, 'depth': 1.614, 'time': 25, 'pitch': 4.73, 'roll': 1.45, 'pres': 185}
{'lipoC2': 7.55, 'lipoC3S1': 4.13, 'temp': 30.94, 'lipoC3S3': 12.48, 'lipoC3S2': 8.25, 'rot1': 0, 'rot0': 0, 'rot3': 78, 'rot2': 65, 'state': 'normal', 'yaw': 29.94, 'datetime': '2018-10-09 12:06:40.160775', 'mgs': 0, 'volt': 0.9033, 'depth': 1.614, 'time': 25, 'pitch': 5.43, 'roll': 0.93, 'pres': 185}
{'lipoC2': 7.54, 'lipoC3S1': 4.13, 'temp': 31.0, 'lipoC3S3': 12.48, 'lipoC3S2': 8.25, 'rot1': 0, 'rot0': 0, 'rot3': 78, 'rot2': 65, 'state': 'normal', 'yaw': 30.57, 'datetime': '2018-10-09 12:06:40.264026', 'mgs': 0, 'volt': 0.9033, 'depth': 1.614, 'time': 25, 'pitch': 6.02, 'roll': 0.35, 'pres': 185}
{'lipoC2': 7.55, 'lipoC3S1': 4.13, 'temp': 31.0, 'lipoC3S3': 12.48, 'lipoC3S2': 8.25, 'rot1': 0, 'rot0': 0, 'rot3': 78, 'rot2': 65, 'state': 'normal', 'yaw': 31.13, 'datetime': '2018-10-09 12:06:40.368706', 'mgs': 0, 'volt': 0.9033, 'depth': 1.614, 'time': 25, 'pitch': 6.1, 'roll': -0.09, 'pres': 185}
{'lipoC2': 7.54, 'lipoC3S1': 4.13, 'temp': 30.94, 'lipoC3S3': 12.48, 'lipoC3S2': 8.25, 'rot1': 0, 'rot0': 0, 'rot3': 78, 'rot2': 65, 'state': 'normal', 'yaw': 31.69, 'datetime': '2018-10-09 12:06:40.472054', 'mgs': 0, 'volt': 0.9082, 'depth': 1.691, 'time': 25, 'pitch': 5.73, 'roll': -0.46, 'pres': 186}
{'lipoC2': 7.55, 'lipoC3S1': 4.13, 'temp': 30.94, 'lipoC3S3': 12.48, 'lipoC3S2': 8.25, 'rot1': 0, 'rot0': 0, 'rot3': 78, 'rot2': 65, 'state': 'normal', 'yaw': 32.19, 'datetime': '2018-10-09 12:06:40.575320', 'mgs': 0, 'volt': 0.9033, 'depth': 1.614, 'time': 25, 'pitch': 5.21, 'roll': -0.74, 'pres': 185}
{'lipoC2': 7.54, 'lipoC3S1': 4.13, 'temp': 30.94, 'lipoC3S3': 12.48, 'lipoC3S2': 8.25, 'rot1': 0, 'rot0': 0, 'rot3': 78, 'rot2': 65, 'state': 'normal', 'yaw': 32.64, 'datetime': '2018-10-09 12:06:40.680048', 'mgs': 0, 'volt': 0.9033, 'depth': 1.614, 'time': 25, 'pitch': 4.89, 'roll': -1.06, 'pres': 185}
{'lipoC2': 7.55, 'lipoC3S1': 4.13, 'temp': 30.94, 'lipoC3S3': 12.48, 'lipoC3S2': 8.25, 'rot1': 0, 'rot0': 0, 'rot3': 78, 'rot2': 65, 'state': 'normal', 'yaw': 33.1, 'datetime': '2018-10-09 12:06:40.783447', 'mgs': 0, 'volt': 0.9033, 'depth': 1.614, 'time': 26, 'pitch': 4.95, 'roll': -1.42, 'pres': 185}
{'lipoC2': 7.55, 'lipoC3S1': 4.13, 'temp': 30.94, 'lipoC3S3': 12.48, 'lipoC3S2': 8.25, 'rot1': 0, 'rot0': 0, 'rot3': 78, 'rot2': 65, 'state': 'normal', 'yaw': 33.47, 'datetime': '2018-10-09 12:06:40.886821', 'mgs': 0, 'volt': 0.9033, 'depth': 1.614, 'time': 26, 'pitch': 5.33, 'roll': -1.69, 'pres': 185}
{'lipoC2': 7.54, 'lipoC3S1': 4.13, 'temp': 30.94, 'lipoC3S3': 12.48, 'lipoC3S2': 8.26, 'rot1': 0, 'rot0': 0, 'rot3': 78, 'rot2': 65, 'state': 'normal', 'yaw': 33.82, 'datetime': '2018-10-09 12:06:40.990084', 'mgs': 0, 'volt': 0.9082, 'depth': 1.691, 'time': 26, 'pitch': 5.76, 'roll': -1.85, 'pres': 186}
{'lipoC2': 7.54, 'lipoC3S1': 4.13, 'temp': 30.94, 'lipoC3S3': 12.48, 'lipoC3S2': 8.25, 'rot1': 0, 'rot0': 0, 'rot3': 78, 'rot2': 65, 'state': 'normal', 'yaw': 34.19, 'datetime': '2018-10-09 12:06:41.087796', 'mgs': 0, 'volt': 0.9033, 'depth': 1.614, 'time': 26, 'pitch': 5.93, 'roll': -1.87, 'pres': 185}
{'lipoC2': 7.54, 'lipoC3S1': 4.13, 'temp': 30.94, 'lipoC3S3': 12.48, 'lipoC3S2': 8.25, 'rot1': 0, 'rot0': 0, 'rot3': 78, 'rot2': 65, 'state': 'normal', 'yaw': 34.28, 'datetime': '2018-10-09 12:06:41.196788', 'mgs': 1, 'volt': 0.9082, 'depth': 1.691, 'time': 26, 'pitch': 5.43, 'roll': -1.73, 'pres': 186}
{'lipoC2': 7.55, 'lipoC3S1': 4.13, 'temp': 30.94, 'lipoC3S3': 12.48, 'lipoC3S2': 8.25, 'rot1': 0, 'rot0': 0, 'rot3': 0, 'rot2': 0, 'state': 'normal', 'yaw': 0.0, 'datetime': '2018-10-09 12:06:44.224582', 'mgs': 1, 'volt': 0.918, 'depth': 1.843, 'time': 1, 'pitch': 2.14, 'roll': -2.31, 'pres': 188}
{'lipoC2': 7.54, 'lipoC3S1': 4.13, 'temp': 30.94, 'lipoC3S3': 12.48, 'lipoC3S2': 8.25, 'rot1': 0, 'rot0': 0, 'rot3': 0, 'rot2': 0, 'state': 'normal', 'yaw': 0.05, 'datetime': '2018-10-09 12:06:44.253255', 'mgs': 1, 'volt': 0.918, 'depth': 1.843, 'time': 1, 'pitch': 1.17, 'roll': -2.48, 'pres': 188}
{'lipoC2': 7.55, 'lipoC3S1': 4.13, 'temp': 30.94, 'lipoC3S3': 12.48, 'lipoC3S2': 8.26, 'rot1': 0, 'rot0': 0, 'rot3': 0, 'rot2': 0, 'state': 'normal', 'yaw': 0.09, 'datetime': '2018-10-09 12:06:44.281932', 'mgs': 1, 'volt': 0.918, 'depth': 1.843, 'time': 1, 'pitch': 0.66, 'roll': -2.53, 'pres': 188}
{'lipoC2': 7.55, 'lipoC3S1': 4.13, 'temp': 30.94, 'lipoC3S3': 12.48, 'lipoC3S2': 8.26, 'rot1': 0, 'rot0': 0, 'rot3': 0, 'rot2': 0, 'state': 'normal', 'yaw': 0.14, 'datetime': '2018-10-09 12:06:44.302658', 'mgs': 1, 'volt': 0.918, 'depth': 1.843, 'time': 1, 'pitch': 0.73, 'roll': -2.47, 'pres': 188}
{'lipoC2': 7.55, 'lipoC3S1': 4.13, 'temp': 30.94, 'lipoC3S3': 12.48, 'lipoC3S2': 8.26, 'rot1': 0, 'rot0': 0, 'rot3': 0, 'rot2': 0, 'state': 'normal', 'yaw': 0.22, 'datetime': '2018-10-09 12:06:44.317753', 'mgs': 1, 'volt': 0.918, 'depth': 1.843, 'time': 1, 'pitch': 1.29, 'roll': -2.28, 'pres': 188}
{'lipoC2': 7.55, 'lipoC3S1': 4.13, 'temp': 30.94, 'lipoC3S3': 12.48, 'lipoC3S2': 8.26, 'rot1': 0, 'rot0': 0, 'rot3': 0, 'rot2': 0, 'state': 'normal', 'yaw': 0.32, 'datetime': '2018-10-09 12:06:44.332818', 'mgs': 0, 'volt': 0.918, 'depth': 1.843, 'time': 1, 'pitch': 2.11, 'roll': -1.9, 'pres': 188}
{'lipoC2': 7.54, 'lipoC3S1': 4.13, 'temp': 30.94, 'lipoC3S3': 12.48, 'lipoC3S2': 8.26, 'rot1': 0, 'rot0': 0, 'rot3': 0, 'rot2': 0, 'state': 'normal', 'yaw': 0.44, 'datetime': '2018-10-09 12:06:44.347839', 'mgs': 0, 'volt': 0.918, 'depth': 1.843, 'time': 1, 'pitch': 2.91, 'roll': -1.41, 'pres': 188}
{'lipoC2': 7.54, 'lipoC3S1': 4.13, 'temp': 30.94, 'lipoC3S3': 12.48, 'lipoC3S2': 8.25, 'rot1': 0, 'rot0': 0, 'rot3': 0, 'rot2': 0, 'state': 'normal', 'yaw': 0.56, 'datetime': '2018-10-09 12:06:44.363047', 'mgs': 0, 'volt': 0.9131, 'depth': 1.767, 'time': 1, 'pitch': 3.7, 'roll': -0.87, 'pres': 187}
{'lipoC2': 7.55, 'lipoC3S1': 4.13, 'temp': 30.94, 'lipoC3S3': 12.48, 'lipoC3S2': 8.25, 'rot1': 0, 'rot0': 0, 'rot3': 0, 'rot2': 0, 'state': 'normal', 'yaw': 0.73, 'datetime': '2018-10-09 12:06:44.378302', 'mgs': 0, 'volt': 0.918, 'depth': 1.843, 'time': 2, 'pitch': 4.32, 'roll': -0.2, 'pres': 188}
{'lipoC2': 7.54, 'lipoC3S1': 4.13, 'temp': 30.94, 'lipoC3S3': 12.48, 'lipoC3S2': 8.25, 'rot1': 0, 'rot0': 0, 'rot3': 0, 'rot2': 0, 'state': 'normal', 'yaw': 0.92, 'datetime': '2018-10-09 12:06:44.393786', 'mgs': 0, 'volt': 0.9131, 'depth': 1.767, 'time': 2, 'pitch': 4.48, 'roll': 0.45, 'pres': 187}
{'lipoC2': 7.55, 'lipoC3S1': 4.13, 'temp': 30.94, 'lipoC3S3': 12.48, 'lipoC3S2': 8.25, 'rot1': 0, 'rot0': 0, 'rot3': 0, 'rot2': 0, 'state': 'normal', 'yaw': 1.1, 'datetime': '2018-10-09 12:06:44.408915', 'mgs': 0, 'volt': 0.9131, 'depth': 1.767, 'time': 2, 'pitch': 4.27, 'roll': 1.06, 'pres': 187}
{'lipoC2': 7.55, 'lipoC3S1': 4.13, 'temp': 30.94, 'lipoC3S3': 12.48, 'lipoC3S2': 8.25, 'rot1': 0, 'rot0': 0, 'rot3': 0, 'rot2': 0, 'state': 'normal', 'yaw': 1.29, 'datetime': '2018-10-09 12:06:44.423940', 'mgs': 0, 'volt': 0.9131, 'depth': 1.767, 'time': 2, 'pitch': 3.86, 'roll': 1.66, 'pres': 187}
{'lipoC2': 7.55, 'lipoC3S1': 4.13, 'temp': 30.94, 'lipoC3S3': 12.48, 'lipoC3S2': 8.26, 'rot1': 0, 'rot0': 0, 'rot3': 0, 'rot2': 0, 'state': 'normal', 'yaw': 1.46, 'datetime': '2018-10-09 12:06:44.439033', 'mgs': 0, 'volt': 0.918, 'depth': 1.843, 'time': 2, 'pitch': 3.53, 'roll': 2.07, 'pres': 188}
{'lipoC2': 7.55, 'lipoC3S1': 4.13, 'temp': 30.94, 'lipoC3S3': 12.48, 'lipoC3S2': 8.26, 'rot1': 0, 'rot0': 0, 'rot3': 0, 'rot2': 0, 'state': 'normal', 'yaw': 1.62, 'datetime': '2018-10-09 12:06:44.454162', 'mgs': 0, 'volt': 0.9131, 'depth': 1.767, 'time': 2, 'pitch': 3.35, 'roll': 2.33, 'pres': 187}
{'lipoC2': 7.55, 'lipoC3S1': 4.13, 'temp': 31.0, 'lipoC3S3': 12.48, 'lipoC3S2': 8.26, 'rot1': 0, 'rot0': 0, 'rot3': 0, 'rot2': 0, 'state': 'normal', 'yaw': 1.79, 'datetime': '2018-10-09 12:06:44.469231', 'mgs': 0, 'volt': 0.9131, 'depth': 1.767, 'time': 2, 'pitch': 3.32, 'roll': 2.42, 'pres': 187}
{'lipoC2': 7.54, 'lipoC3S1': 4.13, 'temp': 31.0, 'lipoC3S3': 12.48, 'lipoC3S2': 8.26, 'rot1': 0, 'rot0': 0, 'rot3': 0, 'rot2': 0, 'state': 'normal', 'yaw': 1.94, 'datetime': '2018-10-09 12:06:44.484274', 'mgs': 0, 'volt': 0.9082, 'depth': 1.691, 'time': 2, 'pitch': 3.36, 'roll': 2.35, 'pres': 186}
{'lipoC2': 7.54, 'lipoC3S1': 4.13, 'temp': 30.94, 'lipoC3S3': 12.48, 'lipoC3S2': 8.26, 'rot1': 0, 'rot0': 0, 'rot3': 0, 'rot2': 0, 'state': 'normal', 'yaw': 2.11, 'datetime': '2018-10-09 12:06:44.499388', 'mgs': 0, 'volt': 0.9033, 'depth': 1.614, 'time': 2, 'pitch': 3.32, 'roll': 2.13, 'pres': 185}
{'lipoC2': 7.53, 'lipoC3S1': 4.07, 'temp': 30.94, 'lipoC3S3': 12.41, 'lipoC3S2': 8.19, 'rot1': 0, 'rot0': 0, 'rot3': 1, 'rot2': 0, 'state': 'normal', 'yaw': 2.33, 'datetime': '2018-10-09 12:06:44.514525', 'mgs': 0, 'volt': 0.9424, 'depth': 2.225, 'time': 3, 'pitch': 3.52, 'roll': 1.77, 'pres': 193}
{'lipoC2': 7.53, 'lipoC3S1': 4.09, 'temp': 30.94, 'lipoC3S3': 12.34, 'lipoC3S2': 8.21, 'rot1': 0, 'rot0': 0, 'rot3': 2, 'rot2': 1, 'state': 'normal', 'yaw': 2.56, 'datetime': '2018-10-09 12:06:44.529707', 'mgs': 0, 'volt': 0.9326, 'depth': 2.072, 'time': 3, 'pitch': 3.74, 'roll': 0.88, 'pres': 191}
{'lipoC2': 7.53, 'lipoC3S1': 4.09, 'temp': 30.94, 'lipoC3S3': 12.35, 'lipoC3S2': 8.22, 'rot1': 0, 'rot0': 0, 'rot3': 3, 'rot2': 1, 'state': 'normal', 'yaw': 2.83, 'datetime': '2018-10-09 12:06:44.544834', 'mgs': 0, 'volt': 0.9229, 'depth': 1.92, 'time': 3, 'pitch': 3.84, 'roll': 0.07, 'pres': 189}
{'lipoC2': 7.53, 'lipoC3S1': 4.1, 'temp': 30.94, 'lipoC3S3': 12.38, 'lipoC3S2': 8.21, 'rot1': 0, 'rot0': 0, 'rot3': 4, 'rot2': 2, 'state': 'normal', 'yaw': 3.13, 'datetime': '2018-10-09 12:06:44.629046', 'mgs': 0, 'volt': 0.9375, 'depth': 2.148, 'time': 3, 'pitch': 4.05, 'roll': -0.76, 'pres': 192}
{'lipoC2': 7.54, 'lipoC3S1': 4.11, 'temp': 30.81, 'lipoC3S3': 12.37, 'lipoC3S2': 8.21, 'rot1': 0, 'rot0': 0, 'rot3': 5, 'rot2': 3, 'state': 'normal', 'yaw': 3.54, 'datetime': '2018-10-09 12:06:44.732264', 'mgs': 0, 'volt': 0.9229, 'depth': 1.92, 'time': 3, 'pitch': 4.03, 'roll': -1.64, 'pres': 189}
{'lipoC2': 7.54, 'lipoC3S1': 4.11, 'temp': 30.81, 'lipoC3S3': 12.37, 'lipoC3S2': 8.15, 'rot1': 0, 'rot0': 0, 'rot3': 6, 'rot2': 4, 'state': 'normal', 'yaw': 3.92, 'datetime': '2018-10-09 12:06:44.835491', 'mgs': 0, 'volt': 0.9229, 'depth': 1.92, 'time': 3, 'pitch': 3.75, 'roll': -2.45, 'pres': 189}
{'lipoC2': 7.53, 'lipoC3S1': 4.1, 'temp': 30.94, 'lipoC3S3': 12.37, 'lipoC3S2': 8.21, 'rot1': 0, 'rot0': 0, 'rot3': 7, 'rot2': 5, 'state': 'normal', 'yaw': 4.31, 'datetime': '2018-10-09 12:06:44.938914', 'mgs': 0, 'volt': 0.9277, 'depth': 1.996, 'time': 3, 'pitch': 3.26, 'roll': -3.22, 'pres': 190}
{'lipoC2': 7.54, 'lipoC3S1': 4.11, 'temp': 30.94, 'lipoC3S3': 12.37, 'lipoC3S2': 8.21, 'rot1': 0, 'rot0': 0, 'rot3': 8, 'rot2': 6, 'state': 'normal', 'yaw': 4.8, 'datetime': '2018-10-09 12:06:45.042815', 'mgs': 0, 'volt': 0.9375, 'depth': 2.148, 'time': 3, 'pitch': 2.69, 'roll': -3.84, 'pres': 192}
{'lipoC2': 7.54, 'lipoC3S1': 4.11, 'temp': 30.94, 'lipoC3S3': 12.35, 'lipoC3S2': 8.21, 'rot1': 0, 'rot0': 0, 'rot3': 9, 'rot2': 6, 'state': 'normal', 'yaw': 5.26, 'datetime': '2018-10-09 12:06:45.146172', 'mgs': 0, 'volt': 0.9326, 'depth': 2.072, 'time': 3, 'pitch': 2.4, 'roll': -4.15, 'pres': 191}
{'lipoC2': 7.54, 'lipoC3S1': 4.11, 'temp': 30.94, 'lipoC3S3': 12.37, 'lipoC3S2': 8.15, 'rot1': 0, 'rot0': 0, 'rot3': 10, 'rot2': 7, 'state': 'normal', 'yaw': 5.69, 'datetime': '2018-10-09 12:06:45.253644', 'mgs': 0, 'volt': 0.9229, 'depth': 1.92, 'time': 3, 'pitch': 2.35, 'roll': -4.24, 'pres': 189}
{'lipoC2': 7.53, 'lipoC3S1': 4.09, 'temp': 30.94, 'lipoC3S3': 12.35, 'lipoC3S2': 8.2, 'rot1': 0, 'rot0': 0, 'rot3': 11, 'rot2': 8, 'state': 'normal', 'yaw': 6.25, 'datetime': '2018-10-09 12:06:45.359448', 'mgs': 0, 'volt': 0.9375, 'depth': 2.148, 'time': 4, 'pitch': 2.29, 'roll': -4.17, 'pres': 192}
{'lipoC2': 7.54, 'lipoC3S1': 4.09, 'temp': 30.94, 'lipoC3S3': 12.42, 'lipoC3S2': 8.17, 'rot1': 0, 'rot0': 0, 'rot3': 12, 'rot2': 9, 'state': 'normal', 'yaw': 6.79, 'datetime': '2018-10-09 12:06:45.464100', 'mgs': 0, 'volt': 0.9473, 'depth': 2.301, 'time': 4, 'pitch': 1.93, 'roll': -4.46, 'pres': 194}
{'lipoC2': 7.54, 'lipoC3S1': 4.08, 'temp': 30.94, 'lipoC3S3': 12.39, 'lipoC3S2': 8.18, 'rot1': 0, 'rot0': 0, 'rot3': 13, 'rot2': 10, 'state': 'normal', 'yaw': 7.48, 'datetime': '2018-10-09 12:06:45.567761', 'mgs': 0, 'volt': 0.9326, 'depth': 2.072, 'time': 4, 'pitch': 1.2, 'roll': -4.95, 'pres': 191}
{'lipoC2': 7.54, 'lipoC3S1': 4.11, 'temp': 30.94, 'lipoC3S3': 12.39, 'lipoC3S2': 8.17, 'rot1': 0, 'rot0': 0, 'rot3': 14, 'rot2': 11, 'state': 'normal', 'yaw': 8.16, 'datetime': '2018-10-09 12:06:45.672352', 'mgs': 0, 'volt': 0.9424, 'depth': 2.225, 'time': 4, 'pitch': 0.54, 'roll': -5.36, 'pres': 193}
{'lipoC2': 7.54, 'lipoC3S1': 4.07, 'temp': 30.94, 'lipoC3S3': 12.41, 'lipoC3S2': 8.18, 'rot1': 0, 'rot0': 0, 'rot3': 15, 'rot2': 11, 'state': 'normal', 'yaw': 8.87, 'datetime': '2018-10-09 12:06:45.776168', 'mgs': 0, 'volt': 0.9326, 'depth': 2.072, 'time': 4, 'pitch': 0.16, 'roll': -5.74, 'pres': 191}
{'lipoC2': 7.54, 'lipoC3S1': 4.11, 'temp': 30.94, 'lipoC3S3': 12.34, 'lipoC3S2': 8.14, 'rot1': 0, 'rot0': 0, 'rot3': 16, 'rot2': 12, 'state': 'normal', 'yaw': 9.63, 'datetime': '2018-10-09 12:06:45.879907', 'mgs': 0, 'volt': 0.9473, 'depth': 2.301, 'time': 4, 'pitch': 0.01, 'roll': -6.09, 'pres': 194}
{'lipoC2': 7.54, 'lipoC3S1': 4.08, 'temp': 30.94, 'lipoC3S3': 12.42, 'lipoC3S2': 8.2, 'rot1': 0, 'rot0': 0, 'rot3': 18, 'rot2': 13, 'state': 'normal', 'yaw': 10.28, 'datetime': '2018-10-09 12:06:45.983292', 'mgs': 0, 'volt': 0.957, 'depth': 2.454, 'time': 4, 'pitch': 0.1, 'roll': -6.18, 'pres': 196}
{'lipoC2': 7.54, 'lipoC3S1': 4.07, 'temp': 30.94, 'lipoC3S3': 12.39, 'lipoC3S2': 8.16, 'rot1': 0, 'rot0': 0, 'rot3': 19, 'rot2': 14, 'state': 'normal', 'yaw': 10.96, 'datetime': '2018-10-09 12:06:46.086872', 'mgs': 0, 'volt': 0.9424, 'depth': 2.225, 'time': 4, 'pitch': 0.29, 'roll': -6.05, 'pres': 193}
{'lipoC2': 7.54, 'lipoC3S1': 4.11, 'temp': 30.94, 'lipoC3S3': 12.35, 'lipoC3S2': 8.14, 'rot1': 0, 'rot0': 0, 'rot3': 20, 'rot2': 15, 'state': 'normal', 'yaw': 11.71, 'datetime': '2018-10-09 12:06:46.190425', 'mgs': 0, 'volt': 0.9473, 'depth': 2.301, 'time': 4, 'pitch': 0.36, 'roll': -5.9, 'pres': 194}
{'lipoC2': 7.53, 'lipoC3S1': 4.09, 'temp': 30.94, 'lipoC3S3': 12.42, 'lipoC3S2': 8.21, 'rot1': 0, 'rot0': 0, 'rot3': 21, 'rot2': 16, 'state': 'normal', 'yaw': 12.37, 'datetime': '2018-10-09 12:06:46.294058', 'mgs': 0, 'volt': 0.9619, 'depth': 2.53, 'time': 4, 'pitch': 0.24, 'roll': -5.66, 'pres': 197}
{'lipoC2': 7.54, 'lipoC3S1': 4.07, 'temp': 30.94, 'lipoC3S3': 12.41, 'lipoC3S2': 8.18, 'rot1': 0, 'rot0': 0, 'rot3': 22, 'rot2': 16, 'state': 'normal', 'yaw': 13.06, 'datetime': '2018-10-09 12:06:46.397725', 'mgs': 0, 'volt': 0.9375, 'depth': 2.148, 'time': 5, 'pitch': 0.17, 'roll': -5.44, 'pres': 192}
{'lipoC2': 7.54, 'lipoC3S1': 4.11, 'temp': 30.94, 'lipoC3S3': 12.38, 'lipoC3S2': 8.17, 'rot1': 0, 'rot0': 0, 'rot3': 23, 'rot2': 17, 'state': 'normal', 'yaw': 13.92, 'datetime': '2018-10-09 12:06:46.501165', 'mgs': 0, 'volt': 0.9521, 'depth': 2.377, 'time': 5, 'pitch': 0.29, 'roll': -5.17, 'pres': 195}
{'lipoC2': 7.53, 'lipoC3S1': 4.09, 'temp': 30.94, 'lipoC3S3': 12.34, 'lipoC3S2': 8.2, 'rot1': 0, 'rot0': 0, 'rot3': 24, 'rot2': 19, 'state': 'normal', 'yaw': 14.78, 'datetime': '2018-10-09 12:06:46.604723', 'mgs': 0, 'volt': 0.9766, 'depth': 2.759, 'time': 5, 'pitch': 0.5, 'roll': -5.0, 'pres': 200}
{'lipoC2': 7.54, 'lipoC3S1': 4.09, 'temp': 30.94, 'lipoC3S3': 12.42, 'lipoC3S2': 8.21, 'rot1': 0, 'rot0': 0, 'rot3': 25, 'rot2': 20, 'state': 'normal', 'yaw': 15.76, 'datetime': '2018-10-09 12:06:46.708960', 'mgs': 0, 'volt': 0.9619, 'depth': 2.53, 'time': 5, 'pitch': 0.72, 'roll': -4.91, 'pres': 197}
{'lipoC2': 7.54, 'lipoC3S1': 4.07, 'temp': 30.94, 'lipoC3S3': 12.41, 'lipoC3S2': 8.17, 'rot1': 0, 'rot0': 0, 'rot3': 26, 'rot2': 21, 'state': 'normal', 'yaw': 16.92, 'datetime': '2018-10-09 12:06:46.812526', 'mgs': 0, 'volt': 0.9863, 'depth': 2.911, 'time': 5, 'pitch': 0.87, 'roll': -4.85, 'pres': 202}
{'lipoC2': 7.54, 'lipoC3S1': 4.09, 'temp': 30.94, 'lipoC3S3': 12.43, 'lipoC3S2': 8.21, 'rot1': 0, 'rot0': 0, 'rot3': 28, 'rot2': 22, 'state': 'normal', 'yaw': 17.97, 'datetime': '2018-10-09 12:06:46.917395', 'mgs': 0, 'volt': 0.9814, 'depth': 2.835, 'time': 5, 'pitch': 0.93, 'roll': -4.84, 'pres': 201}
{'lipoC2': 7.54, 'lipoC3S1': 4.07, 'temp': 30.94, 'lipoC3S3': 12.41, 'lipoC3S2': 8.17, 'rot1': 0, 'rot0': 0, 'rot3': 29, 'rot2': 22, 'state': 'normal', 'yaw': 19.11, 'datetime': '2018-10-09 12:06:47.020936', 'mgs': 0, 'volt': 0.9912, 'depth': 2.988, 'time': 5, 'pitch': 0.99, 'roll': -4.82, 'pres': 203}
{'lipoC2': 7.54, 'lipoC3S1': 4.1, 'temp': 31.0, 'lipoC3S3': 12.37, 'lipoC3S2': 8.14, 'rot1': 0, 'rot0': 0, 'rot3': 30, 'rot2': 23, 'state': 'normal', 'yaw': 20.19, 'datetime': '2018-10-09 12:06:47.124536', 'mgs': 0, 'volt': 0.9717, 'depth': 2.682, 'time': 5, 'pitch': 1.04, 'roll': -4.74, 'pres': 199}
{'lipoC2': 7.54, 'lipoC3S1': 4.08, 'temp': 31.0, 'lipoC3S3': 12.38, 'lipoC3S2': 8.16, 'rot1': 0, 'rot0': 0, 'rot3': 31, 'rot2': 24, 'state': 'normal', 'yaw': 21.26, 'datetime': '2018-10-09 12:06:47.229637', 'mgs': 0, 'volt': 0.9619, 'depth': 2.53, 'time': 5, 'pitch': 1.28, 'roll': -4.64, 'pres': 197}
{'lipoC2': 7.54, 'lipoC3S1': 4.1, 'temp': 31.0, 'lipoC3S3': 12.33, 'lipoC3S2': 8.2, 'rot1': 0, 'rot0': 0, 'rot3': 32, 'rot2': 25, 'state': 'normal', 'yaw': 22.46, 'datetime': '2018-10-09 12:06:47.333217', 'mgs': 0, 'volt': 0.9814, 'depth': 2.835, 'time': 6, 'pitch': 1.66, 'roll': -4.48, 'pres': 201}
{'lipoC2': 7.54, 'lipoC3S1': 4.07, 'temp': 31.0, 'lipoC3S3': 12.42, 'lipoC3S2': 8.18, 'rot1': 0, 'rot0': 0, 'rot3': 33, 'rot2': 26, 'state': 'normal', 'yaw': 23.52, 'datetime': '2018-10-09 12:06:47.437001', 'mgs': 0, 'volt': 0.9912, 'depth': 2.988, 'time': 6, 'pitch': 1.9, 'roll': -4.24, 'pres': 203}
{'lipoC2': 7.54, 'lipoC3S1': 4.1, 'temp': 31.0, 'lipoC3S3': 12.35, 'lipoC3S2': 8.15, 'rot1': 0, 'rot0': 0, 'rot3': 34, 'rot2': 27, 'state': 'normal', 'yaw': 24.58, 'datetime': '2018-10-09 12:06:47.540554', 'mgs': 0, 'volt': 0.9766, 'depth': 2.759, 'time': 6, 'pitch': 1.91, 'roll': -3.98, 'pres': 200}
{'lipoC2': 7.54, 'lipoC3S1': 4.1, 'temp': 30.94, 'lipoC3S3': 12.34, 'lipoC3S2': 8.2, 'rot1': 0, 'rot0': 0, 'rot3': 35, 'rot2': 28, 'state': 'normal', 'yaw': 25.73, 'datetime': '2018-10-09 12:06:47.644037', 'mgs': 0, 'volt': 0.9912, 'depth': 2.988, 'time': 6, 'pitch': 1.73, 'roll': -3.73, 'pres': 203}
{'lipoC2': 7.54, 'lipoC3S1': 4.08, 'temp': 30.94, 'lipoC3S3': 12.41, 'lipoC3S2': 8.19, 'rot1': 0, 'rot0': 0, 'rot3': 36, 'rot2': 28, 'state': 'normal', 'yaw': 26.78, 'datetime': '2018-10-09 12:06:47.747751', 'mgs': 0, 'volt': 1.001, 'depth': 3.14, 'time': 6, 'pitch': 1.62, 'roll': -3.57, 'pres': 205}
{'lipoC2': 7.54, 'lipoC3S1': 4.11, 'temp': 31.0, 'lipoC3S3': 12.35, 'lipoC3S2': 8.14, 'rot1': 0, 'rot0': 0, 'rot3': 37, 'rot2': 30, 'state': 'normal', 'yaw': 27.95, 'datetime': '2018-10-09 12:06:47.851385', 'mgs': 0, 'volt': 0.9912, 'depth': 2.988, 'time': 6, 'pitch': 1.56, 'roll': -3.44, 'pres': 203}
{'lipoC2': 7.53, 'lipoC3S1': 4.08, 'temp': 31.0, 'lipoC3S3': 12.42, 'lipoC3S2': 8.19, 'rot1': 0, 'rot0': 0, 'rot3': 38, 'rot2': 31, 'state': 'normal', 'yaw': 28.99, 'datetime': '2018-10-09 12:06:47.954969', 'mgs': 0, 'volt': 0.9961, 'depth': 3.064, 'time': 6, 'pitch': 1.58, 'roll': -3.28, 'pres': 204}
{'lipoC2': 7.54, 'lipoC3S1': 4.06, 'temp': 31.0, 'lipoC3S3': 12.38, 'lipoC3S2': 8.16, 'rot1': 0, 'rot0': 0, 'rot3': 39, 'rot2': 32, 'state': 'normal', 'yaw': 30.01, 'datetime': '2018-10-09 12:06:48.058671', 'mgs': 0, 'volt': 0.9766, 'depth': 2.759, 'time': 6, 'pitch': 1.45, 'roll': -3.04, 'pres': 200}
{'lipoC2': 7.53, 'lipoC3S1': 4.1, 'temp': 30.94, 'lipoC3S3': 12.34, 'lipoC3S2': 8.19, 'rot1': 0, 'rot0': 0, 'rot3': 41, 'rot2': 33, 'state': 'normal', 'yaw': 31.07, 'datetime': '2018-10-09 12:06:48.162174', 'mgs': 0, 'volt': 0.9961, 'depth': 3.064, 'time': 6, 'pitch': 1.01, 'roll': -2.75, 'pres': 204}
{'lipoC2': 7.53, 'lipoC3S1': 4.07, 'temp': 30.94, 'lipoC3S3': 12.42, 'lipoC3S2': 8.18, 'rot1': 0, 'rot0': 0, 'rot3': 42, 'rot2': 34, 'state': 'normal', 'yaw': 32.01, 'datetime': '2018-10-09 12:06:48.265774', 'mgs': 0, 'volt': 1.001, 'depth': 3.14, 'time': 6, 'pitch': 0.36, 'roll': -2.51, 'pres': 205}
{'lipoC2': 7.53, 'lipoC3S1': 4.11, 'temp': 30.94, 'lipoC3S3': 12.35, 'lipoC3S2': 8.2, 'rot1': 0, 'rot0': 0, 'rot3': 43, 'rot2': 34, 'state': 'normal', 'yaw': 32.88, 'datetime': '2018-10-09 12:06:48.370630', 'mgs': 0, 'volt': 0.9961, 'depth': 3.064, 'time': 7, 'pitch': -0.34, 'roll': -2.3, 'pres': 204}
{'lipoC2': 7.54, 'lipoC3S1': 4.08, 'temp': 30.94, 'lipoC3S3': 12.42, 'lipoC3S2': 8.19, 'rot1': 0, 'rot0': 0, 'rot3': 44, 'rot2': 35, 'state': 'normal', 'yaw': 33.86, 'datetime': '2018-10-09 12:06:48.474112', 'mgs': 0, 'volt': 1.0059, 'depth': 3.217, 'time': 7, 'pitch': -0.91, 'roll': -2.12, 'pres': 206}
{'lipoC2': 7.54, 'lipoC3S1': 4.06, 'temp': 31.0, 'lipoC3S3': 12.38, 'lipoC3S2': 8.15, 'rot1': 0, 'rot0': 0, 'rot3': 45, 'rot2': 36, 'state': 'normal', 'yaw': 34.67, 'datetime': '2018-10-09 12:06:48.577885', 'mgs': 0, 'volt': 0.9814, 'depth': 2.835, 'time': 7, 'pitch': -1.09, 'roll': -2.03, 'pres': 201}
{'lipoC2': 7.54, 'lipoC3S1': 4.08, 'temp': 31.0, 'lipoC3S3': 12.42, 'lipoC3S2': 8.19, 'rot1': 0, 'rot0': 0, 'rot3': 46, 'rot2': 37, 'state': 'normal', 'yaw': 35.52, 'datetime': '2018-10-09 12:06:48.682615', 'mgs': 0, 'volt': 1.001, 'depth': 3.14, 'time': 7, 'pitch': -0.97, 'roll': -1.93, 'pres': 205}
{'lipoC2': 7.54, 'lipoC3S1': 4.08, 'temp': 31.0, 'lipoC3S3': 12.38, 'lipoC3S2': 8.16, 'rot1': 0, 'rot0': 0, 'rot3': 47, 'rot2': 39, 'state': 'normal', 'yaw': 36.45, 'datetime': '2018-10-09 12:06:48.786165', 'mgs': 0, 'volt': 0.9863, 'depth': 2.911, 'time': 7, 'pitch': -0.69, 'roll': -1.84, 'pres': 202}
{'lipoC2': 7.53, 'lipoC3S1': 4.1, 'temp': 30.94, 'lipoC3S3': 12.35, 'lipoC3S2': 8.14, 'rot1': 0, 'rot0': 0, 'rot3': 48, 'rot2': 40, 'state': 'normal', 'yaw': 37.25, 'datetime': '2018-10-09 12:06:48.890005', 'mgs': 0, 'volt': 0.9961, 'depth': 3.064, 'time': 7, 'pitch': -0.47, 'roll': -1.78, 'pres': 204}
{'lipoC2': 7.54, 'lipoC3S1': 4.08, 'temp': 30.94, 'lipoC3S3': 12.41, 'lipoC3S2': 8.17, 'rot1': 0, 'rot0': 0, 'rot3': 49, 'rot2': 41, 'state': 'normal', 'yaw': 38.1, 'datetime': '2018-10-09 12:06:48.993484', 'mgs': 0, 'volt': 1.0205, 'depth': 3.445, 'time': 7, 'pitch': -0.45, 'roll': -1.68, 'pres': 209}
{'lipoC2': 7.54, 'lipoC3S1': 4.05, 'temp': 30.94, 'lipoC3S3': 12.38, 'lipoC3S2': 8.15, 'rot1': 0, 'rot0': 0, 'rot3': 50, 'rot2': 42, 'state': 'normal', 'yaw': 38.88, 'datetime': '2018-10-09 12:06:49.097264', 'mgs': 0, 'volt': 0.9912, 'depth': 2.988, 'time': 7, 'pitch': -0.61, 'roll': -1.58, 'pres': 203}
{'lipoC2': 7.54, 'lipoC3S1': 4.11, 'temp': 30.94, 'lipoC3S3': 12.37, 'lipoC3S2': 8.2, 'rot1': 0, 'rot0': 0, 'rot3': 51, 'rot2': 42, 'state': 'normal', 'yaw': 39.63, 'datetime': '2018-10-09 12:06:49.200639', 'mgs': 0, 'volt': 1.001, 'depth': 3.14, 'time': 7, 'pitch': -0.81, 'roll': -1.52, 'pres': 205}
{'lipoC2': 7.54, 'lipoC3S1': 4.08, 'temp': 31.0, 'lipoC3S3': 12.42, 'lipoC3S2': 8.19, 'rot1': 0, 'rot0': 0, 'rot3': 52, 'rot2': 43, 'state': 'normal', 'yaw': 40.36, 'datetime': '2018-10-09 12:06:49.304078', 'mgs': 0, 'volt': 1.0205, 'depth': 3.445, 'time': 7, 'pitch': -1.02, 'roll': -1.46, 'pres': 209}
{'lipoC2': 7.54, 'lipoC3S1': 4.07, 'temp': 31.0, 'lipoC3S3': 12.37, 'lipoC3S2': 8.16, 'rot1': 0, 'rot0': 0, 'rot3': 53, 'rot2': 44, 'state': 'normal', 'yaw': 41.16, 'datetime': '2018-10-09 12:06:49.407881', 'mgs': 0, 'volt': 1.001, 'depth': 3.14, 'time': 8, 'pitch': -1.1, 'roll': -1.43, 'pres': 205}
{'lipoC2': 7.54, 'lipoC3S1': 4.1, 'temp': 31.0, 'lipoC3S3': 12.35, 'lipoC3S2': 8.14, 'rot1': 0, 'rot0': 0, 'rot3': 54, 'rot2': 45, 'state': 'normal', 'yaw': 41.85, 'datetime': '2018-10-09 12:06:49.511281', 'mgs': 0, 'volt': 1.0059, 'depth': 3.217, 'time': 8, 'pitch': -1.09, 'roll': -1.41, 'pres': 206}
{'lipoC2': 7.53, 'lipoC3S1': 4.08, 'temp': 31.0, 'lipoC3S3': 12.41, 'lipoC3S2': 8.2, 'rot1': 0, 'rot0': 0, 'rot3': 55, 'rot2': 46, 'state': 'normal', 'yaw': 42.63, 'datetime': '2018-10-09 12:06:49.614826', 'mgs': 0, 'volt': 1.0254, 'depth': 3.522, 'time': 8, 'pitch': -1.03, 'roll': -1.36, 'pres': 210}
{'lipoC2': 7.54, 'lipoC3S1': 4.07, 'temp': 31.0, 'lipoC3S3': 12.39, 'lipoC3S2': 8.16, 'rot1': 0, 'rot0': 0, 'rot3': 56, 'rot2': 47, 'state': 'normal', 'yaw': 43.31, 'datetime': '2018-10-09 12:06:49.718425', 'mgs': 0, 'volt': 1.0254, 'depth': 3.522, 'time': 8, 'pitch': -0.86, 'roll': -1.32, 'pres': 210}
{'lipoC2': 7.54, 'lipoC3S1': 4.09, 'temp': 30.94, 'lipoC3S3': 12.34, 'lipoC3S2': 8.2, 'rot1': 0, 'rot0': 0, 'rot3': 57, 'rot2': 48, 'state': 'normal', 'yaw': 43.97, 'datetime': '2018-10-09 12:06:49.823160', 'mgs': 0, 'volt': 1.0254, 'depth': 3.522, 'time': 8, 'pitch': -0.63, 'roll': -1.27, 'pres': 210}
{'lipoC2': 7.54, 'lipoC3S1': 4.07, 'temp': 30.94, 'lipoC3S3': 12.41, 'lipoC3S2': 8.16, 'rot1': 0, 'rot0': 0, 'rot3': 58, 'rot2': 48, 'state': 'normal', 'yaw': 44.73, 'datetime': '2018-10-09 12:06:49.926781', 'mgs': 0, 'volt': 1.0303, 'depth': 3.598, 'time': 8, 'pitch': -0.3, 'roll': -1.14, 'pres': 211}
{'lipoC2': 7.54, 'lipoC3S1': 4.06, 'temp': 30.94, 'lipoC3S3': 12.35, 'lipoC3S2': 8.13, 'rot1': 0, 'rot0': 0, 'rot3': 59, 'rot2': 49, 'state': 'normal', 'yaw': 45.36, 'datetime': '2018-10-09 12:06:50.030398', 'mgs': 0, 'volt': 1.0107, 'depth': 3.293, 'time': 8, 'pitch': 0.08, 'roll': -0.98, 'pres': 207}
{'lipoC2': 7.53, 'lipoC3S1': 4.07, 'temp': 30.94, 'lipoC3S3': 12.41, 'lipoC3S2': 8.17, 'rot1': 0, 'rot0': 0, 'rot3': 60, 'rot2': 50, 'state': 'normal', 'yaw': 46.02, 'datetime': '2018-10-09 12:06:50.136886', 'mgs': 0, 'volt': 1.0352, 'depth': 3.674, 'time': 8, 'pitch': 0.34, 'roll': -0.78, 'pres': 212}
{'lipoC2': 7.54, 'lipoC3S1': 4.07, 'temp': 30.94, 'lipoC3S3': 12.38, 'lipoC3S2': 8.16, 'rot1': 0, 'rot0': 0, 'rot3': 62, 'rot2': 51, 'state': 'normal', 'yaw': 46.78, 'datetime': '2018-10-09 12:06:50.233877', 'mgs': 0, 'volt': 1.0156, 'depth': 3.369, 'time': 8, 'pitch': 0.4, 'roll': -0.66, 'pres': 208}
{'lipoC2': 7.54, 'lipoC3S1': 4.1, 'temp': 30.94, 'lipoC3S3': 12.34, 'lipoC3S2': 8.13, 'rot1': 0, 'rot0': 0, 'rot3': 63, 'rot2': 52, 'state': 'normal', 'yaw': 47.46, 'datetime': '2018-10-09 12:06:50.338808', 'mgs': 0, 'volt': 1.0254, 'depth': 3.522, 'time': 9, 'pitch': 0.21, 'roll': -0.7, 'pres': 210}
{'lipoC2': 7.53, 'lipoC3S1': 4.07, 'temp': 30.94, 'lipoC3S3': 12.42, 'lipoC3S2': 8.18, 'rot1': 0, 'rot0': 0, 'rot3': 64, 'rot2': 54, 'state': 'normal', 'yaw': 48.11, 'datetime': '2018-10-09 12:06:50.443711', 'mgs': 0, 'volt': 1.04, 'depth': 3.751, 'time': 9, 'pitch': -0.17, 'roll': -0.89, 'pres': 213}
{'lipoC2': 7.54, 'lipoC3S1': 4.06, 'temp': 30.94, 'lipoC3S3': 12.38, 'lipoC3S2': 8.14, 'rot1': 0, 'rot0': 0, 'rot3': 65, 'rot2': 55, 'state': 'normal', 'yaw': 48.87, 'datetime': '2018-10-09 12:06:50.547092', 'mgs': 0, 'volt': 1.0205, 'depth': 3.445, 'time': 9, 'pitch': -0.68, 'roll': -1.14, 'pres': 209}
{'lipoC2': 7.54, 'lipoC3S1': 4.1, 'temp': 30.94, 'lipoC3S3': 12.34, 'lipoC3S2': 8.15, 'rot1': 0, 'rot0': 0, 'rot3': 66, 'rot2': 55, 'state': 'normal', 'yaw': 49.53, 'datetime': '2018-10-09 12:06:50.650555', 'mgs': 0, 'volt': 1.0303, 'depth': 3.598, 'time': 9, 'pitch': -1.04, 'roll': -1.44, 'pres': 211}
{'lipoC2': 7.53, 'lipoC3S1': 4.08, 'temp': 30.88, 'lipoC3S3': 12.42, 'lipoC3S2': 8.19, 'rot1': 0, 'rot0': 0, 'rot3': 67, 'rot2': 56, 'state': 'normal', 'yaw': 50.21, 'datetime': '2018-10-09 12:06:50.754253', 'mgs': 0, 'volt': 1.0498, 'depth': 3.903, 'time': 9, 'pitch': -1.29, 'roll': -1.77, 'pres': 215}
{'lipoC2': 7.54, 'lipoC3S1': 4.06, 'temp': 30.88, 'lipoC3S3': 12.38, 'lipoC3S2': 8.15, 'rot1': 0, 'rot0': 0, 'rot3': 68, 'rot2': 57, 'state': 'normal', 'yaw': 50.9, 'datetime': '2018-10-09 12:06:50.857918', 'mgs': 0, 'volt': 1.0254, 'depth': 3.522, 'time': 9, 'pitch': -1.39, 'roll': -2.16, 'pres': 210}
{'lipoC2': 7.54, 'lipoC3S1': 4.1, 'temp': 30.88, 'lipoC3S3': 12.34, 'lipoC3S2': 8.14, 'rot1': 0, 'rot0': 0, 'rot3': 69, 'rot2': 58, 'state': 'normal', 'yaw': 51.47, 'datetime': '2018-10-09 12:06:50.961385', 'mgs': 0, 'volt': 1.04, 'depth': 3.751, 'time': 9, 'pitch': -1.39, 'roll': -2.51, 'pres': 213}
{'lipoC2': 7.53, 'lipoC3S1': 4.09, 'temp': 30.94, 'lipoC3S3': 12.41, 'lipoC3S2': 8.2, 'rot1': 0, 'rot0': 0, 'rot3': 70, 'rot2': 60, 'state': 'normal', 'yaw': 52.09, 'datetime': '2018-10-09 12:06:51.064971', 'mgs': 0, 'volt': 1.0498, 'depth': 3.903, 'time': 9, 'pitch': -1.22, 'roll': -2.8, 'pres': 215}
{'lipoC2': 7.54, 'lipoC3S1': 4.07, 'temp': 30.94, 'lipoC3S3': 12.41, 'lipoC3S2': 8.16, 'rot1': 0, 'rot0': 0, 'rot3': 71, 'rot2': 61, 'state': 'normal', 'yaw': 52.67, 'datetime': '2018-10-09 12:06:51.168440', 'mgs': 0, 'volt': 1.0449, 'depth': 3.827, 'time': 9, 'pitch': -0.92, 'roll': -3.01, 'pres': 214}
{'lipoC2': 7.54, 'lipoC3S1': 4.09, 'temp': 30.94, 'lipoC3S3': 12.34, 'lipoC3S2': 8.2, 'rot1': 0, 'rot0': 0, 'rot3': 72, 'rot2': 62, 'state': 'normal', 'yaw': 53.24, 'datetime': '2018-10-09 12:06:51.273283', 'mgs': 0, 'volt': 1.0498, 'depth': 3.903, 'time': 9, 'pitch': -0.62, 'roll': -3.15, 'pres': 215}
{'lipoC2': 7.54, 'lipoC3S1': 4.08, 'temp': 30.94, 'lipoC3S3': 12.41, 'lipoC3S2': 8.18, 'rot1': 0, 'rot0': 0, 'rot3': 73, 'rot2': 62, 'state': 'normal', 'yaw': 53.85, 'datetime': '2018-10-09 12:06:51.377146', 'mgs': 0, 'volt': 1.0645, 'depth': 4.132, 'time': 10, 'pitch': -0.35, 'roll': -3.28, 'pres': 218}
{'lipoC2': 7.54, 'lipoC3S1': 4.11, 'temp': 30.88, 'lipoC3S3': 12.37, 'lipoC3S2': 8.15, 'rot1': 0, 'rot0': 0, 'rot3': 74, 'rot2': 63, 'state': 'normal', 'yaw': 54.39, 'datetime': '2018-10-09 12:06:51.480686', 'mgs': 0, 'volt': 1.0449, 'depth': 3.827, 'time': 10, 'pitch': -0.19, 'roll': -3.35, 'pres': 214}
{'lipoC2': 7.54, 'lipoC3S1': 4.07, 'temp': 30.88, 'lipoC3S3': 12.41, 'lipoC3S2': 8.17, 'rot1': 0, 'rot0': 0, 'rot3': 75, 'rot2': 64, 'state': 'normal', 'yaw': 54.91, 'datetime': '2018-10-09 12:06:51.586685', 'mgs': 0, 'volt': 1.0645, 'depth': 4.132, 'time': 10, 'pitch': -0.09, 'roll': -3.32, 'pres': 218}
{'lipoC2': 7.54, 'lipoC3S1': 4.1, 'temp': 30.88, 'lipoC3S3': 12.35, 'lipoC3S2': 8.15, 'rot1': 0, 'rot0': 0, 'rot3': 76, 'rot2': 65, 'state': 'normal', 'yaw': 55.48, 'datetime': '2018-10-09 12:06:51.689211', 'mgs': 0, 'volt': 1.0547, 'depth': 3.979, 'time': 10, 'pitch': 0.01, 'roll': -3.27, 'pres': 216}
{'lipoC2': 7.53, 'lipoC3S1': 4.07, 'temp': 30.94, 'lipoC3S3': 12.41, 'lipoC3S2': 8.18, 'rot1': 0, 'rot0': 0, 'rot3': 77, 'rot2': 66, 'state': 'normal', 'yaw': 55.93, 'datetime': '2018-10-09 12:06:51.792895', 'mgs': 0, 'volt': 1.0693, 'depth': 4.208, 'time': 10, 'pitch': 0.11, 'roll': -3.18, 'pres': 219}
{'lipoC2': 7.54, 'lipoC3S1': 4.06, 'temp': 30.94, 'lipoC3S3': 12.35, 'lipoC3S2': 8.15, 'rot1': 0, 'rot0': 0, 'rot3': 78, 'rot2': 67, 'state': 'normal', 'yaw': 56.36, 'datetime': '2018-10-09 12:06:51.900824', 'mgs': 0, 'volt': 1.0498, 'depth': 3.903, 'time': 10, 'pitch': 0.29, 'roll': -3.0, 'pres': 215}
{'lipoC2': 7.53, 'lipoC3S1': 4.09, 'temp': 30.88, 'lipoC3S3': 12.33, 'lipoC3S2': 8.2, 'rot1': 0, 'rot0': 0, 'rot3': 79, 'rot2': 68, 'state': 'normal', 'yaw': 56.7, 'datetime': '2018-10-09 12:06:52.000275', 'mgs': 0, 'volt': 1.0742, 'depth': 4.285, 'time': 10, 'pitch': 0.53, 'roll': -2.82, 'pres': 220}
{'lipoC2': 7.54, 'lipoC3S1': 4.05, 'temp': 30.88, 'lipoC3S3': 12.38, 'lipoC3S2': 8.15, 'rot1': 0, 'rot0': 0, 'rot3': 80, 'rot2': 68, 'state': 'normal', 'yaw': 56.99, 'datetime': '2018-10-09 12:06:52.104034', 'mgs': 0, 'volt': 1.0596, 'depth': 4.056, 'time': 10, 'pitch': 0.72, 'roll': -2.65, 'pres': 217}
{'lipoC2': 7.54, 'lipoC3S1': 4.11, 'temp': 30.94, 'lipoC3S3': 12.35, 'lipoC3S2': 8.19, 'rot1': 0, 'rot0': 0, 'rot3': 81, 'rot2': 69, 'state': 'normal', 'yaw': 57.34, 'datetime': '2018-10-09 12:06:52.207695', 'mgs': 0, 'volt': 1.0791, 'depth': 4.361, 'time': 10, 'pitch': 0.85, 'roll': -2.53, 'pres': 221}
{'lipoC2': 7.54, 'lipoC3S1': 4.07, 'temp': 30.94, 'lipoC3S3': 12.39, 'lipoC3S2': 8.17, 'rot1': 0, 'rot0': 0, 'rot3': 82, 'rot2': 70, 'state': 'normal', 'yaw': 57.64, 'datetime': '2018-10-09 12:06:52.311291', 'mgs': 0, 'volt': 1.084, 'depth': 4.437, 'time': 10, 'pitch': 0.84, 'roll': -2.39, 'pres': 222}
{'lipoC2': 7.53, 'lipoC3S1': 4.08, 'temp': 30.94, 'lipoC3S3': 12.41, 'lipoC3S2': 8.17, 'rot1': 0, 'rot0': 0, 'rot3': 84, 'rot2': 71, 'state': 'normal', 'yaw': 57.92, 'datetime': '2018-10-09 12:06:52.415463', 'mgs': 0, 'volt': 1.0889, 'depth': 4.514, 'time': 11, 'pitch': 0.8, 'roll': -2.35, 'pres': 223}
{'lipoC2': 7.54, 'lipoC3S1': 4.11, 'temp': 30.94, 'lipoC3S3': 12.35, 'lipoC3S2': 8.14, 'rot1': 0, 'rot0': 0, 'rot3': 85, 'rot2': 72, 'state': 'normal', 'yaw': 58.28, 'datetime': '2018-10-09 12:06:52.519128', 'mgs': 0, 'volt': 1.0693, 'depth': 4.208, 'time': 11, 'pitch': 0.63, 'roll': -2.34, 'pres': 219}
{'lipoC2': 7.54, 'lipoC3S1': 4.07, 'temp': 30.94, 'lipoC3S3': 12.39, 'lipoC3S2': 8.17, 'rot1': 0, 'rot0': 0, 'rot3': 86, 'rot2': 73, 'state': 'normal', 'yaw': 58.55, 'datetime': '2018-10-09 12:06:52.623444', 'mgs': 0, 'volt': 1.0693, 'depth': 4.208, 'time': 11, 'pitch': 0.4, 'roll': -2.42, 'pres': 219}
{'lipoC2': 7.54, 'lipoC3S1': 4.1, 'temp': 30.88, 'lipoC3S3': 12.34, 'lipoC3S2': 8.13, 'rot1': 0, 'rot0': 0, 'rot3': 87, 'rot2': 74, 'state': 'normal', 'yaw': 58.85, 'datetime': '2018-10-09 12:06:52.727650', 'mgs': 0, 'volt': 1.0742, 'depth': 4.285, 'time': 11, 'pitch': 0.19, 'roll': -2.47, 'pres': 220}
{'lipoC2': 7.53, 'lipoC3S1': 4.07, 'temp': 30.88, 'lipoC3S3': 12.41, 'lipoC3S2': 8.18, 'rot1': 0, 'rot0': 0, 'rot3': 88, 'rot2': 74, 'state': 'normal', 'yaw': 59.17, 'datetime': '2018-10-09 12:06:52.833606', 'mgs': 0, 'volt': 1.0938, 'depth': 4.59, 'time': 11, 'pitch': -0.01, 'roll': -2.46, 'pres': 224}
{'lipoC2': 7.53, 'lipoC3S1': 4.1, 'temp': 30.88, 'lipoC3S3': 12.34, 'lipoC3S2': 8.19, 'rot1': 0, 'rot0': 0, 'rot3': 90, 'rot2': 75, 'state': 'normal', 'yaw': 59.46, 'datetime': '2018-10-09 12:06:52.938972', 'mgs': 0, 'volt': 1.0889, 'depth': 4.514, 'time': 11, 'pitch': -0.2, 'roll': -2.45, 'pres': 223}
{'lipoC2': 7.54, 'lipoC3S1': 4.07, 'temp': 30.88, 'lipoC3S3': 12.39, 'lipoC3S2': 8.16, 'rot1': 0, 'rot0': 0, 'rot3': 91, 'rot2': 76, 'state': 'normal', 'yaw': 59.74, 'datetime': '2018-10-09 12:06:53.042603', 'mgs': 0, 'volt': 1.1035, 'depth': 4.742, 'time': 11, 'pitch': -0.37, 'roll': -2.47, 'pres': 226}
{'lipoC2': 7.54, 'lipoC3S1': 4.1, 'temp': 30.88, 'lipoC3S3': 12.34, 'lipoC3S2': 8.13, 'rot1': 0, 'rot0': 0, 'rot3': 92, 'rot2': 77, 'state': 'normal', 'yaw': 60.0, 'datetime': '2018-10-09 12:06:53.146498', 'mgs': 0, 'volt': 1.0889, 'depth': 4.514, 'time': 11, 'pitch': -0.53, 'roll': -2.42, 'pres': 223}
{'lipoC2': 7.53, 'lipoC3S1': 4.06, 'temp': 30.94, 'lipoC3S3': 12.41, 'lipoC3S2': 8.17, 'rot1': 0, 'rot0': 0, 'rot3': 93, 'rot2': 78, 'state': 'normal', 'yaw': 60.3, 'datetime': '2018-10-09 12:06:53.250032', 'mgs': 0, 'volt': 1.1084, 'depth': 4.819, 'time': 11, 'pitch': -0.7, 'roll': -2.42, 'pres': 227}
{'lipoC2': 7.54, 'lipoC3S1': 4.06, 'temp': 30.94, 'lipoC3S3': 12.34, 'lipoC3S2': 8.13, 'rot1': 0, 'rot0': 0, 'rot3': 94, 'rot2': 79, 'state': 'normal', 'yaw': 60.68, 'datetime': '2018-10-09 12:06:53.353680', 'mgs': 0, 'volt': 1.084, 'depth': 4.437, 'time': 12, 'pitch': -0.86, 'roll': -2.52, 'pres': 222}
{'lipoC2': 7.54, 'lipoC3S1': 4.08, 'temp': 30.94, 'lipoC3S3': 12.39, 'lipoC3S2': 8.19, 'rot1': 0, 'rot0': 0, 'rot3': 95, 'rot2': 81, 'state': 'normal', 'yaw': 61.02, 'datetime': '2018-10-09 12:06:53.457669', 'mgs': 0, 'volt': 1.1133, 'depth': 4.895, 'time': 12, 'pitch': -0.95, 'roll': -2.61, 'pres': 228}
{'lipoC2': 7.54, 'lipoC3S1': 4.1, 'temp': 30.94, 'lipoC3S3': 12.33, 'lipoC3S2': 8.13, 'rot1': 0, 'rot0': 0, 'rot3': 96, 'rot2': 81, 'state': 'normal', 'yaw': 61.36, 'datetime': '2018-10-09 12:06:53.561246', 'mgs': 0, 'volt': 1.0938, 'depth': 4.59, 'time': 12, 'pitch': -0.98, 'roll': -2.67, 'pres': 224}
{'lipoC2': 7.53, 'lipoC3S1': 4.07, 'temp': 30.94, 'lipoC3S3': 12.41, 'lipoC3S2': 8.17, 'rot1': 0, 'rot0': 0, 'rot3': 97, 'rot2': 82, 'state': 'normal', 'yaw': 61.72, 'datetime': '2018-10-09 12:06:53.665414', 'mgs': 0, 'volt': 1.123, 'depth': 5.048, 'time': 12, 'pitch': -0.96, 'roll': -2.69, 'pres': 230}
{'lipoC2': 7.54, 'lipoC3S1': 4.07, 'temp': 30.94, 'lipoC3S3': 12.38, 'lipoC3S2': 8.17, 'rot1': 0, 'rot0': 0, 'rot3': 98, 'rot2': 84, 'state': 'normal', 'yaw': 62.05, 'datetime': '2018-10-09 12:06:53.768768', 'mgs': 0, 'volt': 1.0889, 'depth': 4.514, 'time': 12, 'pitch': -0.88, 'roll': -2.69, 'pres': 223}
{'lipoC2': 7.54, 'lipoC3S1': 4.06, 'temp': 30.94, 'lipoC3S3': 12.35, 'lipoC3S2': 8.16, 'rot1': 0, 'rot0': 0, 'rot3': 99, 'rot2': 86, 'state': 'normal', 'yaw': 62.35, 'datetime': '2018-10-09 12:06:53.872751', 'mgs': 0, 'volt': 1.0986, 'depth': 4.666, 'time': 12, 'pitch': -0.8, 'roll': -2.68, 'pres': 225}
{'lipoC2': 7.53, 'lipoC3S1': 4.1, 'temp': 30.88, 'lipoC3S3': 12.31, 'lipoC3S2': 8.18, 'rot1': 0, 'rot0': 0, 'rot3': 100, 'rot2': 87, 'state': 'normal', 'yaw': 62.68, 'datetime': '2018-10-09 12:06:53.976546', 'mgs': 0, 'volt': 1.1182, 'depth': 4.971, 'time': 12, 'pitch': -0.79, 'roll': -2.75, 'pres': 229}
{'lipoC2': 7.53, 'lipoC3S1': 4.1, 'temp': 30.88, 'lipoC3S3': 12.33, 'lipoC3S2': 8.14, 'rot1': 0, 'rot0': 0, 'rot3': 101, 'rot2': 88, 'state': 'normal', 'yaw': 62.96, 'datetime': '2018-10-09 12:06:54.081597', 'mgs': 0, 'volt': 1.1182, 'depth': 4.971, 'time': 12, 'pitch': -0.77, 'roll': -2.91, 'pres': 229}
{'lipoC2': 7.54, 'lipoC3S1': 4.07, 'temp': 30.88, 'lipoC3S3': 12.39, 'lipoC3S2': 8.16, 'rot1': 0, 'rot0': 0, 'rot3': 102, 'rot2': 89, 'state': 'normal', 'yaw': 63.27, 'datetime': '2018-10-09 12:06:54.185499', 'mgs': 0, 'volt': 1.123, 'depth': 5.048, 'time': 12, 'pitch': -0.71, 'roll': -3.09, 'pres': 230}
{'lipoC2': 7.54, 'lipoC3S1': 4.06, 'temp': 30.88, 'lipoC3S3': 12.34, 'lipoC3S2': 8.14, 'rot1': 0, 'rot0': 0, 'rot3': 104, 'rot2': 89, 'state': 'normal', 'yaw': 63.57, 'datetime': '2018-10-09 12:06:54.289916', 'mgs': 0, 'volt': 1.1084, 'depth': 4.819, 'time': 12, 'pitch': -0.61, 'roll': -3.28, 'pres': 227}
{'lipoC2': 7.54, 'lipoC3S1': 4.06, 'temp': 30.94, 'lipoC3S3': 12.34, 'lipoC3S2': 8.13, 'rot1': 0, 'rot0': 0, 'rot3': 105, 'rot2': 90, 'state': 'normal', 'yaw': 63.9, 'datetime': '2018-10-09 12:06:54.394256', 'mgs': 0, 'volt': 1.1133, 'depth': 4.895, 'time': 13, 'pitch': -0.46, 'roll': -3.38, 'pres': 228}
{'lipoC2': 7.54, 'lipoC3S1': 4.09, 'temp': 30.94, 'lipoC3S3': 12.41, 'lipoC3S2': 8.19, 'rot1': 0, 'rot0': 0, 'rot3': 106, 'rot2': 91, 'state': 'normal', 'yaw': 64.17, 'datetime': '2018-10-09 12:06:54.497939', 'mgs': 0, 'volt': 1.1328, 'depth': 5.2, 'time': 13, 'pitch': -0.31, 'roll': -3.42, 'pres': 232}
{'lipoC2': 7.54, 'lipoC3S1': 4.06, 'temp': 30.94, 'lipoC3S3': 12.34, 'lipoC3S2': 8.14, 'rot1': 0, 'rot0': 0, 'rot3': 107, 'rot2': 92, 'state': 'normal', 'yaw': 64.45, 'datetime': '2018-10-09 12:06:54.601608', 'mgs': 0, 'volt': 1.1182, 'depth': 4.971, 'time': 13, 'pitch': -0.17, 'roll': -3.37, 'pres': 229}
{'lipoC2': 7.53, 'lipoC3S1': 4.06, 'temp': 30.88, 'lipoC3S3': 12.41, 'lipoC3S2': 8.17, 'rot1': 0, 'rot0': 0, 'rot3': 108, 'rot2': 93, 'state': 'normal', 'yaw': 64.81, 'datetime': '2018-10-09 12:06:54.705576', 'mgs': 0, 'volt': 1.1426, 'depth': 5.353, 'time': 13, 'pitch': -0.1, 'roll': -3.28, 'pres': 234}
{'lipoC2': 7.54, 'lipoC3S1': 4.1, 'temp': 30.88, 'lipoC3S3': 12.35, 'lipoC3S2': 8.14, 'rot1': 0, 'rot0': 0, 'rot3': 109, 'rot2': 94, 'state': 'normal', 'yaw': 65.14, 'datetime': '2018-10-09 12:06:54.809044', 'mgs': 0, 'volt': 1.1279, 'depth': 5.124, 'time': 13, 'pitch': -0.1, 'roll': -3.18, 'pres': 231}
{'lipoC2': 7.53, 'lipoC3S1': 4.07, 'temp': 30.94, 'lipoC3S3': 12.41, 'lipoC3S2': 8.18, 'rot1': 0, 'rot0': 0, 'rot3': 111, 'rot2': 94, 'state': 'normal', 'yaw': 65.45, 'datetime': '2018-10-09 12:06:54.913253', 'mgs': 0, 'volt': 1.1475, 'depth': 5.429, 'time': 13, 'pitch': -0.11, 'roll': -3.05, 'pres': 235}
{'lipoC2': 7.54, 'lipoC3S1': 4.1, 'temp': 30.94, 'lipoC3S3': 12.38, 'lipoC3S2': 8.15, 'rot1': 0, 'rot0': 0, 'rot3': 112, 'rot2': 95, 'state': 'normal', 'yaw': 65.82, 'datetime': '2018-10-09 12:06:55.016741', 'mgs': 0, 'volt': 1.1328, 'depth': 5.2, 'time': 13, 'pitch': -0.17, 'roll': -2.93, 'pres': 232}
{'lipoC2': 7.54, 'lipoC3S1': 4.07, 'temp': 30.94, 'lipoC3S3': 12.41, 'lipoC3S2': 8.16, 'rot1': 0, 'rot0': 0, 'rot3': 113, 'rot2': 96, 'state': 'normal', 'yaw': 66.17, 'datetime': '2018-10-09 12:06:55.120538', 'mgs': 0, 'volt': 1.1621, 'depth': 5.658, 'time': 13, 'pitch': -0.26, 'roll': -2.69, 'pres': 238}
{'lipoC2': 7.54, 'lipoC3S1': 4.06, 'temp': 30.94, 'lipoC3S3': 12.37, 'lipoC3S2': 8.15, 'rot1': 0, 'rot0': 0, 'rot3': 114, 'rot2': 97, 'state': 'normal', 'yaw': 66.47, 'datetime': '2018-10-09 12:06:55.224952', 'mgs': 0, 'volt': 1.1377, 'depth': 5.276, 'time': 13, 'pitch': -0.33, 'roll': -2.39, 'pres': 233}
{'lipoC2': 7.53, 'lipoC3S1': 4.08, 'temp': 30.94, 'lipoC3S3': 12.39, 'lipoC3S2': 8.19, 'rot1': 0, 'rot0': 0, 'rot3': 115, 'rot2': 98, 'state': 'normal', 'yaw': 66.8, 'datetime': '2018-10-09 12:06:55.328758', 'mgs': 0, 'volt': 1.1621, 'depth': 5.658, 'time': 13, 'pitch': -0.41, 'roll': -1.98, 'pres': 238}
{'lipoC2': 7.54, 'lipoC3S1': 4.09, 'temp': 30.94, 'lipoC3S3': 12.35, 'lipoC3S2': 8.19, 'rot1': 0, 'rot0': 0, 'rot3': 116, 'rot2': 99, 'state': 'normal', 'yaw': 67.11, 'datetime': '2018-10-09 12:06:55.433780', 'mgs': 0, 'volt': 1.1621, 'depth': 5.658, 'time': 14, 'pitch': -0.52, 'roll': -1.57, 'pres': 238}
{'lipoC2': 7.54, 'lipoC3S1': 4.07, 'temp': 30.94, 'lipoC3S3': 12.38, 'lipoC3S2': 8.15, 'rot1': 0, 'rot0': 0, 'rot3': 117, 'rot2': 100, 'state': 'normal', 'yaw': 67.39, 'datetime': '2018-10-09 12:06:55.537874', 'mgs': 0, 'volt': 1.1475, 'depth': 5.429, 'time': 14, 'pitch': -0.67, 'roll': -1.16, 'pres': 235}
{'lipoC2': 7.54, 'lipoC3S1': 4.1, 'temp': 30.94, 'lipoC3S3': 12.34, 'lipoC3S2': 8.13, 'rot1': 0, 'rot0': 0, 'rot3': 118, 'rot2': 100, 'state': 'normal', 'yaw': 67.66, 'datetime': '2018-10-09 12:06:55.642192', 'mgs': 0, 'volt': 1.1621, 'depth': 5.658, 'time': 14, 'pitch': -0.81, 'roll': -0.8, 'pres': 238}
{'lipoC2': 7.54, 'lipoC3S1': 4.09, 'temp': 30.94, 'lipoC3S3': 12.33, 'lipoC3S2': 8.19, 'rot1': 0, 'rot0': 0, 'rot3': 120, 'rot2': 102, 'state': 'normal', 'yaw': 67.91, 'datetime': '2018-10-09 12:06:55.745623', 'mgs': 0, 'volt': 1.167, 'depth': 5.734, 'time': 14, 'pitch': -0.93, 'roll': -0.52, 'pres': 239}
{'lipoC2': 7.54, 'lipoC3S1': 4.06, 'temp': 30.94, 'lipoC3S3': 12.35, 'lipoC3S2': 8.14, 'rot1': 0, 'rot0': 0, 'rot3': 121, 'rot2': 103, 'state': 'normal', 'yaw': 68.16, 'datetime': '2018-10-09 12:06:55.850410', 'mgs': 0, 'volt': 1.1572, 'depth': 5.582, 'time': 14, 'pitch': -1.01, 'roll': -0.27, 'pres': 237}
{'lipoC2': 7.55, 'lipoC3S1': 4.07, 'temp': 30.94, 'lipoC3S3': 12.41, 'lipoC3S2': 8.17, 'rot1': 0, 'rot0': 0, 'rot3': 122, 'rot2': 104, 'state': 'normal', 'yaw': 68.37, 'datetime': '2018-10-09 12:06:55.954377', 'mgs': 0, 'volt': 1.1914, 'depth': 6.116, 'time': 14, 'pitch': -1.02, 'roll': -0.14, 'pres': 244}
{'lipoC2': 7.53, 'lipoC3S1': 4.1, 'temp': 30.94, 'lipoC3S3': 12.33, 'lipoC3S2': 8.18, 'rot1': 0, 'rot0': 0, 'rot3': 123, 'rot2': 105, 'state': 'normal', 'yaw': 68.6, 'datetime': '2018-10-09 12:06:56.058356', 'mgs': 0, 'volt': 1.1865, 'depth': 6.039, 'time': 14, 'pitch': -1.03, 'roll': -0.04, 'pres': 243}
{'lipoC2': 7.54, 'lipoC3S1': 4.05, 'temp': 30.94, 'lipoC3S3': 12.35, 'lipoC3S2': 8.13, 'rot1': 0, 'rot0': 0, 'rot3': 124, 'rot2': 106, 'state': 'normal', 'yaw': 68.83, 'datetime': '2018-10-09 12:06:56.162117', 'mgs': 0, 'volt': 1.167, 'depth': 5.734, 'time': 14, 'pitch': -0.97, 'roll': 0.08, 'pres': 239}
{'lipoC2': 7.54, 'lipoC3S1': 4.07, 'temp': 30.94, 'lipoC3S3': 12.41, 'lipoC3S2': 8.17, 'rot1': 0, 'rot0': 0, 'rot3': 125, 'rot2': 106, 'state': 'normal', 'yaw': 69.03, 'datetime': '2018-10-09 12:06:56.264466', 'mgs': 0, 'volt': 1.1963, 'depth': 6.192, 'time': 14, 'pitch': -0.9, 'roll': 0.08, 'pres': 245}
{'lipoC2': 7.54, 'lipoC3S1': 4.1, 'temp': 30.94, 'lipoC3S3': 12.33, 'lipoC3S2': 8.18, 'rot1': 0, 'rot0': 0, 'rot3': 126, 'rot2': 107, 'state': 'normal', 'yaw': 69.29, 'datetime': '2018-10-09 12:06:56.370021', 'mgs': 0, 'volt': 1.1914, 'depth': 6.116, 'time': 15, 'pitch': -0.9, 'roll': -0.02, 'pres': 244}
{'lipoC2': 7.54, 'lipoC3S1': 4.06, 'temp': 30.94, 'lipoC3S3': 12.35, 'lipoC3S2': 8.14, 'rot1': 0, 'rot0': 0, 'rot3': 128, 'rot2': 108, 'state': 'normal', 'yaw': 69.48, 'datetime': '2018-10-09 12:06:56.473976', 'mgs': 0, 'volt': 1.1816, 'depth': 5.963, 'time': 15, 'pitch': -0.92, 'roll': -0.19, 'pres': 242}
{'lipoC2': 7.54, 'lipoC3S1': 4.07, 'temp': 30.94, 'lipoC3S3': 12.37, 'lipoC3S2': 8.14, 'rot1': 0, 'rot0': 0, 'rot3': 129, 'rot2': 109, 'state': 'normal', 'yaw': 69.71, 'datetime': '2018-10-09 12:06:56.578121', 'mgs': 0, 'volt': 1.1816, 'depth': 5.963, 'time': 15, 'pitch': -0.88, 'roll': -0.43, 'pres': 242}
