{'lipoC2': 7.27, 'lipoC3S1': 4.15, 'temp': 27.25, 'lipoC3S3': 12.51, 'lipoC3S2': 8.28, 'rot1': 109, 'rot0': 102, 'rot3': 28, 'rot2': 64, 'state': 'normal', 'yaw': 8.49, 'datetime': '2018-10-03 17:37:49.069718', 'mgs': 0, 'volt': 0.835, 'depth': 0.546, 'time': 22, 'pitch': -8.71, 'roll': -4.69, 'pres': 171}
{'lipoC2': 7.27, 'lipoC3S1': 4.15, 'temp': 27.25, 'lipoC3S3': 12.51, 'lipoC3S2': 8.28, 'rot1': 109, 'rot0': 102, 'rot3': 28, 'rot2': 64, 'state': 'normal', 'yaw': 8.84, 'datetime': '2018-10-03 17:37:49.092153', 'mgs': 0, 'volt': 0.835, 'depth': 0.546, 'time': 22, 'pitch': -8.68, 'roll': -4.09, 'pres': 171}
{'lipoC2': 7.27, 'lipoC3S1': 4.15, 'temp': 27.25, 'lipoC3S3': 12.51, 'lipoC3S2': 8.28, 'rot1': 109, 'rot0': 102, 'rot3': 28, 'rot2': 64, 'state': 'normal', 'yaw': 9.31, 'datetime': '2018-10-03 17:37:49.114251', 'mgs': 0, 'volt': 0.8398, 'depth': 0.623, 'time': 22, 'pitch': -8.66, 'roll': -3.07, 'pres': 172}
{'lipoC2': 7.27, 'lipoC3S1': 4.15, 'temp': 27.25, 'lipoC3S3': 12.51, 'lipoC3S2': 8.28, 'rot1': 109, 'rot0': 102, 'rot3': 28, 'rot2': 64, 'state': 'normal', 'yaw': 9.73, 'datetime': '2018-10-03 17:37:49.136394', 'mgs': 0, 'volt': 0.8398, 'depth': 0.623, 'time': 22, 'pitch': -8.84, 'roll': -1.86, 'pres': 172}
{'lipoC2': 7.27, 'lipoC3S1': 4.15, 'temp': 27.31, 'lipoC3S3': 12.51, 'lipoC3S2': 8.28, 'rot1': 109, 'rot0': 102, 'rot3': 28, 'rot2': 64, 'state': 'normal', 'yaw': 10.16, 'datetime': '2018-10-03 17:37:49.158642', 'mgs': 0, 'volt': 0.8398, 'depth': 0.623, 'time': 22, 'pitch': -9.31, 'roll': -0.36, 'pres': 172}
{'lipoC2': 7.27, 'lipoC3S1': 4.15, 'temp': 27.31, 'lipoC3S3': 12.51, 'lipoC3S2': 8.28, 'rot1': 109, 'rot0': 102, 'rot3': 28, 'rot2': 64, 'state': 'normal', 'yaw': 10.54, 'datetime': '2018-10-03 17:37:49.168778', 'mgs': 0, 'volt': 0.8447, 'depth': 0.699, 'time': 23, 'pitch': -9.9, 'roll': 1.01, 'pres': 173}
{'lipoC2': 7.27, 'lipoC3S1': 4.15, 'temp': 27.31, 'lipoC3S3': 12.51, 'lipoC3S2': 8.28, 'rot1': 109, 'rot0': 102, 'rot3': 28, 'rot2': 64, 'state': 'normal', 'yaw': 10.94, 'datetime': '2018-10-03 17:37:49.178380', 'mgs': 0, 'volt': 0.8447, 'depth': 0.699, 'time': 23, 'pitch': -10.38, 'roll': 2.24, 'pres': 173}
{'lipoC2': 7.27, 'lipoC3S1': 4.15, 'temp': 27.25, 'lipoC3S3': 12.51, 'lipoC3S2': 8.28, 'rot1': 109, 'rot0': 102, 'rot3': 28, 'rot2': 64, 'state': 'normal', 'yaw': 11.35, 'datetime': '2018-10-03 17:37:49.187957', 'mgs': 0, 'volt': 0.8447, 'depth': 0.699, 'time': 23, 'pitch': -10.62, 'roll': 3.37, 'pres': 173}
{'lipoC2': 7.27, 'lipoC3S1': 4.15, 'temp': 27.25, 'lipoC3S3': 12.51, 'lipoC3S2': 8.28, 'rot1': 109, 'rot0': 102, 'rot3': 28, 'rot2': 64, 'state': 'normal', 'yaw': 11.62, 'datetime': '2018-10-03 17:37:49.197465', 'mgs': 0, 'volt': 0.8496, 'depth': 0.775, 'time': 23, 'pitch': -10.68, 'roll': 4.14, 'pres': 174}
{'lipoC2': 7.27, 'lipoC3S1': 4.15, 'temp': 27.25, 'lipoC3S3': 12.51, 'lipoC3S2': 8.28, 'rot1': 109, 'rot0': 102, 'rot3': 28, 'rot2': 64, 'state': 'normal', 'yaw': 11.76, 'datetime': '2018-10-03 17:37:49.207007', 'mgs': 0, 'volt': 0.8496, 'depth': 0.775, 'time': 23, 'pitch': -10.72, 'roll': 4.74, 'pres': 174}
{'lipoC2': 7.27, 'lipoC3S1': 4.15, 'temp': 27.31, 'lipoC3S3': 12.51, 'lipoC3S2': 8.28, 'rot1': 0, 'rot0': 0, 'rot3': 0, 'rot2': 0, 'state': 'normal', 'yaw': 0.01, 'datetime': '2018-10-03 17:37:49.216313', 'mgs': 0, 'volt': 0.8545, 'depth': 0.851, 'time': 1, 'pitch': -10.78, 'roll': 0.62, 'pres': 175}
{'lipoC2': 7.27, 'lipoC3S1': 4.15, 'temp': 27.31, 'lipoC3S3': 12.51, 'lipoC3S2': 8.28, 'rot1': 0, 'rot0': 0, 'rot3': 0, 'rot2': 0, 'state': 'normal', 'yaw': 0.19, 'datetime': '2018-10-03 17:37:49.225627', 'mgs': 0, 'volt': 0.8545, 'depth': 0.851, 'time': 1, 'pitch': -10.71, 'roll': 0.62, 'pres': 175}
{'lipoC2': 7.27, 'lipoC3S1': 4.15, 'temp': 27.25, 'lipoC3S3': 12.51, 'lipoC3S2': 8.28, 'rot1': 0, 'rot0': 0, 'rot3': 0, 'rot2': 0, 'state': 'normal', 'yaw': 0.52, 'datetime': '2018-10-03 17:37:49.235011', 'mgs': 0, 'volt': 0.8545, 'depth': 0.851, 'time': 1, 'pitch': -10.66, 'roll': 0.75, 'pres': 175}
{'lipoC2': 7.27, 'lipoC3S1': 4.15, 'temp': 27.25, 'lipoC3S3': 12.51, 'lipoC3S2': 8.28, 'rot1': 0, 'rot0': 0, 'rot3': 0, 'rot2': 0, 'state': 'normal', 'yaw': 1.07, 'datetime': '2018-10-03 17:37:49.263349', 'mgs': 0, 'volt': 0.8545, 'depth': 0.851, 'time': 1, 'pitch': -10.7, 'roll': 1.07, 'pres': 175}
{'lipoC2': 7.26, 'lipoC3S1': 4.15, 'temp': 27.25, 'lipoC3S3': 12.51, 'lipoC3S2': 8.28, 'rot1': 0, 'rot0': 0, 'rot3': 0, 'rot2': 0, 'state': 'normal', 'yaw': 1.65, 'datetime': '2018-10-03 17:37:49.366583', 'mgs': 0, 'volt': 0.8545, 'depth': 0.851, 'time': 1, 'pitch': -10.9, 'roll': 1.55, 'pres': 175}
{'lipoC2': 7.27, 'lipoC3S1': 4.15, 'temp': 27.19, 'lipoC3S3': 12.51, 'lipoC3S2': 8.28, 'rot1': 0, 'rot0': 0, 'rot3': 0, 'rot2': 0, 'state': 'normal', 'yaw': 2.28, 'datetime': '2018-10-03 17:37:49.469778', 'mgs': 0, 'volt': 0.8545, 'depth': 0.851, 'time': 1, 'pitch': -11.04, 'roll': 2.18, 'pres': 175}
{'lipoC2': 7.27, 'lipoC3S1': 4.15, 'temp': 27.19, 'lipoC3S3': 12.51, 'lipoC3S2': 8.28, 'rot1': 0, 'rot0': 0, 'rot3': 0, 'rot2': 0, 'state': 'normal', 'yaw': 2.84, 'datetime': '2018-10-03 17:37:49.573156', 'mgs': 0, 'volt': 0.8545, 'depth': 0.851, 'time': 1, 'pitch': -11.1, 'roll': 3.0, 'pres': 175}
{'lipoC2': 7.26, 'lipoC3S1': 4.15, 'temp': 27.19, 'lipoC3S3': 12.51, 'lipoC3S2': 8.28, 'rot1': 0, 'rot0': 0, 'rot3': 0, 'rot2': 0, 'state': 'normal', 'yaw': 3.3, 'datetime': '2018-10-03 17:37:49.676343', 'mgs': 0, 'volt': 0.8545, 'depth': 0.851, 'time': 1, 'pitch': -11.13, 'roll': 4.12, 'pres': 175}
{'lipoC2': 7.27, 'lipoC3S1': 4.15, 'temp': 27.19, 'lipoC3S3': 12.51, 'lipoC3S2': 8.28, 'rot1': 0, 'rot0': 0, 'rot3': 0, 'rot2': 0, 'state': 'normal', 'yaw': 3.54, 'datetime': '2018-10-03 17:37:49.779545', 'mgs': 0, 'volt': 0.8594, 'depth': 0.928, 'time': 2, 'pitch': -11.14, 'roll': 5.23, 'pres': 176}
{'lipoC2': 7.27, 'lipoC3S1': 4.15, 'temp': 27.25, 'lipoC3S3': 12.51, 'lipoC3S2': 8.28, 'rot1': 0, 'rot0': 0, 'rot3': 0, 'rot2': 0, 'state': 'normal', 'yaw': 3.85, 'datetime': '2018-10-03 17:37:49.883406', 'mgs': 0, 'volt': 0.8594, 'depth': 0.928, 'time': 2, 'pitch': -11.14, 'roll': 6.18, 'pres': 176}
{'lipoC2': 7.27, 'lipoC3S1': 4.15, 'temp': 27.25, 'lipoC3S3': 12.51, 'lipoC3S2': 8.28, 'rot1': 0, 'rot0': 0, 'rot3': 0, 'rot2': 0, 'state': 'normal', 'yaw': 4.32, 'datetime': '2018-10-03 17:37:49.986639', 'mgs': 0, 'volt': 0.8594, 'depth': 0.928, 'time': 2, 'pitch': -10.98, 'roll': 6.97, 'pres': 176}
{'lipoC2': 7.27, 'lipoC3S1': 4.15, 'temp': 27.25, 'lipoC3S3': 12.51, 'lipoC3S2': 8.28, 'rot1': 0, 'rot0': 0, 'rot3': 0, 'rot2': 0, 'state': 'normal', 'yaw': 4.81, 'datetime': '2018-10-03 17:37:50.089878', 'mgs': 0, 'volt': 0.8594, 'depth': 0.928, 'time': 2, 'pitch': -10.67, 'roll': 7.39, 'pres': 176}
{'lipoC2': 7.26, 'lipoC3S1': 4.15, 'temp': 27.25, 'lipoC3S3': 12.51, 'lipoC3S2': 8.28, 'rot1': 0, 'rot0': 0, 'rot3': 0, 'rot2': 0, 'state': 'normal', 'yaw': 5.2, 'datetime': '2018-10-03 17:37:50.194376', 'mgs': 0, 'volt': 0.8594, 'depth': 0.928, 'time': 2, 'pitch': -10.38, 'roll': 7.59, 'pres': 176}
{'lipoC2': 7.27, 'lipoC3S1': 4.15, 'temp': 27.25, 'lipoC3S3': 12.51, 'lipoC3S2': 8.28, 'rot1': 0, 'rot0': 0, 'rot3': 0, 'rot2': 0, 'state': 'normal', 'yaw': 5.5, 'datetime': '2018-10-03 17:37:50.297651', 'mgs': 0, 'volt': 0.8545, 'depth': 0.851, 'time': 2, 'pitch': -10.25, 'roll': 7.55, 'pres': 175}
{'lipoC2': 7.27, 'lipoC3S1': 4.15, 'temp': 27.25, 'lipoC3S3': 12.51, 'lipoC3S2': 8.28, 'rot1': 0, 'rot0': 0, 'rot3': 0, 'rot2': 0, 'state': 'normal', 'yaw': 5.6, 'datetime': '2018-10-03 17:37:50.400812', 'mgs': 0, 'volt': 0.8545, 'depth': 0.851, 'time': 2, 'pitch': -10.34, 'roll': 7.34, 'pres': 175}
{'lipoC2': 7.27, 'lipoC3S1': 4.15, 'temp': 27.25, 'lipoC3S3': 12.51, 'lipoC3S2': 8.28, 'rot1': 0, 'rot0': 0, 'rot3': 0, 'rot2': 0, 'state': 'normal', 'yaw': 5.48, 'datetime': '2018-10-03 17:37:50.505325', 'mgs': 0, 'volt': 0.8545, 'depth': 0.851, 'time': 2, 'pitch': -10.45, 'roll': 7.08, 'pres': 175}
{'lipoC2': 7.27, 'lipoC3S1': 4.15, 'temp': 27.31, 'lipoC3S3': 12.51, 'lipoC3S2': 8.28, 'rot1': 0, 'rot0': 0, 'rot3': 0, 'rot2': 0, 'state': 'normal', 'yaw': 5.16, 'datetime': '2018-10-03 17:37:50.608549', 'mgs': 0, 'volt': 0.8545, 'depth': 0.851, 'time': 2, 'pitch': -10.33, 'roll': 6.72, 'pres': 175}
{'lipoC2': 7.27, 'lipoC3S1': 4.15, 'temp': 27.31, 'lipoC3S3': 12.51, 'lipoC3S2': 8.29, 'rot1': 0, 'rot0': 0, 'rot3': 0, 'rot2': 0, 'state': 'normal', 'yaw': 4.99, 'datetime': '2018-10-03 17:37:50.711727', 'mgs': 0, 'volt': 0.8545, 'depth': 0.851, 'time': 3, 'pitch': -9.9, 'roll': 6.14, 'pres': 175}
{'lipoC2': 7.27, 'lipoC3S1': 4.15, 'temp': 27.31, 'lipoC3S3': 12.51, 'lipoC3S2': 8.29, 'rot1': 0, 'rot0': 0, 'rot3': 0, 'rot2': 0, 'state': 'normal', 'yaw': 4.82, 'datetime': '2018-10-03 17:37:50.816204', 'mgs': 0, 'volt': 0.8545, 'depth': 0.851, 'time': 3, 'pitch': -9.32, 'roll': 5.39, 'pres': 175}
{'lipoC2': 7.27, 'lipoC3S1': 4.15, 'temp': 27.25, 'lipoC3S3': 12.51, 'lipoC3S2': 8.29, 'rot1': 0, 'rot0': 0, 'rot3': 0, 'rot2': 0, 'state': 'normal', 'yaw': 4.52, 'datetime': '2018-10-03 17:37:50.919417', 'mgs': 0, 'volt': 0.8545, 'depth': 0.851, 'time': 3, 'pitch': -9.0, 'roll': 4.55, 'pres': 175}
{'lipoC2': 7.27, 'lipoC3S1': 4.15, 'temp': 27.25, 'lipoC3S3': 12.52, 'lipoC3S2': 8.28, 'rot1': 0, 'rot0': 0, 'rot3': 0, 'rot2': 0, 'state': 'normal', 'yaw': 4.14, 'datetime': '2018-10-03 17:37:51.022609', 'mgs': 0, 'volt': 0.8545, 'depth': 0.851, 'time': 3, 'pitch': -9.15, 'roll': 3.84, 'pres': 175}
{'lipoC2': 7.26, 'lipoC3S1': 4.15, 'temp': 27.25, 'lipoC3S3': 12.51, 'lipoC3S2': 8.28, 'rot1': 0, 'rot0': 0, 'rot3': 0, 'rot2': 0, 'state': 'normal', 'yaw': 3.81, 'datetime': '2018-10-03 17:37:51.125791', 'mgs': 0, 'volt': 0.8545, 'depth': 0.851, 'time': 3, 'pitch': -9.42, 'roll': 3.2, 'pres': 175}
{'lipoC2': 7.27, 'lipoC3S1': 4.15, 'temp': 27.25, 'lipoC3S3': 12.51, 'lipoC3S2': 8.29, 'rot1': 0, 'rot0': 0, 'rot3': 0, 'rot2': 0, 'state': 'normal', 'yaw': 3.55, 'datetime': '2018-10-03 17:37:51.229238', 'mgs': 0, 'volt': 0.8496, 'depth': 0.775, 'time': 3, 'pitch': -9.71, 'roll': 2.68, 'pres': 174}
{'lipoC2': 7.27, 'lipoC3S1': 4.15, 'temp': 27.25, 'lipoC3S3': 12.51, 'lipoC3S2': 8.28, 'rot1': 0, 'rot0': 0, 'rot3': 0, 'rot2': 0, 'state': 'normal', 'yaw': 3.47, 'datetime': '2018-10-03 17:37:51.332453', 'mgs': 0, 'volt': 0.8545, 'depth': 0.851, 'time': 3, 'pitch': -9.91, 'roll': 2.18, 'pres': 175}
{'lipoC2': 7.27, 'lipoC3S1': 4.15, 'temp': 27.25, 'lipoC3S3': 12.51, 'lipoC3S2': 8.28, 'rot1': 0, 'rot0': 0, 'rot3': 0, 'rot2': 0, 'state': 'normal', 'yaw': 3.47, 'datetime': '2018-10-03 17:37:51.435613', 'mgs': 0, 'volt': 0.8545, 'depth': 0.851, 'time': 3, 'pitch': -9.88, 'roll': 1.9, 'pres': 175}
{'lipoC2': 7.27, 'lipoC3S1': 4.15, 'temp': 27.25, 'lipoC3S3': 12.51, 'lipoC3S2': 8.28, 'rot1': 0, 'rot0': 0, 'rot3': 0, 'rot2': 0, 'state': 'normal', 'yaw': 3.48, 'datetime': '2018-10-03 17:37:51.538878', 'mgs': 0, 'volt': 0.8545, 'depth': 0.851, 'time': 3, 'pitch': -9.65, 'roll': 1.85, 'pres': 175}
{'lipoC2': 7.27, 'lipoC3S1': 4.15, 'temp': 27.25, 'lipoC3S3': 12.52, 'lipoC3S2': 8.28, 'rot1': 0, 'rot0': 0, 'rot3': 0, 'rot2': 0, 'state': 'normal', 'yaw': 3.4, 'datetime': '2018-10-03 17:37:51.642031', 'mgs': 0, 'volt': 0.8545, 'depth': 0.851, 'time': 3, 'pitch': -9.23, 'roll': 2.07, 'pres': 175}
{'lipoC2': 7.27, 'lipoC3S1': 4.15, 'temp': 27.25, 'lipoC3S3': 12.51, 'lipoC3S2': 8.29, 'rot1': 0, 'rot0': 0, 'rot3': 0, 'rot2': 0, 'state': 'normal', 'yaw': 3.35, 'datetime': '2018-10-03 17:37:51.745255', 'mgs': 0, 'volt': 0.8545, 'depth': 0.851, 'time': 4, 'pitch': -8.88, 'roll': 2.48, 'pres': 175}
{'lipoC2': 7.27, 'lipoC3S1': 4.15, 'temp': 27.25, 'lipoC3S3': 12.51, 'lipoC3S2': 8.28, 'rot1': 0, 'rot0': 0, 'rot3': 0, 'rot2': 0, 'state': 'normal', 'yaw': 3.38, 'datetime': '2018-10-03 17:37:51.849786', 'mgs': 0, 'volt': 0.8545, 'depth': 0.851, 'time': 4, 'pitch': -8.77, 'roll': 2.95, 'pres': 175}
{'lipoC2': 7.27, 'lipoC3S1': 4.15, 'temp': 27.25, 'lipoC3S3': 12.51, 'lipoC3S2': 8.29, 'rot1': 0, 'rot0': 0, 'rot3': 0, 'rot2': 0, 'state': 'normal', 'yaw': 3.59, 'datetime': '2018-10-03 17:37:51.955426', 'mgs': 0, 'volt': 0.8594, 'depth': 0.928, 'time': 4, 'pitch': -8.94, 'roll': 3.42, 'pres': 176}
{'lipoC2': 7.27, 'lipoC3S1': 4.15, 'temp': 27.25, 'lipoC3S3': 12.52, 'lipoC3S2': 8.29, 'rot1': 0, 'rot0': 0, 'rot3': 0, 'rot2': 0, 'state': 'normal', 'yaw': 3.96, 'datetime': '2018-10-03 17:37:52.060225', 'mgs': 0, 'volt': 0.8594, 'depth': 0.928, 'time': 4, 'pitch': -9.03, 'roll': 3.77, 'pres': 176}
{'lipoC2': 7.27, 'lipoC3S1': 4.15, 'temp': 27.25, 'lipoC3S3': 12.51, 'lipoC3S2': 8.28, 'rot1': 0, 'rot0': 0, 'rot3': 0, 'rot2': 0, 'state': 'normal', 'yaw': 4.32, 'datetime': '2018-10-03 17:37:52.166905', 'mgs': 0, 'volt': 0.8594, 'depth': 0.928, 'time': 4, 'pitch': -8.88, 'roll': 4.16, 'pres': 176}
{'lipoC2': 7.27, 'lipoC3S1': 4.15, 'temp': 27.25, 'lipoC3S3': 12.51, 'lipoC3S2': 8.29, 'rot1': 0, 'rot0': 0, 'rot3': 0, 'rot2': 0, 'state': 'normal', 'yaw': 4.55, 'datetime': '2018-10-03 17:37:52.270158', 'mgs': 0, 'volt': 0.8594, 'depth': 0.928, 'time': 4, 'pitch': -8.53, 'roll': 4.69, 'pres': 176}
{'lipoC2': 7.27, 'lipoC3S1': 4.15, 'temp': 27.25, 'lipoC3S3': 12.52, 'lipoC3S2': 8.29, 'rot1': 0, 'rot0': 0, 'rot3': 0, 'rot2': 0, 'state': 'normal', 'yaw': 4.77, 'datetime': '2018-10-03 17:37:52.374666', 'mgs': 1, 'volt': 0.8594, 'depth': 0.928, 'time': 4, 'pitch': -8.19, 'roll': 5.14, 'pres': 176}
{'lipoC2': 7.27, 'lipoC3S1': 4.15, 'temp': 27.25, 'lipoC3S3': 12.51, 'lipoC3S2': 8.29, 'rot1': 0, 'rot0': 0, 'rot3': 0, 'rot2': 0, 'state': 'normal', 'yaw': 0.0, 'datetime': '2018-10-03 17:37:58.407607', 'mgs': 0, 'volt': 0.8594, 'depth': 0.928, 'time': 1, 'pitch': -8.22, 'roll': 2.46, 'pres': 176}
{'lipoC2': 7.27, 'lipoC3S1': 4.15, 'temp': 27.25, 'lipoC3S3': 12.52, 'lipoC3S2': 8.29, 'rot1': 0, 'rot0': 0, 'rot3': 0, 'rot2': 0, 'state': 'normal', 'yaw': -0.22, 'datetime': '2018-10-03 17:37:58.437488', 'mgs': 0, 'volt': 0.8594, 'depth': 0.928, 'time': 1, 'pitch': -8.7, 'roll': 2.01, 'pres': 176}
{'lipoC2': 7.27, 'lipoC3S1': 4.15, 'temp': 27.25, 'lipoC3S3': 12.52, 'lipoC3S2': 8.29, 'rot1': 0, 'rot0': 0, 'rot3': 0, 'rot2': 0, 'state': 'normal', 'yaw': -0.44, 'datetime': '2018-10-03 17:37:58.467362', 'mgs': 0, 'volt': 0.8594, 'depth': 0.928, 'time': 1, 'pitch': -9.09, 'roll': 1.67, 'pres': 176}
{'lipoC2': 7.27, 'lipoC3S1': 4.15, 'temp': 27.25, 'lipoC3S3': 12.52, 'lipoC3S2': 8.29, 'rot1': 0, 'rot0': 0, 'rot3': 0, 'rot2': 0, 'state': 'normal', 'yaw': -0.68, 'datetime': '2018-10-03 17:37:58.490641', 'mgs': 0, 'volt': 0.8594, 'depth': 0.928, 'time': 1, 'pitch': -9.33, 'roll': 1.44, 'pres': 176}
{'lipoC2': 7.27, 'lipoC3S1': 4.15, 'temp': 27.25, 'lipoC3S3': 12.52, 'lipoC3S2': 8.29, 'rot1': 0, 'rot0': 0, 'rot3': 0, 'rot2': 0, 'state': 'normal', 'yaw': -0.88, 'datetime': '2018-10-03 17:37:58.513379', 'mgs': 0, 'volt': 0.8594, 'depth': 0.928, 'time': 1, 'pitch': -9.42, 'roll': 1.2, 'pres': 176}
{'lipoC2': 7.27, 'lipoC3S1': 4.15, 'temp': 27.25, 'lipoC3S3': 12.52, 'lipoC3S2': 8.29, 'rot1': 0, 'rot0': 0, 'rot3': 0, 'rot2': 0, 'state': 'normal', 'yaw': -0.95, 'datetime': '2018-10-03 17:37:58.526647', 'mgs': 0, 'volt': 0.8594, 'depth': 0.928, 'time': 1, 'pitch': -9.48, 'roll': 1.0, 'pres': 176}
{'lipoC2': 7.27, 'lipoC3S1': 4.15, 'temp': 27.25, 'lipoC3S3': 12.52, 'lipoC3S2': 8.29, 'rot1': 0, 'rot0': 0, 'rot3': 0, 'rot2': 0, 'state': 'normal', 'yaw': -0.88, 'datetime': '2018-10-03 17:37:58.546440', 'mgs': 0, 'volt': 0.8594, 'depth': 0.928, 'time': 1, 'pitch': -9.55, 'roll': 0.73, 'pres': 176}
{'lipoC2': 7.27, 'lipoC3S1': 4.15, 'temp': 27.25, 'lipoC3S3': 12.52, 'lipoC3S2': 8.29, 'rot1': 0, 'rot0': 0, 'rot3': 0, 'rot2': 0, 'state': 'normal', 'yaw': -0.65, 'datetime': '2018-10-03 17:37:58.568990', 'mgs': 0, 'volt': 0.8594, 'depth': 0.928, 'time': 1, 'pitch': -9.48, 'roll': 0.42, 'pres': 176}
{'lipoC2': 7.27, 'lipoC3S1': 4.15, 'temp': 27.25, 'lipoC3S3': 12.52, 'lipoC3S2': 8.29, 'rot1': 0, 'rot0': 0, 'rot3': 0, 'rot2': 0, 'state': 'normal', 'yaw': -0.35, 'datetime': '2018-10-03 17:37:58.582461', 'mgs': 0, 'volt': 0.8594, 'depth': 0.928, 'time': 2, 'pitch': -9.29, 'roll': 0.12, 'pres': 176}
{'lipoC2': 7.27, 'lipoC3S1': 4.15, 'temp': 27.25, 'lipoC3S3': 12.52, 'lipoC3S2': 8.29, 'rot1': 0, 'rot0': 0, 'rot3': 0, 'rot2': 0, 'state': 'normal', 'yaw': -0.21, 'datetime': '2018-10-03 17:37:58.603557', 'mgs': 0, 'volt': 0.8545, 'depth': 0.851, 'time': 2, 'pitch': -9.31, 'roll': 0.01, 'pres': 175}
{'lipoC2': 7.27, 'lipoC3S1': 4.15, 'temp': 27.25, 'lipoC3S3': 12.52, 'lipoC3S2': 8.29, 'rot1': 0, 'rot0': 0, 'rot3': 0, 'rot2': 0, 'state': 'normal', 'yaw': -0.19, 'datetime': '2018-10-03 17:37:58.625981', 'mgs': 0, 'volt': 0.8594, 'depth': 0.928, 'time': 2, 'pitch': -9.44, 'roll': 0.07, 'pres': 176}
{'lipoC2': 7.27, 'lipoC3S1': 4.15, 'temp': 27.25, 'lipoC3S3': 12.52, 'lipoC3S2': 8.29, 'rot1': 0, 'rot0': 0, 'rot3': 0, 'rot2': 0, 'state': 'normal', 'yaw': -0.23, 'datetime': '2018-10-03 17:37:58.639441', 'mgs': 0, 'volt': 0.8594, 'depth': 0.928, 'time': 2, 'pitch': -9.77, 'roll': 0.3, 'pres': 176}
{'lipoC2': 7.27, 'lipoC3S1': 4.15, 'temp': 27.25, 'lipoC3S3': 12.52, 'lipoC3S2': 8.29, 'rot1': 0, 'rot0': 0, 'rot3': 0, 'rot2': 0, 'state': 'normal', 'yaw': -0.24, 'datetime': '2018-10-03 17:37:58.659230', 'mgs': 0, 'volt': 0.8594, 'depth': 0.928, 'time': 2, 'pitch': -10.13, 'roll': 0.57, 'pres': 176}
{'lipoC2': 7.27, 'lipoC3S1': 4.15, 'temp': 27.25, 'lipoC3S3': 12.52, 'lipoC3S2': 8.29, 'rot1': 0, 'rot0': 0, 'rot3': 0, 'rot2': 0, 'state': 'normal', 'yaw': -0.24, 'datetime': '2018-10-03 17:37:58.681643', 'mgs': 0, 'volt': 0.8594, 'depth': 0.928, 'time': 2, 'pitch': -10.45, 'roll': 0.86, 'pres': 176}
{'lipoC2': 7.27, 'lipoC3S1': 4.15, 'temp': 27.19, 'lipoC3S3': 12.52, 'lipoC3S2': 8.29, 'rot1': 0, 'rot0': 0, 'rot3': 0, 'rot2': 0, 'state': 'normal', 'yaw': -0.17, 'datetime': '2018-10-03 17:37:58.696032', 'mgs': 0, 'volt': 0.8594, 'depth': 0.928, 'time': 2, 'pitch': -10.65, 'roll': 1.2, 'pres': 176}
{'lipoC2': 7.27, 'lipoC3S1': 4.15, 'temp': 27.19, 'lipoC3S3': 12.52, 'lipoC3S2': 8.29, 'rot1': 0, 'rot0': 0, 'rot3': 0, 'rot2': 0, 'state': 'normal', 'yaw': -0.02, 'datetime': '2018-10-03 17:37:58.716250', 'mgs': 0, 'volt': 0.8643, 'depth': 1.004, 'time': 2, 'pitch': -10.6, 'roll': 1.47, 'pres': 177}
{'lipoC2': 7.27, 'lipoC3S1': 4.15, 'temp': 27.25, 'lipoC3S3': 12.52, 'lipoC3S2': 8.29, 'rot1': 0, 'rot0': 0, 'rot3': 0, 'rot2': 0, 'state': 'normal', 'yaw': 0.13, 'datetime': '2018-10-03 17:37:58.738682', 'mgs': 0, 'volt': 0.8594, 'depth': 0.928, 'time': 2, 'pitch': -10.38, 'roll': 1.69, 'pres': 176}
{'lipoC2': 7.27, 'lipoC3S1': 4.15, 'temp': 27.25, 'lipoC3S3': 12.52, 'lipoC3S2': 8.29, 'rot1': 0, 'rot0': 0, 'rot3': 0, 'rot2': 0, 'state': 'normal', 'yaw': 0.29, 'datetime': '2018-10-03 17:37:58.752013', 'mgs': 0, 'volt': 0.8643, 'depth': 1.004, 'time': 3, 'pitch': -10.11, 'roll': 1.88, 'pres': 177}
{'lipoC2': 7.26, 'lipoC3S1': 4.15, 'temp': 27.25, 'lipoC3S3': 12.52, 'lipoC3S2': 8.29, 'rot1': 0, 'rot0': 0, 'rot3': 0, 'rot2': 0, 'state': 'normal', 'yaw': 0.41, 'datetime': '2018-10-03 17:37:58.771791', 'mgs': 0, 'volt': 0.8643, 'depth': 1.004, 'time': 3, 'pitch': -9.98, 'roll': 2.01, 'pres': 177}
{'lipoC2': 7.27, 'lipoC3S1': 4.15, 'temp': 27.25, 'lipoC3S3': 12.52, 'lipoC3S2': 8.29, 'rot1': 0, 'rot0': 0, 'rot3': 0, 'rot2': 0, 'state': 'normal', 'yaw': 0.49, 'datetime': '2018-10-03 17:37:58.794896', 'mgs': 0, 'volt': 0.8643, 'depth': 1.004, 'time': 3, 'pitch': -10.0, 'roll': 2.08, 'pres': 177}
{'lipoC2': 7.27, 'lipoC3S1': 4.15, 'temp': 27.25, 'lipoC3S3': 12.52, 'lipoC3S2': 8.29, 'rot1': 0, 'rot0': 0, 'rot3': 0, 'rot2': 0, 'state': 'normal', 'yaw': 0.49, 'datetime': '2018-10-03 17:37:58.809403', 'mgs': 0, 'volt': 0.8643, 'depth': 1.004, 'time': 3, 'pitch': -10.3, 'roll': 2.13, 'pres': 177}
{'lipoC2': 7.27, 'lipoC3S1': 4.15, 'temp': 27.25, 'lipoC3S3': 12.52, 'lipoC3S2': 8.29, 'rot1': 0, 'rot0': 0, 'rot3': 0, 'rot2': 0, 'state': 'normal', 'yaw': 0.54, 'datetime': '2018-10-03 17:37:58.829128', 'mgs': 0, 'volt': 0.8643, 'depth': 1.004, 'time': 3, 'pitch': -10.68, 'roll': 2.09, 'pres': 177}
{'lipoC2': 7.27, 'lipoC3S1': 4.15, 'temp': 27.25, 'lipoC3S3': 12.52, 'lipoC3S2': 8.29, 'rot1': 0, 'rot0': 0, 'rot3': 0, 'rot2': 0, 'state': 'normal', 'yaw': 0.77, 'datetime': '2018-10-03 17:37:58.851523', 'mgs': 0, 'volt': 0.8691, 'depth': 1.08, 'time': 3, 'pitch': -10.92, 'roll': 1.89, 'pres': 178}
{'lipoC2': 7.27, 'lipoC3S1': 4.15, 'temp': 27.25, 'lipoC3S3': 12.52, 'lipoC3S2': 8.29, 'rot1': 0, 'rot0': 0, 'rot3': 0, 'rot2': 0, 'state': 'normal', 'yaw': 1.15, 'datetime': '2018-10-03 17:37:58.864796', 'mgs': 0, 'volt': 0.8643, 'depth': 1.004, 'time': 3, 'pitch': -10.93, 'roll': 1.51, 'pres': 177}
{'lipoC2': 7.27, 'lipoC3S1': 4.15, 'temp': 27.25, 'lipoC3S3': 12.52, 'lipoC3S2': 8.29, 'rot1': 0, 'rot0': 0, 'rot3': 0, 'rot2': 0, 'state': 'normal', 'yaw': 1.43, 'datetime': '2018-10-03 17:37:58.884636', 'mgs': 0, 'volt': 0.8643, 'depth': 1.004, 'time': 3, 'pitch': -10.8, 'roll': 1.15, 'pres': 177}
{'lipoC2': 7.27, 'lipoC3S1': 4.15, 'temp': 27.25, 'lipoC3S3': 12.52, 'lipoC3S2': 8.29, 'rot1': 0, 'rot0': 0, 'rot3': 0, 'rot2': 0, 'state': 'normal', 'yaw': 1.57, 'datetime': '2018-10-03 17:37:58.908339', 'mgs': 0, 'volt': 0.8691, 'depth': 1.08, 'time': 3, 'pitch': -10.5, 'roll': 0.85, 'pres': 178}
{'lipoC2': 7.27, 'lipoC3S1': 4.15, 'temp': 27.19, 'lipoC3S3': 12.52, 'lipoC3S2': 8.29, 'rot1': 0, 'rot0': 0, 'rot3': 0, 'rot2': 0, 'state': 'normal', 'yaw': 1.54, 'datetime': '2018-10-03 17:37:58.921902', 'mgs': 0, 'volt': 0.8691, 'depth': 1.08, 'time': 3, 'pitch': -10.08, 'roll': 0.69, 'pres': 178}
{'lipoC2': 7.26, 'lipoC3S1': 4.15, 'temp': 27.19, 'lipoC3S3': 12.52, 'lipoC3S2': 8.29, 'rot1': 0, 'rot0': 0, 'rot3': 0, 'rot2': 0, 'state': 'normal', 'yaw': 1.31, 'datetime': '2018-10-03 17:37:58.941571', 'mgs': 0, 'volt': 0.8691, 'depth': 1.08, 'time': 4, 'pitch': -9.62, 'roll': 0.69, 'pres': 178}
{'lipoC2': 7.27, 'lipoC3S1': 4.15, 'temp': 27.25, 'lipoC3S3': 12.52, 'lipoC3S2': 8.29, 'rot1': 0, 'rot0': 0, 'rot3': 0, 'rot2': 0, 'state': 'normal', 'yaw': 0.99, 'datetime': '2018-10-03 17:37:58.963949', 'mgs': 0, 'volt': 0.8691, 'depth': 1.08, 'time': 4, 'pitch': -9.33, 'roll': 0.73, 'pres': 178}
{'lipoC2': 7.26, 'lipoC3S1': 4.15, 'temp': 27.25, 'lipoC3S3': 12.52, 'lipoC3S2': 8.29, 'rot1': 0, 'rot0': 0, 'rot3': 0, 'rot2': 0, 'state': 'normal', 'yaw': 0.63, 'datetime': '2018-10-03 17:37:58.977208', 'mgs': 0, 'volt': 0.8691, 'depth': 1.08, 'time': 4, 'pitch': -9.17, 'roll': 0.82, 'pres': 178}
{'lipoC2': 7.27, 'lipoC3S1': 4.15, 'temp': 27.25, 'lipoC3S3': 12.52, 'lipoC3S2': 8.29, 'rot1': 0, 'rot0': 0, 'rot3': 0, 'rot2': 0, 'state': 'normal', 'yaw': 0.34, 'datetime': '2018-10-03 17:37:58.996498', 'mgs': 0, 'volt': 0.8691, 'depth': 1.08, 'time': 4, 'pitch': -9.1, 'roll': 0.87, 'pres': 178}
{'lipoC2': 7.27, 'lipoC3S1': 4.15, 'temp': 27.25, 'lipoC3S3': 12.52, 'lipoC3S2': 8.29, 'rot1': 0, 'rot0': 0, 'rot3': 0, 'rot2': 0, 'state': 'normal', 'yaw': 0.07, 'datetime': '2018-10-03 17:37:59.019264', 'mgs': 0, 'volt': 0.8691, 'depth': 1.08, 'time': 4, 'pitch': -8.98, 'roll': 0.92, 'pres': 178}
{'lipoC2': 7.27, 'lipoC3S1': 4.15, 'temp': 27.25, 'lipoC3S3': 12.54, 'lipoC3S2': 8.3, 'rot1': 0, 'rot0': 0, 'rot3': 0, 'rot2': 0, 'state': 'normal', 'yaw': -0.19, 'datetime': '2018-10-03 17:37:59.032301', 'mgs': 0, 'volt': 0.874, 'depth': 1.157, 'time': 4, 'pitch': -8.83, 'roll': 0.94, 'pres': 179}
{'lipoC2': 7.26, 'lipoC3S1': 4.15, 'temp': 27.25, 'lipoC3S3': 12.52, 'lipoC3S2': 8.29, 'rot1': 0, 'rot0': 0, 'rot3': 0, 'rot2': 0, 'state': 'normal', 'yaw': -0.33, 'datetime': '2018-10-03 17:37:59.051263', 'mgs': 0, 'volt': 0.874, 'depth': 1.157, 'time': 4, 'pitch': -8.72, 'roll': 0.93, 'pres': 179}
{'lipoC2': 7.27, 'lipoC3S1': 4.15, 'temp': 27.25, 'lipoC3S3': 12.52, 'lipoC3S2': 8.29, 'rot1': 0, 'rot0': 0, 'rot3': 0, 'rot2': 0, 'state': 'normal', 'yaw': -0.46, 'datetime': '2018-10-03 17:37:59.072984', 'mgs': 0, 'volt': 0.874, 'depth': 1.157, 'time': 4, 'pitch': -8.52, 'roll': 0.92, 'pres': 179}
{'lipoC2': 7.27, 'lipoC3S1': 4.15, 'temp': 27.25, 'lipoC3S3': 12.52, 'lipoC3S2': 8.29, 'rot1': 0, 'rot0': 0, 'rot3': 0, 'rot2': 0, 'state': 'normal', 'yaw': -0.58, 'datetime': '2018-10-03 17:37:59.085782', 'mgs': 0, 'volt': 0.874, 'depth': 1.157, 'time': 4, 'pitch': -8.2, 'roll': 0.92, 'pres': 179}
{'lipoC2': 7.26, 'lipoC3S1': 4.15, 'temp': 27.25, 'lipoC3S3': 12.52, 'lipoC3S2': 8.29, 'rot1': 0, 'rot0': 0, 'rot3': 0, 'rot2': 0, 'state': 'normal', 'yaw': -0.71, 'datetime': '2018-10-03 17:37:59.101926', 'mgs': 0, 'volt': 0.874, 'depth': 1.157, 'time': 4, 'pitch': -7.74, 'roll': 0.91, 'pres': 179}
{'lipoC2': 7.26, 'lipoC3S1': 4.15, 'temp': 27.25, 'lipoC3S3': 12.52, 'lipoC3S2': 8.29, 'rot1': 0, 'rot0': 0, 'rot3': 0, 'rot2': 0, 'state': 'normal', 'yaw': -0.82, 'datetime': '2018-10-03 17:37:59.121466', 'mgs': 0, 'volt': 0.874, 'depth': 1.157, 'time': 5, 'pitch': -7.23, 'roll': 0.92, 'pres': 179}
{'lipoC2': 7.27, 'lipoC3S1': 4.15, 'temp': 27.25, 'lipoC3S3': 12.52, 'lipoC3S2': 8.29, 'rot1': 0, 'rot0': 0, 'rot3': 0, 'rot2': 0, 'state': 'normal', 'yaw': -0.93, 'datetime': '2018-10-03 17:37:59.131038', 'mgs': 0, 'volt': 0.8789, 'depth': 1.233, 'time': 5, 'pitch': -6.67, 'roll': 0.94, 'pres': 180}
{'lipoC2': 7.27, 'lipoC3S1': 4.15, 'temp': 27.25, 'lipoC3S3': 12.52, 'lipoC3S2': 8.3, 'rot1': 0, 'rot0': 0, 'rot3': 0, 'rot2': 0, 'state': 'normal', 'yaw': -1.02, 'datetime': '2018-10-03 17:37:59.146387', 'mgs': 0, 'volt': 0.874, 'depth': 1.157, 'time': 5, 'pitch': -6.07, 'roll': 0.93, 'pres': 179}
{'lipoC2': 7.26, 'lipoC3S1': 4.15, 'temp': 27.19, 'lipoC3S3': 12.52, 'lipoC3S2': 8.29, 'rot1': 0, 'rot0': 0, 'rot3': 0, 'rot2': 0, 'state': 'normal', 'yaw': -1.1, 'datetime': '2018-10-03 17:37:59.164493', 'mgs': 0, 'volt': 0.8789, 'depth': 1.233, 'time': 5, 'pitch': -5.59, 'roll': 0.91, 'pres': 180}
{'lipoC2': 7.26, 'lipoC3S1': 4.15, 'temp': 27.19, 'lipoC3S3': 12.52, 'lipoC3S2': 8.29, 'rot1': 0, 'rot0': 0, 'rot3': 0, 'rot2': 0, 'state': 'normal', 'yaw': -1.2, 'datetime': '2018-10-03 17:37:59.173895', 'mgs': 0, 'volt': 0.8789, 'depth': 1.233, 'time': 5, 'pitch': -5.23, 'roll': 0.91, 'pres': 180}
{'lipoC2': 7.27, 'lipoC3S1': 4.15, 'temp': 27.25, 'lipoC3S3': 12.52, 'lipoC3S2': 8.29, 'rot1': 0, 'rot0': 0, 'rot3': 0, 'rot2': 0, 'state': 'normal', 'yaw': -1.29, 'datetime': '2018-10-03 17:37:59.189230', 'mgs': 0, 'volt': 0.8789, 'depth': 1.233, 'time': 5, 'pitch': -4.99, 'roll': 0.92, 'pres': 180}
{'lipoC2': 7.27, 'lipoC3S1': 4.15, 'temp': 27.25, 'lipoC3S3': 12.52, 'lipoC3S2': 8.29, 'rot1': 0, 'rot0': 0, 'rot3': 0, 'rot2': 0, 'state': 'normal', 'yaw': -1.4, 'datetime': '2018-10-03 17:37:59.208770', 'mgs': 0, 'volt': 0.8838, 'depth': 1.309, 'time': 5, 'pitch': -4.87, 'roll': 0.94, 'pres': 181}
{'lipoC2': 7.27, 'lipoC3S1': 4.15, 'temp': 27.25, 'lipoC3S3': 12.52, 'lipoC3S2': 8.29, 'rot1': 0, 'rot0': 0, 'rot3': 0, 'rot2': 0, 'state': 'normal', 'yaw': -1.49, 'datetime': '2018-10-03 17:37:59.219969', 'mgs': 0, 'volt': 0.8838, 'depth': 1.309, 'time': 5, 'pitch': -4.88, 'roll': 0.96, 'pres': 181}
{'lipoC2': 7.27, 'lipoC3S1': 4.15, 'temp': 27.25, 'lipoC3S3': 12.52, 'lipoC3S2': 8.29, 'rot1': 0, 'rot0': 0, 'rot3': 0, 'rot2': 0, 'state': 'normal', 'yaw': -1.59, 'datetime': '2018-10-03 17:37:59.235367', 'mgs': 0, 'volt': 0.8838, 'depth': 1.309, 'time': 5, 'pitch': -5.01, 'roll': 0.97, 'pres': 181}
{'lipoC2': 7.26, 'lipoC3S1': 4.15, 'temp': 27.25, 'lipoC3S3': 12.52, 'lipoC3S2': 8.28, 'rot1': 0, 'rot0': 0, 'rot3': 0, 'rot2': 0, 'state': 'normal', 'yaw': -1.68, 'datetime': '2018-10-03 17:37:59.253450', 'mgs': 0, 'volt': 0.8838, 'depth': 1.309, 'time': 6, 'pitch': -5.25, 'roll': 0.98, 'pres': 181}
{'lipoC2': 7.25, 'lipoC3S1': 4.03, 'temp': 27.25, 'lipoC3S3': 12.25, 'lipoC3S2': 8.13, 'rot1': 0, 'rot0': 0, 'rot3': 0, 'rot2': 1, 'state': 'normal', 'yaw': -1.81, 'datetime': '2018-10-03 17:37:59.262845', 'mgs': 0, 'volt': 0.957, 'depth': 2.454, 'time': 6, 'pitch': -5.65, 'roll': 1.04, 'pres': 196}
{'lipoC2': 7.25, 'lipoC3S1': 4.07, 'temp': 27.25, 'lipoC3S3': 12.3, 'lipoC3S2': 8.13, 'rot1': 1, 'rot0': 1, 'rot3': 0, 'rot2': 2, 'state': 'normal', 'yaw': -2.0, 'datetime': '2018-10-03 17:37:59.278152', 'mgs': 0, 'volt': 0.9082, 'depth': 1.691, 'time': 6, 'pitch': -5.86, 'roll': 1.01, 'pres': 186}
{'lipoC2': 7.26, 'lipoC3S1': 4.11, 'temp': 27.13, 'lipoC3S3': 12.29, 'lipoC3S2': 8.12, 'rot1': 2, 'rot0': 3, 'rot3': 0, 'rot2': 3, 'state': 'normal', 'yaw': -2.24, 'datetime': '2018-10-03 17:37:59.296219', 'mgs': 0, 'volt': 0.9375, 'depth': 2.148, 'time': 6, 'pitch': -5.46, 'roll': 0.98, 'pres': 192}
{'lipoC2': 7.26, 'lipoC3S1': 3.97, 'temp': 27.13, 'lipoC3S3': 12.26, 'lipoC3S2': 8.1, 'rot1': 3, 'rot0': 4, 'rot3': 1, 'rot2': 4, 'state': 'normal', 'yaw': -2.53, 'datetime': '2018-10-03 17:37:59.306091', 'mgs': 0, 'volt': 0.9229, 'depth': 1.92, 'time': 6, 'pitch': -4.54, 'roll': 0.87, 'pres': 189}
{'lipoC2': 7.25, 'lipoC3S1': 4.06, 'temp': 27.13, 'lipoC3S3': 12.25, 'lipoC3S2': 8.13, 'rot1': 5, 'rot0': 5, 'rot3': 1, 'rot2': 5, 'state': 'normal', 'yaw': -2.85, 'datetime': '2018-10-03 17:37:59.323496', 'mgs': 0, 'volt': 0.9277, 'depth': 1.996, 'time': 6, 'pitch': -3.32, 'roll': 0.75, 'pres': 190}
{'lipoC2': 7.25, 'lipoC3S1': 4.01, 'temp': 27.19, 'lipoC3S3': 12.27, 'lipoC3S2': 8.11, 'rot1': 6, 'rot0': 6, 'rot3': 1, 'rot2': 6, 'state': 'normal', 'yaw': -3.21, 'datetime': '2018-10-03 17:37:59.341712', 'mgs': 0, 'volt': 0.9668, 'depth': 2.606, 'time': 6, 'pitch': -1.82, 'roll': 0.63, 'pres': 198}
{'lipoC2': 7.26, 'lipoC3S1': 4.05, 'temp': 27.19, 'lipoC3S3': 12.27, 'lipoC3S2': 8.05, 'rot1': 7, 'rot0': 7, 'rot3': 1, 'rot2': 7, 'state': 'normal', 'yaw': -3.64, 'datetime': '2018-10-03 17:37:59.351174', 'mgs': 0, 'volt': 0.9424, 'depth': 2.225, 'time': 6, 'pitch': -0.46, 'roll': 0.54, 'pres': 193}
{'lipoC2': 7.26, 'lipoC3S1': 4.11, 'temp': 27.13, 'lipoC3S3': 12.27, 'lipoC3S2': 8.16, 'rot1': 8, 'rot0': 8, 'rot3': 1, 'rot2': 8, 'state': 'normal', 'yaw': -4.08, 'datetime': '2018-10-03 17:37:59.366523', 'mgs': 0, 'volt': 0.918, 'depth': 1.843, 'time': 6, 'pitch': 0.83, 'roll': 0.43, 'pres': 188}
{'lipoC2': 7.25, 'lipoC3S1': 4.11, 'temp': 27.13, 'lipoC3S3': 12.33, 'lipoC3S2': 8.14, 'rot1': 9, 'rot0': 10, 'rot3': 2, 'rot2': 9, 'state': 'normal', 'yaw': -4.58, 'datetime': '2018-10-03 17:37:59.428953', 'mgs': 0, 'volt': 0.9277, 'depth': 1.996, 'time': 6, 'pitch': 2.2, 'roll': 0.38, 'pres': 190}
{'lipoC2': 7.26, 'lipoC3S1': 4.08, 'temp': 27.13, 'lipoC3S3': 12.41, 'lipoC3S2': 8.13, 'rot1': 10, 'rot0': 11, 'rot3': 2, 'rot2': 10, 'state': 'normal', 'yaw': -5.06, 'datetime': '2018-10-03 17:37:59.532668', 'mgs': 0, 'volt': 0.9473, 'depth': 2.301, 'time': 7, 'pitch': 3.34, 'roll': 0.38, 'pres': 194}
{'lipoC2': 7.26, 'lipoC3S1': 4.01, 'temp': 27.13, 'lipoC3S3': 12.39, 'lipoC3S2': 8.21, 'rot1': 11, 'rot0': 12, 'rot3': 2, 'rot2': 10, 'state': 'normal', 'yaw': -5.52, 'datetime': '2018-10-03 17:37:59.636352', 'mgs': 0, 'volt': 0.9277, 'depth': 1.996, 'time': 7, 'pitch': 4.39, 'roll': 0.44, 'pres': 190}
{'lipoC2': 7.26, 'lipoC3S1': 4.06, 'temp': 27.13, 'lipoC3S3': 12.41, 'lipoC3S2': 8.21, 'rot1': 12, 'rot0': 14, 'rot3': 3, 'rot2': 11, 'state': 'normal', 'yaw': -6.01, 'datetime': '2018-10-03 17:37:59.740028', 'mgs': 0, 'volt': 0.9961, 'depth': 3.064, 'time': 7, 'pitch': 5.35, 'roll': 0.52, 'pres': 204}
{'lipoC2': 7.25, 'lipoC3S1': 4.12, 'temp': 27.19, 'lipoC3S3': 12.33, 'lipoC3S2': 8.2, 'rot1': 14, 'rot0': 15, 'rot3': 3, 'rot2': 12, 'state': 'normal', 'yaw': -6.39, 'datetime': '2018-10-03 17:37:59.843721', 'mgs': 0, 'volt': 0.9619, 'depth': 2.53, 'time': 7, 'pitch': 5.85, 'roll': 0.55, 'pres': 197}
{'lipoC2': 7.26, 'lipoC3S1': 4.12, 'temp': 27.19, 'lipoC3S3': 12.38, 'lipoC3S2': 8.18, 'rot1': 15, 'rot0': 16, 'rot3': 4, 'rot2': 13, 'state': 'normal', 'yaw': -6.66, 'datetime': '2018-10-03 17:37:59.955165', 'mgs': 0, 'volt': 0.9424, 'depth': 2.225, 'time': 7, 'pitch': 6.12, 'roll': 0.71, 'pres': 193}
{'lipoC2': 7.26, 'lipoC3S1': 4.08, 'temp': 27.25, 'lipoC3S3': 12.42, 'lipoC3S2': 8.12, 'rot1': 16, 'rot0': 17, 'rot3': 4, 'rot2': 13, 'state': 'normal', 'yaw': -6.76, 'datetime': '2018-10-03 17:38:00.058904', 'mgs': 0, 'volt': 0.9424, 'depth': 2.225, 'time': 7, 'pitch': 6.27, 'roll': 0.87, 'pres': 193}
{'lipoC2': 7.27, 'lipoC3S1': 4.08, 'temp': 27.25, 'lipoC3S3': 12.43, 'lipoC3S2': 8.13, 'rot1': 17, 'rot0': 18, 'rot3': 4, 'rot2': 14, 'state': 'normal', 'yaw': -6.86, 'datetime': '2018-10-03 17:38:00.163466', 'mgs': 0, 'volt': 0.9668, 'depth': 2.606, 'time': 7, 'pitch': 6.25, 'roll': 1.06, 'pres': 198}
{'lipoC2': 7.25, 'lipoC3S1': 4.12, 'temp': 27.25, 'lipoC3S3': 12.34, 'lipoC3S2': 8.22, 'rot1': 18, 'rot0': 19, 'rot3': 5, 'rot2': 15, 'state': 'normal', 'yaw': -6.87, 'datetime': '2018-10-03 17:38:00.267661', 'mgs': 0, 'volt': 0.9424, 'depth': 2.225, 'time': 7, 'pitch': 6.13, 'roll': 1.24, 'pres': 193}
{'lipoC2': 7.26, 'lipoC3S1': 4.12, 'temp': 27.25, 'lipoC3S3': 12.37, 'lipoC3S2': 8.21, 'rot1': 19, 'rot0': 20, 'rot3': 5, 'rot2': 15, 'state': 'normal', 'yaw': -6.88, 'datetime': '2018-10-03 17:38:00.371290', 'mgs': 0, 'volt': 0.9424, 'depth': 2.225, 'time': 7, 'pitch': 5.85, 'roll': 1.38, 'pres': 193}
{'lipoC2': 7.26, 'lipoC3S1': 4.12, 'temp': 27.25, 'lipoC3S3': 12.33, 'lipoC3S2': 8.15, 'rot1': 20, 'rot0': 21, 'rot3': 5, 'rot2': 16, 'state': 'normal', 'yaw': -6.76, 'datetime': '2018-10-03 17:38:00.475015', 'mgs': 0, 'volt': 0.9424, 'depth': 2.225, 'time': 7, 'pitch': 5.53, 'roll': 1.51, 'pres': 193}
{'lipoC2': 7.26, 'lipoC3S1': 4.07, 'temp': 27.19, 'lipoC3S3': 12.41, 'lipoC3S2': 8.08, 'rot1': 22, 'rot0': 22, 'rot3': 6, 'rot2': 16, 'state': 'normal', 'yaw': -6.6, 'datetime': '2018-10-03 17:38:00.578683', 'mgs': 0, 'volt': 0.9668, 'depth': 2.606, 'time': 8, 'pitch': 5.11, 'roll': 1.75, 'pres': 198}
{'lipoC2': 7.26, 'lipoC3S1': 4.07, 'temp': 27.19, 'lipoC3S3': 12.39, 'lipoC3S2': 8.15, 'rot1': 23, 'rot0': 23, 'rot3': 6, 'rot2': 17, 'state': 'normal', 'yaw': -6.35, 'datetime': '2018-10-03 17:38:00.682372', 'mgs': 0, 'volt': 0.957, 'depth': 2.454, 'time': 8, 'pitch': 4.65, 'roll': 1.84, 'pres': 196}
{'lipoC2': 7.26, 'lipoC3S1': 4.01, 'temp': 27.25, 'lipoC3S3': 12.38, 'lipoC3S2': 8.2, 'rot1': 24, 'rot0': 24, 'rot3': 6, 'rot2': 18, 'state': 'normal', 'yaw': -6.15, 'datetime': '2018-10-03 17:38:00.784687', 'mgs': 0, 'volt': 0.9473, 'depth': 2.301, 'time': 8, 'pitch': 4.06, 'roll': 1.83, 'pres': 194}
{'lipoC2': 7.26, 'lipoC3S1': 4.08, 'temp': 27.25, 'lipoC3S3': 12.33, 'lipoC3S2': 8.2, 'rot1': 25, 'rot0': 25, 'rot3': 7, 'rot2': 19, 'state': 'normal', 'yaw': -5.93, 'datetime': '2018-10-03 17:38:00.889734', 'mgs': 0, 'volt': 0.9961, 'depth': 3.064, 'time': 8, 'pitch': 3.37, 'roll': 1.85, 'pres': 204}
{'lipoC2': 7.27, 'lipoC3S1': 4.11, 'temp': 27.25, 'lipoC3S3': 12.33, 'lipoC3S2': 8.2, 'rot1': 26, 'rot0': 26, 'rot3': 7, 'rot2': 19, 'state': 'normal', 'yaw': -5.65, 'datetime': '2018-10-03 17:38:00.993562', 'mgs': 0, 'volt': 0.9668, 'depth': 2.606, 'time': 8, 'pitch': 2.83, 'roll': 1.9, 'pres': 198}
{'lipoC2': 7.25, 'lipoC3S1': 4.11, 'temp': 27.25, 'lipoC3S3': 12.33, 'lipoC3S2': 8.15, 'rot1': 27, 'rot0': 27, 'rot3': 8, 'rot2': 20, 'state': 'normal', 'yaw': -5.3, 'datetime': '2018-10-03 17:38:01.097286', 'mgs': 0, 'volt': 0.9473, 'depth': 2.301, 'time': 8, 'pitch': 2.29, 'roll': 1.89, 'pres': 194}
{'lipoC2': 7.26, 'lipoC3S1': 4.11, 'temp': 27.25, 'lipoC3S3': 12.23, 'lipoC3S2': 8.15, 'rot1': 28, 'rot0': 28, 'rot3': 8, 'rot2': 21, 'state': 'normal', 'yaw': -4.96, 'datetime': '2018-10-03 17:38:01.200762', 'mgs': 0, 'volt': 0.9473, 'depth': 2.301, 'time': 8, 'pitch': 1.75, 'roll': 1.77, 'pres': 194}
{'lipoC2': 7.27, 'lipoC3S1': 4.06, 'temp': 27.31, 'lipoC3S3': 12.29, 'lipoC3S2': 8.15, 'rot1': 30, 'rot0': 30, 'rot3': 9, 'rot2': 22, 'state': 'normal', 'yaw': -4.64, 'datetime': '2018-10-03 17:38:01.304549', 'mgs': 0, 'volt': 0.9473, 'depth': 2.301, 'time': 8, 'pitch': 1.32, 'roll': 1.65, 'pres': 194}
{'lipoC2': 7.26, 'lipoC3S1': 4.08, 'temp': 27.31, 'lipoC3S3': 12.33, 'lipoC3S2': 8.2, 'rot1': 31, 'rot0': 31, 'rot3': 9, 'rot2': 22, 'state': 'normal', 'yaw': -4.23, 'datetime': '2018-10-03 17:38:01.409519', 'mgs': 0, 'volt': 0.9961, 'depth': 3.064, 'time': 8, 'pitch': 0.96, 'roll': 1.46, 'pres': 204}
{'lipoC2': 7.25, 'lipoC3S1': 4.13, 'temp': 27.31, 'lipoC3S3': 12.43, 'lipoC3S2': 8.23, 'rot1': 32, 'rot0': 32, 'rot3': 10, 'rot2': 23, 'state': 'normal', 'yaw': -3.84, 'datetime': '2018-10-03 17:38:01.513392', 'mgs': 0, 'volt': 0.9473, 'depth': 2.301, 'time': 9, 'pitch': 0.58, 'roll': 1.25, 'pres': 194}
{'lipoC2': 7.27, 'lipoC3S1': 4.12, 'temp': 27.31, 'lipoC3S3': 12.43, 'lipoC3S2': 8.22, 'rot1': 33, 'rot0': 33, 'rot3': 10, 'rot2': 23, 'state': 'normal', 'yaw': -3.48, 'datetime': '2018-10-03 17:38:01.615614', 'mgs': 0, 'volt': 0.9912, 'depth': 2.988, 'time': 9, 'pitch': 0.43, 'roll': 1.13, 'pres': 203}
{'lipoC2': 7.26, 'lipoC3S1': 4.12, 'temp': 27.31, 'lipoC3S3': 12.33, 'lipoC3S2': 8.21, 'rot1': 34, 'rot0': 34, 'rot3': 10, 'rot2': 23, 'state': 'normal', 'yaw': -3.1, 'datetime': '2018-10-03 17:38:01.718777', 'mgs': 0, 'volt': 0.9521, 'depth': 2.377, 'time': 9, 'pitch': 0.26, 'roll': 1.24, 'pres': 195}
{'lipoC2': 7.26, 'lipoC3S1': 4.1, 'temp': 27.31, 'lipoC3S3': 12.25, 'lipoC3S2': 8.13, 'rot1': 35, 'rot0': 35, 'rot3': 10, 'rot2': 24, 'state': 'normal', 'yaw': -2.36, 'datetime': '2018-10-03 17:38:01.825083', 'mgs': 0, 'volt': 0.957, 'depth': 2.454, 'time': 9, 'pitch': -0.44, 'roll': 1.71, 'pres': 196}
{'lipoC2': 7.26, 'lipoC3S1': 4.11, 'temp': 27.25, 'lipoC3S3': 12.21, 'lipoC3S2': 8.14, 'rot1': 36, 'rot0': 37, 'rot3': 10, 'rot2': 24, 'state': 'normal', 'yaw': -0.74, 'datetime': '2018-10-03 17:38:01.923452', 'mgs': 0, 'volt': 0.9619, 'depth': 2.53, 'time': 9, 'pitch': -1.26, 'roll': 2.72, 'pres': 197}
{'lipoC2': 7.25, 'lipoC3S1': 4.11, 'temp': 27.25, 'lipoC3S3': 12.31, 'lipoC3S2': 8.21, 'rot1': 38, 'rot0': 38, 'rot3': 11, 'rot2': 25, 'state': 'normal', 'yaw': 2.24, 'datetime': '2018-10-03 17:38:02.027284', 'mgs': 0, 'volt': 0.9619, 'depth': 2.53, 'time': 9, 'pitch': -1.72, 'roll': 4.13, 'pres': 197}
{'lipoC2': 7.25, 'lipoC3S1': 4.11, 'temp': 27.25, 'lipoC3S3': 12.31, 'lipoC3S2': 8.2, 'rot1': 39, 'rot0': 39, 'rot3': 11, 'rot2': 26, 'state': 'normal', 'yaw': 5.98, 'datetime': '2018-10-03 17:38:02.131155', 'mgs': 0, 'volt': 0.9717, 'depth': 2.682, 'time': 9, 'pitch': -1.91, 'roll': 5.41, 'pres': 199}
{'lipoC2': 7.25, 'lipoC3S1': 4.12, 'temp': 27.25, 'lipoC3S3': 12.39, 'lipoC3S2': 8.21, 'rot1': 40, 'rot0': 40, 'rot3': 13, 'rot2': 26, 'state': 'normal', 'yaw': 10.7, 'datetime': '2018-10-03 17:38:02.235210', 'mgs': 0, 'volt': 1.0059, 'depth': 3.217, 'time': 9, 'pitch': -1.79, 'roll': 6.76, 'pres': 206}
{'lipoC2': 7.26, 'lipoC3S1': 4.06, 'temp': 27.25, 'lipoC3S3': 12.41, 'lipoC3S2': 8.21, 'rot1': 41, 'rot0': 41, 'rot3': 13, 'rot2': 27, 'state': 'normal', 'yaw': 17.01, 'datetime': '2018-10-03 17:38:02.338902', 'mgs': 0, 'volt': 1.04, 'depth': 3.751, 'time': 9, 'pitch': -1.39, 'roll': 8.08, 'pres': 213}
{'lipoC2': 7.26, 'lipoC3S1': 4.04, 'temp': 27.19, 'lipoC3S3': 12.43, 'lipoC3S2': 8.21, 'rot1': 42, 'rot0': 43, 'rot3': 13, 'rot2': 27, 'state': 'normal', 'yaw': 23.53, 'datetime': '2018-10-03 17:38:02.444064', 'mgs': 0, 'volt': 0.9814, 'depth': 2.835, 'time': 9, 'pitch': -0.89, 'roll': 9.14, 'pres': 201}
{'lipoC2': 7.26, 'lipoC3S1': 4.12, 'temp': 27.19, 'lipoC3S3': 12.45, 'lipoC3S2': 8.14, 'rot1': 43, 'rot0': 44, 'rot3': 13, 'rot2': 27, 'state': 'normal', 'yaw': 30.67, 'datetime': '2018-10-03 17:38:02.546813', 'mgs': 0, 'volt': 0.9912, 'depth': 2.988, 'time': 10, 'pitch': -0.44, 'roll': 9.93, 'pres': 203}
{'lipoC2': 7.26, 'lipoC3S1': 4.12, 'temp': 27.25, 'lipoC3S3': 12.34, 'lipoC3S2': 8.22, 'rot1': 43, 'rot0': 45, 'rot3': 13, 'rot2': 27, 'state': 'normal', 'yaw': 38.34, 'datetime': '2018-10-03 17:38:02.651541', 'mgs': 0, 'volt': 0.9912, 'depth': 2.988, 'time': 10, 'pitch': -0.11, 'roll': 10.25, 'pres': 203}
{'lipoC2': 7.26, 'lipoC3S1': 4.12, 'temp': 27.25, 'lipoC3S3': 12.41, 'lipoC3S2': 8.23, 'rot1': 44, 'rot0': 46, 'rot3': 13, 'rot2': 27, 'state': 'normal', 'yaw': 44.25, 'datetime': '2018-10-03 17:38:02.761480', 'mgs': 0, 'volt': 0.9961, 'depth': 3.064, 'time': 10, 'pitch': 0.11, 'roll': 10.0, 'pres': 204}
{'lipoC2': 7.26, 'lipoC3S1': 4.13, 'temp': 27.25, 'lipoC3S3': 12.45, 'lipoC3S2': 8.24, 'rot1': 44, 'rot0': 47, 'rot3': 13, 'rot2': 27, 'state': 'normal', 'yaw': 49.22, 'datetime': '2018-10-03 17:38:02.867080', 'mgs': 0, 'volt': 1.001, 'depth': 3.14, 'time': 10, 'pitch': 0.14, 'roll': 9.07, 'pres': 205}
{'lipoC2': 7.26, 'lipoC3S1': 4.11, 'temp': 27.25, 'lipoC3S3': 12.45, 'lipoC3S2': 8.24, 'rot1': 44, 'rot0': 49, 'rot3': 13, 'rot2': 27, 'state': 'normal', 'yaw': 52.51, 'datetime': '2018-10-03 17:38:02.971117', 'mgs': 0, 'volt': 1.0254, 'depth': 3.522, 'time': 10, 'pitch': -0.02, 'roll': 7.77, 'pres': 210}
{'lipoC2': 7.26, 'lipoC3S1': 4.12, 'temp': 27.25, 'lipoC3S3': 12.37, 'lipoC3S2': 8.23, 'rot1': 44, 'rot0': 50, 'rot3': 13, 'rot2': 27, 'state': 'normal', 'yaw': 54.94, 'datetime': '2018-10-03 17:38:03.076134', 'mgs': 0, 'volt': 0.9912, 'depth': 2.988, 'time': 10, 'pitch': -0.26, 'roll': 6.21, 'pres': 203}
{'lipoC2': 7.26, 'lipoC3S1': 4.13, 'temp': 27.25, 'lipoC3S3': 12.45, 'lipoC3S2': 8.24, 'rot1': 44, 'rot0': 51, 'rot3': 13, 'rot2': 27, 'state': 'normal', 'yaw': 56.83, 'datetime': '2018-10-03 17:38:03.180097', 'mgs': 0, 'volt': 1.0303, 'depth': 3.598, 'time': 10, 'pitch': -0.55, 'roll': 4.18, 'pres': 211}
{'lipoC2': 7.26, 'lipoC3S1': 4.09, 'temp': 27.25, 'lipoC3S3': 12.45, 'lipoC3S2': 8.22, 'rot1': 45, 'rot0': 53, 'rot3': 13, 'rot2': 27, 'state': 'normal', 'yaw': 57.88, 'datetime': '2018-10-03 17:38:03.284232', 'mgs': 0, 'volt': 0.9912, 'depth': 2.988, 'time': 10, 'pitch': -0.82, 'roll': 2.18, 'pres': 203}
{'lipoC2': 7.26, 'lipoC3S1': 4.12, 'temp': 27.25, 'lipoC3S3': 12.37, 'lipoC3S2': 8.16, 'rot1': 45, 'rot0': 54, 'rot3': 13, 'rot2': 27, 'state': 'normal', 'yaw': 58.29, 'datetime': '2018-10-03 17:38:03.388134', 'mgs': 0, 'volt': 0.9912, 'depth': 2.988, 'time': 10, 'pitch': -1.11, 'roll': 0.05, 'pres': 203}
{'lipoC2': 7.25, 'lipoC3S1': 4.13, 'temp': 27.25, 'lipoC3S3': 12.39, 'lipoC3S2': 8.23, 'rot1': 45, 'rot0': 55, 'rot3': 13, 'rot2': 27, 'state': 'normal', 'yaw': 58.0, 'datetime': '2018-10-03 17:38:03.492146', 'mgs': 0, 'volt': 0.9863, 'depth': 2.911, 'time': 10, 'pitch': -1.41, 'roll': -1.59, 'pres': 202}
{'lipoC2': 7.27, 'lipoC3S1': 4.11, 'temp': 27.25, 'lipoC3S3': 12.45, 'lipoC3S2': 8.24, 'rot1': 46, 'rot0': 56, 'rot3': 14, 'rot2': 27, 'state': 'normal', 'yaw': 57.07, 'datetime': '2018-10-03 17:38:03.596172', 'mgs': 0, 'volt': 1.0254, 'depth': 3.522, 'time': 11, 'pitch': -1.76, 'roll': -2.78, 'pres': 210}
{'lipoC2': 7.26, 'lipoC3S1': 4.08, 'temp': 27.25, 'lipoC3S3': 12.45, 'lipoC3S2': 8.21, 'rot1': 47, 'rot0': 58, 'rot3': 14, 'rot2': 27, 'state': 'normal', 'yaw': 55.38, 'datetime': '2018-10-03 17:38:03.700166', 'mgs': 0, 'volt': 0.9863, 'depth': 2.911, 'time': 11, 'pitch': -2.13, 'roll': -3.58, 'pres': 202}
{'lipoC2': 7.26, 'lipoC3S1': 4.12, 'temp': 27.25, 'lipoC3S3': 12.39, 'lipoC3S2': 8.16, 'rot1': 47, 'rot0': 59, 'rot3': 14, 'rot2': 27, 'state': 'normal', 'yaw': 53.33, 'datetime': '2018-10-03 17:38:03.804249', 'mgs': 0, 'volt': 0.9863, 'depth': 2.911, 'time': 11, 'pitch': -2.41, 'roll': -4.0, 'pres': 202}
{'lipoC2': 7.26, 'lipoC3S1': 4.12, 'temp': 27.25, 'lipoC3S3': 12.45, 'lipoC3S2': 8.13, 'rot1': 48, 'rot0': 60, 'rot3': 14, 'rot2': 27, 'state': 'normal', 'yaw': 50.87, 'datetime': '2018-10-03 17:38:03.908718', 'mgs': 0, 'volt': 0.9863, 'depth': 2.911, 'time': 11, 'pitch': -2.59, 'roll': -4.2, 'pres': 202}
{'lipoC2': 7.26, 'lipoC3S1': 4.12, 'temp': 27.25, 'lipoC3S3': 12.35, 'lipoC3S2': 8.23, 'rot1': 48, 'rot0': 61, 'rot3': 14, 'rot2': 28, 'state': 'normal', 'yaw': 47.75, 'datetime': '2018-10-03 17:38:04.012861', 'mgs': 0, 'volt': 0.9912, 'depth': 2.988, 'time': 11, 'pitch': -2.64, 'roll': -4.11, 'pres': 203}
{'lipoC2': 7.26, 'lipoC3S1': 4.12, 'temp': 27.31, 'lipoC3S3': 12.34, 'lipoC3S2': 8.23, 'rot1': 48, 'rot0': 63, 'rot3': 14, 'rot2': 29, 'state': 'normal', 'yaw': 44.55, 'datetime': '2018-10-03 17:38:04.118069', 'mgs': 0, 'volt': 0.9863, 'depth': 2.911, 'time': 11, 'pitch': -2.6, 'roll': -3.66, 'pres': 202}
{'lipoC2': 7.26, 'lipoC3S1': 4.13, 'temp': 27.31, 'lipoC3S3': 12.45, 'lipoC3S2': 8.24, 'rot1': 49, 'rot0': 64, 'rot3': 14, 'rot2': 29, 'state': 'normal', 'yaw': 40.79, 'datetime': '2018-10-03 17:38:04.222117', 'mgs': 0, 'volt': 1.001, 'depth': 3.14, 'time': 11, 'pitch': -2.49, 'roll': -2.75, 'pres': 205}
{'lipoC2': 7.26, 'lipoC3S1': 4.13, 'temp': 27.31, 'lipoC3S3': 12.45, 'lipoC3S2': 8.19, 'rot1': 49, 'rot0': 65, 'rot3': 14, 'rot2': 29, 'state': 'normal', 'yaw': 37.2, 'datetime': '2018-10-03 17:38:04.327440', 'mgs': 0, 'volt': 0.9912, 'depth': 2.988, 'time': 11, 'pitch': -2.22, 'roll': -1.72, 'pres': 203}
{'lipoC2': 7.26, 'lipoC3S1': 4.13, 'temp': 27.25, 'lipoC3S3': 12.45, 'lipoC3S2': 8.24, 'rot1': 49, 'rot0': 66, 'rot3': 14, 'rot2': 29, 'state': 'normal', 'yaw': 33.09, 'datetime': '2018-10-03 17:38:04.431098', 'mgs': 0, 'volt': 0.9912, 'depth': 2.988, 'time': 11, 'pitch': -1.58, 'roll': -0.56, 'pres': 203}
{'lipoC2': 7.26, 'lipoC3S1': 4.1, 'temp': 27.25, 'lipoC3S3': 12.46, 'lipoC3S2': 8.24, 'rot1': 49, 'rot0': 68, 'rot3': 14, 'rot2': 29, 'state': 'normal', 'yaw': 29.11, 'datetime': '2018-10-03 17:38:04.535148', 'mgs': 0, 'volt': 1.0156, 'depth': 3.369, 'time': 12, 'pitch': -0.92, 'roll': 0.48, 'pres': 208}
{'lipoC2': 7.26, 'lipoC3S1': 4.13, 'temp': 27.25, 'lipoC3S3': 12.46, 'lipoC3S2': 8.18, 'rot1': 49, 'rot0': 69, 'rot3': 14, 'rot2': 29, 'state': 'normal', 'yaw': 24.74, 'datetime': '2018-10-03 17:38:04.638515', 'mgs': 0, 'volt': 1.001, 'depth': 3.14, 'time': 12, 'pitch': -0.16, 'roll': 1.19, 'pres': 205}
{'lipoC2': 7.26, 'lipoC3S1': 4.13, 'temp': 27.25, 'lipoC3S3': 12.42, 'lipoC3S2': 8.23, 'rot1': 49, 'rot0': 70, 'rot3': 14, 'rot2': 29, 'state': 'normal', 'yaw': 19.76, 'datetime': '2018-10-03 17:38:04.743171', 'mgs': 0, 'volt': 1.0059, 'depth': 3.217, 'time': 12, 'pitch': 1.35, 'roll': 1.03, 'pres': 206}
{'lipoC2': 7.26, 'lipoC3S1': 4.13, 'temp': 27.31, 'lipoC3S3': 12.45, 'lipoC3S2': 8.24, 'rot1': 50, 'rot0': 71, 'rot3': 14, 'rot2': 29, 'state': 'normal', 'yaw': 15.05, 'datetime': '2018-10-03 17:38:04.847146', 'mgs': 0, 'volt': 1.0059, 'depth': 3.217, 'time': 12, 'pitch': 2.97, 'roll': -0.15, 'pres': 206}
{'lipoC2': 7.26, 'lipoC3S1': 4.08, 'temp': 27.31, 'lipoC3S3': 12.46, 'lipoC3S2': 8.21, 'rot1': 50, 'rot0': 73, 'rot3': 14, 'rot2': 29, 'state': 'normal', 'yaw': 10.14, 'datetime': '2018-10-03 17:38:04.951318', 'mgs': 0, 'volt': 0.9961, 'depth': 3.064, 'time': 12, 'pitch': 4.11, 'roll': -1.39, 'pres': 204}
{'lipoC2': 7.26, 'lipoC3S1': 4.12, 'temp': 27.31, 'lipoC3S3': 12.39, 'lipoC3S2': 8.16, 'rot1': 51, 'rot0': 74, 'rot3': 14, 'rot2': 29, 'state': 'normal', 'yaw': 5.18, 'datetime': '2018-10-03 17:38:05.055447', 'mgs': 0, 'volt': 1.001, 'depth': 3.14, 'time': 12, 'pitch': 5.64, 'roll': -1.4, 'pres': 205}
{'lipoC2': 7.26, 'lipoC3S1': 4.12, 'temp': 27.31, 'lipoC3S3': 12.42, 'lipoC3S2': 8.23, 'rot1': 52, 'rot0': 75, 'rot3': 14, 'rot2': 29, 'state': 'normal', 'yaw': 0.58, 'datetime': '2018-10-03 17:38:05.155202', 'mgs': 0, 'volt': 1.001, 'depth': 3.14, 'time': 12, 'pitch': 6.7, 'roll': -1.85, 'pres': 205}
{'lipoC2': 7.27, 'lipoC3S1': 4.12, 'temp': 27.31, 'lipoC3S3': 12.43, 'lipoC3S2': 8.23, 'rot1': 53, 'rot0': 76, 'rot3': 14, 'rot2': 29, 'state': 'normal', 'yaw': -4.43, 'datetime': '2018-10-03 17:38:05.263256', 'mgs': 0, 'volt': 1.0254, 'depth': 3.522, 'time': 12, 'pitch': 7.69, 'roll': -2.92, 'pres': 210}
{'lipoC2': 7.26, 'lipoC3S1': 4.04, 'temp': 27.31, 'lipoC3S3': 12.45, 'lipoC3S2': 8.19, 'rot1': 54, 'rot0': 78, 'rot3': 14, 'rot2': 29, 'state': 'normal', 'yaw': -8.73, 'datetime': '2018-10-03 17:38:05.367265', 'mgs': 0, 'volt': 0.9961, 'depth': 3.064, 'time': 12, 'pitch': 8.28, 'roll': -3.94, 'pres': 204}
{'lipoC2': 7.26, 'lipoC3S1': 4.07, 'temp': 27.31, 'lipoC3S3': 12.43, 'lipoC3S2': 8.23, 'rot1': 55, 'rot0': 79, 'rot3': 14, 'rot2': 29, 'state': 'normal', 'yaw': -12.64, 'datetime': '2018-10-03 17:38:05.474500', 'mgs': 0, 'volt': 1.0352, 'depth': 3.674, 'time': 12, 'pitch': 8.64, 'roll': -4.69, 'pres': 212}
{'lipoC2': 7.26, 'lipoC3S1': 4.11, 'temp': 27.38, 'lipoC3S3': 12.43, 'lipoC3S2': 8.09, 'rot1': 56, 'rot0': 80, 'rot3': 14, 'rot2': 29, 'state': 'normal', 'yaw': -16.48, 'datetime': '2018-10-03 17:38:05.576616', 'mgs': 0, 'volt': 0.9863, 'depth': 2.911, 'time': 13, 'pitch': 8.84, 'roll': -5.19, 'pres': 202}
{'lipoC2': 7.26, 'lipoC3S1': 4.07, 'temp': 27.38, 'lipoC3S3': 12.45, 'lipoC3S2': 8.17, 'rot1': 58, 'rot0': 81, 'rot3': 14, 'rot2': 29, 'state': 'normal', 'yaw': -19.59, 'datetime': '2018-10-03 17:38:05.681875', 'mgs': 0, 'volt': 0.9863, 'depth': 2.911, 'time': 13, 'pitch': 8.89, 'roll': -5.39, 'pres': 202}
{'lipoC2': 7.26, 'lipoC3S1': 4.12, 'temp': 27.38, 'lipoC3S3': 12.31, 'lipoC3S2': 8.22, 'rot1': 59, 'rot0': 82, 'rot3': 14, 'rot2': 29, 'state': 'normal', 'yaw': -22.27, 'datetime': '2018-10-03 17:38:05.785875', 'mgs': 0, 'volt': 0.9814, 'depth': 2.835, 'time': 13, 'pitch': 8.6, 'roll': -5.4, 'pres': 201}
{'lipoC2': 7.25, 'lipoC3S1': 4.12, 'temp': 27.31, 'lipoC3S3': 12.42, 'lipoC3S2': 8.23, 'rot1': 60, 'rot0': 83, 'rot3': 14, 'rot2': 31, 'state': 'normal', 'yaw': -24.03, 'datetime': '2018-10-03 17:38:05.889859', 'mgs': 0, 'volt': 0.9766, 'depth': 2.759, 'time': 13, 'pitch': 8.23, 'roll': -5.16, 'pres': 200}
{'lipoC2': 7.26, 'lipoC3S1': 4.07, 'temp': 27.31, 'lipoC3S3': 12.43, 'lipoC3S2': 8.24, 'rot1': 61, 'rot0': 84, 'rot3': 14, 'rot2': 31, 'state': 'normal', 'yaw': -25.27, 'datetime': '2018-10-03 17:38:05.993818', 'mgs': 0, 'volt': 1.0107, 'depth': 3.293, 'time': 13, 'pitch': 7.71, 'roll': -4.63, 'pres': 207}
{'lipoC2': 7.26, 'lipoC3S1': 4.12, 'temp': 27.31, 'lipoC3S3': 12.45, 'lipoC3S2': 8.15, 'rot1': 62, 'rot0': 84, 'rot3': 15, 'rot2': 31, 'state': 'normal', 'yaw': -26.01, 'datetime': '2018-10-03 17:38:06.098001', 'mgs': 0, 'volt': 0.9717, 'depth': 2.682, 'time': 13, 'pitch': 6.91, 'roll': -3.71, 'pres': 199}
{'lipoC2': 7.26, 'lipoC3S1': 4.12, 'temp': 27.31, 'lipoC3S3': 12.37, 'lipoC3S2': 8.16, 'rot1': 63, 'rot0': 85, 'rot3': 15, 'rot2': 32, 'state': 'normal', 'yaw': -26.14, 'datetime': '2018-10-03 17:38:06.201890', 'mgs': 0, 'volt': 0.9668, 'depth': 2.606, 'time': 13, 'pitch': 6.13, 'roll': -2.75, 'pres': 198}
{'lipoC2': 7.26, 'lipoC3S1': 4.07, 'temp': 27.38, 'lipoC3S3': 12.43, 'lipoC3S2': 8.23, 'rot1': 65, 'rot0': 85, 'rot3': 15, 'rot2': 32, 'state': 'normal', 'yaw': -25.84, 'datetime': '2018-10-03 17:38:06.306114', 'mgs': 0, 'volt': 1.0107, 'depth': 3.293, 'time': 13, 'pitch': 5.37, 'roll': -1.72, 'pres': 207}
{'lipoC2': 7.26, 'lipoC3S1': 4.12, 'temp': 27.38, 'lipoC3S3': 12.43, 'lipoC3S2': 8.15, 'rot1': 66, 'rot0': 86, 'rot3': 16, 'rot2': 33, 'state': 'normal', 'yaw': -24.95, 'datetime': '2018-10-03 17:38:06.410169', 'mgs': 0, 'volt': 0.9668, 'depth': 2.606, 'time': 13, 'pitch': 4.65, 'roll': -0.68, 'pres': 198}
{'lipoC2': 7.26, 'lipoC3S1': 4.12, 'temp': 27.38, 'lipoC3S3': 12.3, 'lipoC3S2': 8.22, 'rot1': 67, 'rot0': 86, 'rot3': 16, 'rot2': 33, 'state': 'normal', 'yaw': -23.63, 'datetime': '2018-10-03 17:38:06.514150', 'mgs': 0, 'volt': 0.9619, 'depth': 2.53, 'time': 14, 'pitch': 3.93, 'roll': 0.09, 'pres': 197}
{'lipoC2': 7.25, 'lipoC3S1': 4.12, 'temp': 27.31, 'lipoC3S3': 12.42, 'lipoC3S2': 8.22, 'rot1': 68, 'rot0': 86, 'rot3': 17, 'rot2': 34, 'state': 'normal', 'yaw': -21.82, 'datetime': '2018-10-03 17:38:06.613781', 'mgs': 0, 'volt': 0.9766, 'depth': 2.759, 'time': 14, 'pitch': 3.2, 'roll': 0.82, 'pres': 200}
{'lipoC2': 7.26, 'lipoC3S1': 4.06, 'temp': 27.31, 'lipoC3S3': 12.43, 'lipoC3S2': 8.22, 'rot1': 69, 'rot0': 87, 'rot3': 17, 'rot2': 34, 'state': 'normal', 'yaw': -19.99, 'datetime': '2018-10-03 17:38:06.721301', 'mgs': 0, 'volt': 0.957, 'depth': 2.454, 'time': 14, 'pitch': 2.62, 'roll': 1.3, 'pres': 196}
{'lipoC2': 7.25, 'lipoC3S1': 4.12, 'temp': 27.31, 'lipoC3S3': 12.35, 'lipoC3S2': 8.2, 'rot1': 70, 'rot0': 88, 'rot3': 18, 'rot2': 35, 'state': 'normal', 'yaw': -18.28, 'datetime': '2018-10-03 17:38:06.827155', 'mgs': 0, 'volt': 0.957, 'depth': 2.454, 'time': 14, 'pitch': 1.94, 'roll': 1.78, 'pres': 196}
{'lipoC2': 7.26, 'lipoC3S1': 4.12, 'temp': 27.31, 'lipoC3S3': 12.39, 'lipoC3S2': 8.21, 'rot1': 72, 'rot0': 88, 'rot3': 18, 'rot2': 36, 'state': 'normal', 'yaw': -16.59, 'datetime': '2018-10-03 17:38:06.929416', 'mgs': 0, 'volt': 1.001, 'depth': 3.14, 'time': 14, 'pitch': 0.52, 'roll': 2.3, 'pres': 205}
{'lipoC2': 7.25, 'lipoC3S1': 4.11, 'temp': 27.31, 'lipoC3S3': 12.34, 'lipoC3S2': 8.2, 'rot1': 73, 'rot0': 89, 'rot3': 19, 'rot2': 36, 'state': 'normal', 'yaw': -13.96, 'datetime': '2018-10-03 17:38:07.036632', 'mgs': 0, 'volt': 0.9521, 'depth': 2.377, 'time': 14, 'pitch': -1.25, 'roll': 2.26, 'pres': 195}
{'lipoC2': 7.26, 'lipoC3S1': 4.08, 'temp': 27.31, 'lipoC3S3': 12.39, 'lipoC3S2': 8.2, 'rot1': 74, 'rot0': 90, 'rot3': 19, 'rot2': 37, 'state': 'normal', 'yaw': -8.74, 'datetime': '2018-10-03 17:38:07.140659', 'mgs': 0, 'volt': 1.001, 'depth': 3.14, 'time': 14, 'pitch': -3.39, 'roll': 0.86, 'pres': 205}
{'lipoC2': 7.27, 'lipoC3S1': 4.04, 'temp': 27.31, 'lipoC3S3': 12.39, 'lipoC3S2': 8.16, 'rot1': 75, 'rot0': 91, 'rot3': 19, 'rot2': 37, 'state': 'normal', 'yaw': -2.13, 'datetime': '2018-10-03 17:38:07.244782', 'mgs': 0, 'volt': 0.9619, 'depth': 2.53, 'time': 14, 'pitch': -5.94, 'roll': -1.74, 'pres': 197}
{'lipoC2': 7.25, 'lipoC3S1': 4.11, 'temp': 27.31, 'lipoC3S3': 12.31, 'lipoC3S2': 8.19, 'rot1': 76, 'rot0': 91, 'rot3': 20, 'rot2': 39, 'state': 'normal', 'yaw': 5.92, 'datetime': '2018-10-03 17:38:07.348996', 'mgs': 0, 'volt': 0.9326, 'depth': 2.072, 'time': 14, 'pitch': -9.25, 'roll': -5.19, 'pres': 191}
{'lipoC2': 7.26, 'lipoC3S1': 4.04, 'temp': 27.31, 'lipoC3S3': 12.27, 'lipoC3S2': 8.17, 'rot1': 77, 'rot0': 92, 'rot3': 20, 'rot2': 40, 'state': 'normal', 'yaw': 15.6, 'datetime': '2018-10-03 17:38:07.453060', 'mgs': 0, 'volt': 0.9521, 'depth': 2.377, 'time': 14, 'pitch': -12.16, 'roll': -9.45, 'pres': 195}
{'lipoC2': 7.26, 'lipoC3S1': 4.07, 'temp': 27.38, 'lipoC3S3': 12.38, 'lipoC3S2': 8.07, 'rot1': 79, 'rot0': 93, 'rot3': 21, 'rot2': 41, 'state': 'normal', 'yaw': 23.94, 'datetime': '2018-10-03 17:38:07.556979', 'mgs': 0, 'volt': 0.9326, 'depth': 2.072, 'time': 15, 'pitch': -12.91, 'roll': -12.87, 'pres': 191}
{'lipoC2': 7.26, 'lipoC3S1': 4.06, 'temp': 27.38, 'lipoC3S3': 12.25, 'lipoC3S2': 8.13, 'rot1': 79, 'rot0': 94, 'rot3': 21, 'rot2': 42, 'state': 'normal', 'yaw': 30.79, 'datetime': '2018-10-03 17:38:07.660968', 'mgs': 0, 'volt': 0.9033, 'depth': 1.614, 'time': 15, 'pitch': -12.54, 'roll': -14.96, 'pres': 185}
{'lipoC2': 7.26, 'lipoC3S1': 4.11, 'temp': 27.31, 'lipoC3S3': 12.3, 'lipoC3S2': 8.13, 'rot1': 80, 'rot0': 96, 'rot3': 22, 'rot2': 42, 'state': 'normal', 'yaw': 35.1, 'datetime': '2018-10-03 17:38:07.765118', 'mgs': 0, 'volt': 0.9668, 'depth': 2.606, 'time': 15, 'pitch': -11.51, 'roll': -15.32, 'pres': 198}
{'lipoC2': 7.26, 'lipoC3S1': 4.06, 'temp': 27.31, 'lipoC3S3': 12.21, 'lipoC3S2': 8.13, 'rot1': 81, 'rot0': 97, 'rot3': 22, 'rot2': 43, 'state': 'normal', 'yaw': 37.99, 'datetime': '2018-10-03 17:38:07.869335', 'mgs': 0, 'volt': 0.9473, 'depth': 2.301, 'time': 15, 'pitch': -10.31, 'roll': -14.85, 'pres': 194}
{'lipoC2': 7.26, 'lipoC3S1': 4.03, 'temp': 27.31, 'lipoC3S3': 12.27, 'lipoC3S2': 8.12, 'rot1': 81, 'rot0': 98, 'rot3': 23, 'rot2': 44, 'state': 'normal', 'yaw': 39.79, 'datetime': '2018-10-03 17:38:07.973203', 'mgs': 0, 'volt': 0.9619, 'depth': 2.53, 'time': 15, 'pitch': -9.08, 'roll': -13.71, 'pres': 197}
{'lipoC2': 7.25, 'lipoC3S1': 4.12, 'temp': 27.31, 'lipoC3S3': 12.41, 'lipoC3S2': 8.22, 'rot1': 81, 'rot0': 99, 'rot3': 24, 'rot2': 45, 'state': 'normal', 'yaw': 40.35, 'datetime': '2018-10-03 17:38:08.073555', 'mgs': 0, 'volt': 0.9473, 'depth': 2.301, 'time': 15, 'pitch': -8.23, 'roll': -12.21, 'pres': 194}
{'lipoC2': 7.26, 'lipoC3S1': 4.05, 'temp': 27.31, 'lipoC3S3': 12.42, 'lipoC3S2': 8.2, 'rot1': 81, 'rot0': 101, 'rot3': 24, 'rot2': 46, 'state': 'normal', 'yaw': 39.9, 'datetime': '2018-10-03 17:38:08.182599', 'mgs': 0, 'volt': 0.9521, 'depth': 2.377, 'time': 15, 'pitch': -7.31, 'roll': -10.02, 'pres': 195}
