{'lipoC2': 7.57, 'lipoC3S1': 4.14, 'temp': 31.63, 'lipoC3S3': 12.51, 'lipoC3S2': 8.27, 'rot1': 0, 'rot0': 0, 'rot3': 0, 'rot2': 0, 'state': 'normal', 'yaw': -0.38, 'datetime': '2018-10-09 11:57:53.738408', 'mgs': 0, 'volt': 0.8887, 'depth': 1.385, 'time': 1, 'pitch': 11.69, 'roll': -4.5, 'pres': 182}
{'lipoC2': 7.57, 'lipoC3S1': 4.14, 'temp': 31.63, 'lipoC3S3': 12.51, 'lipoC3S2': 8.27, 'rot1': 0, 'rot0': 0, 'rot3': 0, 'rot2': 0, 'state': 'normal', 'yaw': -1.1, 'datetime': '2018-10-09 11:57:53.769069', 'mgs': 0, 'volt': 0.8936, 'depth': 1.462, 'time': 1, 'pitch': 12.08, 'roll': -3.14, 'pres': 183}
{'lipoC2': 7.57, 'lipoC3S1': 4.14, 'temp': 31.63, 'lipoC3S3': 12.51, 'lipoC3S2': 8.28, 'rot1': 0, 'rot0': 0, 'rot3': 0, 'rot2': 0, 'state': 'normal', 'yaw': -1.82, 'datetime': '2018-10-09 11:57:53.799362', 'mgs': 0, 'volt': 0.8984, 'depth': 1.538, 'time': 1, 'pitch': 12.89, 'roll': -1.8, 'pres': 184}
{'lipoC2': 7.57, 'lipoC3S1': 4.14, 'temp': 31.63, 'lipoC3S3': 12.51, 'lipoC3S2': 8.27, 'rot1': 0, 'rot0': 0, 'rot3': 0, 'rot2': 0, 'state': 'normal', 'yaw': -2.45, 'datetime': '2018-10-09 11:57:53.814528', 'mgs': 0, 'volt': 0.9033, 'depth': 1.614, 'time': 1, 'pitch': 13.47, 'roll': -0.51, 'pres': 185}
{'lipoC2': 7.57, 'lipoC3S1': 4.14, 'temp': 31.63, 'lipoC3S3': 12.51, 'lipoC3S2': 8.27, 'rot1': 0, 'rot0': 0, 'rot3': 0, 'rot2': 0, 'state': 'normal', 'yaw': -3.12, 'datetime': '2018-10-09 11:57:53.825860', 'mgs': 0, 'volt': 0.9082, 'depth': 1.691, 'time': 1, 'pitch': 13.5, 'roll': 0.5, 'pres': 186}
{'lipoC2': 7.57, 'lipoC3S1': 4.14, 'temp': 31.63, 'lipoC3S3': 12.51, 'lipoC3S2': 8.27, 'rot1': 0, 'rot0': 0, 'rot3': 0, 'rot2': 0, 'state': 'normal', 'yaw': -2.86, 'datetime': '2018-10-09 11:57:53.835479', 'mgs': 0, 'volt': 0.9082, 'depth': 1.691, 'time': 1, 'pitch': 13.42, 'roll': 1.13, 'pres': 186}
{'lipoC2': 7.57, 'lipoC3S1': 4.14, 'temp': 31.63, 'lipoC3S3': 12.51, 'lipoC3S2': 8.27, 'rot1': 0, 'rot0': 0, 'rot3': 0, 'rot2': 0, 'state': 'normal', 'yaw': -2.89, 'datetime': '2018-10-09 11:57:53.845046', 'mgs': 0, 'volt': 0.9082, 'depth': 1.691, 'time': 1, 'pitch': 13.34, 'roll': 1.7, 'pres': 186}
{'lipoC2': 7.57, 'lipoC3S1': 4.14, 'temp': 31.63, 'lipoC3S3': 12.51, 'lipoC3S2': 8.27, 'rot1': 0, 'rot0': 0, 'rot3': 0, 'rot2': 0, 'state': 'normal', 'yaw': -2.69, 'datetime': '2018-10-09 11:57:53.854570', 'mgs': 0, 'volt': 0.9082, 'depth': 1.691, 'time': 2, 'pitch': 13.06, 'roll': 2.31, 'pres': 186}
{'lipoC2': 7.57, 'lipoC3S1': 4.14, 'temp': 31.56, 'lipoC3S3': 12.51, 'lipoC3S2': 8.27, 'rot1': 0, 'rot0': 0, 'rot3': 0, 'rot2': 0, 'state': 'normal', 'yaw': -2.58, 'datetime': '2018-10-09 11:57:53.864114', 'mgs': 0, 'volt': 0.9082, 'depth': 1.691, 'time': 2, 'pitch': 12.28, 'roll': 2.75, 'pres': 186}
{'lipoC2': 7.57, 'lipoC3S1': 4.14, 'temp': 31.56, 'lipoC3S3': 12.51, 'lipoC3S2': 8.27, 'rot1': 0, 'rot0': 0, 'rot3': 0, 'rot2': 0, 'state': 'normal', 'yaw': -2.87, 'datetime': '2018-10-09 11:57:53.873650', 'mgs': 0, 'volt': 0.9033, 'depth': 1.614, 'time': 2, 'pitch': 10.84, 'roll': 2.84, 'pres': 185}
{'lipoC2': 7.57, 'lipoC3S1': 4.14, 'temp': 31.56, 'lipoC3S3': 12.51, 'lipoC3S2': 8.27, 'rot1': 0, 'rot0': 0, 'rot3': 0, 'rot2': 0, 'state': 'normal', 'yaw': -3.05, 'datetime': '2018-10-09 11:57:53.883178', 'mgs': 0, 'volt': 0.9033, 'depth': 1.614, 'time': 2, 'pitch': 8.83, 'roll': 2.79, 'pres': 185}
{'lipoC2': 7.57, 'lipoC3S1': 4.14, 'temp': 31.63, 'lipoC3S3': 12.51, 'lipoC3S2': 8.27, 'rot1': 0, 'rot0': 0, 'rot3': 0, 'rot2': 0, 'state': 'normal', 'yaw': -3.2, 'datetime': '2018-10-09 11:57:53.892724', 'mgs': 0, 'volt': 0.9033, 'depth': 1.614, 'time': 2, 'pitch': 7.03, 'roll': 2.74, 'pres': 185}
{'lipoC2': 7.57, 'lipoC3S1': 4.14, 'temp': 31.63, 'lipoC3S3': 12.51, 'lipoC3S2': 8.27, 'rot1': 0, 'rot0': 0, 'rot3': 0, 'rot2': 0, 'state': 'normal', 'yaw': -3.15, 'datetime': '2018-10-09 11:57:53.902241', 'mgs': 0, 'volt': 0.8984, 'depth': 1.538, 'time': 2, 'pitch': 5.42, 'roll': 2.78, 'pres': 184}
{'lipoC2': 7.57, 'lipoC3S1': 4.14, 'temp': 31.63, 'lipoC3S3': 12.51, 'lipoC3S2': 8.27, 'rot1': 0, 'rot0': 0, 'rot3': 0, 'rot2': 0, 'state': 'normal', 'yaw': -2.89, 'datetime': '2018-10-09 11:57:53.911786', 'mgs': 0, 'volt': 0.9033, 'depth': 1.614, 'time': 2, 'pitch': 4.12, 'roll': 2.89, 'pres': 185}
{'lipoC2': 7.57, 'lipoC3S1': 4.14, 'temp': 31.63, 'lipoC3S3': 12.51, 'lipoC3S2': 8.28, 'rot1': 0, 'rot0': 0, 'rot3': 0, 'rot2': 0, 'state': 'normal', 'yaw': -2.61, 'datetime': '2018-10-09 11:57:53.921742', 'mgs': 0, 'volt': 0.8984, 'depth': 1.538, 'time': 2, 'pitch': 3.86, 'roll': 3.0, 'pres': 184}
{'lipoC2': 7.57, 'lipoC3S1': 4.14, 'temp': 31.69, 'lipoC3S3': 12.51, 'lipoC3S2': 8.27, 'rot1': 0, 'rot0': 0, 'rot3': 0, 'rot2': 0, 'state': 'normal', 'yaw': -2.23, 'datetime': '2018-10-09 11:57:53.931399', 'mgs': 0, 'volt': 0.9033, 'depth': 1.614, 'time': 2, 'pitch': 4.45, 'roll': 3.06, 'pres': 185}
{'lipoC2': 7.57, 'lipoC3S1': 4.14, 'temp': 31.69, 'lipoC3S3': 12.51, 'lipoC3S2': 8.27, 'rot1': 0, 'rot0': 0, 'rot3': 0, 'rot2': 0, 'state': 'normal', 'yaw': -1.3, 'datetime': '2018-10-09 11:57:53.940931', 'mgs': 0, 'volt': 0.9033, 'depth': 1.614, 'time': 3, 'pitch': 5.39, 'roll': 2.81, 'pres': 185}
{'lipoC2': 7.57, 'lipoC3S1': 4.14, 'temp': 31.69, 'lipoC3S3': 12.51, 'lipoC3S2': 8.27, 'rot1': 0, 'rot0': 0, 'rot3': 0, 'rot2': 0, 'state': 'normal', 'yaw': -0.15, 'datetime': '2018-10-09 11:57:53.950623', 'mgs': 0, 'volt': 0.9033, 'depth': 1.614, 'time': 3, 'pitch': 6.08, 'roll': 2.32, 'pres': 185}
{'lipoC2': 7.57, 'lipoC3S1': 4.14, 'temp': 31.63, 'lipoC3S3': 12.51, 'lipoC3S2': 8.27, 'rot1': 0, 'rot0': 0, 'rot3': 0, 'rot2': 0, 'state': 'normal', 'yaw': 0.87, 'datetime': '2018-10-09 11:57:53.960194', 'mgs': 0, 'volt': 0.9033, 'depth': 1.614, 'time': 3, 'pitch': 6.36, 'roll': 1.84, 'pres': 185}
{'lipoC2': 7.57, 'lipoC3S1': 4.14, 'temp': 31.63, 'lipoC3S3': 12.51, 'lipoC3S2': 8.27, 'rot1': 0, 'rot0': 0, 'rot3': 0, 'rot2': 0, 'state': 'normal', 'yaw': 1.88, 'datetime': '2018-10-09 11:57:53.969722', 'mgs': 0, 'volt': 0.9033, 'depth': 1.614, 'time': 3, 'pitch': 6.34, 'roll': 1.29, 'pres': 185}
{'lipoC2': 7.56, 'lipoC3S1': 4.14, 'temp': 31.63, 'lipoC3S3': 12.51, 'lipoC3S2': 8.27, 'rot1': 0, 'rot0': 0, 'rot3': 0, 'rot2': 0, 'state': 'normal', 'yaw': 2.78, 'datetime': '2018-10-09 11:57:53.979283', 'mgs': 0, 'volt': 0.8984, 'depth': 1.538, 'time': 3, 'pitch': 6.29, 'roll': 0.69, 'pres': 184}
{'lipoC2': 7.57, 'lipoC3S1': 4.14, 'temp': 31.63, 'lipoC3S3': 12.51, 'lipoC3S2': 8.27, 'rot1': 0, 'rot0': 0, 'rot3': 0, 'rot2': 0, 'state': 'normal', 'yaw': 3.45, 'datetime': '2018-10-09 11:57:54.032962', 'mgs': 0, 'volt': 0.8984, 'depth': 1.538, 'time': 3, 'pitch': 6.58, 'roll': 0.13, 'pres': 184}
{'lipoC2': 7.57, 'lipoC3S1': 4.14, 'temp': 31.5, 'lipoC3S3': 12.51, 'lipoC3S2': 8.27, 'rot1': 0, 'rot0': 0, 'rot3': 0, 'rot2': 0, 'state': 'normal', 'yaw': 3.43, 'datetime': '2018-10-09 11:57:54.136161', 'mgs': 0, 'volt': 0.8936, 'depth': 1.462, 'time': 3, 'pitch': 6.31, 'roll': -0.12, 'pres': 183}
{'lipoC2': 7.57, 'lipoC3S1': 4.14, 'temp': 31.5, 'lipoC3S3': 12.51, 'lipoC3S2': 8.27, 'rot1': 0, 'rot0': 0, 'rot3': 0, 'rot2': 0, 'state': 'normal', 'yaw': 2.95, 'datetime': '2018-10-09 11:57:54.239439', 'mgs': 0, 'volt': 0.8887, 'depth': 1.385, 'time': 3, 'pitch': 3.99, 'roll': 0.07, 'pres': 182}
{'lipoC2': 7.56, 'lipoC3S1': 4.14, 'temp': 31.5, 'lipoC3S3': 12.51, 'lipoC3S2': 8.27, 'rot1': 0, 'rot0': 0, 'rot3': 0, 'rot2': 0, 'state': 'normal', 'yaw': 1.6, 'datetime': '2018-10-09 11:57:54.343365', 'mgs': 0, 'volt': 0.8789, 'depth': 1.233, 'time': 3, 'pitch': 0.53, 'roll': 0.69, 'pres': 180}
{'lipoC2': 7.57, 'lipoC3S1': 4.14, 'temp': 31.56, 'lipoC3S3': 12.51, 'lipoC3S2': 8.28, 'rot1': 0, 'rot0': 0, 'rot3': 0, 'rot2': 0, 'state': 'normal', 'yaw': -0.46, 'datetime': '2018-10-09 11:57:54.446577', 'mgs': 0, 'volt': 0.874, 'depth': 1.157, 'time': 3, 'pitch': -3.83, 'roll': 1.6, 'pres': 179}
{'lipoC2': 7.57, 'lipoC3S1': 4.14, 'temp': 31.56, 'lipoC3S3': 12.51, 'lipoC3S2': 8.27, 'rot1': 0, 'rot0': 0, 'rot3': 0, 'rot2': 0, 'state': 'normal', 'yaw': -2.38, 'datetime': '2018-10-09 11:57:54.554369', 'mgs': 0, 'volt': 0.8691, 'depth': 1.08, 'time': 4, 'pitch': -7.53, 'roll': 2.44, 'pres': 178}
{'lipoC2': 7.57, 'lipoC3S1': 4.14, 'temp': 31.5, 'lipoC3S3': 12.51, 'lipoC3S2': 8.27, 'rot1': 0, 'rot0': 0, 'rot3': 0, 'rot2': 0, 'state': 'normal', 'yaw': -3.97, 'datetime': '2018-10-09 11:57:54.661634', 'mgs': 0, 'volt': 0.8691, 'depth': 1.08, 'time': 4, 'pitch': -10.55, 'roll': 3.07, 'pres': 178}
{'lipoC2': 7.57, 'lipoC3S1': 4.14, 'temp': 31.5, 'lipoC3S3': 12.51, 'lipoC3S2': 8.27, 'rot1': 0, 'rot0': 0, 'rot3': 0, 'rot2': 0, 'state': 'normal', 'yaw': -5.13, 'datetime': '2018-10-09 11:57:54.765015', 'mgs': 0, 'volt': 0.8643, 'depth': 1.004, 'time': 4, 'pitch': -12.48, 'roll': 3.3, 'pres': 177}
{'lipoC2': 7.57, 'lipoC3S1': 4.14, 'temp': 31.56, 'lipoC3S3': 12.51, 'lipoC3S2': 8.28, 'rot1': 0, 'rot0': 0, 'rot3': 0, 'rot2': 0, 'state': 'normal', 'yaw': -5.21, 'datetime': '2018-10-09 11:57:54.868324', 'mgs': 0, 'volt': 0.8691, 'depth': 1.08, 'time': 4, 'pitch': -12.59, 'roll': 2.96, 'pres': 178}
{'lipoC2': 7.57, 'lipoC3S1': 4.14, 'temp': 31.56, 'lipoC3S3': 12.51, 'lipoC3S2': 8.27, 'rot1': 0, 'rot0': 0, 'rot3': 0, 'rot2': 0, 'state': 'normal', 'yaw': -4.77, 'datetime': '2018-10-09 11:57:54.972725', 'mgs': 0, 'volt': 0.8643, 'depth': 1.004, 'time': 4, 'pitch': -11.54, 'roll': 2.14, 'pres': 177}
{'lipoC2': 7.57, 'lipoC3S1': 4.14, 'temp': 31.56, 'lipoC3S3': 12.51, 'lipoC3S2': 8.27, 'rot1': 0, 'rot0': 0, 'rot3': 0, 'rot2': 0, 'state': 'normal', 'yaw': -4.37, 'datetime': '2018-10-09 11:57:55.075854', 'mgs': 0, 'volt': 0.8643, 'depth': 1.004, 'time': 4, 'pitch': -9.45, 'roll': 1.17, 'pres': 177}
{'lipoC2': 7.57, 'lipoC3S1': 4.14, 'temp': 31.63, 'lipoC3S3': 12.51, 'lipoC3S2': 8.27, 'rot1': 0, 'rot0': 0, 'rot3': 0, 'rot2': 0, 'state': 'normal', 'yaw': -4.63, 'datetime': '2018-10-09 11:57:55.179047', 'mgs': 0, 'volt': 0.8594, 'depth': 0.928, 'time': 4, 'pitch': -7.47, 'roll': 0.81, 'pres': 176}
{'lipoC2': 7.57, 'lipoC3S1': 4.14, 'temp': 31.63, 'lipoC3S3': 12.51, 'lipoC3S2': 8.27, 'rot1': 0, 'rot0': 0, 'rot3': 0, 'rot2': 0, 'state': 'normal', 'yaw': -5.64, 'datetime': '2018-10-09 11:57:55.282583', 'mgs': 0, 'volt': 0.8594, 'depth': 0.928, 'time': 4, 'pitch': -7.0, 'roll': 0.93, 'pres': 176}
{'lipoC2': 7.57, 'lipoC3S1': 4.14, 'temp': 31.63, 'lipoC3S3': 12.51, 'lipoC3S2': 8.27, 'rot1': 0, 'rot0': 0, 'rot3': 0, 'rot2': 0, 'state': 'normal', 'yaw': -6.65, 'datetime': '2018-10-09 11:57:55.385785', 'mgs': 0, 'volt': 0.8594, 'depth': 0.928, 'time': 4, 'pitch': -9.2, 'roll': 1.27, 'pres': 176}
{'lipoC2': 7.57, 'lipoC3S1': 4.14, 'temp': 31.63, 'lipoC3S3': 12.51, 'lipoC3S2': 8.27, 'rot1': 0, 'rot0': 0, 'rot3': 0, 'rot2': 0, 'state': 'normal', 'yaw': -7.26, 'datetime': '2018-10-09 11:57:55.489308', 'mgs': 0, 'volt': 0.8545, 'depth': 0.851, 'time': 4, 'pitch': -11.95, 'roll': 1.44, 'pres': 175}
{'lipoC2': 7.57, 'lipoC3S1': 4.14, 'temp': 31.63, 'lipoC3S3': 12.51, 'lipoC3S2': 8.27, 'rot1': 0, 'rot0': 0, 'rot3': 0, 'rot2': 0, 'state': 'normal', 'yaw': -7.46, 'datetime': '2018-10-09 11:57:55.592223', 'mgs': 0, 'volt': 0.8545, 'depth': 0.851, 'time': 5, 'pitch': -14.06, 'roll': 1.39, 'pres': 175}
{'lipoC2': 7.57, 'lipoC3S1': 4.14, 'temp': 31.56, 'lipoC3S3': 12.51, 'lipoC3S2': 8.27, 'rot1': 0, 'rot0': 0, 'rot3': 0, 'rot2': 0, 'state': 'normal', 'yaw': -7.3, 'datetime': '2018-10-09 11:57:55.695655', 'mgs': 0, 'volt': 0.8496, 'depth': 0.775, 'time': 5, 'pitch': -14.7, 'roll': 0.92, 'pres': 174}
{'lipoC2': 7.57, 'lipoC3S1': 4.14, 'temp': 31.56, 'lipoC3S3': 12.51, 'lipoC3S2': 8.27, 'rot1': 0, 'rot0': 0, 'rot3': 0, 'rot2': 0, 'state': 'normal', 'yaw': -6.4, 'datetime': '2018-10-09 11:57:55.798912', 'mgs': 0, 'volt': 0.8496, 'depth': 0.775, 'time': 5, 'pitch': -13.58, 'roll': 0.25, 'pres': 174}
{'lipoC2': 7.57, 'lipoC3S1': 4.14, 'temp': 31.63, 'lipoC3S3': 12.51, 'lipoC3S2': 8.27, 'rot1': 0, 'rot0': 0, 'rot3': 0, 'rot2': 0, 'state': 'normal', 'yaw': -5.29, 'datetime': '2018-10-09 11:57:55.903349', 'mgs': 0, 'volt': 0.8545, 'depth': 0.851, 'time': 5, 'pitch': -11.33, 'roll': -0.33, 'pres': 175}
{'lipoC2': 7.57, 'lipoC3S1': 4.14, 'temp': 31.63, 'lipoC3S3': 12.51, 'lipoC3S2': 8.27, 'rot1': 0, 'rot0': 0, 'rot3': 0, 'rot2': 0, 'state': 'normal', 'yaw': -3.8, 'datetime': '2018-10-09 11:57:56.006573', 'mgs': 0, 'volt': 0.8594, 'depth': 0.928, 'time': 5, 'pitch': -9.01, 'roll': -0.98, 'pres': 176}
{'lipoC2': 7.57, 'lipoC3S1': 4.14, 'temp': 31.63, 'lipoC3S3': 12.51, 'lipoC3S2': 8.27, 'rot1': 0, 'rot0': 0, 'rot3': 0, 'rot2': 0, 'state': 'normal', 'yaw': -2.28, 'datetime': '2018-10-09 11:57:56.109975', 'mgs': 0, 'volt': 0.8594, 'depth': 0.928, 'time': 5, 'pitch': -7.75, 'roll': -1.68, 'pres': 176}
{'lipoC2': 7.57, 'lipoC3S1': 4.14, 'temp': 31.63, 'lipoC3S3': 12.51, 'lipoC3S2': 8.27, 'rot1': 0, 'rot0': 0, 'rot3': 0, 'rot2': 0, 'state': 'normal', 'yaw': -0.58, 'datetime': '2018-10-09 11:57:56.214328', 'mgs': 0, 'volt': 0.8594, 'depth': 0.928, 'time': 5, 'pitch': -7.35, 'roll': -2.6, 'pres': 176}
{'lipoC2': 7.57, 'lipoC3S1': 4.14, 'temp': 31.63, 'lipoC3S3': 12.51, 'lipoC3S2': 8.27, 'rot1': 0, 'rot0': 0, 'rot3': 0, 'rot2': 0, 'state': 'normal', 'yaw': 1.34, 'datetime': '2018-10-09 11:57:56.317537', 'mgs': 0, 'volt': 0.8643, 'depth': 1.004, 'time': 5, 'pitch': -7.44, 'roll': -3.66, 'pres': 177}
{'lipoC2': 7.57, 'lipoC3S1': 4.14, 'temp': 31.63, 'lipoC3S3': 12.51, 'lipoC3S2': 8.27, 'rot1': 0, 'rot0': 0, 'rot3': 0, 'rot2': 0, 'state': 'normal', 'yaw': 2.81, 'datetime': '2018-10-09 11:57:56.421055', 'mgs': 0, 'volt': 0.8594, 'depth': 0.928, 'time': 5, 'pitch': -7.61, 'roll': -4.24, 'pres': 176}
{'lipoC2': 7.57, 'lipoC3S1': 4.14, 'temp': 31.63, 'lipoC3S3': 12.51, 'lipoC3S2': 8.28, 'rot1': 0, 'rot0': 0, 'rot3': 0, 'rot2': 0, 'state': 'normal', 'yaw': 3.78, 'datetime': '2018-10-09 11:57:56.525412', 'mgs': 0, 'volt': 0.8643, 'depth': 1.004, 'time': 6, 'pitch': -7.51, 'roll': -4.02, 'pres': 177}
{'lipoC2': 7.57, 'lipoC3S1': 4.14, 'temp': 31.63, 'lipoC3S3': 12.51, 'lipoC3S2': 8.27, 'rot1': 0, 'rot0': 0, 'rot3': 0, 'rot2': 0, 'state': 'normal', 'yaw': 4.25, 'datetime': '2018-10-09 11:57:56.626462', 'mgs': 0, 'volt': 0.8594, 'depth': 0.928, 'time': 6, 'pitch': -7.07, 'roll': -2.85, 'pres': 176}
{'lipoC2': 7.57, 'lipoC3S1': 4.14, 'temp': 31.63, 'lipoC3S3': 12.51, 'lipoC3S2': 8.28, 'rot1': 0, 'rot0': 0, 'rot3': 0, 'rot2': 0, 'state': 'normal', 'yaw': 4.26, 'datetime': '2018-10-09 11:57:56.730243', 'mgs': 0, 'volt': 0.8643, 'depth': 1.004, 'time': 6, 'pitch': -6.27, 'roll': -1.41, 'pres': 177}
{'lipoC2': 7.57, 'lipoC3S1': 4.14, 'temp': 31.63, 'lipoC3S3': 12.51, 'lipoC3S2': 8.27, 'rot1': 0, 'rot0': 0, 'rot3': 0, 'rot2': 0, 'state': 'normal', 'yaw': 4.13, 'datetime': '2018-10-09 11:57:56.835523', 'mgs': 0, 'volt': 0.8643, 'depth': 1.004, 'time': 6, 'pitch': -5.29, 'roll': -0.03, 'pres': 177}
{'lipoC2': 7.57, 'lipoC3S1': 4.14, 'temp': 31.63, 'lipoC3S3': 12.51, 'lipoC3S2': 8.28, 'rot1': 0, 'rot0': 0, 'rot3': 0, 'rot2': 0, 'state': 'normal', 'yaw': 4.08, 'datetime': '2018-10-09 11:57:56.938515', 'mgs': 0, 'volt': 0.8691, 'depth': 1.08, 'time': 6, 'pitch': -4.26, 'roll': 1.11, 'pres': 178}
{'lipoC2': 7.57, 'lipoC3S1': 4.14, 'temp': 31.63, 'lipoC3S3': 12.51, 'lipoC3S2': 8.27, 'rot1': 0, 'rot0': 0, 'rot3': 0, 'rot2': 0, 'state': 'normal', 'yaw': 4.11, 'datetime': '2018-10-09 11:57:57.041698', 'mgs': 0, 'volt': 0.8691, 'depth': 1.08, 'time': 6, 'pitch': -3.7, 'roll': 1.74, 'pres': 178}
{'lipoC2': 7.57, 'lipoC3S1': 4.14, 'temp': 31.63, 'lipoC3S3': 12.51, 'lipoC3S2': 8.27, 'rot1': 0, 'rot0': 0, 'rot3': 0, 'rot2': 0, 'state': 'normal', 'yaw': 4.21, 'datetime': '2018-10-09 11:57:57.144912', 'mgs': 0, 'volt': 0.874, 'depth': 1.157, 'time': 6, 'pitch': -3.54, 'roll': 2.04, 'pres': 179}
{'lipoC2': 7.57, 'lipoC3S1': 4.14, 'temp': 31.63, 'lipoC3S3': 12.51, 'lipoC3S2': 8.27, 'rot1': 0, 'rot0': 0, 'rot3': 0, 'rot2': 0, 'state': 'normal', 'yaw': 4.42, 'datetime': '2018-10-09 11:57:57.248085', 'mgs': 0, 'volt': 0.8789, 'depth': 1.233, 'time': 6, 'pitch': -3.54, 'roll': 2.18, 'pres': 180}
{'lipoC2': 7.57, 'lipoC3S1': 4.14, 'temp': 31.63, 'lipoC3S3': 12.51, 'lipoC3S2': 8.28, 'rot1': 0, 'rot0': 0, 'rot3': 0, 'rot2': 0, 'state': 'normal', 'yaw': 4.81, 'datetime': '2018-10-09 11:57:57.351339', 'mgs': 0, 'volt': 0.874, 'depth': 1.157, 'time': 6, 'pitch': -3.4, 'roll': 2.35, 'pres': 179}
{'lipoC2': 7.57, 'lipoC3S1': 4.14, 'temp': 31.63, 'lipoC3S3': 12.51, 'lipoC3S2': 8.27, 'rot1': 0, 'rot0': 0, 'rot3': 0, 'rot2': 0, 'state': 'normal', 'yaw': 5.5, 'datetime': '2018-10-09 11:57:57.454514', 'mgs': 0, 'volt': 0.8789, 'depth': 1.233, 'time': 6, 'pitch': -3.15, 'roll': 2.6, 'pres': 180}
{'lipoC2': 7.57, 'lipoC3S1': 4.14, 'temp': 31.56, 'lipoC3S3': 12.51, 'lipoC3S2': 8.27, 'rot1': 0, 'rot0': 0, 'rot3': 0, 'rot2': 0, 'state': 'normal', 'yaw': 6.49, 'datetime': '2018-10-09 11:57:57.557905', 'mgs': 0, 'volt': 0.874, 'depth': 1.157, 'time': 7, 'pitch': -3.06, 'roll': 2.93, 'pres': 179}
{'lipoC2': 7.57, 'lipoC3S1': 4.14, 'temp': 31.56, 'lipoC3S3': 12.51, 'lipoC3S2': 8.27, 'rot1': 0, 'rot0': 0, 'rot3': 0, 'rot2': 0, 'state': 'normal', 'yaw': 7.37, 'datetime': '2018-10-09 11:57:57.660955', 'mgs': 0, 'volt': 0.874, 'depth': 1.157, 'time': 7, 'pitch': -3.38, 'roll': 3.2, 'pres': 179}
{'lipoC2': 7.57, 'lipoC3S1': 4.14, 'temp': 31.56, 'lipoC3S3': 12.51, 'lipoC3S2': 8.27, 'rot1': 0, 'rot0': 0, 'rot3': 0, 'rot2': 0, 'state': 'normal', 'yaw': 8.07, 'datetime': '2018-10-09 11:57:57.765477', 'mgs': 0, 'volt': 0.874, 'depth': 1.157, 'time': 7, 'pitch': -3.81, 'roll': 3.49, 'pres': 179}
{'lipoC2': 7.57, 'lipoC3S1': 4.14, 'temp': 31.56, 'lipoC3S3': 12.51, 'lipoC3S2': 8.27, 'rot1': 0, 'rot0': 0, 'rot3': 0, 'rot2': 0, 'state': 'normal', 'yaw': 8.52, 'datetime': '2018-10-09 11:57:57.868621', 'mgs': 0, 'volt': 0.8691, 'depth': 1.08, 'time': 7, 'pitch': -4.13, 'roll': 3.81, 'pres': 178}
{'lipoC2': 7.57, 'lipoC3S1': 4.14, 'temp': 31.56, 'lipoC3S3': 12.51, 'lipoC3S2': 8.28, 'rot1': 0, 'rot0': 0, 'rot3': 0, 'rot2': 0, 'state': 'normal', 'yaw': 8.54, 'datetime': '2018-10-09 11:57:57.971817', 'mgs': 0, 'volt': 0.8691, 'depth': 1.08, 'time': 7, 'pitch': -4.5, 'roll': 3.96, 'pres': 178}
{'lipoC2': 7.57, 'lipoC3S1': 4.14, 'temp': 31.56, 'lipoC3S3': 12.51, 'lipoC3S2': 8.27, 'rot1': 0, 'rot0': 0, 'rot3': 0, 'rot2': 0, 'state': 'normal', 'yaw': 8.16, 'datetime': '2018-10-09 11:57:58.076285', 'mgs': 0, 'volt': 0.8691, 'depth': 1.08, 'time': 7, 'pitch': -5.09, 'roll': 3.97, 'pres': 178}
{'lipoC2': 7.57, 'lipoC3S1': 4.14, 'temp': 31.56, 'lipoC3S3': 12.51, 'lipoC3S2': 8.28, 'rot1': 0, 'rot0': 0, 'rot3': 0, 'rot2': 0, 'state': 'normal', 'yaw': 7.47, 'datetime': '2018-10-09 11:57:58.179519', 'mgs': 0, 'volt': 0.8691, 'depth': 1.08, 'time': 7, 'pitch': -6.19, 'roll': 3.8, 'pres': 178}
{'lipoC2': 7.57, 'lipoC3S1': 4.14, 'temp': 31.56, 'lipoC3S3': 12.51, 'lipoC3S2': 8.27, 'rot1': 0, 'rot0': 0, 'rot3': 0, 'rot2': 0, 'state': 'normal', 'yaw': 6.7, 'datetime': '2018-10-09 11:57:58.282767', 'mgs': 0, 'volt': 0.8691, 'depth': 1.08, 'time': 7, 'pitch': -7.64, 'roll': 3.57, 'pres': 178}
{'lipoC2': 7.57, 'lipoC3S1': 4.14, 'temp': 31.56, 'lipoC3S3': 12.51, 'lipoC3S2': 8.27, 'rot1': 0, 'rot0': 0, 'rot3': 0, 'rot2': 0, 'state': 'normal', 'yaw': 5.94, 'datetime': '2018-10-09 11:57:58.385944', 'mgs': 0, 'volt': 0.8691, 'depth': 1.08, 'time': 7, 'pitch': -9.13, 'roll': 3.25, 'pres': 178}
{'lipoC2': 7.57, 'lipoC3S1': 4.14, 'temp': 31.56, 'lipoC3S3': 12.51, 'lipoC3S2': 8.27, 'rot1': 0, 'rot0': 0, 'rot3': 0, 'rot2': 0, 'state': 'normal', 'yaw': 5.36, 'datetime': '2018-10-09 11:57:58.489128', 'mgs': 0, 'volt': 0.8643, 'depth': 1.004, 'time': 7, 'pitch': -10.26, 'roll': 2.79, 'pres': 177}
{'lipoC2': 7.57, 'lipoC3S1': 4.14, 'temp': 31.56, 'lipoC3S3': 12.51, 'lipoC3S2': 8.27, 'rot1': 0, 'rot0': 0, 'rot3': 0, 'rot2': 0, 'state': 'normal', 'yaw': 4.84, 'datetime': '2018-10-09 11:57:58.592394', 'mgs': 0, 'volt': 0.8643, 'depth': 1.004, 'time': 8, 'pitch': -11.07, 'roll': 2.19, 'pres': 177}
{'lipoC2': 7.57, 'lipoC3S1': 4.14, 'temp': 31.56, 'lipoC3S3': 12.51, 'lipoC3S2': 8.27, 'rot1': 0, 'rot0': 0, 'rot3': 0, 'rot2': 0, 'state': 'normal', 'yaw': 4.13, 'datetime': '2018-10-09 11:57:58.695609', 'mgs': 0, 'volt': 0.8691, 'depth': 1.08, 'time': 8, 'pitch': -11.62, 'roll': 1.81, 'pres': 178}
{'lipoC2': 7.57, 'lipoC3S1': 4.14, 'temp': 31.56, 'lipoC3S3': 12.51, 'lipoC3S2': 8.28, 'rot1': 0, 'rot0': 0, 'rot3': 0, 'rot2': 0, 'state': 'normal', 'yaw': 3.5, 'datetime': '2018-10-09 11:57:58.798943', 'mgs': 0, 'volt': 0.8643, 'depth': 1.004, 'time': 8, 'pitch': -12.28, 'roll': 1.44, 'pres': 177}
{'lipoC2': 7.57, 'lipoC3S1': 4.14, 'temp': 31.56, 'lipoC3S3': 12.51, 'lipoC3S2': 8.27, 'rot1': 0, 'rot0': 0, 'rot3': 0, 'rot2': 0, 'state': 'normal', 'yaw': 2.44, 'datetime': '2018-10-09 11:57:58.902197', 'mgs': 0, 'volt': 0.8643, 'depth': 1.004, 'time': 8, 'pitch': -12.84, 'roll': 1.48, 'pres': 177}
{'lipoC2': 7.57, 'lipoC3S1': 4.14, 'temp': 31.56, 'lipoC3S3': 12.51, 'lipoC3S2': 8.28, 'rot1': 0, 'rot0': 0, 'rot3': 0, 'rot2': 0, 'state': 'normal', 'yaw': 1.14, 'datetime': '2018-10-09 11:57:59.002678', 'mgs': 0, 'volt': 0.8691, 'depth': 1.08, 'time': 8, 'pitch': -12.26, 'roll': 2.01, 'pres': 178}
{'lipoC2': 7.57, 'lipoC3S1': 4.14, 'temp': 31.56, 'lipoC3S3': 12.51, 'lipoC3S2': 8.27, 'rot1': 0, 'rot0': 0, 'rot3': 0, 'rot2': 0, 'state': 'normal', 'yaw': -0.48, 'datetime': '2018-10-09 11:57:59.109583', 'mgs': 0, 'volt': 0.8643, 'depth': 1.004, 'time': 8, 'pitch': -9.0, 'roll': 3.02, 'pres': 177}
{'lipoC2': 7.57, 'lipoC3S1': 4.14, 'temp': 31.56, 'lipoC3S3': 12.51, 'lipoC3S2': 8.28, 'rot1': 0, 'rot0': 0, 'rot3': 0, 'rot2': 0, 'state': 'normal', 'yaw': -2.55, 'datetime': '2018-10-09 11:57:59.212605', 'mgs': 0, 'volt': 0.8643, 'depth': 1.004, 'time': 8, 'pitch': -5.8, 'roll': 4.2, 'pres': 177}
{'lipoC2': 7.57, 'lipoC3S1': 4.14, 'temp': 31.63, 'lipoC3S3': 12.51, 'lipoC3S2': 8.27, 'rot1': 0, 'rot0': 0, 'rot3': 0, 'rot2': 0, 'state': 'normal', 'yaw': -4.71, 'datetime': '2018-10-09 11:57:59.316411', 'mgs': 0, 'volt': 0.8691, 'depth': 1.08, 'time': 8, 'pitch': -4.66, 'roll': 4.72, 'pres': 178}
{'lipoC2': 7.57, 'lipoC3S1': 4.14, 'temp': 31.63, 'lipoC3S3': 12.51, 'lipoC3S2': 8.28, 'rot1': 0, 'rot0': 0, 'rot3': 0, 'rot2': 0, 'state': 'normal', 'yaw': -6.22, 'datetime': '2018-10-09 11:57:59.420315', 'mgs': 0, 'volt': 0.8691, 'depth': 1.08, 'time': 8, 'pitch': -4.7, 'roll': 4.59, 'pres': 178}
{'lipoC2': 7.57, 'lipoC3S1': 4.14, 'temp': 31.56, 'lipoC3S3': 12.51, 'lipoC3S2': 8.27, 'rot1': 0, 'rot0': 0, 'rot3': 0, 'rot2': 0, 'state': 'normal', 'yaw': -7.4, 'datetime': '2018-10-09 11:57:59.523431', 'mgs': 0, 'volt': 0.8691, 'depth': 1.08, 'time': 9, 'pitch': -5.29, 'roll': 3.64, 'pres': 178}
{'lipoC2': 7.57, 'lipoC3S1': 4.14, 'temp': 31.56, 'lipoC3S3': 12.51, 'lipoC3S2': 8.27, 'rot1': 0, 'rot0': 0, 'rot3': 0, 'rot2': 0, 'state': 'normal', 'yaw': -7.84, 'datetime': '2018-10-09 11:57:59.627840', 'mgs': 0, 'volt': 0.8691, 'depth': 1.08, 'time': 9, 'pitch': -5.93, 'roll': 2.38, 'pres': 178}
{'lipoC2': 7.57, 'lipoC3S1': 4.14, 'temp': 31.56, 'lipoC3S3': 12.51, 'lipoC3S2': 8.27, 'rot1': 0, 'rot0': 0, 'rot3': 0, 'rot2': 0, 'state': 'normal', 'yaw': -7.68, 'datetime': '2018-10-09 11:57:59.725142', 'mgs': 0, 'volt': 0.874, 'depth': 1.157, 'time': 9, 'pitch': -5.65, 'roll': 0.76, 'pres': 179}
{'lipoC2': 7.57, 'lipoC3S1': 4.14, 'temp': 31.56, 'lipoC3S3': 12.51, 'lipoC3S2': 8.27, 'rot1': 0, 'rot0': 0, 'rot3': 0, 'rot2': 0, 'state': 'normal', 'yaw': -7.33, 'datetime': '2018-10-09 11:57:59.828261', 'mgs': 0, 'volt': 0.8691, 'depth': 1.08, 'time': 9, 'pitch': -4.26, 'roll': -0.53, 'pres': 178}
{'lipoC2': 7.57, 'lipoC3S1': 4.14, 'temp': 31.56, 'lipoC3S3': 12.51, 'lipoC3S2': 8.27, 'rot1': 0, 'rot0': 0, 'rot3': 0, 'rot2': 0, 'state': 'normal', 'yaw': -7.07, 'datetime': '2018-10-09 11:57:59.935138', 'mgs': 0, 'volt': 0.8691, 'depth': 1.08, 'time': 9, 'pitch': -2.3, 'roll': -1.51, 'pres': 178}
{'lipoC2': 7.57, 'lipoC3S1': 4.14, 'temp': 31.63, 'lipoC3S3': 12.51, 'lipoC3S2': 8.27, 'rot1': 0, 'rot0': 0, 'rot3': 0, 'rot2': 0, 'state': 'normal', 'yaw': -7.01, 'datetime': '2018-10-09 11:58:00.041064', 'mgs': 0, 'volt': 0.8691, 'depth': 1.08, 'time': 9, 'pitch': -0.44, 'roll': -2.16, 'pres': 178}
{'lipoC2': 7.57, 'lipoC3S1': 4.14, 'temp': 31.63, 'lipoC3S3': 12.51, 'lipoC3S2': 8.27, 'rot1': 0, 'rot0': 0, 'rot3': 0, 'rot2': 0, 'state': 'normal', 'yaw': -6.71, 'datetime': '2018-10-09 11:58:00.144145', 'mgs': 0, 'volt': 0.8691, 'depth': 1.08, 'time': 9, 'pitch': 1.07, 'roll': -2.55, 'pres': 178}
{'lipoC2': 7.57, 'lipoC3S1': 4.14, 'temp': 31.56, 'lipoC3S3': 12.51, 'lipoC3S2': 8.27, 'rot1': 0, 'rot0': 0, 'rot3': 0, 'rot2': 0, 'state': 'normal', 'yaw': -6.49, 'datetime': '2018-10-09 11:58:00.248407', 'mgs': 0, 'volt': 0.874, 'depth': 1.157, 'time': 9, 'pitch': 2.12, 'roll': -2.58, 'pres': 179}
{'lipoC2': 7.57, 'lipoC3S1': 4.14, 'temp': 31.56, 'lipoC3S3': 12.51, 'lipoC3S2': 8.27, 'rot1': 0, 'rot0': 0, 'rot3': 0, 'rot2': 0, 'state': 'normal', 'yaw': -6.27, 'datetime': '2018-10-09 11:58:00.352019', 'mgs': 0, 'volt': 0.8789, 'depth': 1.233, 'time': 9, 'pitch': 3.34, 'roll': -2.33, 'pres': 180}
{'lipoC2': 7.57, 'lipoC3S1': 4.14, 'temp': 31.63, 'lipoC3S3': 12.51, 'lipoC3S2': 8.27, 'rot1': 0, 'rot0': 0, 'rot3': 0, 'rot2': 0, 'state': 'normal', 'yaw': -6.11, 'datetime': '2018-10-09 11:58:00.455174', 'mgs': 0, 'volt': 0.8789, 'depth': 1.233, 'time': 9, 'pitch': 4.52, 'roll': -1.92, 'pres': 180}
{'lipoC2': 7.57, 'lipoC3S1': 4.14, 'temp': 31.63, 'lipoC3S3': 12.51, 'lipoC3S2': 8.27, 'rot1': 0, 'rot0': 0, 'rot3': 0, 'rot2': 0, 'state': 'normal', 'yaw': -5.79, 'datetime': '2018-10-09 11:58:00.558714', 'mgs': 0, 'volt': 0.8789, 'depth': 1.233, 'time': 10, 'pitch': 5.5, 'roll': -1.42, 'pres': 180}
{'lipoC2': 7.57, 'lipoC3S1': 4.14, 'temp': 31.63, 'lipoC3S3': 12.51, 'lipoC3S2': 8.27, 'rot1': 0, 'rot0': 0, 'rot3': 0, 'rot2': 0, 'state': 'normal', 'yaw': -5.44, 'datetime': '2018-10-09 11:58:00.662164', 'mgs': 0, 'volt': 0.8838, 'depth': 1.309, 'time': 10, 'pitch': 5.94, 'roll': -0.79, 'pres': 181}
{'lipoC2': 7.57, 'lipoC3S1': 4.14, 'temp': 31.56, 'lipoC3S3': 12.51, 'lipoC3S2': 8.27, 'rot1': 0, 'rot0': 0, 'rot3': 0, 'rot2': 0, 'state': 'normal', 'yaw': -5.04, 'datetime': '2018-10-09 11:58:00.765454', 'mgs': 0, 'volt': 0.8838, 'depth': 1.309, 'time': 10, 'pitch': 5.88, 'roll': -0.09, 'pres': 181}
{'lipoC2': 7.57, 'lipoC3S1': 4.14, 'temp': 31.56, 'lipoC3S3': 12.51, 'lipoC3S2': 8.27, 'rot1': 0, 'rot0': 0, 'rot3': 0, 'rot2': 0, 'state': 'normal', 'yaw': -4.64, 'datetime': '2018-10-09 11:58:00.870048', 'mgs': 0, 'volt': 0.8887, 'depth': 1.385, 'time': 10, 'pitch': 5.7, 'roll': 0.52, 'pres': 182}
{'lipoC2': 7.57, 'lipoC3S1': 4.14, 'temp': 31.63, 'lipoC3S3': 12.51, 'lipoC3S2': 8.27, 'rot1': 0, 'rot0': 0, 'rot3': 0, 'rot2': 0, 'state': 'normal', 'yaw': -4.18, 'datetime': '2018-10-09 11:58:00.973256', 'mgs': 0, 'volt': 0.8936, 'depth': 1.462, 'time': 10, 'pitch': 5.9, 'roll': 1.09, 'pres': 183}
{'lipoC2': 7.57, 'lipoC3S1': 4.14, 'temp': 31.63, 'lipoC3S3': 12.51, 'lipoC3S2': 8.27, 'rot1': 0, 'rot0': 0, 'rot3': 0, 'rot2': 0, 'state': 'normal', 'yaw': -3.76, 'datetime': '2018-10-09 11:58:01.073849', 'mgs': 0, 'volt': 0.8936, 'depth': 1.462, 'time': 10, 'pitch': 6.6, 'roll': 1.52, 'pres': 183}
{'lipoC2': 7.57, 'lipoC3S1': 4.14, 'temp': 31.56, 'lipoC3S3': 12.51, 'lipoC3S2': 8.27, 'rot1': 0, 'rot0': 0, 'rot3': 0, 'rot2': 0, 'state': 'normal', 'yaw': -3.36, 'datetime': '2018-10-09 11:58:01.181950', 'mgs': 0, 'volt': 0.8936, 'depth': 1.462, 'time': 10, 'pitch': 7.6, 'roll': 2.02, 'pres': 183}
{'lipoC2': 7.57, 'lipoC3S1': 4.14, 'temp': 31.56, 'lipoC3S3': 12.51, 'lipoC3S2': 8.27, 'rot1': 0, 'rot0': 0, 'rot3': 0, 'rot2': 0, 'state': 'normal', 'yaw': -2.95, 'datetime': '2018-10-09 11:58:01.284573', 'mgs': 0, 'volt': 0.8984, 'depth': 1.538, 'time': 10, 'pitch': 8.39, 'roll': 2.7, 'pres': 184}
{'lipoC2': 7.57, 'lipoC3S1': 4.14, 'temp': 31.56, 'lipoC3S3': 12.51, 'lipoC3S2': 8.27, 'rot1': 0, 'rot0': 0, 'rot3': 0, 'rot2': 0, 'state': 'normal', 'yaw': -2.57, 'datetime': '2018-10-09 11:58:01.387854', 'mgs': 0, 'volt': 0.8984, 'depth': 1.538, 'time': 10, 'pitch': 8.58, 'roll': 3.31, 'pres': 184}
{'lipoC2': 7.57, 'lipoC3S1': 4.14, 'temp': 31.56, 'lipoC3S3': 12.51, 'lipoC3S2': 8.27, 'rot1': 0, 'rot0': 0, 'rot3': 0, 'rot2': 0, 'state': 'normal', 'yaw': -2.24, 'datetime': '2018-10-09 11:58:01.491249', 'mgs': 0, 'volt': 0.8984, 'depth': 1.538, 'time': 10, 'pitch': 8.2, 'roll': 3.7, 'pres': 184}
{'lipoC2': 7.57, 'lipoC3S1': 4.14, 'temp': 31.56, 'lipoC3S3': 12.51, 'lipoC3S2': 8.27, 'rot1': 0, 'rot0': 0, 'rot3': 0, 'rot2': 0, 'state': 'normal', 'yaw': -1.89, 'datetime': '2018-10-09 11:58:01.594612', 'mgs': 0, 'volt': 0.9033, 'depth': 1.614, 'time': 11, 'pitch': 7.35, 'roll': 3.69, 'pres': 185}
{'lipoC2': 7.57, 'lipoC3S1': 4.14, 'temp': 31.56, 'lipoC3S3': 12.51, 'lipoC3S2': 8.27, 'rot1': 0, 'rot0': 0, 'rot3': 0, 'rot2': 0, 'state': 'normal', 'yaw': -1.58, 'datetime': '2018-10-09 11:58:01.697856', 'mgs': 0, 'volt': 0.8984, 'depth': 1.538, 'time': 11, 'pitch': 6.44, 'roll': 3.34, 'pres': 184}
{'lipoC2': 7.57, 'lipoC3S1': 4.14, 'temp': 31.56, 'lipoC3S3': 12.51, 'lipoC3S2': 8.27, 'rot1': 0, 'rot0': 0, 'rot3': 0, 'rot2': 0, 'state': 'normal', 'yaw': -1.24, 'datetime': '2018-10-09 11:58:01.797350', 'mgs': 0, 'volt': 0.9033, 'depth': 1.614, 'time': 11, 'pitch': 5.63, 'roll': 2.82, 'pres': 185}
{'lipoC2': 7.57, 'lipoC3S1': 4.14, 'temp': 31.56, 'lipoC3S3': 12.51, 'lipoC3S2': 8.28, 'rot1': 0, 'rot0': 0, 'rot3': 0, 'rot2': 0, 'state': 'normal', 'yaw': -0.89, 'datetime': '2018-10-09 11:58:01.904697', 'mgs': 0, 'volt': 0.8984, 'depth': 1.538, 'time': 11, 'pitch': 5.08, 'roll': 2.32, 'pres': 184}
{'lipoC2': 7.57, 'lipoC3S1': 4.14, 'temp': 31.56, 'lipoC3S3': 12.51, 'lipoC3S2': 8.27, 'rot1': 0, 'rot0': 0, 'rot3': 0, 'rot2': 0, 'state': 'normal', 'yaw': -0.53, 'datetime': '2018-10-09 11:58:02.008018', 'mgs': 0, 'volt': 0.8984, 'depth': 1.538, 'time': 11, 'pitch': 5.09, 'roll': 1.96, 'pres': 184}
{'lipoC2': 7.57, 'lipoC3S1': 4.14, 'temp': 31.56, 'lipoC3S3': 12.51, 'lipoC3S2': 8.27, 'rot1': 0, 'rot0': 0, 'rot3': 0, 'rot2': 0, 'state': 'normal', 'yaw': -0.26, 'datetime': '2018-10-09 11:58:02.111472', 'mgs': 0, 'volt': 0.8984, 'depth': 1.538, 'time': 11, 'pitch': 5.29, 'roll': 1.71, 'pres': 184}
{'lipoC2': 7.57, 'lipoC3S1': 4.14, 'temp': 31.56, 'lipoC3S3': 12.51, 'lipoC3S2': 8.27, 'rot1': 0, 'rot0': 0, 'rot3': 0, 'rot2': 0, 'state': 'normal', 'yaw': -0.11, 'datetime': '2018-10-09 11:58:02.214960', 'mgs': 0, 'volt': 0.8984, 'depth': 1.538, 'time': 11, 'pitch': 5.26, 'roll': 1.42, 'pres': 184}
{'lipoC2': 7.56, 'lipoC3S1': 4.14, 'temp': 31.56, 'lipoC3S3': 12.51, 'lipoC3S2': 8.28, 'rot1': 0, 'rot0': 0, 'rot3': 0, 'rot2': 0, 'state': 'normal', 'yaw': -0.08, 'datetime': '2018-10-09 11:58:02.318263', 'mgs': 0, 'volt': 0.9131, 'depth': 1.767, 'time': 11, 'pitch': 6.41, 'roll': 1.01, 'pres': 187}
{'lipoC2': 7.57, 'lipoC3S1': 4.14, 'temp': 31.5, 'lipoC3S3': 12.51, 'lipoC3S2': 8.27, 'rot1': 0, 'rot0': 0, 'rot3': 0, 'rot2': 0, 'state': 'normal', 'yaw': 0.16, 'datetime': '2018-10-09 11:58:02.422778', 'mgs': 0, 'volt': 0.9082, 'depth': 1.691, 'time': 11, 'pitch': 9.72, 'roll': 0.41, 'pres': 186}
{'lipoC2': 7.57, 'lipoC3S1': 4.14, 'temp': 31.5, 'lipoC3S3': 12.51, 'lipoC3S2': 8.27, 'rot1': 0, 'rot0': 0, 'rot3': 0, 'rot2': 0, 'state': 'normal', 'yaw': 0.39, 'datetime': '2018-10-09 11:58:02.526138', 'mgs': 0, 'volt': 0.9131, 'depth': 1.767, 'time': 12, 'pitch': 11.95, 'roll': -0.25, 'pres': 187}
{'lipoC2': 7.57, 'lipoC3S1': 4.14, 'temp': 31.56, 'lipoC3S3': 12.51, 'lipoC3S2': 8.27, 'rot1': 0, 'rot0': 0, 'rot3': 0, 'rot2': 0, 'state': 'normal', 'yaw': 0.55, 'datetime': '2018-10-09 11:58:02.629526', 'mgs': 0, 'volt': 0.9131, 'depth': 1.767, 'time': 12, 'pitch': 13.27, 'roll': -0.62, 'pres': 187}
{'lipoC2': 7.57, 'lipoC3S1': 4.14, 'temp': 31.56, 'lipoC3S3': 12.51, 'lipoC3S2': 8.28, 'rot1': 0, 'rot0': 0, 'rot3': 0, 'rot2': 0, 'state': 'normal', 'yaw': 0.59, 'datetime': '2018-10-09 11:58:02.734051', 'mgs': 0, 'volt': 0.9131, 'depth': 1.767, 'time': 12, 'pitch': 14.06, 'roll': -0.73, 'pres': 187}
{'lipoC2': 7.57, 'lipoC3S1': 4.14, 'temp': 31.56, 'lipoC3S3': 12.51, 'lipoC3S2': 8.27, 'rot1': 0, 'rot0': 0, 'rot3': 0, 'rot2': 0, 'state': 'normal', 'yaw': 0.47, 'datetime': '2018-10-09 11:58:02.837550', 'mgs': 0, 'volt': 0.9131, 'depth': 1.767, 'time': 12, 'pitch': 14.35, 'roll': -0.67, 'pres': 187}
{'lipoC2': 7.57, 'lipoC3S1': 4.14, 'temp': 31.56, 'lipoC3S3': 12.51, 'lipoC3S2': 8.27, 'rot1': 0, 'rot0': 0, 'rot3': 0, 'rot2': 0, 'state': 'normal', 'yaw': 0.45, 'datetime': '2018-10-09 11:58:02.940901', 'mgs': 0, 'volt': 0.9131, 'depth': 1.767, 'time': 12, 'pitch': 14.04, 'roll': -0.51, 'pres': 187}
{'lipoC2': 7.57, 'lipoC3S1': 4.14, 'temp': 31.56, 'lipoC3S3': 12.51, 'lipoC3S2': 8.27, 'rot1': 0, 'rot0': 0, 'rot3': 0, 'rot2': 0, 'state': 'normal', 'yaw': 0.42, 'datetime': '2018-10-09 11:58:03.044172', 'mgs': 0, 'volt': 0.918, 'depth': 1.843, 'time': 12, 'pitch': 13.24, 'roll': -0.5, 'pres': 188}
{'lipoC2': 7.57, 'lipoC3S1': 4.14, 'temp': 31.5, 'lipoC3S3': 12.51, 'lipoC3S2': 8.27, 'rot1': 0, 'rot0': 0, 'rot3': 0, 'rot2': 0, 'state': 'normal', 'yaw': 0.8, 'datetime': '2018-10-09 11:58:03.147603', 'mgs': 0, 'volt': 0.9131, 'depth': 1.767, 'time': 12, 'pitch': 12.15, 'roll': -0.66, 'pres': 187}
{'lipoC2': 7.57, 'lipoC3S1': 4.14, 'temp': 31.5, 'lipoC3S3': 12.51, 'lipoC3S2': 8.27, 'rot1': 0, 'rot0': 0, 'rot3': 0, 'rot2': 0, 'state': 'normal', 'yaw': 0.96, 'datetime': '2018-10-09 11:58:03.250811', 'mgs': 0, 'volt': 0.9082, 'depth': 1.691, 'time': 12, 'pitch': 11.21, 'roll': -0.8, 'pres': 186}
{'lipoC2': 7.57, 'lipoC3S1': 4.14, 'temp': 31.56, 'lipoC3S3': 12.51, 'lipoC3S2': 8.27, 'rot1': 0, 'rot0': 0, 'rot3': 0, 'rot2': 0, 'state': 'normal', 'yaw': 1.07, 'datetime': '2018-10-09 11:58:03.355587', 'mgs': 0, 'volt': 0.9082, 'depth': 1.691, 'time': 12, 'pitch': 10.13, 'roll': -0.75, 'pres': 186}
{'lipoC2': 7.57, 'lipoC3S1': 4.14, 'temp': 31.56, 'lipoC3S3': 12.51, 'lipoC3S2': 8.27, 'rot1': 0, 'rot0': 0, 'rot3': 0, 'rot2': 0, 'state': 'normal', 'yaw': 1.34, 'datetime': '2018-10-09 11:58:03.458772', 'mgs': 0, 'volt': 0.9033, 'depth': 1.614, 'time': 12, 'pitch': 8.65, 'roll': -0.37, 'pres': 185}
{'lipoC2': 7.57, 'lipoC3S1': 4.14, 'temp': 31.56, 'lipoC3S3': 12.51, 'lipoC3S2': 8.27, 'rot1': 0, 'rot0': 0, 'rot3': 0, 'rot2': 0, 'state': 'normal', 'yaw': 1.39, 'datetime': '2018-10-09 11:58:03.562248', 'mgs': 0, 'volt': 0.9033, 'depth': 1.614, 'time': 13, 'pitch': 7.1, 'roll': 0.14, 'pres': 185}
{'lipoC2': 7.57, 'lipoC3S1': 4.14, 'temp': 31.56, 'lipoC3S3': 12.51, 'lipoC3S2': 8.27, 'rot1': 0, 'rot0': 0, 'rot3': 0, 'rot2': 0, 'state': 'normal', 'yaw': 1.38, 'datetime': '2018-10-09 11:58:03.665398', 'mgs': 0, 'volt': 0.9033, 'depth': 1.614, 'time': 13, 'pitch': 5.39, 'roll': 0.62, 'pres': 185}
{'lipoC2': 7.57, 'lipoC3S1': 4.14, 'temp': 31.56, 'lipoC3S3': 12.51, 'lipoC3S2': 8.27, 'rot1': 0, 'rot0': 0, 'rot3': 0, 'rot2': 0, 'state': 'normal', 'yaw': 1.36, 'datetime': '2018-10-09 11:58:03.768730', 'mgs': 0, 'volt': 0.8984, 'depth': 1.538, 'time': 13, 'pitch': 3.58, 'roll': 1.02, 'pres': 184}
{'lipoC2': 7.57, 'lipoC3S1': 4.14, 'temp': 31.56, 'lipoC3S3': 12.51, 'lipoC3S2': 8.28, 'rot1': 0, 'rot0': 0, 'rot3': 0, 'rot2': 0, 'state': 'normal', 'yaw': 1.33, 'datetime': '2018-10-09 11:58:03.871973', 'mgs': 0, 'volt': 0.8936, 'depth': 1.462, 'time': 13, 'pitch': 2.41, 'roll': 1.35, 'pres': 183}
{'lipoC2': 7.57, 'lipoC3S1': 4.14, 'temp': 31.56, 'lipoC3S3': 12.51, 'lipoC3S2': 8.27, 'rot1': 0, 'rot0': 0, 'rot3': 0, 'rot2': 0, 'state': 'normal', 'yaw': 1.31, 'datetime': '2018-10-09 11:58:03.976722', 'mgs': 0, 'volt': 0.8936, 'depth': 1.462, 'time': 13, 'pitch': 1.83, 'roll': 1.72, 'pres': 183}
{'lipoC2': 7.57, 'lipoC3S1': 4.14, 'temp': 31.56, 'lipoC3S3': 12.51, 'lipoC3S2': 8.28, 'rot1': 0, 'rot0': 0, 'rot3': 0, 'rot2': 0, 'state': 'normal', 'yaw': 1.32, 'datetime': '2018-10-09 11:58:04.079958', 'mgs': 0, 'volt': 0.8936, 'depth': 1.462, 'time': 13, 'pitch': 1.77, 'roll': 2.01, 'pres': 183}
{'lipoC2': 7.57, 'lipoC3S1': 4.14, 'temp': 31.56, 'lipoC3S3': 12.51, 'lipoC3S2': 8.27, 'rot1': 0, 'rot0': 0, 'rot3': 0, 'rot2': 0, 'state': 'normal', 'yaw': 1.29, 'datetime': '2018-10-09 11:58:04.183969', 'mgs': 0, 'volt': 0.8887, 'depth': 1.385, 'time': 13, 'pitch': 1.89, 'roll': 1.98, 'pres': 182}
{'lipoC2': 7.57, 'lipoC3S1': 4.14, 'temp': 31.56, 'lipoC3S3': 12.51, 'lipoC3S2': 8.27, 'rot1': 0, 'rot0': 0, 'rot3': 0, 'rot2': 0, 'state': 'normal', 'yaw': 1.29, 'datetime': '2018-10-09 11:58:04.286710', 'mgs': 0, 'volt': 0.8936, 'depth': 1.462, 'time': 13, 'pitch': 1.89, 'roll': 1.73, 'pres': 183}
{'lipoC2': 7.57, 'lipoC3S1': 4.14, 'temp': 31.56, 'lipoC3S3': 12.51, 'lipoC3S2': 8.28, 'rot1': 0, 'rot0': 0, 'rot3': 0, 'rot2': 0, 'state': 'normal', 'yaw': 1.27, 'datetime': '2018-10-09 11:58:04.392169', 'mgs': 0, 'volt': 0.8887, 'depth': 1.385, 'time': 13, 'pitch': 1.65, 'roll': 1.5, 'pres': 182}
{'lipoC2': 7.57, 'lipoC3S1': 4.14, 'temp': 31.56, 'lipoC3S3': 12.51, 'lipoC3S2': 8.27, 'rot1': 0, 'rot0': 0, 'rot3': 0, 'rot2': 0, 'state': 'normal', 'yaw': 1.27, 'datetime': '2018-10-09 11:58:04.494834', 'mgs': 0, 'volt': 0.8887, 'depth': 1.385, 'time': 13, 'pitch': 1.31, 'roll': 1.48, 'pres': 182}
{'lipoC2': 7.57, 'lipoC3S1': 4.14, 'temp': 31.56, 'lipoC3S3': 12.51, 'lipoC3S2': 8.28, 'rot1': 0, 'rot0': 0, 'rot3': 0, 'rot2': 0, 'state': 'normal', 'yaw': 1.11, 'datetime': '2018-10-09 11:58:04.598417', 'mgs': 0, 'volt': 0.8936, 'depth': 1.462, 'time': 14, 'pitch': 1.29, 'roll': 1.72, 'pres': 183}
{'lipoC2': 7.57, 'lipoC3S1': 4.14, 'temp': 31.56, 'lipoC3S3': 12.51, 'lipoC3S2': 8.27, 'rot1': 0, 'rot0': 0, 'rot3': 0, 'rot2': 0, 'state': 'normal', 'yaw': 0.76, 'datetime': '2018-10-09 11:58:04.701699', 'mgs': 0, 'volt': 0.8936, 'depth': 1.462, 'time': 14, 'pitch': 2.42, 'roll': 2.15, 'pres': 183}
{'lipoC2': 7.57, 'lipoC3S1': 4.14, 'temp': 31.56, 'lipoC3S3': 12.51, 'lipoC3S2': 8.27, 'rot1': 0, 'rot0': 0, 'rot3': 0, 'rot2': 0, 'state': 'normal', 'yaw': 0.34, 'datetime': '2018-10-09 11:58:04.804951', 'mgs': 0, 'volt': 0.8936, 'depth': 1.462, 'time': 14, 'pitch': 4.25, 'roll': 2.44, 'pres': 183}
{'lipoC2': 7.57, 'lipoC3S1': 4.14, 'temp': 31.56, 'lipoC3S3': 12.51, 'lipoC3S2': 8.28, 'rot1': 0, 'rot0': 0, 'rot3': 0, 'rot2': 0, 'state': 'normal', 'yaw': -0.09, 'datetime': '2018-10-09 11:58:04.908477', 'mgs': 0, 'volt': 0.8936, 'depth': 1.462, 'time': 14, 'pitch': 6.22, 'roll': 2.52, 'pres': 183}
{'lipoC2': 7.57, 'lipoC3S1': 4.14, 'temp': 31.56, 'lipoC3S3': 12.51, 'lipoC3S2': 8.27, 'rot1': 0, 'rot0': 0, 'rot3': 0, 'rot2': 0, 'state': 'normal', 'yaw': -0.57, 'datetime': '2018-10-09 11:58:05.011828', 'mgs': 0, 'volt': 0.8984, 'depth': 1.538, 'time': 14, 'pitch': 7.96, 'roll': 2.24, 'pres': 184}
{'lipoC2': 7.57, 'lipoC3S1': 4.14, 'temp': 31.56, 'lipoC3S3': 12.51, 'lipoC3S2': 8.27, 'rot1': 0, 'rot0': 0, 'rot3': 0, 'rot2': 0, 'state': 'normal', 'yaw': -0.86, 'datetime': '2018-10-09 11:58:05.113534', 'mgs': 0, 'volt': 0.9033, 'depth': 1.614, 'time': 14, 'pitch': 9.04, 'roll': 1.8, 'pres': 185}
{'lipoC2': 7.57, 'lipoC3S1': 4.14, 'temp': 31.56, 'lipoC3S3': 12.51, 'lipoC3S2': 8.28, 'rot1': 0, 'rot0': 0, 'rot3': 0, 'rot2': 0, 'state': 'normal', 'yaw': -0.98, 'datetime': '2018-10-09 11:58:05.218694', 'mgs': 0, 'volt': 0.9033, 'depth': 1.614, 'time': 14, 'pitch': 10.23, 'roll': 1.39, 'pres': 185}
{'lipoC2': 7.57, 'lipoC3S1': 4.14, 'temp': 31.5, 'lipoC3S3': 12.51, 'lipoC3S2': 8.27, 'rot1': 0, 'rot0': 0, 'rot3': 0, 'rot2': 0, 'state': 'normal', 'yaw': -0.95, 'datetime': '2018-10-09 11:58:05.322020', 'mgs': 0, 'volt': 0.9033, 'depth': 1.614, 'time': 14, 'pitch': 12.1, 'roll': 0.91, 'pres': 185}
{'lipoC2': 7.57, 'lipoC3S1': 4.14, 'temp': 31.5, 'lipoC3S3': 12.51, 'lipoC3S2': 8.27, 'rot1': 0, 'rot0': 0, 'rot3': 0, 'rot2': 0, 'state': 'normal', 'yaw': -0.9, 'datetime': '2018-10-09 11:58:05.425607', 'mgs': 0, 'volt': 0.9033, 'depth': 1.614, 'time': 14, 'pitch': 13.32, 'roll': 0.66, 'pres': 185}
{'lipoC2': 7.57, 'lipoC3S1': 4.14, 'temp': 31.56, 'lipoC3S3': 12.51, 'lipoC3S2': 8.27, 'rot1': 0, 'rot0': 0, 'rot3': 0, 'rot2': 0, 'state': 'normal', 'yaw': -0.78, 'datetime': '2018-10-09 11:58:05.529761', 'mgs': 0, 'volt': 0.9082, 'depth': 1.691, 'time': 15, 'pitch': 13.68, 'roll': 0.56, 'pres': 186}
{'lipoC2': 7.57, 'lipoC3S1': 4.14, 'temp': 31.56, 'lipoC3S3': 12.51, 'lipoC3S2': 8.27, 'rot1': 0, 'rot0': 0, 'rot3': 0, 'rot2': 0, 'state': 'normal', 'yaw': -0.45, 'datetime': '2018-10-09 11:58:05.633125', 'mgs': 0, 'volt': 0.9082, 'depth': 1.691, 'time': 15, 'pitch': 13.53, 'roll': 0.43, 'pres': 186}
{'lipoC2': 7.57, 'lipoC3S1': 4.14, 'temp': 31.56, 'lipoC3S3': 12.51, 'lipoC3S2': 8.27, 'rot1': 0, 'rot0': 0, 'rot3': 0, 'rot2': 0, 'state': 'normal', 'yaw': 0.04, 'datetime': '2018-10-09 11:58:05.737449', 'mgs': 0, 'volt': 0.9082, 'depth': 1.691, 'time': 15, 'pitch': 13.22, 'roll': 0.22, 'pres': 186}
{'lipoC2': 7.57, 'lipoC3S1': 4.14, 'temp': 31.5, 'lipoC3S3': 12.51, 'lipoC3S2': 8.27, 'rot1': 0, 'rot0': 0, 'rot3': 0, 'rot2': 0, 'state': 'normal', 'yaw': 0.77, 'datetime': '2018-10-09 11:58:05.838345', 'mgs': 0, 'volt': 0.9131, 'depth': 1.767, 'time': 15, 'pitch': 13.03, 'roll': -0.16, 'pres': 187}
{'lipoC2': 7.57, 'lipoC3S1': 4.14, 'temp': 31.5, 'lipoC3S3': 12.51, 'lipoC3S2': 8.27, 'rot1': 0, 'rot0': 0, 'rot3': 0, 'rot2': 0, 'state': 'normal', 'yaw': 1.57, 'datetime': '2018-10-09 11:58:05.942677', 'mgs': 0, 'volt': 0.9131, 'depth': 1.767, 'time': 15, 'pitch': 13.25, 'roll': -0.51, 'pres': 187}
{'lipoC2': 7.57, 'lipoC3S1': 4.14, 'temp': 31.56, 'lipoC3S3': 12.51, 'lipoC3S2': 8.27, 'rot1': 0, 'rot0': 0, 'rot3': 0, 'rot2': 0, 'state': 'normal', 'yaw': 2.41, 'datetime': '2018-10-09 11:58:06.047972', 'mgs': 0, 'volt': 0.9131, 'depth': 1.767, 'time': 15, 'pitch': 13.75, 'roll': -0.8, 'pres': 187}
{'lipoC2': 7.57, 'lipoC3S1': 4.14, 'temp': 31.56, 'lipoC3S3': 12.51, 'lipoC3S2': 8.28, 'rot1': 0, 'rot0': 0, 'rot3': 0, 'rot2': 0, 'state': 'normal', 'yaw': 3.21, 'datetime': '2018-10-09 11:58:06.151331', 'mgs': 0, 'volt': 0.9131, 'depth': 1.767, 'time': 15, 'pitch': 14.23, 'roll': -0.94, 'pres': 187}
{'lipoC2': 7.57, 'lipoC3S1': 4.14, 'temp': 31.56, 'lipoC3S3': 12.51, 'lipoC3S2': 8.28, 'rot1': 0, 'rot0': 0, 'rot3': 0, 'rot2': 0, 'state': 'normal', 'yaw': 4.04, 'datetime': '2018-10-09 11:58:06.254708', 'mgs': 0, 'volt': 0.9131, 'depth': 1.767, 'time': 15, 'pitch': 14.24, 'roll': -0.84, 'pres': 187}
{'lipoC2': 7.57, 'lipoC3S1': 4.14, 'temp': 31.56, 'lipoC3S3': 12.51, 'lipoC3S2': 8.27, 'rot1': 0, 'rot0': 0, 'rot3': 0, 'rot2': 0, 'state': 'normal', 'yaw': 4.72, 'datetime': '2018-10-09 11:58:06.358116', 'mgs': 0, 'volt': 0.9082, 'depth': 1.691, 'time': 15, 'pitch': 13.6, 'roll': -0.5, 'pres': 186}
{'lipoC2': 7.57, 'lipoC3S1': 4.14, 'temp': 31.56, 'lipoC3S3': 12.51, 'lipoC3S2': 8.28, 'rot1': 0, 'rot0': 0, 'rot3': 0, 'rot2': 0, 'state': 'normal', 'yaw': 5.32, 'datetime': '2018-10-09 11:58:06.461677', 'mgs': 0, 'volt': 0.9082, 'depth': 1.691, 'time': 15, 'pitch': 12.54, 'roll': -0.05, 'pres': 186}
{'lipoC2': 7.57, 'lipoC3S1': 4.14, 'temp': 31.56, 'lipoC3S3': 12.51, 'lipoC3S2': 8.27, 'rot1': 0, 'rot0': 0, 'rot3': 0, 'rot2': 0, 'state': 'normal', 'yaw': 5.93, 'datetime': '2018-10-09 11:58:06.565143', 'mgs': 0, 'volt': 0.9082, 'depth': 1.691, 'time': 16, 'pitch': 11.14, 'roll': 0.34, 'pres': 186}
{'lipoC2': 7.57, 'lipoC3S1': 4.14, 'temp': 31.56, 'lipoC3S3': 12.51, 'lipoC3S2': 8.27, 'rot1': 0, 'rot0': 0, 'rot3': 0, 'rot2': 0, 'state': 'normal', 'yaw': 6.49, 'datetime': '2018-10-09 11:58:06.668352', 'mgs': 0, 'volt': 0.9082, 'depth': 1.691, 'time': 16, 'pitch': 9.87, 'roll': 0.51, 'pres': 186}
{'lipoC2': 7.57, 'lipoC3S1': 4.14, 'temp': 31.5, 'lipoC3S3': 12.51, 'lipoC3S2': 8.27, 'rot1': 0, 'rot0': 0, 'rot3': 0, 'rot2': 0, 'state': 'normal', 'yaw': 7.08, 'datetime': '2018-10-09 11:58:06.772004', 'mgs': 0, 'volt': 0.9082, 'depth': 1.691, 'time': 16, 'pitch': 8.96, 'roll': 0.49, 'pres': 186}
{'lipoC2': 7.57, 'lipoC3S1': 4.14, 'temp': 31.5, 'lipoC3S3': 12.51, 'lipoC3S2': 8.27, 'rot1': 0, 'rot0': 0, 'rot3': 0, 'rot2': 0, 'state': 'normal', 'yaw': 7.67, 'datetime': '2018-10-09 11:58:06.875136', 'mgs': 0, 'volt': 0.9033, 'depth': 1.614, 'time': 16, 'pitch': 8.43, 'roll': 0.38, 'pres': 185}
{'lipoC2': 7.57, 'lipoC3S1': 4.14, 'temp': 31.5, 'lipoC3S3': 12.51, 'lipoC3S2': 8.27, 'rot1': 0, 'rot0': 0, 'rot3': 0, 'rot2': 0, 'state': 'normal', 'yaw': 8.14, 'datetime': '2018-10-09 11:58:06.979360', 'mgs': 0, 'volt': 0.9033, 'depth': 1.614, 'time': 16, 'pitch': 8.08, 'roll': 0.4, 'pres': 185}
{'lipoC2': 7.57, 'lipoC3S1': 4.14, 'temp': 31.56, 'lipoC3S3': 12.51, 'lipoC3S2': 8.27, 'rot1': 0, 'rot0': 0, 'rot3': 0, 'rot2': 0, 'state': 'normal', 'yaw': 8.59, 'datetime': '2018-10-09 11:58:07.082966', 'mgs': 0, 'volt': 0.9033, 'depth': 1.614, 'time': 16, 'pitch': 7.54, 'roll': 0.62, 'pres': 185}
{'lipoC2': 7.57, 'lipoC3S1': 4.14, 'temp': 31.56, 'lipoC3S3': 12.51, 'lipoC3S2': 8.27, 'rot1': 0, 'rot0': 0, 'rot3': 0, 'rot2': 0, 'state': 'normal', 'yaw': 9.11, 'datetime': '2018-10-09 11:58:07.186324', 'mgs': 0, 'volt': 0.9033, 'depth': 1.614, 'time': 16, 'pitch': 6.72, 'roll': 1.11, 'pres': 185}
{'lipoC2': 7.57, 'lipoC3S1': 4.14, 'temp': 31.56, 'lipoC3S3': 12.51, 'lipoC3S2': 8.27, 'rot1': 0, 'rot0': 0, 'rot3': 0, 'rot2': 0, 'state': 'normal', 'yaw': 9.55, 'datetime': '2018-10-09 11:58:07.290884', 'mgs': 0, 'volt': 0.8984, 'depth': 1.538, 'time': 16, 'pitch': 5.93, 'roll': 1.53, 'pres': 184}
{'lipoC2': 7.57, 'lipoC3S1': 4.14, 'temp': 31.56, 'lipoC3S3': 12.51, 'lipoC3S2': 8.27, 'rot1': 0, 'rot0': 0, 'rot3': 0, 'rot2': 0, 'state': 'normal', 'yaw': 9.97, 'datetime': '2018-10-09 11:58:07.394250', 'mgs': 0, 'volt': 0.8984, 'depth': 1.538, 'time': 16, 'pitch': 5.21, 'roll': 1.81, 'pres': 184}
{'lipoC2': 7.57, 'lipoC3S1': 4.14, 'temp': 31.56, 'lipoC3S3': 12.51, 'lipoC3S2': 8.28, 'rot1': 0, 'rot0': 0, 'rot3': 0, 'rot2': 0, 'state': 'normal', 'yaw': 10.27, 'datetime': '2018-10-09 11:58:07.497565', 'mgs': 0, 'volt': 0.8984, 'depth': 1.538, 'time': 16, 'pitch': 4.67, 'roll': 1.92, 'pres': 184}
{'lipoC2': 7.57, 'lipoC3S1': 4.14, 'temp': 31.56, 'lipoC3S3': 12.51, 'lipoC3S2': 8.27, 'rot1': 0, 'rot0': 0, 'rot3': 0, 'rot2': 0, 'state': 'normal', 'yaw': 10.54, 'datetime': '2018-10-09 11:58:07.600849', 'mgs': 0, 'volt': 0.8936, 'depth': 1.462, 'time': 17, 'pitch': 4.18, 'roll': 1.95, 'pres': 183}
{'lipoC2': 7.57, 'lipoC3S1': 4.14, 'temp': 31.56, 'lipoC3S3': 12.51, 'lipoC3S2': 8.27, 'rot1': 0, 'rot0': 0, 'rot3': 0, 'rot2': 0, 'state': 'normal', 'yaw': 10.78, 'datetime': '2018-10-09 11:58:07.704187', 'mgs': 0, 'volt': 0.8936, 'depth': 1.462, 'time': 17, 'pitch': 3.69, 'roll': 1.92, 'pres': 183}
{'lipoC2': 7.57, 'lipoC3S1': 4.14, 'temp': 31.56, 'lipoC3S3': 12.51, 'lipoC3S2': 8.27, 'rot1': 0, 'rot0': 0, 'rot3': 0, 'rot2': 0, 'state': 'normal', 'yaw': 10.98, 'datetime': '2018-10-09 11:58:07.807565', 'mgs': 0, 'volt': 0.8984, 'depth': 1.538, 'time': 17, 'pitch': 3.44, 'roll': 1.86, 'pres': 184}
{'lipoC2': 7.57, 'lipoC3S1': 4.14, 'temp': 31.56, 'lipoC3S3': 12.51, 'lipoC3S2': 8.27, 'rot1': 0, 'rot0': 0, 'rot3': 0, 'rot2': 0, 'state': 'normal', 'yaw': 11.27, 'datetime': '2018-10-09 11:58:07.910809', 'mgs': 0, 'volt': 0.8936, 'depth': 1.462, 'time': 17, 'pitch': 3.6, 'roll': 1.76, 'pres': 183}
{'lipoC2': 7.57, 'lipoC3S1': 4.14, 'temp': 31.56, 'lipoC3S3': 12.51, 'lipoC3S2': 8.27, 'rot1': 0, 'rot0': 0, 'rot3': 0, 'rot2': 0, 'state': 'normal', 'yaw': 11.67, 'datetime': '2018-10-09 11:58:08.014263', 'mgs': 0, 'volt': 0.8984, 'depth': 1.538, 'time': 17, 'pitch': 4.12, 'roll': 1.49, 'pres': 184}
{'lipoC2': 7.57, 'lipoC3S1': 4.14, 'temp': 31.56, 'lipoC3S3': 12.51, 'lipoC3S2': 8.27, 'rot1': 0, 'rot0': 0, 'rot3': 0, 'rot2': 0, 'state': 'normal', 'yaw': 12.15, 'datetime': '2018-10-09 11:58:08.117796', 'mgs': 0, 'volt': 0.8984, 'depth': 1.538, 'time': 17, 'pitch': 5.01, 'roll': 1.09, 'pres': 184}
{'lipoC2': 7.57, 'lipoC3S1': 4.14, 'temp': 31.5, 'lipoC3S3': 12.51, 'lipoC3S2': 8.27, 'rot1': 0, 'rot0': 0, 'rot3': 0, 'rot2': 0, 'state': 'normal', 'yaw': 12.55, 'datetime': '2018-10-09 11:58:08.220961', 'mgs': 0, 'volt': 0.8984, 'depth': 1.538, 'time': 17, 'pitch': 6.05, 'roll': 0.75, 'pres': 184}
{'lipoC2': 7.57, 'lipoC3S1': 4.14, 'temp': 31.5, 'lipoC3S3': 12.51, 'lipoC3S2': 8.27, 'rot1': 0, 'rot0': 0, 'rot3': 0, 'rot2': 0, 'state': 'normal', 'yaw': 12.92, 'datetime': '2018-10-09 11:58:08.324916', 'mgs': 0, 'volt': 0.9033, 'depth': 1.614, 'time': 17, 'pitch': 7.09, 'roll': 0.53, 'pres': 185}
{'lipoC2': 7.57, 'lipoC3S1': 4.14, 'temp': 31.5, 'lipoC3S3': 12.51, 'lipoC3S2': 8.28, 'rot1': 0, 'rot0': 0, 'rot3': 0, 'rot2': 0, 'state': 'normal', 'yaw': 13.3, 'datetime': '2018-10-09 11:58:08.428264', 'mgs': 0, 'volt': 0.8984, 'depth': 1.538, 'time': 17, 'pitch': 8.01, 'roll': 0.44, 'pres': 184}
{'lipoC2': 7.57, 'lipoC3S1': 4.14, 'temp': 31.5, 'lipoC3S3': 12.51, 'lipoC3S2': 8.28, 'rot1': 0, 'rot0': 0, 'rot3': 0, 'rot2': 0, 'state': 'normal', 'yaw': 13.78, 'datetime': '2018-10-09 11:58:08.532898', 'mgs': 0, 'volt': 0.8984, 'depth': 1.538, 'time': 18, 'pitch': 8.45, 'roll': 0.34, 'pres': 184}
{'lipoC2': 7.57, 'lipoC3S1': 4.14, 'temp': 31.5, 'lipoC3S3': 12.51, 'lipoC3S2': 8.27, 'rot1': 0, 'rot0': 0, 'rot3': 0, 'rot2': 0, 'state': 'normal', 'yaw': 14.42, 'datetime': '2018-10-09 11:58:08.636131', 'mgs': 0, 'volt': 0.8984, 'depth': 1.538, 'time': 18, 'pitch': 8.56, 'roll': 0.09, 'pres': 184}
{'lipoC2': 7.57, 'lipoC3S1': 4.14, 'temp': 31.56, 'lipoC3S3': 12.51, 'lipoC3S2': 8.28, 'rot1': 0, 'rot0': 0, 'rot3': 0, 'rot2': 0, 'state': 'normal', 'yaw': 15.05, 'datetime': '2018-10-09 11:58:08.739553', 'mgs': 0, 'volt': 0.8984, 'depth': 1.538, 'time': 18, 'pitch': 8.49, 'roll': -0.21, 'pres': 184}
{'lipoC2': 7.57, 'lipoC3S1': 4.14, 'temp': 31.56, 'lipoC3S3': 12.51, 'lipoC3S2': 8.27, 'rot1': 0, 'rot0': 0, 'rot3': 0, 'rot2': 0, 'state': 'normal', 'yaw': 15.6, 'datetime': '2018-10-09 11:58:08.840399', 'mgs': 0, 'volt': 0.8984, 'depth': 1.538, 'time': 18, 'pitch': 8.14, 'roll': -0.47, 'pres': 184}
{'lipoC2': 7.57, 'lipoC3S1': 4.14, 'temp': 31.56, 'lipoC3S3': 12.51, 'lipoC3S2': 8.27, 'rot1': 0, 'rot0': 0, 'rot3': 0, 'rot2': 0, 'state': 'normal', 'yaw': 16.07, 'datetime': '2018-10-09 11:58:08.942055', 'mgs': 0, 'volt': 0.8984, 'depth': 1.538, 'time': 18, 'pitch': 7.46, 'roll': -0.57, 'pres': 184}
{'lipoC2': 7.57, 'lipoC3S1': 4.14, 'temp': 31.56, 'lipoC3S3': 12.51, 'lipoC3S2': 8.28, 'rot1': 0, 'rot0': 0, 'rot3': 0, 'rot2': 0, 'state': 'normal', 'yaw': 16.43, 'datetime': '2018-10-09 11:58:09.050936', 'mgs': 0, 'volt': 0.8936, 'depth': 1.462, 'time': 18, 'pitch': 6.62, 'roll': -0.23, 'pres': 183}
{'lipoC2': 7.57, 'lipoC3S1': 4.14, 'temp': 31.56, 'lipoC3S3': 12.51, 'lipoC3S2': 8.27, 'rot1': 0, 'rot0': 0, 'rot3': 0, 'rot2': 0, 'state': 'normal', 'yaw': 16.75, 'datetime': '2018-10-09 11:58:09.154101', 'mgs': 0, 'volt': 0.8936, 'depth': 1.462, 'time': 18, 'pitch': 5.73, 'roll': 0.34, 'pres': 183}
{'lipoC2': 7.57, 'lipoC3S1': 4.14, 'temp': 31.56, 'lipoC3S3': 12.51, 'lipoC3S2': 8.27, 'rot1': 0, 'rot0': 0, 'rot3': 0, 'rot2': 0, 'state': 'normal', 'yaw': 17.15, 'datetime': '2018-10-09 11:58:09.257484', 'mgs': 0, 'volt': 0.8984, 'depth': 1.538, 'time': 18, 'pitch': 4.93, 'roll': 0.89, 'pres': 184}
{'lipoC2': 7.57, 'lipoC3S1': 4.14, 'temp': 31.56, 'lipoC3S3': 12.51, 'lipoC3S2': 8.27, 'rot1': 0, 'rot0': 0, 'rot3': 0, 'rot2': 0, 'state': 'normal', 'yaw': 17.58, 'datetime': '2018-10-09 11:58:09.361366', 'mgs': 0, 'volt': 0.8936, 'depth': 1.462, 'time': 18, 'pitch': 4.62, 'roll': 1.19, 'pres': 183}
{'lipoC2': 7.57, 'lipoC3S1': 4.14, 'temp': 31.56, 'lipoC3S3': 12.51, 'lipoC3S2': 8.27, 'rot1': 0, 'rot0': 0, 'rot3': 0, 'rot2': 0, 'state': 'normal', 'yaw': 18.01, 'datetime': '2018-10-09 11:58:09.464568', 'mgs': 0, 'volt': 0.8936, 'depth': 1.462, 'time': 18, 'pitch': 4.86, 'roll': 1.15, 'pres': 183}
{'lipoC2': 7.57, 'lipoC3S1': 4.14, 'temp': 31.56, 'lipoC3S3': 12.51, 'lipoC3S2': 8.27, 'rot1': 0, 'rot0': 0, 'rot3': 0, 'rot2': 0, 'state': 'normal', 'yaw': 18.4, 'datetime': '2018-10-09 11:58:09.565839', 'mgs': 0, 'volt': 0.8984, 'depth': 1.538, 'time': 19, 'pitch': 5.57, 'roll': 0.78, 'pres': 184}
{'lipoC2': 7.57, 'lipoC3S1': 4.14, 'temp': 31.56, 'lipoC3S3': 12.51, 'lipoC3S2': 8.28, 'rot1': 0, 'rot0': 0, 'rot3': 0, 'rot2': 0, 'state': 'normal', 'yaw': 18.66, 'datetime': '2018-10-09 11:58:09.670243', 'mgs': 0, 'volt': 0.8936, 'depth': 1.462, 'time': 19, 'pitch': 6.1, 'roll': 0.57, 'pres': 183}
{'lipoC2': 7.57, 'lipoC3S1': 4.14, 'temp': 31.56, 'lipoC3S3': 12.51, 'lipoC3S2': 8.27, 'rot1': 0, 'rot0': 0, 'rot3': 0, 'rot2': 0, 'state': 'normal', 'yaw': 18.85, 'datetime': '2018-10-09 11:58:09.773432', 'mgs': 0, 'volt': 0.8936, 'depth': 1.462, 'time': 19, 'pitch': 6.26, 'roll': 0.68, 'pres': 183}
{'lipoC2': 7.57, 'lipoC3S1': 4.14, 'temp': 31.56, 'lipoC3S3': 12.51, 'lipoC3S2': 8.27, 'rot1': 0, 'rot0': 0, 'rot3': 0, 'rot2': 0, 'state': 'normal', 'yaw': 19.04, 'datetime': '2018-10-09 11:58:09.873026', 'mgs': 0, 'volt': 0.8936, 'depth': 1.462, 'time': 19, 'pitch': 6.05, 'roll': 1.12, 'pres': 183}
{'lipoC2': 7.57, 'lipoC3S1': 4.14, 'temp': 31.56, 'lipoC3S3': 12.51, 'lipoC3S2': 8.27, 'rot1': 0, 'rot0': 0, 'rot3': 0, 'rot2': 0, 'state': 'normal', 'yaw': 19.22, 'datetime': '2018-10-09 11:58:09.979502', 'mgs': 0, 'volt': 0.8936, 'depth': 1.462, 'time': 19, 'pitch': 5.73, 'roll': 1.59, 'pres': 183}
{'lipoC2': 7.57, 'lipoC3S1': 4.14, 'temp': 31.56, 'lipoC3S3': 12.51, 'lipoC3S2': 8.27, 'rot1': 0, 'rot0': 0, 'rot3': 0, 'rot2': 0, 'state': 'normal', 'yaw': 19.4, 'datetime': '2018-10-09 11:58:10.086691', 'mgs': 0, 'volt': 0.8936, 'depth': 1.462, 'time': 19, 'pitch': 5.5, 'roll': 1.92, 'pres': 183}
{'lipoC2': 7.57, 'lipoC3S1': 4.14, 'temp': 31.56, 'lipoC3S3': 12.51, 'lipoC3S2': 8.27, 'rot1': 0, 'rot0': 0, 'rot3': 0, 'rot2': 0, 'state': 'normal', 'yaw': 19.62, 'datetime': '2018-10-09 11:58:10.189860', 'mgs': 0, 'volt': 0.8936, 'depth': 1.462, 'time': 19, 'pitch': 5.43, 'roll': 1.89, 'pres': 183}
{'lipoC2': 7.57, 'lipoC3S1': 4.14, 'temp': 31.56, 'lipoC3S3': 12.51, 'lipoC3S2': 8.28, 'rot1': 0, 'rot0': 0, 'rot3': 0, 'rot2': 0, 'state': 'normal', 'yaw': 19.82, 'datetime': '2018-10-09 11:58:10.293054', 'mgs': 0, 'volt': 0.8984, 'depth': 1.538, 'time': 19, 'pitch': 5.63, 'roll': 1.53, 'pres': 184}
{'lipoC2': 7.57, 'lipoC3S1': 4.14, 'temp': 31.56, 'lipoC3S3': 12.51, 'lipoC3S2': 8.28, 'rot1': 0, 'rot0': 0, 'rot3': 0, 'rot2': 0, 'state': 'normal', 'yaw': 20.0, 'datetime': '2018-10-09 11:58:10.397826', 'mgs': 0, 'volt': 0.8936, 'depth': 1.462, 'time': 19, 'pitch': 6.11, 'roll': 1.06, 'pres': 183}
{'lipoC2': 7.57, 'lipoC3S1': 4.14, 'temp': 31.56, 'lipoC3S3': 12.51, 'lipoC3S2': 8.27, 'rot1': 0, 'rot0': 0, 'rot3': 0, 'rot2': 0, 'state': 'normal', 'yaw': 20.16, 'datetime': '2018-10-09 11:58:10.501174', 'mgs': 0, 'volt': 0.8936, 'depth': 1.462, 'time': 19, 'pitch': 6.88, 'roll': 0.8, 'pres': 183}
{'lipoC2': 7.57, 'lipoC3S1': 4.14, 'temp': 31.56, 'lipoC3S3': 12.51, 'lipoC3S2': 8.28, 'rot1': 0, 'rot0': 0, 'rot3': 0, 'rot2': 0, 'state': 'normal', 'yaw': 20.34, 'datetime': '2018-10-09 11:58:10.604493', 'mgs': 0, 'volt': 0.8984, 'depth': 1.538, 'time': 20, 'pitch': 7.54, 'roll': 0.98, 'pres': 184}
{'lipoC2': 7.57, 'lipoC3S1': 4.14, 'temp': 31.56, 'lipoC3S3': 12.51, 'lipoC3S2': 8.27, 'rot1': 0, 'rot0': 0, 'rot3': 0, 'rot2': 0, 'state': 'normal', 'yaw': 20.55, 'datetime': '2018-10-09 11:58:10.708076', 'mgs': 0, 'volt': 0.8936, 'depth': 1.462, 'time': 20, 'pitch': 8.1, 'roll': 1.4, 'pres': 183}
{'lipoC2': 7.57, 'lipoC3S1': 4.14, 'temp': 31.56, 'lipoC3S3': 12.51, 'lipoC3S2': 8.27, 'rot1': 0, 'rot0': 0, 'rot3': 0, 'rot2': 0, 'state': 'normal', 'yaw': 20.79, 'datetime': '2018-10-09 11:58:10.811477', 'mgs': 0, 'volt': 0.8984, 'depth': 1.538, 'time': 20, 'pitch': 8.59, 'roll': 1.75, 'pres': 184}
{'lipoC2': 7.57, 'lipoC3S1': 4.14, 'temp': 31.56, 'lipoC3S3': 12.51, 'lipoC3S2': 8.28, 'rot1': 0, 'rot0': 0, 'rot3': 0, 'rot2': 0, 'state': 'normal', 'yaw': 21.05, 'datetime': '2018-10-09 11:58:10.913780', 'mgs': 0, 'volt': 0.9033, 'depth': 1.614, 'time': 20, 'pitch': 8.84, 'roll': 1.74, 'pres': 185}
{'lipoC2': 7.57, 'lipoC3S1': 4.14, 'temp': 31.56, 'lipoC3S3': 12.51, 'lipoC3S2': 8.27, 'rot1': 0, 'rot0': 0, 'rot3': 0, 'rot2': 0, 'state': 'normal', 'yaw': 21.36, 'datetime': '2018-10-09 11:58:11.016728', 'mgs': 0, 'volt': 0.9033, 'depth': 1.614, 'time': 20, 'pitch': 9.0, 'roll': 1.25, 'pres': 185}
{'lipoC2': 7.57, 'lipoC3S1': 4.14, 'temp': 31.63, 'lipoC3S3': 12.51, 'lipoC3S2': 8.27, 'rot1': 0, 'rot0': 0, 'rot3': 0, 'rot2': 0, 'state': 'normal', 'yaw': 21.76, 'datetime': '2018-10-09 11:58:11.121722', 'mgs': 0, 'volt': 0.9033, 'depth': 1.614, 'time': 20, 'pitch': 9.38, 'roll': 0.49, 'pres': 185}
{'lipoC2': 7.57, 'lipoC3S1': 4.14, 'temp': 31.63, 'lipoC3S3': 12.51, 'lipoC3S2': 8.28, 'rot1': 0, 'rot0': 0, 'rot3': 0, 'rot2': 0, 'state': 'normal', 'yaw': 22.12, 'datetime': '2018-10-09 11:58:11.227739', 'mgs': 0, 'volt': 0.9082, 'depth': 1.691, 'time': 20, 'pitch': 10.14, 'roll': -0.05, 'pres': 186}
{'lipoC2': 7.57, 'lipoC3S1': 4.14, 'temp': 31.63, 'lipoC3S3': 12.51, 'lipoC3S2': 8.27, 'rot1': 0, 'rot0': 0, 'rot3': 0, 'rot2': 0, 'state': 'normal', 'yaw': 22.49, 'datetime': '2018-10-09 11:58:11.327415', 'mgs': 0, 'volt': 0.9082, 'depth': 1.691, 'time': 20, 'pitch': 11.17, 'roll': -0.28, 'pres': 186}
{'lipoC2': 7.57, 'lipoC3S1': 4.14, 'temp': 31.56, 'lipoC3S3': 12.51, 'lipoC3S2': 8.28, 'rot1': 0, 'rot0': 0, 'rot3': 0, 'rot2': 0, 'state': 'normal', 'yaw': 22.9, 'datetime': '2018-10-09 11:58:11.431268', 'mgs': 0, 'volt': 0.9082, 'depth': 1.691, 'time': 20, 'pitch': 12.29, 'roll': -0.09, 'pres': 186}
{'lipoC2': 7.57, 'lipoC3S1': 4.14, 'temp': 31.56, 'lipoC3S3': 12.51, 'lipoC3S2': 8.27, 'rot1': 0, 'rot0': 0, 'rot3': 0, 'rot2': 0, 'state': 'normal', 'yaw': 23.28, 'datetime': '2018-10-09 11:58:11.534594', 'mgs': 0, 'volt': 0.9082, 'depth': 1.691, 'time': 20, 'pitch': 12.95, 'roll': 0.36, 'pres': 186}
{'lipoC2': 7.57, 'lipoC3S1': 4.14, 'temp': 31.56, 'lipoC3S3': 12.51, 'lipoC3S2': 8.27, 'rot1': 0, 'rot0': 0, 'rot3': 0, 'rot2': 0, 'state': 'normal', 'yaw': 23.69, 'datetime': '2018-10-09 11:58:11.639269', 'mgs': 0, 'volt': 0.9082, 'depth': 1.691, 'time': 21, 'pitch': 13.17, 'roll': 0.78, 'pres': 186}
{'lipoC2': 7.57, 'lipoC3S1': 4.14, 'temp': 31.56, 'lipoC3S3': 12.51, 'lipoC3S2': 8.27, 'rot1': 0, 'rot0': 0, 'rot3': 0, 'rot2': 0, 'state': 'normal', 'yaw': 24.14, 'datetime': '2018-10-09 11:58:11.742678', 'mgs': 0, 'volt': 0.9082, 'depth': 1.691, 'time': 21, 'pitch': 12.73, 'roll': 0.92, 'pres': 186}
{'lipoC2': 7.57, 'lipoC3S1': 4.14, 'temp': 31.56, 'lipoC3S3': 12.51, 'lipoC3S2': 8.27, 'rot1': 0, 'rot0': 0, 'rot3': 0, 'rot2': 0, 'state': 'normal', 'yaw': 24.63, 'datetime': '2018-10-09 11:58:11.845948', 'mgs': 0, 'volt': 0.9082, 'depth': 1.691, 'time': 21, 'pitch': 11.64, 'roll': 0.81, 'pres': 186}
{'lipoC2': 7.57, 'lipoC3S1': 4.14, 'temp': 31.56, 'lipoC3S3': 12.51, 'lipoC3S2': 8.27, 'rot1': 0, 'rot0': 0, 'rot3': 0, 'rot2': 0, 'state': 'normal', 'yaw': 25.28, 'datetime': '2018-10-09 11:58:11.952557', 'mgs': 0, 'volt': 0.9082, 'depth': 1.691, 'time': 21, 'pitch': 10.21, 'roll': 0.6, 'pres': 186}
{'lipoC2': 7.57, 'lipoC3S1': 4.14, 'temp': 31.56, 'lipoC3S3': 12.51, 'lipoC3S2': 8.27, 'rot1': 0, 'rot0': 0, 'rot3': 0, 'rot2': 0, 'state': 'normal', 'yaw': 26.2, 'datetime': '2018-10-09 11:58:12.057843', 'mgs': 0, 'volt': 0.9082, 'depth': 1.691, 'time': 21, 'pitch': 8.86, 'roll': 0.23, 'pres': 186}
{'lipoC2': 7.57, 'lipoC3S1': 4.14, 'temp': 31.5, 'lipoC3S3': 12.51, 'lipoC3S2': 8.27, 'rot1': 0, 'rot0': 0, 'rot3': 0, 'rot2': 0, 'state': 'normal', 'yaw': 27.13, 'datetime': '2018-10-09 11:58:12.161132', 'mgs': 0, 'volt': 0.9082, 'depth': 1.691, 'time': 21, 'pitch': 8.06, 'roll': -0.07, 'pres': 186}
{'lipoC2': 7.57, 'lipoC3S1': 4.14, 'temp': 31.5, 'lipoC3S3': 12.51, 'lipoC3S2': 8.27, 'rot1': 0, 'rot0': 0, 'rot3': 0, 'rot2': 0, 'state': 'normal', 'yaw': 28.07, 'datetime': '2018-10-09 11:58:12.265109', 'mgs': 0, 'volt': 0.9033, 'depth': 1.614, 'time': 21, 'pitch': 7.57, 'roll': -0.2, 'pres': 185}
{'lipoC2': 7.57, 'lipoC3S1': 4.14, 'temp': 31.56, 'lipoC3S3': 12.51, 'lipoC3S2': 8.27, 'rot1': 0, 'rot0': 0, 'rot3': 0, 'rot2': 0, 'state': 'normal', 'yaw': 29.08, 'datetime': '2018-10-09 11:58:12.370108', 'mgs': 0, 'volt': 0.9033, 'depth': 1.614, 'time': 21, 'pitch': 7.08, 'roll': -0.06, 'pres': 185}
