{'lipoC2': 7.35, 'lipoC3S1': 3.89, 'temp': 30.5, 'lipoC3S3': 11.77, 'lipoC3S2': 7.78, 'rot1': 1455, 'rot0': 1451, 'rot3': 650, 'rot2': 582, 'state': 'normal', 'yaw': 22.95, 'datetime': '2018-10-09 13:38:54.368868', 'mgs': 0, 'volt': 0.9229, 'depth': 1.92, 'time': 322, 'pitch': -1.81, 'roll': -0.97, 'pres': 189}
{'lipoC2': 7.35, 'lipoC3S1': 3.89, 'temp': 30.5, 'lipoC3S3': 11.76, 'lipoC3S2': 7.78, 'rot1': 1455, 'rot0': 1451, 'rot3': 650, 'rot2': 582, 'state': 'normal', 'yaw': 22.98, 'datetime': '2018-10-09 13:38:54.392901', 'mgs': 0, 'volt': 0.9229, 'depth': 1.92, 'time': 322, 'pitch': -2.14, 'roll': -0.87, 'pres': 189}
{'lipoC2': 7.35, 'lipoC3S1': 3.89, 'temp': 30.56, 'lipoC3S3': 11.77, 'lipoC3S2': 7.78, 'rot1': 1455, 'rot0': 1451, 'rot3': 650, 'rot2': 582, 'state': 'normal', 'yaw': 23.0, 'datetime': '2018-10-09 13:38:54.416803', 'mgs': 0, 'volt': 0.9229, 'depth': 1.92, 'time': 322, 'pitch': -2.09, 'roll': -0.89, 'pres': 189}
{'lipoC2': 7.35, 'lipoC3S1': 3.89, 'temp': 30.56, 'lipoC3S3': 11.77, 'lipoC3S2': 7.78, 'rot1': 1455, 'rot0': 1451, 'rot3': 650, 'rot2': 582, 'state': 'normal', 'yaw': 23.06, 'datetime': '2018-10-09 13:38:54.440711', 'mgs': 0, 'volt': 0.9229, 'depth': 1.92, 'time': 323, 'pitch': -1.45, 'roll': -1.07, 'pres': 189}
{'lipoC2': 7.35, 'lipoC3S1': 3.89, 'temp': 30.56, 'lipoC3S3': 11.77, 'lipoC3S2': 7.78, 'rot1': 1455, 'rot0': 1451, 'rot3': 650, 'rot2': 582, 'state': 'normal', 'yaw': 23.11, 'datetime': '2018-10-09 13:38:54.464549', 'mgs': 0, 'volt': 0.9277, 'depth': 1.996, 'time': 323, 'pitch': -0.48, 'roll': -1.33, 'pres': 190}
{'lipoC2': 7.35, 'lipoC3S1': 3.89, 'temp': 30.56, 'lipoC3S3': 11.76, 'lipoC3S2': 7.78, 'rot1': 1455, 'rot0': 1451, 'rot3': 650, 'rot2': 582, 'state': 'normal', 'yaw': 23.13, 'datetime': '2018-10-09 13:38:54.477016', 'mgs': 0, 'volt': 0.9229, 'depth': 1.92, 'time': 323, 'pitch': 0.51, 'roll': -1.65, 'pres': 189}
{'lipoC2': 7.35, 'lipoC3S1': 3.89, 'temp': 30.56, 'lipoC3S3': 11.77, 'lipoC3S2': 7.78, 'rot1': 1455, 'rot0': 1451, 'rot3': 650, 'rot2': 582, 'state': 'normal', 'yaw': 23.1, 'datetime': '2018-10-09 13:38:54.487343', 'mgs': 0, 'volt': 0.9277, 'depth': 1.996, 'time': 323, 'pitch': 1.06, 'roll': -2.01, 'pres': 190}
{'lipoC2': 7.35, 'lipoC3S1': 3.89, 'temp': 30.56, 'lipoC3S3': 11.77, 'lipoC3S2': 7.78, 'rot1': 1455, 'rot0': 1451, 'rot3': 650, 'rot2': 582, 'state': 'normal', 'yaw': 23.11, 'datetime': '2018-10-09 13:38:54.497669', 'mgs': 0, 'volt': 0.9326, 'depth': 2.072, 'time': 323, 'pitch': 0.72, 'roll': -2.32, 'pres': 191}
{'lipoC2': 7.35, 'lipoC3S1': 3.89, 'temp': 30.56, 'lipoC3S3': 11.77, 'lipoC3S2': 7.78, 'rot1': 1455, 'rot0': 1451, 'rot3': 650, 'rot2': 582, 'state': 'normal', 'yaw': 23.16, 'datetime': '2018-10-09 13:38:54.507979', 'mgs': 0, 'volt': 0.9277, 'depth': 1.996, 'time': 323, 'pitch': -0.37, 'roll': -2.61, 'pres': 190}
{'lipoC2': 7.35, 'lipoC3S1': 3.89, 'temp': 30.56, 'lipoC3S3': 11.77, 'lipoC3S2': 7.78, 'rot1': 1455, 'rot0': 1451, 'rot3': 650, 'rot2': 582, 'state': 'normal', 'yaw': 22.77, 'datetime': '2018-10-09 13:38:54.518315', 'mgs': 0, 'volt': 0.9326, 'depth': 2.072, 'time': 323, 'pitch': -1.6, 'roll': -2.64, 'pres': 191}
{'lipoC2': 7.35, 'lipoC3S1': 3.89, 'temp': 30.56, 'lipoC3S3': 11.76, 'lipoC3S2': 7.77, 'rot1': 1455, 'rot0': 1451, 'rot3': 650, 'rot2': 582, 'state': 'normal', 'yaw': 22.17, 'datetime': '2018-10-09 13:38:54.528625', 'mgs': 0, 'volt': 0.9326, 'depth': 2.072, 'time': 323, 'pitch': -2.6, 'roll': -2.51, 'pres': 191}
{'lipoC2': 7.35, 'lipoC3S1': 3.89, 'temp': 30.56, 'lipoC3S3': 11.76, 'lipoC3S2': 7.78, 'rot1': 1455, 'rot0': 1451, 'rot3': 650, 'rot2': 582, 'state': 'normal', 'yaw': 21.64, 'datetime': '2018-10-09 13:38:54.538948', 'mgs': 0, 'volt': 0.9326, 'depth': 2.072, 'time': 323, 'pitch': -2.75, 'roll': -2.35, 'pres': 191}
{'lipoC2': 7.35, 'lipoC3S1': 3.89, 'temp': 30.56, 'lipoC3S3': 11.76, 'lipoC3S2': 7.77, 'rot1': 1455, 'rot0': 1451, 'rot3': 650, 'rot2': 582, 'state': 'normal', 'yaw': 21.06, 'datetime': '2018-10-09 13:38:54.549274', 'mgs': 0, 'volt': 0.9326, 'depth': 2.072, 'time': 323, 'pitch': -2.2, 'roll': -2.17, 'pres': 191}
{'lipoC2': 7.35, 'lipoC3S1': 3.89, 'temp': 30.56, 'lipoC3S3': 11.76, 'lipoC3S2': 7.78, 'rot1': 1455, 'rot0': 1451, 'rot3': 650, 'rot2': 582, 'state': 'normal', 'yaw': 20.38, 'datetime': '2018-10-09 13:38:54.559579', 'mgs': 0, 'volt': 0.9326, 'depth': 2.072, 'time': 324, 'pitch': -1.4, 'roll': -1.92, 'pres': 191}
{'lipoC2': 7.35, 'lipoC3S1': 3.89, 'temp': 30.56, 'lipoC3S3': 11.76, 'lipoC3S2': 7.77, 'rot1': 1455, 'rot0': 1451, 'rot3': 650, 'rot2': 582, 'state': 'normal', 'yaw': 20.2, 'datetime': '2018-10-09 13:38:54.570460', 'mgs': 0, 'volt': 0.9375, 'depth': 2.148, 'time': 324, 'pitch': -0.61, 'roll': -1.85, 'pres': 192}
{'lipoC2': 7.35, 'lipoC3S1': 3.89, 'temp': 30.56, 'lipoC3S3': 11.76, 'lipoC3S2': 7.77, 'rot1': 1455, 'rot0': 1451, 'rot3': 650, 'rot2': 582, 'state': 'normal', 'yaw': 20.66, 'datetime': '2018-10-09 13:38:54.580882', 'mgs': 0, 'volt': 0.9326, 'depth': 2.072, 'time': 324, 'pitch': 0.52, 'roll': -2.27, 'pres': 191}
{'lipoC2': 7.35, 'lipoC3S1': 3.89, 'temp': 30.56, 'lipoC3S3': 11.76, 'lipoC3S2': 7.77, 'rot1': 1455, 'rot0': 1451, 'rot3': 650, 'rot2': 582, 'state': 'normal', 'yaw': 21.25, 'datetime': '2018-10-09 13:38:54.591216', 'mgs': 0, 'volt': 0.9375, 'depth': 2.148, 'time': 324, 'pitch': 1.61, 'roll': -2.83, 'pres': 192}
{'lipoC2': 7.35, 'lipoC3S1': 3.89, 'temp': 30.56, 'lipoC3S3': 11.76, 'lipoC3S2': 7.77, 'rot1': 1455, 'rot0': 1451, 'rot3': 650, 'rot2': 582, 'state': 'normal', 'yaw': 21.69, 'datetime': '2018-10-09 13:38:54.601559', 'mgs': 0, 'volt': 0.9375, 'depth': 2.148, 'time': 324, 'pitch': 2.65, 'roll': -3.38, 'pres': 192}
{'lipoC2': 7.35, 'lipoC3S1': 3.89, 'temp': 30.56, 'lipoC3S3': 11.76, 'lipoC3S2': 7.77, 'rot1': 1455, 'rot0': 1451, 'rot3': 650, 'rot2': 582, 'state': 'normal', 'yaw': 21.45, 'datetime': '2018-10-09 13:38:54.611901', 'mgs': 0, 'volt': 0.9375, 'depth': 2.148, 'time': 324, 'pitch': 3.37, 'roll': -3.57, 'pres': 192}
{'lipoC2': 7.35, 'lipoC3S1': 3.89, 'temp': 30.56, 'lipoC3S3': 11.76, 'lipoC3S2': 7.77, 'rot1': 1455, 'rot0': 1451, 'rot3': 650, 'rot2': 582, 'state': 'normal', 'yaw': 20.73, 'datetime': '2018-10-09 13:38:54.622218', 'mgs': 0, 'volt': 0.9424, 'depth': 2.225, 'time': 324, 'pitch': 4.1, 'roll': -3.53, 'pres': 193}
{'lipoC2': 7.35, 'lipoC3S1': 3.89, 'temp': 30.56, 'lipoC3S3': 11.76, 'lipoC3S2': 7.77, 'rot1': 1455, 'rot0': 1451, 'rot3': 650, 'rot2': 582, 'state': 'normal', 'yaw': 20.12, 'datetime': '2018-10-09 13:38:54.632330', 'mgs': 0, 'volt': 0.9375, 'depth': 2.148, 'time': 324, 'pitch': 4.76, 'roll': -3.43, 'pres': 192}
{'lipoC2': 7.35, 'lipoC3S1': 3.89, 'temp': 30.56, 'lipoC3S3': 11.76, 'lipoC3S2': 7.77, 'rot1': 1455, 'rot0': 1451, 'rot3': 650, 'rot2': 582, 'state': 'normal', 'yaw': 19.48, 'datetime': '2018-10-09 13:38:54.642066', 'mgs': 0, 'volt': 0.9424, 'depth': 2.225, 'time': 324, 'pitch': 5.46, 'roll': -3.28, 'pres': 193}
{'lipoC2': 7.35, 'lipoC3S1': 3.89, 'temp': 30.56, 'lipoC3S3': 11.76, 'lipoC3S2': 7.77, 'rot1': 1455, 'rot0': 1451, 'rot3': 650, 'rot2': 582, 'state': 'normal', 'yaw': 18.95, 'datetime': '2018-10-09 13:38:54.651796', 'mgs': 0, 'volt': 0.9424, 'depth': 2.225, 'time': 325, 'pitch': 6.14, 'roll': -3.09, 'pres': 193}
{'lipoC2': 7.35, 'lipoC3S1': 3.89, 'temp': 30.56, 'lipoC3S3': 11.76, 'lipoC3S2': 7.77, 'rot1': 1455, 'rot0': 1451, 'rot3': 650, 'rot2': 582, 'state': 'normal', 'yaw': 18.47, 'datetime': '2018-10-09 13:38:54.661647', 'mgs': 0, 'volt': 0.9424, 'depth': 2.225, 'time': 325, 'pitch': 7.01, 'roll': -2.87, 'pres': 193}
{'lipoC2': 7.35, 'lipoC3S1': 3.89, 'temp': 30.56, 'lipoC3S3': 11.76, 'lipoC3S2': 7.77, 'rot1': 1455, 'rot0': 1451, 'rot3': 650, 'rot2': 582, 'state': 'normal', 'yaw': 18.18, 'datetime': '2018-10-09 13:38:54.671423', 'mgs': 0, 'volt': 0.9424, 'depth': 2.225, 'time': 325, 'pitch': 7.55, 'roll': -2.7, 'pres': 193}
{'lipoC2': 7.35, 'lipoC3S1': 3.89, 'temp': 30.63, 'lipoC3S3': 11.76, 'lipoC3S2': 7.77, 'rot1': 1455, 'rot0': 1451, 'rot3': 650, 'rot2': 582, 'state': 'normal', 'yaw': 17.76, 'datetime': '2018-10-09 13:38:54.681149', 'mgs': 0, 'volt': 0.9424, 'depth': 2.225, 'time': 325, 'pitch': 7.59, 'roll': -2.48, 'pres': 193}
{'lipoC2': 7.35, 'lipoC3S1': 3.89, 'temp': 30.63, 'lipoC3S3': 11.76, 'lipoC3S2': 7.77, 'rot1': 1455, 'rot0': 1451, 'rot3': 650, 'rot2': 582, 'state': 'normal', 'yaw': 17.12, 'datetime': '2018-10-09 13:38:54.690908', 'mgs': 0, 'volt': 0.9424, 'depth': 2.225, 'time': 325, 'pitch': 7.13, 'roll': -2.21, 'pres': 193}
{'lipoC2': 7.35, 'lipoC3S1': 3.89, 'temp': 30.63, 'lipoC3S3': 11.76, 'lipoC3S2': 7.77, 'rot1': 1455, 'rot0': 1451, 'rot3': 650, 'rot2': 582, 'state': 'normal', 'yaw': 16.68, 'datetime': '2018-10-09 13:38:54.701048', 'mgs': 0, 'volt': 0.9424, 'depth': 2.225, 'time': 325, 'pitch': 6.39, 'roll': -2.06, 'pres': 193}
{'lipoC2': 7.35, 'lipoC3S1': 3.89, 'temp': 30.5, 'lipoC3S3': 11.76, 'lipoC3S2': 7.77, 'rot1': 1455, 'rot0': 1451, 'rot3': 650, 'rot2': 582, 'state': 'normal', 'yaw': 16.46, 'datetime': '2018-10-09 13:38:54.710870', 'mgs': 0, 'volt': 0.9375, 'depth': 2.148, 'time': 325, 'pitch': 5.14, 'roll': -2.01, 'pres': 192}
{'lipoC2': 7.35, 'lipoC3S1': 3.89, 'temp': 30.5, 'lipoC3S3': 11.76, 'lipoC3S2': 7.77, 'rot1': 1455, 'rot0': 1451, 'rot3': 650, 'rot2': 582, 'state': 'normal', 'yaw': 16.1, 'datetime': '2018-10-09 13:38:54.720714', 'mgs': 0, 'volt': 0.9375, 'depth': 2.148, 'time': 325, 'pitch': 3.54, 'roll': -1.98, 'pres': 192}
{'lipoC2': 7.35, 'lipoC3S1': 3.89, 'temp': 30.56, 'lipoC3S3': 11.76, 'lipoC3S2': 7.78, 'rot1': 1455, 'rot0': 1451, 'rot3': 650, 'rot2': 582, 'state': 'normal', 'yaw': 15.65, 'datetime': '2018-10-09 13:38:54.730464', 'mgs': 0, 'volt': 0.9375, 'depth': 2.148, 'time': 325, 'pitch': 1.32, 'roll': -1.85, 'pres': 192}
{'lipoC2': 7.35, 'lipoC3S1': 3.89, 'temp': 30.56, 'lipoC3S3': 11.76, 'lipoC3S2': 7.77, 'rot1': 1455, 'rot0': 1451, 'rot3': 650, 'rot2': 582, 'state': 'normal', 'yaw': 15.31, 'datetime': '2018-10-09 13:38:54.740218', 'mgs': 0, 'volt': 0.9326, 'depth': 2.072, 'time': 325, 'pitch': -0.8, 'roll': -1.72, 'pres': 191}
{'lipoC2': 7.35, 'lipoC3S1': 3.89, 'temp': 30.56, 'lipoC3S3': 11.76, 'lipoC3S2': 7.77, 'rot1': 1455, 'rot0': 1451, 'rot3': 650, 'rot2': 582, 'state': 'normal', 'yaw': 15.1, 'datetime': '2018-10-09 13:38:54.749991', 'mgs': 0, 'volt': 0.9277, 'depth': 1.996, 'time': 326, 'pitch': -2.85, 'roll': -1.67, 'pres': 190}
{'lipoC2': 7.35, 'lipoC3S1': 3.89, 'temp': 30.56, 'lipoC3S3': 11.76, 'lipoC3S2': 7.77, 'rot1': 1455, 'rot0': 1451, 'rot3': 650, 'rot2': 582, 'state': 'normal', 'yaw': 15.18, 'datetime': '2018-10-09 13:38:54.759785', 'mgs': 0, 'volt': 0.9277, 'depth': 1.996, 'time': 326, 'pitch': -4.32, 'roll': -1.76, 'pres': 190}
{'lipoC2': 7.35, 'lipoC3S1': 3.89, 'temp': 30.56, 'lipoC3S3': 11.76, 'lipoC3S2': 7.78, 'rot1': 1455, 'rot0': 1451, 'rot3': 650, 'rot2': 582, 'state': 'normal', 'yaw': 15.7, 'datetime': '2018-10-09 13:38:54.769576', 'mgs': 0, 'volt': 0.9229, 'depth': 1.92, 'time': 326, 'pitch': -5.43, 'roll': -2.16, 'pres': 189}
{'lipoC2': 7.35, 'lipoC3S1': 3.89, 'temp': 30.63, 'lipoC3S3': 11.76, 'lipoC3S2': 7.77, 'rot1': 1455, 'rot0': 1451, 'rot3': 650, 'rot2': 582, 'state': 'normal', 'yaw': 16.48, 'datetime': '2018-10-09 13:38:54.779402', 'mgs': 0, 'volt': 0.918, 'depth': 1.843, 'time': 326, 'pitch': -6.1, 'roll': -2.77, 'pres': 188}
{'lipoC2': 7.34, 'lipoC3S1': 3.89, 'temp': 30.63, 'lipoC3S3': 11.76, 'lipoC3S2': 7.77, 'rot1': 1455, 'rot0': 1451, 'rot3': 650, 'rot2': 582, 'state': 'normal', 'yaw': 17.37, 'datetime': '2018-10-09 13:38:54.789176', 'mgs': 0, 'volt': 0.918, 'depth': 1.843, 'time': 326, 'pitch': -6.62, 'roll': -3.4, 'pres': 188}
{'lipoC2': 7.35, 'lipoC3S1': 3.89, 'temp': 30.5, 'lipoC3S3': 11.76, 'lipoC3S2': 7.77, 'rot1': 1455, 'rot0': 1451, 'rot3': 650, 'rot2': 582, 'state': 'normal', 'yaw': 18.37, 'datetime': '2018-10-09 13:38:54.811054', 'mgs': 0, 'volt': 0.9131, 'depth': 1.767, 'time': 326, 'pitch': -6.99, 'roll': -4.04, 'pres': 187}
{'lipoC2': 7.35, 'lipoC3S1': 3.89, 'temp': 30.5, 'lipoC3S3': 11.76, 'lipoC3S2': 7.77, 'rot1': 1455, 'rot0': 1451, 'rot3': 650, 'rot2': 582, 'state': 'normal', 'yaw': 19.13, 'datetime': '2018-10-09 13:38:54.916767', 'mgs': 0, 'volt': 0.9131, 'depth': 1.767, 'time': 326, 'pitch': -6.79, 'roll': -4.48, 'pres': 187}
{'lipoC2': 7.35, 'lipoC3S1': 3.89, 'temp': 30.56, 'lipoC3S3': 11.76, 'lipoC3S2': 7.77, 'rot1': 1455, 'rot0': 1451, 'rot3': 650, 'rot2': 582, 'state': 'normal', 'yaw': 19.86, 'datetime': '2018-10-09 13:38:55.021260', 'mgs': 0, 'volt': 0.9131, 'depth': 1.767, 'time': 326, 'pitch': -5.84, 'roll': -4.88, 'pres': 187}
{'lipoC2': 7.35, 'lipoC3S1': 3.89, 'temp': 30.56, 'lipoC3S3': 11.76, 'lipoC3S2': 7.77, 'rot1': 1455, 'rot0': 1451, 'rot3': 650, 'rot2': 582, 'state': 'normal', 'yaw': 20.44, 'datetime': '2018-10-09 13:38:55.126996', 'mgs': 0, 'volt': 0.9131, 'depth': 1.767, 'time': 326, 'pitch': -4.39, 'roll': -5.08, 'pres': 187}
{'lipoC2': 7.35, 'lipoC3S1': 3.89, 'temp': 30.56, 'lipoC3S3': 11.76, 'lipoC3S2': 7.77, 'rot1': 1455, 'rot0': 1451, 'rot3': 650, 'rot2': 582, 'state': 'normal', 'yaw': 20.96, 'datetime': '2018-10-09 13:38:55.231367', 'mgs': 0, 'volt': 0.9131, 'depth': 1.767, 'time': 326, 'pitch': -2.49, 'roll': -5.02, 'pres': 187}
{'lipoC2': 7.35, 'lipoC3S1': 3.89, 'temp': 30.56, 'lipoC3S3': 11.76, 'lipoC3S2': 7.77, 'rot1': 1455, 'rot0': 1451, 'rot3': 650, 'rot2': 582, 'state': 'normal', 'yaw': 21.21, 'datetime': '2018-10-09 13:38:55.335777', 'mgs': 0, 'volt': 0.9131, 'depth': 1.767, 'time': 327, 'pitch': -0.9, 'roll': -4.64, 'pres': 187}
{'lipoC2': 7.35, 'lipoC3S1': 3.89, 'temp': 30.56, 'lipoC3S3': 11.76, 'lipoC3S2': 7.77, 'rot1': 1455, 'rot0': 1451, 'rot3': 650, 'rot2': 582, 'state': 'normal', 'yaw': 21.2, 'datetime': '2018-10-09 13:38:55.440244', 'mgs': 0, 'volt': 0.9131, 'depth': 1.767, 'time': 327, 'pitch': 0.39, 'roll': -3.78, 'pres': 187}
{'lipoC2': 7.35, 'lipoC3S1': 3.89, 'temp': 30.56, 'lipoC3S3': 11.76, 'lipoC3S2': 7.77, 'rot1': 1455, 'rot0': 1451, 'rot3': 650, 'rot2': 582, 'state': 'normal', 'yaw': 21.05, 'datetime': '2018-10-09 13:38:55.544682', 'mgs': 0, 'volt': 0.918, 'depth': 1.843, 'time': 327, 'pitch': 1.12, 'roll': -2.75, 'pres': 188}
{'lipoC2': 7.35, 'lipoC3S1': 3.89, 'temp': 30.56, 'lipoC3S3': 11.76, 'lipoC3S2': 7.77, 'rot1': 1455, 'rot0': 1451, 'rot3': 650, 'rot2': 582, 'state': 'normal', 'yaw': 20.94, 'datetime': '2018-10-09 13:38:55.649294', 'mgs': 0, 'volt': 0.918, 'depth': 1.843, 'time': 327, 'pitch': 1.53, 'roll': -1.69, 'pres': 188}
{'lipoC2': 7.35, 'lipoC3S1': 3.89, 'temp': 30.5, 'lipoC3S3': 11.76, 'lipoC3S2': 7.77, 'rot1': 1455, 'rot0': 1451, 'rot3': 650, 'rot2': 582, 'state': 'normal', 'yaw': 20.91, 'datetime': '2018-10-09 13:38:55.753723', 'mgs': 0, 'volt': 0.9131, 'depth': 1.767, 'time': 327, 'pitch': 1.85, 'roll': -0.64, 'pres': 187}
{'lipoC2': 7.35, 'lipoC3S1': 3.89, 'temp': 30.5, 'lipoC3S3': 11.76, 'lipoC3S2': 7.77, 'rot1': 1455, 'rot0': 1451, 'rot3': 650, 'rot2': 582, 'state': 'normal', 'yaw': 20.89, 'datetime': '2018-10-09 13:38:55.858146', 'mgs': 0, 'volt': 0.9131, 'depth': 1.767, 'time': 327, 'pitch': 2.13, 'roll': 0.11, 'pres': 187}
{'lipoC2': 7.35, 'lipoC3S1': 3.89, 'temp': 30.56, 'lipoC3S3': 11.76, 'lipoC3S2': 7.77, 'rot1': 1455, 'rot0': 1451, 'rot3': 650, 'rot2': 582, 'state': 'normal', 'yaw': 20.88, 'datetime': '2018-10-09 13:38:55.963338', 'mgs': 0, 'volt': 0.9131, 'depth': 1.767, 'time': 327, 'pitch': 2.31, 'roll': 0.63, 'pres': 187}
{'lipoC2': 7.35, 'lipoC3S1': 3.89, 'temp': 30.56, 'lipoC3S3': 11.76, 'lipoC3S2': 7.77, 'rot1': 1455, 'rot0': 1451, 'rot3': 650, 'rot2': 582, 'state': 'normal', 'yaw': 20.88, 'datetime': '2018-10-09 13:38:56.069009', 'mgs': 0, 'volt': 0.9131, 'depth': 1.767, 'time': 327, 'pitch': 2.23, 'roll': 0.83, 'pres': 187}
{'lipoC2': 7.35, 'lipoC3S1': 3.89, 'temp': 30.56, 'lipoC3S3': 11.76, 'lipoC3S2': 7.77, 'rot1': 1455, 'rot0': 1451, 'rot3': 650, 'rot2': 582, 'state': 'normal', 'yaw': 21.15, 'datetime': '2018-10-09 13:38:56.173446', 'mgs': 0, 'volt': 0.9131, 'depth': 1.767, 'time': 327, 'pitch': 1.57, 'roll': 0.72, 'pres': 187}
{'lipoC2': 7.35, 'lipoC3S1': 3.89, 'temp': 30.56, 'lipoC3S3': 11.76, 'lipoC3S2': 7.77, 'rot1': 1455, 'rot0': 1451, 'rot3': 650, 'rot2': 582, 'state': 'normal', 'yaw': 21.51, 'datetime': '2018-10-09 13:38:56.278800', 'mgs': 0, 'volt': 0.9131, 'depth': 1.767, 'time': 328, 'pitch': 0.78, 'roll': 0.19, 'pres': 187}
{'lipoC2': 7.35, 'lipoC3S1': 3.89, 'temp': 30.56, 'lipoC3S3': 11.76, 'lipoC3S2': 7.77, 'rot1': 1455, 'rot0': 1451, 'rot3': 650, 'rot2': 582, 'state': 'normal', 'yaw': 21.46, 'datetime': '2018-10-09 13:38:56.383217', 'mgs': 0, 'volt': 0.9082, 'depth': 1.691, 'time': 328, 'pitch': 0.33, 'roll': -0.53, 'pres': 186}
{'lipoC2': 7.35, 'lipoC3S1': 3.89, 'temp': 30.56, 'lipoC3S3': 11.76, 'lipoC3S2': 7.77, 'rot1': 1455, 'rot0': 1451, 'rot3': 650, 'rot2': 582, 'state': 'normal', 'yaw': 21.26, 'datetime': '2018-10-09 13:38:56.487679', 'mgs': 0, 'volt': 0.9082, 'depth': 1.691, 'time': 328, 'pitch': 0.36, 'roll': -1.32, 'pres': 186}
{'lipoC2': 7.35, 'lipoC3S1': 3.89, 'temp': 30.56, 'lipoC3S3': 11.76, 'lipoC3S2': 7.77, 'rot1': 1455, 'rot0': 1451, 'rot3': 650, 'rot2': 582, 'state': 'normal', 'yaw': 21.05, 'datetime': '2018-10-09 13:38:56.592353', 'mgs': 0, 'volt': 0.8984, 'depth': 1.538, 'time': 328, 'pitch': 0.56, 'roll': -2.23, 'pres': 184}
{'lipoC2': 7.35, 'lipoC3S1': 3.89, 'temp': 30.56, 'lipoC3S3': 11.76, 'lipoC3S2': 7.77, 'rot1': 1455, 'rot0': 1451, 'rot3': 650, 'rot2': 582, 'state': 'normal', 'yaw': 20.88, 'datetime': '2018-10-09 13:38:56.696703', 'mgs': 0, 'volt': 0.8936, 'depth': 1.462, 'time': 328, 'pitch': 0.61, 'roll': -3.29, 'pres': 183}
{'lipoC2': 7.35, 'lipoC3S1': 3.89, 'temp': 30.56, 'lipoC3S3': 11.76, 'lipoC3S2': 7.78, 'rot1': 1455, 'rot0': 1451, 'rot3': 650, 'rot2': 582, 'state': 'normal', 'yaw': 20.88, 'datetime': '2018-10-09 13:38:56.801166', 'mgs': 0, 'volt': 0.8887, 'depth': 1.385, 'time': 328, 'pitch': 0.27, 'roll': -4.25, 'pres': 182}
{'lipoC2': 7.35, 'lipoC3S1': 3.89, 'temp': 30.56, 'lipoC3S3': 11.76, 'lipoC3S2': 7.77, 'rot1': 1455, 'rot0': 1451, 'rot3': 650, 'rot2': 582, 'state': 'normal', 'yaw': 21.15, 'datetime': '2018-10-09 13:38:56.905605', 'mgs': 0, 'volt': 0.8838, 'depth': 1.309, 'time': 328, 'pitch': -0.58, 'roll': -5.3, 'pres': 181}
{'lipoC2': 7.35, 'lipoC3S1': 3.89, 'temp': 30.56, 'lipoC3S3': 11.76, 'lipoC3S2': 7.77, 'rot1': 1455, 'rot0': 1451, 'rot3': 650, 'rot2': 582, 'state': 'normal', 'yaw': 21.72, 'datetime': '2018-10-09 13:38:57.009971', 'mgs': 0, 'volt': 0.8838, 'depth': 1.309, 'time': 328, 'pitch': -1.59, 'roll': -6.3, 'pres': 181}
{'lipoC2': 7.35, 'lipoC3S1': 3.89, 'temp': 30.56, 'lipoC3S3': 11.76, 'lipoC3S2': 7.77, 'rot1': 1455, 'rot0': 1451, 'rot3': 650, 'rot2': 582, 'state': 'normal', 'yaw': 22.62, 'datetime': '2018-10-09 13:38:57.114463', 'mgs': 0, 'volt': 0.8789, 'depth': 1.233, 'time': 328, 'pitch': -2.63, 'roll': -7.34, 'pres': 180}
{'lipoC2': 7.35, 'lipoC3S1': 3.89, 'temp': 30.56, 'lipoC3S3': 11.76, 'lipoC3S2': 7.77, 'rot1': 1455, 'rot0': 1451, 'rot3': 650, 'rot2': 582, 'state': 'normal', 'yaw': 23.46, 'datetime': '2018-10-09 13:38:57.218905', 'mgs': 0, 'volt': 0.8789, 'depth': 1.233, 'time': 328, 'pitch': -3.11, 'roll': -7.99, 'pres': 180}
{'lipoC2': 7.35, 'lipoC3S1': 3.89, 'temp': 30.56, 'lipoC3S3': 11.76, 'lipoC3S2': 7.77, 'rot1': 1455, 'rot0': 1451, 'rot3': 650, 'rot2': 582, 'state': 'normal', 'yaw': 24.25, 'datetime': '2018-10-09 13:38:57.324074', 'mgs': 0, 'volt': 0.874, 'depth': 1.157, 'time': 329, 'pitch': -3.01, 'roll': -8.26, 'pres': 179}
{'lipoC2': 7.35, 'lipoC3S1': 3.89, 'temp': 30.5, 'lipoC3S3': 11.76, 'lipoC3S2': 7.77, 'rot1': 1455, 'rot0': 1451, 'rot3': 650, 'rot2': 582, 'state': 'normal', 'yaw': 24.97, 'datetime': '2018-10-09 13:38:57.428519', 'mgs': 0, 'volt': 0.874, 'depth': 1.157, 'time': 329, 'pitch': -2.46, 'roll': -8.06, 'pres': 179}
{'lipoC2': 7.35, 'lipoC3S1': 3.89, 'temp': 30.5, 'lipoC3S3': 11.76, 'lipoC3S2': 7.77, 'rot1': 1455, 'rot0': 1451, 'rot3': 650, 'rot2': 582, 'state': 'normal', 'yaw': 25.84, 'datetime': '2018-10-09 13:38:57.534336', 'mgs': 0, 'volt': 0.874, 'depth': 1.157, 'time': 329, 'pitch': -1.81, 'roll': -7.66, 'pres': 179}
{'lipoC2': 7.35, 'lipoC3S1': 3.89, 'temp': 30.5, 'lipoC3S3': 11.76, 'lipoC3S2': 7.77, 'rot1': 1455, 'rot0': 1451, 'rot3': 650, 'rot2': 582, 'state': 'normal', 'yaw': 27.36, 'datetime': '2018-10-09 13:38:57.638741', 'mgs': 0, 'volt': 0.874, 'depth': 1.157, 'time': 329, 'pitch': -1.38, 'roll': -7.26, 'pres': 179}
{'lipoC2': 7.35, 'lipoC3S1': 3.89, 'temp': 30.56, 'lipoC3S3': 11.76, 'lipoC3S2': 7.77, 'rot1': 1455, 'rot0': 1451, 'rot3': 650, 'rot2': 582, 'state': 'normal', 'yaw': 29.38, 'datetime': '2018-10-09 13:38:57.743168', 'mgs': 0, 'volt': 0.874, 'depth': 1.157, 'time': 329, 'pitch': -1.55, 'roll': -7.15, 'pres': 179}
{'lipoC2': 7.35, 'lipoC3S1': 3.89, 'temp': 30.56, 'lipoC3S3': 11.76, 'lipoC3S2': 7.77, 'rot1': 1455, 'rot0': 1451, 'rot3': 650, 'rot2': 582, 'state': 'normal', 'yaw': 32.09, 'datetime': '2018-10-09 13:38:57.847693', 'mgs': 0, 'volt': 0.874, 'depth': 1.157, 'time': 329, 'pitch': -1.67, 'roll': -7.18, 'pres': 179}
{'lipoC2': 7.35, 'lipoC3S1': 3.89, 'temp': 30.56, 'lipoC3S3': 11.76, 'lipoC3S2': 7.77, 'rot1': 1455, 'rot0': 1451, 'rot3': 650, 'rot2': 582, 'state': 'normal', 'yaw': 34.52, 'datetime': '2018-10-09 13:38:57.952075', 'mgs': 0, 'volt': 0.8691, 'depth': 1.08, 'time': 329, 'pitch': -1.32, 'roll': -6.97, 'pres': 178}
{'lipoC2': 7.35, 'lipoC3S1': 3.89, 'temp': 30.56, 'lipoC3S3': 11.76, 'lipoC3S2': 7.77, 'rot1': 1455, 'rot0': 1451, 'rot3': 650, 'rot2': 582, 'state': 'normal', 'yaw': 36.85, 'datetime': '2018-10-09 13:38:58.056579', 'mgs': 0, 'volt': 0.874, 'depth': 1.157, 'time': 329, 'pitch': -0.45, 'roll': -6.36, 'pres': 179}
{'lipoC2': 7.35, 'lipoC3S1': 3.89, 'temp': 30.5, 'lipoC3S3': 11.76, 'lipoC3S2': 7.77, 'rot1': 1455, 'rot0': 1451, 'rot3': 650, 'rot2': 582, 'state': 'normal', 'yaw': 38.32, 'datetime': '2018-10-09 13:38:58.160957', 'mgs': 0, 'volt': 0.874, 'depth': 1.157, 'time': 329, 'pitch': 0.63, 'roll': -5.39, 'pres': 179}
{'lipoC2': 7.35, 'lipoC3S1': 3.89, 'temp': 30.5, 'lipoC3S3': 11.76, 'lipoC3S2': 7.77, 'rot1': 1455, 'rot0': 1451, 'rot3': 650, 'rot2': 582, 'state': 'normal', 'yaw': 39.19, 'datetime': '2018-10-09 13:38:58.266020', 'mgs': 0, 'volt': 0.874, 'depth': 1.157, 'time': 330, 'pitch': 1.86, 'roll': -4.11, 'pres': 179}
{'lipoC2': 7.35, 'lipoC3S1': 3.89, 'temp': 30.5, 'lipoC3S3': 11.76, 'lipoC3S2': 7.77, 'rot1': 1455, 'rot0': 1451, 'rot3': 650, 'rot2': 582, 'state': 'normal', 'yaw': 39.82, 'datetime': '2018-10-09 13:38:58.370496', 'mgs': 0, 'volt': 0.8789, 'depth': 1.233, 'time': 330, 'pitch': 3.02, 'roll': -2.68, 'pres': 180}
{'lipoC2': 7.35, 'lipoC3S1': 3.89, 'temp': 30.56, 'lipoC3S3': 11.76, 'lipoC3S2': 7.77, 'rot1': 1455, 'rot0': 1451, 'rot3': 650, 'rot2': 582, 'state': 'normal', 'yaw': 40.34, 'datetime': '2018-10-09 13:38:58.476032', 'mgs': 0, 'volt': 0.8789, 'depth': 1.233, 'time': 330, 'pitch': 3.23, 'roll': -1.59, 'pres': 180}
{'lipoC2': 7.35, 'lipoC3S1': 3.89, 'temp': 30.56, 'lipoC3S3': 11.76, 'lipoC3S2': 7.77, 'rot1': 1455, 'rot0': 1451, 'rot3': 650, 'rot2': 582, 'state': 'normal', 'yaw': 41.23, 'datetime': '2018-10-09 13:38:58.580557', 'mgs': 0, 'volt': 0.8789, 'depth': 1.233, 'time': 330, 'pitch': 2.2, 'roll': -0.73, 'pres': 180}
{'lipoC2': 7.35, 'lipoC3S1': 3.89, 'temp': 30.56, 'lipoC3S3': 11.76, 'lipoC3S2': 7.77, 'rot1': 1455, 'rot0': 1451, 'rot3': 650, 'rot2': 582, 'state': 'normal', 'yaw': 42.2, 'datetime': '2018-10-09 13:38:58.686219', 'mgs': 0, 'volt': 0.8838, 'depth': 1.309, 'time': 330, 'pitch': 0.85, 'roll': -0.32, 'pres': 181}
{'lipoC2': 7.35, 'lipoC3S1': 3.89, 'temp': 30.56, 'lipoC3S3': 11.76, 'lipoC3S2': 7.77, 'rot1': 1455, 'rot0': 1451, 'rot3': 650, 'rot2': 582, 'state': 'normal', 'yaw': 42.98, 'datetime': '2018-10-09 13:38:58.790718', 'mgs': 0, 'volt': 0.8789, 'depth': 1.233, 'time': 330, 'pitch': -0.08, 'roll': -0.15, 'pres': 180}
{'lipoC2': 7.35, 'lipoC3S1': 3.89, 'temp': 30.5, 'lipoC3S3': 11.76, 'lipoC3S2': 7.77, 'rot1': 1455, 'rot0': 1451, 'rot3': 650, 'rot2': 582, 'state': 'normal', 'yaw': 43.34, 'datetime': '2018-10-09 13:38:58.895143', 'mgs': 0, 'volt': 0.8789, 'depth': 1.233, 'time': 330, 'pitch': -0.09, 'roll': -0.26, 'pres': 180}
{'lipoC2': 7.35, 'lipoC3S1': 3.89, 'temp': 30.5, 'lipoC3S3': 11.76, 'lipoC3S2': 7.77, 'rot1': 1455, 'rot0': 1451, 'rot3': 650, 'rot2': 582, 'state': 'normal', 'yaw': 43.73, 'datetime': '2018-10-09 13:38:58.999580', 'mgs': 0, 'volt': 0.8789, 'depth': 1.233, 'time': 330, 'pitch': 0.6, 'roll': -0.71, 'pres': 180}
{'lipoC2': 7.35, 'lipoC3S1': 3.89, 'temp': 30.5, 'lipoC3S3': 11.76, 'lipoC3S2': 7.77, 'rot1': 1455, 'rot0': 1451, 'rot3': 650, 'rot2': 582, 'state': 'normal', 'yaw': 44.26, 'datetime': '2018-10-09 13:38:59.103940', 'mgs': 0, 'volt': 0.874, 'depth': 1.157, 'time': 330, 'pitch': 1.26, 'roll': -1.39, 'pres': 179}
{'lipoC2': 7.35, 'lipoC3S1': 3.89, 'temp': 30.56, 'lipoC3S3': 11.76, 'lipoC3S2': 7.77, 'rot1': 1455, 'rot0': 1451, 'rot3': 650, 'rot2': 582, 'state': 'normal', 'yaw': 44.74, 'datetime': '2018-10-09 13:38:59.208623', 'mgs': 0, 'volt': 0.874, 'depth': 1.157, 'time': 330, 'pitch': 1.52, 'roll': -2.33, 'pres': 179}
{'lipoC2': 7.35, 'lipoC3S1': 3.89, 'temp': 30.56, 'lipoC3S3': 11.76, 'lipoC3S2': 7.77, 'rot1': 1455, 'rot0': 1451, 'rot3': 650, 'rot2': 582, 'state': 'normal', 'yaw': 45.03, 'datetime': '2018-10-09 13:38:59.312985', 'mgs': 0, 'volt': 0.8789, 'depth': 1.233, 'time': 331, 'pitch': 1.7, 'roll': -3.23, 'pres': 180}
{'lipoC2': 7.35, 'lipoC3S1': 3.89, 'temp': 30.56, 'lipoC3S3': 11.76, 'lipoC3S2': 7.77, 'rot1': 1455, 'rot0': 1451, 'rot3': 650, 'rot2': 582, 'state': 'normal', 'yaw': 45.32, 'datetime': '2018-10-09 13:38:59.418153', 'mgs': 0, 'volt': 0.8789, 'depth': 1.233, 'time': 331, 'pitch': 2.27, 'roll': -4.12, 'pres': 180}
{'lipoC2': 7.35, 'lipoC3S1': 3.89, 'temp': 30.56, 'lipoC3S3': 11.76, 'lipoC3S2': 7.77, 'rot1': 1455, 'rot0': 1451, 'rot3': 650, 'rot2': 582, 'state': 'normal', 'yaw': 45.71, 'datetime': '2018-10-09 13:38:59.522574', 'mgs': 0, 'volt': 0.8789, 'depth': 1.233, 'time': 331, 'pitch': 3.38, 'roll': -5.16, 'pres': 180}
{'lipoC2': 7.35, 'lipoC3S1': 3.89, 'temp': 30.56, 'lipoC3S3': 11.76, 'lipoC3S2': 7.77, 'rot1': 1455, 'rot0': 1451, 'rot3': 650, 'rot2': 582, 'state': 'normal', 'yaw': 45.49, 'datetime': '2018-10-09 13:38:59.628371', 'mgs': 0, 'volt': 0.8789, 'depth': 1.233, 'time': 331, 'pitch': 4.56, 'roll': -5.99, 'pres': 180}
{'lipoC2': 7.35, 'lipoC3S1': 3.89, 'temp': 30.56, 'lipoC3S3': 11.76, 'lipoC3S2': 7.77, 'rot1': 1455, 'rot0': 1451, 'rot3': 650, 'rot2': 582, 'state': 'normal', 'yaw': 44.59, 'datetime': '2018-10-09 13:38:59.732732', 'mgs': 0, 'volt': 0.8789, 'depth': 1.233, 'time': 331, 'pitch': 5.41, 'roll': -6.66, 'pres': 180}
{'lipoC2': 7.35, 'lipoC3S1': 3.89, 'temp': 30.5, 'lipoC3S3': 11.76, 'lipoC3S2': 7.78, 'rot1': 1455, 'rot0': 1451, 'rot3': 650, 'rot2': 582, 'state': 'normal', 'yaw': 43.58, 'datetime': '2018-10-09 13:38:59.838492', 'mgs': 0, 'volt': 0.8789, 'depth': 1.233, 'time': 331, 'pitch': 5.08, 'roll': -7.03, 'pres': 180}
{'lipoC2': 7.35, 'lipoC3S1': 3.89, 'temp': 30.5, 'lipoC3S3': 11.76, 'lipoC3S2': 7.77, 'rot1': 1455, 'rot0': 1451, 'rot3': 650, 'rot2': 582, 'state': 'normal', 'yaw': 42.32, 'datetime': '2018-10-09 13:38:59.942868', 'mgs': 0, 'volt': 0.8789, 'depth': 1.233, 'time': 331, 'pitch': 3.54, 'roll': -7.29, 'pres': 180}
{'lipoC2': 7.35, 'lipoC3S1': 3.89, 'temp': 30.5, 'lipoC3S3': 11.76, 'lipoC3S2': 7.77, 'rot1': 1455, 'rot0': 1451, 'rot3': 650, 'rot2': 582, 'state': 'normal', 'yaw': 40.97, 'datetime': '2018-10-09 13:39:00.047427', 'mgs': 0, 'volt': 0.8789, 'depth': 1.233, 'time': 331, 'pitch': 1.62, 'roll': -7.37, 'pres': 180}
{'lipoC2': 7.35, 'lipoC3S1': 3.89, 'temp': 30.56, 'lipoC3S3': 11.76, 'lipoC3S2': 7.77, 'rot1': 1455, 'rot0': 1451, 'rot3': 650, 'rot2': 582, 'state': 'normal', 'yaw': 39.28, 'datetime': '2018-10-09 13:39:00.151786', 'mgs': 0, 'volt': 0.8789, 'depth': 1.233, 'time': 331, 'pitch': 0.01, 'roll': -7.47, 'pres': 180}
{'lipoC2': 7.35, 'lipoC3S1': 3.89, 'temp': 30.56, 'lipoC3S3': 11.76, 'lipoC3S2': 7.77, 'rot1': 1455, 'rot0': 1451, 'rot3': 650, 'rot2': 582, 'state': 'normal', 'yaw': 37.47, 'datetime': '2018-10-09 13:39:00.256307', 'mgs': 0, 'volt': 0.8789, 'depth': 1.233, 'time': 332, 'pitch': -0.44, 'roll': -7.54, 'pres': 180}
{'lipoC2': 7.35, 'lipoC3S1': 3.89, 'temp': 30.56, 'lipoC3S3': 11.76, 'lipoC3S2': 7.77, 'rot1': 1455, 'rot0': 1451, 'rot3': 650, 'rot2': 582, 'state': 'normal', 'yaw': 35.52, 'datetime': '2018-10-09 13:39:00.361582', 'mgs': 0, 'volt': 0.8789, 'depth': 1.233, 'time': 332, 'pitch': 0.35, 'roll': -7.57, 'pres': 180}
{'lipoC2': 7.35, 'lipoC3S1': 3.89, 'temp': 30.56, 'lipoC3S3': 11.76, 'lipoC3S2': 7.77, 'rot1': 1455, 'rot0': 1451, 'rot3': 650, 'rot2': 582, 'state': 'normal', 'yaw': 33.28, 'datetime': '2018-10-09 13:39:00.465367', 'mgs': 0, 'volt': 0.8789, 'depth': 1.233, 'time': 332, 'pitch': 1.97, 'roll': -7.51, 'pres': 180}
{'lipoC2': 7.35, 'lipoC3S1': 3.89, 'temp': 30.56, 'lipoC3S3': 11.76, 'lipoC3S2': 7.77, 'rot1': 1455, 'rot0': 1451, 'rot3': 650, 'rot2': 582, 'state': 'normal', 'yaw': 31.4, 'datetime': '2018-10-09 13:39:00.570011', 'mgs': 0, 'volt': 0.8838, 'depth': 1.309, 'time': 332, 'pitch': 3.53, 'roll': -7.34, 'pres': 181}
{'lipoC2': 7.35, 'lipoC3S1': 3.89, 'temp': 30.56, 'lipoC3S3': 11.76, 'lipoC3S2': 7.77, 'rot1': 1455, 'rot0': 1451, 'rot3': 650, 'rot2': 582, 'state': 'normal', 'yaw': 29.63, 'datetime': '2018-10-09 13:39:00.674420', 'mgs': 0, 'volt': 0.8887, 'depth': 1.385, 'time': 332, 'pitch': 4.71, 'roll': -7.06, 'pres': 182}
{'lipoC2': 7.35, 'lipoC3S1': 3.89, 'temp': 30.56, 'lipoC3S3': 11.76, 'lipoC3S2': 7.78, 'rot1': 1455, 'rot0': 1451, 'rot3': 650, 'rot2': 582, 'state': 'normal', 'yaw': 28.35, 'datetime': '2018-10-09 13:39:00.780208', 'mgs': 0, 'volt': 0.8887, 'depth': 1.385, 'time': 332, 'pitch': 4.91, 'roll': -6.72, 'pres': 182}
{'lipoC2': 7.35, 'lipoC3S1': 3.89, 'temp': 30.5, 'lipoC3S3': 11.76, 'lipoC3S2': 7.77, 'rot1': 1455, 'rot0': 1451, 'rot3': 650, 'rot2': 582, 'state': 'normal', 'yaw': 27.03, 'datetime': '2018-10-09 13:39:00.884632', 'mgs': 0, 'volt': 0.8887, 'depth': 1.385, 'time': 332, 'pitch': 3.96, 'roll': -6.2, 'pres': 182}
{'lipoC2': 7.35, 'lipoC3S1': 3.89, 'temp': 30.5, 'lipoC3S3': 11.76, 'lipoC3S2': 7.77, 'rot1': 1455, 'rot0': 1451, 'rot3': 650, 'rot2': 582, 'state': 'normal', 'yaw': 25.62, 'datetime': '2018-10-09 13:39:00.990371', 'mgs': 0, 'volt': 0.8887, 'depth': 1.385, 'time': 332, 'pitch': 2.38, 'roll': -5.55, 'pres': 182}
{'lipoC2': 7.35, 'lipoC3S1': 3.89, 'temp': 30.5, 'lipoC3S3': 11.76, 'lipoC3S2': 7.77, 'rot1': 1455, 'rot0': 1451, 'rot3': 650, 'rot2': 582, 'state': 'normal', 'yaw': 23.75, 'datetime': '2018-10-09 13:39:01.094841', 'mgs': 0, 'volt': 0.8887, 'depth': 1.385, 'time': 332, 'pitch': 0.54, 'roll': -4.69, 'pres': 182}
{'lipoC2': 7.35, 'lipoC3S1': 3.89, 'temp': 30.5, 'lipoC3S3': 11.76, 'lipoC3S2': 7.77, 'rot1': 1455, 'rot0': 1451, 'rot3': 650, 'rot2': 582, 'state': 'normal', 'yaw': 21.8, 'datetime': '2018-10-09 13:39:01.199265', 'mgs': 0, 'volt': 0.8887, 'depth': 1.385, 'time': 332, 'pitch': -0.71, 'roll': -3.83, 'pres': 182}
{'lipoC2': 7.35, 'lipoC3S1': 3.89, 'temp': 30.56, 'lipoC3S3': 11.76, 'lipoC3S2': 7.77, 'rot1': 1455, 'rot0': 1451, 'rot3': 650, 'rot2': 582, 'state': 'normal', 'yaw': 19.6, 'datetime': '2018-10-09 13:39:01.303624', 'mgs': 0, 'volt': 0.8887, 'depth': 1.385, 'time': 333, 'pitch': -1.21, 'roll': -2.95, 'pres': 182}
{'lipoC2': 7.35, 'lipoC3S1': 3.89, 'temp': 30.56, 'lipoC3S3': 11.76, 'lipoC3S2': 7.77, 'rot1': 1455, 'rot0': 1451, 'rot3': 650, 'rot2': 582, 'state': 'normal', 'yaw': 17.75, 'datetime': '2018-10-09 13:39:01.408090', 'mgs': 0, 'volt': 0.8887, 'depth': 1.385, 'time': 333, 'pitch': -1.11, 'roll': -2.33, 'pres': 182}
{'lipoC2': 7.35, 'lipoC3S1': 3.89, 'temp': 30.56, 'lipoC3S3': 11.76, 'lipoC3S2': 7.77, 'rot1': 1455, 'rot0': 1451, 'rot3': 650, 'rot2': 582, 'state': 'normal', 'yaw': 16.33, 'datetime': '2018-10-09 13:39:01.512717', 'mgs': 0, 'volt': 0.8936, 'depth': 1.462, 'time': 333, 'pitch': -0.59, 'roll': -1.97, 'pres': 183}
{'lipoC2': 7.35, 'lipoC3S1': 3.89, 'temp': 30.56, 'lipoC3S3': 11.76, 'lipoC3S2': 7.78, 'rot1': 1455, 'rot0': 1451, 'rot3': 650, 'rot2': 582, 'state': 'normal', 'yaw': 15.39, 'datetime': '2018-10-09 13:39:01.617103', 'mgs': 0, 'volt': 0.8936, 'depth': 1.462, 'time': 333, 'pitch': 0.03, 'roll': -1.88, 'pres': 183}
{'lipoC2': 7.35, 'lipoC3S1': 3.89, 'temp': 30.56, 'lipoC3S3': 11.76, 'lipoC3S2': 7.77, 'rot1': 1455, 'rot0': 1451, 'rot3': 650, 'rot2': 582, 'state': 'normal', 'yaw': 15.0, 'datetime': '2018-10-09 13:39:01.721600', 'mgs': 0, 'volt': 0.8887, 'depth': 1.385, 'time': 333, 'pitch': 0.34, 'roll': -2.04, 'pres': 182}
{'lipoC2': 7.35, 'lipoC3S1': 3.89, 'temp': 30.56, 'lipoC3S3': 11.76, 'lipoC3S2': 7.77, 'rot1': 1455, 'rot0': 1451, 'rot3': 650, 'rot2': 582, 'state': 'normal', 'yaw': 14.96, 'datetime': '2018-10-09 13:39:01.826039', 'mgs': 0, 'volt': 0.8887, 'depth': 1.385, 'time': 333, 'pitch': -0.13, 'roll': -2.43, 'pres': 182}
{'lipoC2': 7.35, 'lipoC3S1': 3.89, 'temp': 30.56, 'lipoC3S3': 11.76, 'lipoC3S2': 7.77, 'rot1': 1455, 'rot0': 1451, 'rot3': 650, 'rot2': 582, 'state': 'normal', 'yaw': 15.01, 'datetime': '2018-10-09 13:39:01.931706', 'mgs': 0, 'volt': 0.8838, 'depth': 1.309, 'time': 333, 'pitch': -1.16, 'roll': -2.87, 'pres': 181}
{'lipoC2': 7.35, 'lipoC3S1': 3.89, 'temp': 30.56, 'lipoC3S3': 11.76, 'lipoC3S2': 7.77, 'rot1': 1455, 'rot0': 1451, 'rot3': 650, 'rot2': 582, 'state': 'normal', 'yaw': 14.97, 'datetime': '2018-10-09 13:39:02.036159', 'mgs': 0, 'volt': 0.8838, 'depth': 1.309, 'time': 333, 'pitch': -2.5, 'roll': -3.39, 'pres': 181}
{'lipoC2': 7.35, 'lipoC3S1': 3.89, 'temp': 30.56, 'lipoC3S3': 11.76, 'lipoC3S2': 7.77, 'rot1': 1455, 'rot0': 1451, 'rot3': 650, 'rot2': 582, 'state': 'normal', 'yaw': 14.94, 'datetime': '2018-10-09 13:39:02.140564', 'mgs': 0, 'volt': 0.8789, 'depth': 1.233, 'time': 333, 'pitch': -3.28, 'roll': -3.87, 'pres': 180}
{'lipoC2': 7.35, 'lipoC3S1': 3.89, 'temp': 30.56, 'lipoC3S3': 11.76, 'lipoC3S2': 7.77, 'rot1': 1455, 'rot0': 1451, 'rot3': 650, 'rot2': 582, 'state': 'normal', 'yaw': 14.8, 'datetime': '2018-10-09 13:39:02.245467', 'mgs': 0, 'volt': 0.8789, 'depth': 1.233, 'time': 333, 'pitch': -3.61, 'roll': -4.37, 'pres': 180}
{'lipoC2': 7.35, 'lipoC3S1': 3.89, 'temp': 30.56, 'lipoC3S3': 11.76, 'lipoC3S2': 7.77, 'rot1': 1455, 'rot0': 1451, 'rot3': 650, 'rot2': 582, 'state': 'normal', 'yaw': 14.5, 'datetime': '2018-10-09 13:39:02.349833', 'mgs': 0, 'volt': 0.8838, 'depth': 1.309, 'time': 334, 'pitch': -3.14, 'roll': -4.74, 'pres': 181}
{'lipoC2': 7.35, 'lipoC3S1': 3.89, 'temp': 30.56, 'lipoC3S3': 11.76, 'lipoC3S2': 7.77, 'rot1': 1455, 'rot0': 1451, 'rot3': 650, 'rot2': 582, 'state': 'normal', 'yaw': 13.9, 'datetime': '2018-10-09 13:39:02.454272', 'mgs': 0, 'volt': 0.8887, 'depth': 1.385, 'time': 334, 'pitch': -1.5, 'roll': -5.01, 'pres': 182}
{'lipoC2': 7.35, 'lipoC3S1': 3.89, 'temp': 30.56, 'lipoC3S3': 11.76, 'lipoC3S2': 7.77, 'rot1': 1455, 'rot0': 1451, 'rot3': 650, 'rot2': 582, 'state': 'normal', 'yaw': 12.84, 'datetime': '2018-10-09 13:39:02.558730', 'mgs': 0, 'volt': 0.8887, 'depth': 1.385, 'time': 334, 'pitch': 1.61, 'roll': -5.13, 'pres': 182}
{'lipoC2': 7.35, 'lipoC3S1': 3.89, 'temp': 30.56, 'lipoC3S3': 11.76, 'lipoC3S2': 7.77, 'rot1': 1455, 'rot0': 1451, 'rot3': 650, 'rot2': 582, 'state': 'normal', 'yaw': 11.52, 'datetime': '2018-10-09 13:39:02.667178', 'mgs': 0, 'volt': 0.8984, 'depth': 1.538, 'time': 334, 'pitch': 4.55, 'roll': -4.97, 'pres': 184}
{'lipoC2': 7.35, 'lipoC3S1': 3.89, 'temp': 30.56, 'lipoC3S3': 11.76, 'lipoC3S2': 7.77, 'rot1': 1455, 'rot0': 1451, 'rot3': 650, 'rot2': 582, 'state': 'normal', 'yaw': 9.77, 'datetime': '2018-10-09 13:39:02.773466', 'mgs': 0, 'volt': 0.8984, 'depth': 1.538, 'time': 334, 'pitch': 7.51, 'roll': -4.51, 'pres': 184}
{'lipoC2': 7.35, 'lipoC3S1': 3.89, 'temp': 30.56, 'lipoC3S3': 11.76, 'lipoC3S2': 7.77, 'rot1': 1455, 'rot0': 1451, 'rot3': 650, 'rot2': 582, 'state': 'normal', 'yaw': 8.37, 'datetime': '2018-10-09 13:39:02.877840', 'mgs': 0, 'volt': 0.9082, 'depth': 1.691, 'time': 334, 'pitch': 9.56, 'roll': -4.0, 'pres': 186}
{'lipoC2': 7.35, 'lipoC3S1': 3.89, 'temp': 30.56, 'lipoC3S3': 11.76, 'lipoC3S2': 7.77, 'rot1': 1455, 'rot0': 1451, 'rot3': 650, 'rot2': 582, 'state': 'normal', 'yaw': 7.15, 'datetime': '2018-10-09 13:39:02.982753', 'mgs': 0, 'volt': 0.9131, 'depth': 1.767, 'time': 334, 'pitch': 10.97, 'roll': -3.5, 'pres': 187}
{'lipoC2': 7.35, 'lipoC3S1': 3.89, 'temp': 30.5, 'lipoC3S3': 11.76, 'lipoC3S2': 7.77, 'rot1': 1455, 'rot0': 1451, 'rot3': 650, 'rot2': 582, 'state': 'normal', 'yaw': 5.96, 'datetime': '2018-10-09 13:39:03.087313', 'mgs': 0, 'volt': 0.9131, 'depth': 1.767, 'time': 334, 'pitch': 11.81, 'roll': -3.14, 'pres': 187}
{'lipoC2': 7.35, 'lipoC3S1': 3.89, 'temp': 30.5, 'lipoC3S3': 11.76, 'lipoC3S2': 7.78, 'rot1': 1455, 'rot0': 1451, 'rot3': 650, 'rot2': 582, 'state': 'normal', 'yaw': 5.09, 'datetime': '2018-10-09 13:39:03.192542', 'mgs': 0, 'volt': 0.9131, 'depth': 1.767, 'time': 334, 'pitch': 12.37, 'roll': -3.05, 'pres': 187}
{'lipoC2': 7.35, 'lipoC3S1': 3.89, 'temp': 30.5, 'lipoC3S3': 11.76, 'lipoC3S2': 7.77, 'rot1': 1455, 'rot0': 1451, 'rot3': 650, 'rot2': 582, 'state': 'normal', 'yaw': 4.54, 'datetime': '2018-10-09 13:39:03.297131', 'mgs': 0, 'volt': 0.9131, 'depth': 1.767, 'time': 335, 'pitch': 12.7, 'roll': -3.12, 'pres': 187}
{'lipoC2': 7.35, 'lipoC3S1': 3.89, 'temp': 30.5, 'lipoC3S3': 11.76, 'lipoC3S2': 7.77, 'rot1': 1455, 'rot0': 1451, 'rot3': 650, 'rot2': 582, 'state': 'normal', 'yaw': 4.48, 'datetime': '2018-10-09 13:39:03.402932', 'mgs': 0, 'volt': 0.9131, 'depth': 1.767, 'time': 335, 'pitch': 12.43, 'roll': -3.26, 'pres': 187}
{'lipoC2': 7.35, 'lipoC3S1': 3.89, 'temp': 30.56, 'lipoC3S3': 11.76, 'lipoC3S2': 7.77, 'rot1': 1455, 'rot0': 1451, 'rot3': 650, 'rot2': 582, 'state': 'normal', 'yaw': 4.67, 'datetime': '2018-10-09 13:39:03.507433', 'mgs': 0, 'volt': 0.9131, 'depth': 1.767, 'time': 335, 'pitch': 11.28, 'roll': -3.21, 'pres': 187}
{'lipoC2': 7.35, 'lipoC3S1': 3.89, 'temp': 30.56, 'lipoC3S3': 11.76, 'lipoC3S2': 7.77, 'rot1': 1455, 'rot0': 1451, 'rot3': 650, 'rot2': 582, 'state': 'normal', 'yaw': 5.1, 'datetime': '2018-10-09 13:39:03.611786', 'mgs': 0, 'volt': 0.9131, 'depth': 1.767, 'time': 335, 'pitch': 9.5, 'roll': -3.02, 'pres': 187}
{'lipoC2': 7.35, 'lipoC3S1': 3.89, 'temp': 30.56, 'lipoC3S3': 11.76, 'lipoC3S2': 7.77, 'rot1': 1455, 'rot0': 1451, 'rot3': 650, 'rot2': 582, 'state': 'normal', 'yaw': 5.62, 'datetime': '2018-10-09 13:39:03.714829', 'mgs': 0, 'volt': 0.9082, 'depth': 1.691, 'time': 335, 'pitch': 7.08, 'roll': -2.75, 'pres': 186}
{'lipoC2': 7.35, 'lipoC3S1': 3.89, 'temp': 30.56, 'lipoC3S3': 11.76, 'lipoC3S2': 7.77, 'rot1': 1455, 'rot0': 1451, 'rot3': 650, 'rot2': 582, 'state': 'normal', 'yaw': 5.86, 'datetime': '2018-10-09 13:39:03.820149', 'mgs': 0, 'volt': 0.9082, 'depth': 1.691, 'time': 335, 'pitch': 4.58, 'roll': -2.42, 'pres': 186}
{'lipoC2': 7.35, 'lipoC3S1': 3.89, 'temp': 30.56, 'lipoC3S3': 11.76, 'lipoC3S2': 7.77, 'rot1': 1455, 'rot0': 1451, 'rot3': 650, 'rot2': 582, 'state': 'normal', 'yaw': 5.76, 'datetime': '2018-10-09 13:39:03.925128', 'mgs': 0, 'volt': 0.9033, 'depth': 1.614, 'time': 335, 'pitch': 2.17, 'roll': -2.03, 'pres': 185}
{'lipoC2': 7.35, 'lipoC3S1': 3.89, 'temp': 30.56, 'lipoC3S3': 11.76, 'lipoC3S2': 7.77, 'rot1': 1455, 'rot0': 1451, 'rot3': 650, 'rot2': 582, 'state': 'normal', 'yaw': 5.45, 'datetime': '2018-10-09 13:39:04.029733', 'mgs': 0, 'volt': 0.9033, 'depth': 1.614, 'time': 335, 'pitch': 0.89, 'roll': -1.83, 'pres': 185}
{'lipoC2': 7.35, 'lipoC3S1': 3.89, 'temp': 30.56, 'lipoC3S3': 11.76, 'lipoC3S2': 7.78, 'rot1': 1455, 'rot0': 1451, 'rot3': 650, 'rot2': 582, 'state': 'normal', 'yaw': 5.06, 'datetime': '2018-10-09 13:39:04.132448', 'mgs': 0, 'volt': 0.9082, 'depth': 1.691, 'time': 335, 'pitch': 0.67, 'roll': -1.81, 'pres': 186}
{'lipoC2': 7.35, 'lipoC3S1': 3.89, 'temp': 30.5, 'lipoC3S3': 11.76, 'lipoC3S2': 7.77, 'rot1': 1455, 'rot0': 1451, 'rot3': 650, 'rot2': 582, 'state': 'normal', 'yaw': 4.67, 'datetime': '2018-10-09 13:39:04.239018', 'mgs': 0, 'volt': 0.9082, 'depth': 1.691, 'time': 335, 'pitch': 1.54, 'roll': -1.92, 'pres': 186}
{'lipoC2': 7.35, 'lipoC3S1': 3.89, 'temp': 30.5, 'lipoC3S3': 11.76, 'lipoC3S2': 7.78, 'rot1': 1455, 'rot0': 1451, 'rot3': 650, 'rot2': 582, 'state': 'normal', 'yaw': 4.35, 'datetime': '2018-10-09 13:39:04.344817', 'mgs': 0, 'volt': 0.9082, 'depth': 1.691, 'time': 336, 'pitch': 2.85, 'roll': -1.95, 'pres': 186}
{'lipoC2': 7.35, 'lipoC3S1': 3.89, 'temp': 30.56, 'lipoC3S3': 11.76, 'lipoC3S2': 7.77, 'rot1': 1455, 'rot0': 1451, 'rot3': 650, 'rot2': 582, 'state': 'normal', 'yaw': 4.01, 'datetime': '2018-10-09 13:39:04.449181', 'mgs': 0, 'volt': 0.9082, 'depth': 1.691, 'time': 336, 'pitch': 3.94, 'roll': -1.82, 'pres': 186}
{'lipoC2': 7.35, 'lipoC3S1': 3.89, 'temp': 30.56, 'lipoC3S3': 11.76, 'lipoC3S2': 7.78, 'rot1': 1455, 'rot0': 1451, 'rot3': 650, 'rot2': 582, 'state': 'normal', 'yaw': 3.76, 'datetime': '2018-10-09 13:39:04.554871', 'mgs': 0, 'volt': 0.9131, 'depth': 1.767, 'time': 336, 'pitch': 3.85, 'roll': -1.64, 'pres': 187}
{'lipoC2': 7.35, 'lipoC3S1': 3.89, 'temp': 30.56, 'lipoC3S3': 11.76, 'lipoC3S2': 7.77, 'rot1': 1455, 'rot0': 1451, 'rot3': 650, 'rot2': 582, 'state': 'normal', 'yaw': 3.48, 'datetime': '2018-10-09 13:39:04.659555', 'mgs': 0, 'volt': 0.9131, 'depth': 1.767, 'time': 336, 'pitch': 2.4, 'roll': -1.42, 'pres': 187}
{'lipoC2': 7.35, 'lipoC3S1': 3.89, 'temp': 30.56, 'lipoC3S3': 11.76, 'lipoC3S2': 7.77, 'rot1': 1455, 'rot0': 1451, 'rot3': 650, 'rot2': 582, 'state': 'normal', 'yaw': 3.08, 'datetime': '2018-10-09 13:39:04.763722', 'mgs': 0, 'volt': 0.9131, 'depth': 1.767, 'time': 336, 'pitch': 0.47, 'roll': -1.28, 'pres': 187}
{'lipoC2': 7.35, 'lipoC3S1': 3.89, 'temp': 30.56, 'lipoC3S3': 11.76, 'lipoC3S2': 7.77, 'rot1': 1455, 'rot0': 1451, 'rot3': 650, 'rot2': 582, 'state': 'normal', 'yaw': 2.59, 'datetime': '2018-10-09 13:39:04.868277', 'mgs': 0, 'volt': 0.9131, 'depth': 1.767, 'time': 336, 'pitch': -1.46, 'roll': -1.31, 'pres': 187}
{'lipoC2': 7.35, 'lipoC3S1': 3.89, 'temp': 30.56, 'lipoC3S3': 11.76, 'lipoC3S2': 7.77, 'rot1': 1455, 'rot0': 1451, 'rot3': 650, 'rot2': 582, 'state': 'normal', 'yaw': 2.17, 'datetime': '2018-10-09 13:39:04.972551', 'mgs': 0, 'volt': 0.9131, 'depth': 1.767, 'time': 336, 'pitch': -2.37, 'roll': -1.51, 'pres': 187}
{'lipoC2': 7.35, 'lipoC3S1': 3.89, 'temp': 30.56, 'lipoC3S3': 11.76, 'lipoC3S2': 7.77, 'rot1': 1455, 'rot0': 1451, 'rot3': 650, 'rot2': 582, 'state': 'normal', 'yaw': 1.69, 'datetime': '2018-10-09 13:39:05.077369', 'mgs': 0, 'volt': 0.9131, 'depth': 1.767, 'time': 336, 'pitch': -2.17, 'roll': -1.81, 'pres': 187}
{'lipoC2': 7.35, 'lipoC3S1': 3.89, 'temp': 30.56, 'lipoC3S3': 11.76, 'lipoC3S2': 7.78, 'rot1': 1455, 'rot0': 1451, 'rot3': 650, 'rot2': 582, 'state': 'normal', 'yaw': 1.22, 'datetime': '2018-10-09 13:39:05.181682', 'mgs': 0, 'volt': 0.9131, 'depth': 1.767, 'time': 336, 'pitch': -1.16, 'roll': -2.05, 'pres': 187}
{'lipoC2': 7.35, 'lipoC3S1': 3.89, 'temp': 30.56, 'lipoC3S3': 11.76, 'lipoC3S2': 7.77, 'rot1': 1455, 'rot0': 1451, 'rot3': 650, 'rot2': 582, 'state': 'normal', 'yaw': 0.76, 'datetime': '2018-10-09 13:39:05.286343', 'mgs': 0, 'volt': 0.9131, 'depth': 1.767, 'time': 337, 'pitch': 0.15, 'roll': -2.23, 'pres': 187}
{'lipoC2': 7.35, 'lipoC3S1': 3.89, 'temp': 30.56, 'lipoC3S3': 11.76, 'lipoC3S2': 7.77, 'rot1': 1455, 'rot0': 1451, 'rot3': 650, 'rot2': 582, 'state': 'normal', 'yaw': 0.51, 'datetime': '2018-10-09 13:39:05.390741', 'mgs': 0, 'volt': 0.9131, 'depth': 1.767, 'time': 337, 'pitch': 1.07, 'roll': -2.43, 'pres': 187}
{'lipoC2': 7.35, 'lipoC3S1': 3.89, 'temp': 30.5, 'lipoC3S3': 11.76, 'lipoC3S2': 7.77, 'rot1': 1455, 'rot0': 1451, 'rot3': 650, 'rot2': 582, 'state': 'normal', 'yaw': 0.54, 'datetime': '2018-10-09 13:39:05.496583', 'mgs': 0, 'volt': 0.918, 'depth': 1.843, 'time': 337, 'pitch': 1.15, 'roll': -2.73, 'pres': 188}
{'lipoC2': 7.35, 'lipoC3S1': 3.89, 'temp': 30.5, 'lipoC3S3': 11.76, 'lipoC3S2': 7.77, 'rot1': 1455, 'rot0': 1451, 'rot3': 650, 'rot2': 582, 'state': 'normal', 'yaw': 0.7, 'datetime': '2018-10-09 13:39:05.601036', 'mgs': 0, 'volt': 0.918, 'depth': 1.843, 'time': 337, 'pitch': 0.65, 'roll': -3.09, 'pres': 188}
{'lipoC2': 7.35, 'lipoC3S1': 3.89, 'temp': 30.56, 'lipoC3S3': 11.76, 'lipoC3S2': 7.78, 'rot1': 1455, 'rot0': 1451, 'rot3': 650, 'rot2': 582, 'state': 'normal', 'yaw': 0.99, 'datetime': '2018-10-09 13:39:05.706756', 'mgs': 0, 'volt': 0.9131, 'depth': 1.767, 'time': 337, 'pitch': -0.2, 'roll': -3.39, 'pres': 187}
{'lipoC2': 7.35, 'lipoC3S1': 3.89, 'temp': 30.56, 'lipoC3S3': 11.76, 'lipoC3S2': 7.77, 'rot1': 1455, 'rot0': 1451, 'rot3': 650, 'rot2': 582, 'state': 'normal', 'yaw': 1.54, 'datetime': '2018-10-09 13:39:05.805129', 'mgs': 0, 'volt': 0.9131, 'depth': 1.767, 'time': 337, 'pitch': -1.51, 'roll': -3.71, 'pres': 187}
{'lipoC2': 7.35, 'lipoC3S1': 3.89, 'temp': 30.56, 'lipoC3S3': 11.76, 'lipoC3S2': 7.77, 'rot1': 1455, 'rot0': 1451, 'rot3': 650, 'rot2': 582, 'state': 'normal', 'yaw': 2.15, 'datetime': '2018-10-09 13:39:05.909473', 'mgs': 0, 'volt': 0.9131, 'depth': 1.767, 'time': 337, 'pitch': -2.63, 'roll': -3.94, 'pres': 187}
{'lipoC2': 7.35, 'lipoC3S1': 3.89, 'temp': 30.56, 'lipoC3S3': 11.76, 'lipoC3S2': 7.77, 'rot1': 1455, 'rot0': 1451, 'rot3': 650, 'rot2': 582, 'state': 'normal', 'yaw': 2.85, 'datetime': '2018-10-09 13:39:06.013927', 'mgs': 0, 'volt': 0.9131, 'depth': 1.767, 'time': 337, 'pitch': -3.5, 'roll': -4.07, 'pres': 187}
{'lipoC2': 7.35, 'lipoC3S1': 3.89, 'temp': 30.56, 'lipoC3S3': 11.76, 'lipoC3S2': 7.78, 'rot1': 1455, 'rot0': 1451, 'rot3': 650, 'rot2': 582, 'state': 'normal', 'yaw': 3.57, 'datetime': '2018-10-09 13:39:06.118328', 'mgs': 0, 'volt': 0.918, 'depth': 1.843, 'time': 337, 'pitch': -3.75, 'roll': -4.09, 'pres': 188}
{'lipoC2': 7.35, 'lipoC3S1': 3.89, 'temp': 30.56, 'lipoC3S3': 11.76, 'lipoC3S2': 7.77, 'rot1': 1455, 'rot0': 1451, 'rot3': 650, 'rot2': 582, 'state': 'normal', 'yaw': 4.36, 'datetime': '2018-10-09 13:39:06.223017', 'mgs': 0, 'volt': 0.918, 'depth': 1.843, 'time': 337, 'pitch': -3.13, 'roll': -3.95, 'pres': 188}
{'lipoC2': 7.35, 'lipoC3S1': 3.89, 'temp': 30.56, 'lipoC3S3': 11.76, 'lipoC3S2': 7.77, 'rot1': 1455, 'rot0': 1451, 'rot3': 650, 'rot2': 582, 'state': 'normal', 'yaw': 5.31, 'datetime': '2018-10-09 13:39:06.327400', 'mgs': 0, 'volt': 0.9229, 'depth': 1.92, 'time': 338, 'pitch': -1.36, 'roll': -3.5, 'pres': 189}
{'lipoC2': 7.35, 'lipoC3S1': 3.89, 'temp': 30.56, 'lipoC3S3': 11.76, 'lipoC3S2': 7.77, 'rot1': 1455, 'rot0': 1451, 'rot3': 650, 'rot2': 582, 'state': 'normal', 'yaw': 6.22, 'datetime': '2018-10-09 13:39:06.431833', 'mgs': 0, 'volt': 0.9229, 'depth': 1.92, 'time': 338, 'pitch': 0.89, 'roll': -2.85, 'pres': 189}
{'lipoC2': 7.35, 'lipoC3S1': 3.89, 'temp': 30.56, 'lipoC3S3': 11.76, 'lipoC3S2': 7.77, 'rot1': 1455, 'rot0': 1451, 'rot3': 650, 'rot2': 582, 'state': 'normal', 'yaw': 7.09, 'datetime': '2018-10-09 13:39:06.536322', 'mgs': 0, 'volt': 0.9277, 'depth': 1.996, 'time': 338, 'pitch': 2.98, 'roll': -1.89, 'pres': 190}
{'lipoC2': 7.35, 'lipoC3S1': 3.89, 'temp': 30.56, 'lipoC3S3': 11.76, 'lipoC3S2': 7.78, 'rot1': 1455, 'rot0': 1451, 'rot3': 650, 'rot2': 582, 'state': 'normal', 'yaw': 7.69, 'datetime': '2018-10-09 13:39:06.641944', 'mgs': 0, 'volt': 0.9326, 'depth': 2.072, 'time': 338, 'pitch': 4.13, 'roll': -0.89, 'pres': 191}
{'lipoC2': 7.35, 'lipoC3S1': 3.89, 'temp': 30.56, 'lipoC3S3': 11.76, 'lipoC3S2': 7.78, 'rot1': 1455, 'rot0': 1451, 'rot3': 650, 'rot2': 582, 'state': 'normal', 'yaw': 8.23, 'datetime': '2018-10-09 13:39:06.746401', 'mgs': 0, 'volt': 0.9375, 'depth': 2.148, 'time': 338, 'pitch': 4.41, 'roll': 0.16, 'pres': 192}
{'lipoC2': 7.35, 'lipoC3S1': 3.89, 'temp': 30.56, 'lipoC3S3': 11.76, 'lipoC3S2': 7.77, 'rot1': 1455, 'rot0': 1451, 'rot3': 650, 'rot2': 582, 'state': 'normal', 'yaw': 8.59, 'datetime': '2018-10-09 13:39:06.850780', 'mgs': 0, 'volt': 0.9375, 'depth': 2.148, 'time': 338, 'pitch': 3.97, 'roll': 0.96, 'pres': 192}
{'lipoC2': 7.35, 'lipoC3S1': 3.89, 'temp': 30.56, 'lipoC3S3': 11.76, 'lipoC3S2': 7.77, 'rot1': 1455, 'rot0': 1451, 'rot3': 650, 'rot2': 582, 'state': 'normal', 'yaw': 8.93, 'datetime': '2018-10-09 13:39:06.955785', 'mgs': 0, 'volt': 0.9375, 'depth': 2.148, 'time': 338, 'pitch': 3.23, 'roll': 1.52, 'pres': 192}
{'lipoC2': 7.35, 'lipoC3S1': 3.89, 'temp': 30.56, 'lipoC3S3': 11.76, 'lipoC3S2': 7.78, 'rot1': 1455, 'rot0': 1451, 'rot3': 650, 'rot2': 582, 'state': 'normal', 'yaw': 9.14, 'datetime': '2018-10-09 13:39:07.060120', 'mgs': 0, 'volt': 0.9424, 'depth': 2.225, 'time': 338, 'pitch': 2.6, 'roll': 1.79, 'pres': 193}
{'lipoC2': 7.35, 'lipoC3S1': 3.89, 'temp': 30.56, 'lipoC3S3': 11.76, 'lipoC3S2': 7.77, 'rot1': 1455, 'rot0': 1451, 'rot3': 650, 'rot2': 582, 'state': 'normal', 'yaw': 9.33, 'datetime': '2018-10-09 13:39:07.164609', 'mgs': 0, 'volt': 0.9424, 'depth': 2.225, 'time': 338, 'pitch': 1.99, 'roll': 1.84, 'pres': 193}
{'lipoC2': 7.35, 'lipoC3S1': 3.89, 'temp': 30.56, 'lipoC3S3': 11.76, 'lipoC3S2': 7.77, 'rot1': 1455, 'rot0': 1451, 'rot3': 650, 'rot2': 582, 'state': 'normal', 'yaw': 9.58, 'datetime': '2018-10-09 13:39:07.268940', 'mgs': 0, 'volt': 0.9424, 'depth': 2.225, 'time': 339, 'pitch': 1.52, 'roll': 1.62, 'pres': 193}
{'lipoC2': 7.35, 'lipoC3S1': 3.89, 'temp': 30.56, 'lipoC3S3': 11.76, 'lipoC3S2': 7.77, 'rot1': 1455, 'rot0': 1451, 'rot3': 650, 'rot2': 582, 'state': 'normal', 'yaw': 9.89, 'datetime': '2018-10-09 13:39:07.373469', 'mgs': 0, 'volt': 0.9424, 'depth': 2.225, 'time': 339, 'pitch': 1.5, 'roll': 1.18, 'pres': 193}
{'lipoC2': 7.35, 'lipoC3S1': 3.89, 'temp': 30.56, 'lipoC3S3': 11.76, 'lipoC3S2': 7.78, 'rot1': 1455, 'rot0': 1451, 'rot3': 650, 'rot2': 582, 'state': 'normal', 'yaw': 10.08, 'datetime': '2018-10-09 13:39:07.477806', 'mgs': 0, 'volt': 0.9375, 'depth': 2.148, 'time': 339, 'pitch': 1.89, 'roll': 0.48, 'pres': 192}
{'lipoC2': 7.35, 'lipoC3S1': 3.89, 'temp': 30.56, 'lipoC3S3': 11.76, 'lipoC3S2': 7.77, 'rot1': 1455, 'rot0': 1451, 'rot3': 650, 'rot2': 582, 'state': 'normal', 'yaw': 9.92, 'datetime': '2018-10-09 13:39:07.582347', 'mgs': 0, 'volt': 0.9424, 'depth': 2.225, 'time': 339, 'pitch': 2.01, 'roll': -0.24, 'pres': 193}
{'lipoC2': 7.35, 'lipoC3S1': 3.89, 'temp': 30.56, 'lipoC3S3': 11.76, 'lipoC3S2': 7.77, 'rot1': 1455, 'rot0': 1451, 'rot3': 650, 'rot2': 582, 'state': 'normal', 'yaw': 9.47, 'datetime': '2018-10-09 13:39:07.687066', 'mgs': 0, 'volt': 0.9424, 'depth': 2.225, 'time': 339, 'pitch': 1.7, 'roll': -0.88, 'pres': 193}
{'lipoC2': 7.35, 'lipoC3S1': 3.89, 'temp': 30.56, 'lipoC3S3': 11.76, 'lipoC3S2': 7.77, 'rot1': 1455, 'rot0': 1451, 'rot3': 650, 'rot2': 582, 'state': 'normal', 'yaw': 8.81, 'datetime': '2018-10-09 13:39:07.791527', 'mgs': 0, 'volt': 0.9424, 'depth': 2.225, 'time': 339, 'pitch': 1.35, 'roll': -1.45, 'pres': 193}
{'lipoC2': 7.35, 'lipoC3S1': 3.89, 'temp': 30.56, 'lipoC3S3': 11.76, 'lipoC3S2': 7.77, 'rot1': 1455, 'rot0': 1451, 'rot3': 650, 'rot2': 582, 'state': 'normal', 'yaw': 8.21, 'datetime': '2018-10-09 13:39:07.896889', 'mgs': 0, 'volt': 0.9424, 'depth': 2.225, 'time': 339, 'pitch': 1.06, 'roll': -1.92, 'pres': 193}
{'lipoC2': 7.35, 'lipoC3S1': 3.89, 'temp': 30.56, 'lipoC3S3': 11.76, 'lipoC3S2': 7.77, 'rot1': 1455, 'rot0': 1451, 'rot3': 650, 'rot2': 582, 'state': 'normal', 'yaw': 7.59, 'datetime': '2018-10-09 13:39:08.001369', 'mgs': 0, 'volt': 0.9424, 'depth': 2.225, 'time': 339, 'pitch': 0.82, 'roll': -2.39, 'pres': 193}
{'lipoC2': 7.35, 'lipoC3S1': 3.89, 'temp': 30.5, 'lipoC3S3': 11.76, 'lipoC3S2': 7.78, 'rot1': 1455, 'rot0': 1451, 'rot3': 650, 'rot2': 582, 'state': 'normal', 'yaw': 7.06, 'datetime': '2018-10-09 13:39:08.107284', 'mgs': 0, 'volt': 0.9424, 'depth': 2.225, 'time': 339, 'pitch': 0.9, 'roll': -2.77, 'pres': 193}
{'lipoC2': 7.35, 'lipoC3S1': 3.89, 'temp': 30.5, 'lipoC3S3': 11.76, 'lipoC3S2': 7.77, 'rot1': 1455, 'rot0': 1451, 'rot3': 650, 'rot2': 582, 'state': 'normal', 'yaw': 6.44, 'datetime': '2018-10-09 13:39:08.211677', 'mgs': 0, 'volt': 0.9424, 'depth': 2.225, 'time': 339, 'pitch': 1.43, 'roll': -3.17, 'pres': 193}
{'lipoC2': 7.35, 'lipoC3S1': 3.89, 'temp': 30.56, 'lipoC3S3': 11.76, 'lipoC3S2': 7.77, 'rot1': 1455, 'rot0': 1451, 'rot3': 650, 'rot2': 582, 'state': 'normal', 'yaw': 5.79, 'datetime': '2018-10-09 13:39:08.316104', 'mgs': 0, 'volt': 0.9424, 'depth': 2.225, 'time': 340, 'pitch': 2.44, 'roll': -3.53, 'pres': 193}
{'lipoC2': 7.35, 'lipoC3S1': 3.89, 'temp': 30.56, 'lipoC3S3': 11.76, 'lipoC3S2': 7.77, 'rot1': 1455, 'rot0': 1451, 'rot3': 650, 'rot2': 582, 'state': 'normal', 'yaw': 5.04, 'datetime': '2018-10-09 13:39:08.420596', 'mgs': 0, 'volt': 0.9424, 'depth': 2.225, 'time': 340, 'pitch': 3.68, 'roll': -3.89, 'pres': 193}
{'lipoC2': 7.35, 'lipoC3S1': 3.89, 'temp': 30.56, 'lipoC3S3': 11.76, 'lipoC3S2': 7.77, 'rot1': 1455, 'rot0': 1451, 'rot3': 650, 'rot2': 582, 'state': 'normal', 'yaw': 4.39, 'datetime': '2018-10-09 13:39:08.525075', 'mgs': 0, 'volt': 0.9424, 'depth': 2.225, 'time': 340, 'pitch': 4.35, 'roll': -4.1, 'pres': 193}
{'lipoC2': 7.35, 'lipoC3S1': 3.89, 'temp': 30.5, 'lipoC3S3': 11.76, 'lipoC3S2': 7.78, 'rot1': 1455, 'rot0': 1451, 'rot3': 650, 'rot2': 582, 'state': 'normal', 'yaw': 3.77, 'datetime': '2018-10-09 13:39:08.629410', 'mgs': 0, 'volt': 0.9424, 'depth': 2.225, 'time': 340, 'pitch': 4.67, 'roll': -4.17, 'pres': 193}
{'lipoC2': 7.35, 'lipoC3S1': 3.89, 'temp': 30.5, 'lipoC3S3': 11.76, 'lipoC3S2': 7.77, 'rot1': 1455, 'rot0': 1451, 'rot3': 650, 'rot2': 582, 'state': 'normal', 'yaw': 3.35, 'datetime': '2018-10-09 13:39:08.733845', 'mgs': 0, 'volt': 0.9424, 'depth': 2.225, 'time': 340, 'pitch': 4.65, 'roll': -4.08, 'pres': 193}
{'lipoC2': 7.35, 'lipoC3S1': 3.89, 'temp': 30.56, 'lipoC3S3': 11.76, 'lipoC3S2': 7.77, 'rot1': 1455, 'rot0': 1451, 'rot3': 650, 'rot2': 582, 'state': 'normal', 'yaw': 3.2, 'datetime': '2018-10-09 13:39:08.838928', 'mgs': 0, 'volt': 0.9424, 'depth': 2.225, 'time': 340, 'pitch': 3.87, 'roll': -3.89, 'pres': 193}
{'lipoC2': 7.35, 'lipoC3S1': 3.89, 'temp': 30.56, 'lipoC3S3': 11.76, 'lipoC3S2': 7.77, 'rot1': 1455, 'rot0': 1451, 'rot3': 650, 'rot2': 582, 'state': 'normal', 'yaw': 3.32, 'datetime': '2018-10-09 13:39:08.943308', 'mgs': 0, 'volt': 0.9424, 'depth': 2.225, 'time': 340, 'pitch': 2.13, 'roll': -3.69, 'pres': 193}
{'lipoC2': 7.35, 'lipoC3S1': 3.89, 'temp': 30.56, 'lipoC3S3': 11.76, 'lipoC3S2': 7.77, 'rot1': 1455, 'rot0': 1451, 'rot3': 650, 'rot2': 582, 'state': 'normal', 'yaw': 3.65, 'datetime': '2018-10-09 13:39:09.049068', 'mgs': 0, 'volt': 0.9375, 'depth': 2.148, 'time': 340, 'pitch': 0.22, 'roll': -3.61, 'pres': 192}
{'lipoC2': 7.35, 'lipoC3S1': 3.89, 'temp': 30.56, 'lipoC3S3': 11.76, 'lipoC3S2': 7.78, 'rot1': 1455, 'rot0': 1451, 'rot3': 650, 'rot2': 582, 'state': 'normal', 'yaw': 4.12, 'datetime': '2018-10-09 13:39:09.153507', 'mgs': 0, 'volt': 0.9375, 'depth': 2.148, 'time': 340, 'pitch': -1.71, 'roll': -3.56, 'pres': 192}
{'lipoC2': 7.35, 'lipoC3S1': 3.89, 'temp': 30.56, 'lipoC3S3': 11.76, 'lipoC3S2': 7.77, 'rot1': 1455, 'rot0': 1451, 'rot3': 650, 'rot2': 582, 'state': 'normal', 'yaw': 4.73, 'datetime': '2018-10-09 13:39:09.259240', 'mgs': 0, 'volt': 0.9326, 'depth': 2.072, 'time': 340, 'pitch': -3.08, 'roll': -3.57, 'pres': 191}
{'lipoC2': 7.35, 'lipoC3S1': 3.89, 'temp': 30.56, 'lipoC3S3': 11.76, 'lipoC3S2': 7.77, 'rot1': 1455, 'rot0': 1451, 'rot3': 650, 'rot2': 582, 'state': 'normal', 'yaw': 5.67, 'datetime': '2018-10-09 13:39:09.363669', 'mgs': 0, 'volt': 0.9326, 'depth': 2.072, 'time': 341, 'pitch': -4.06, 'roll': -3.7, 'pres': 191}
{'lipoC2': 7.35, 'lipoC3S1': 3.89, 'temp': 30.56, 'lipoC3S3': 11.76, 'lipoC3S2': 7.77, 'rot1': 1455, 'rot0': 1451, 'rot3': 650, 'rot2': 582, 'state': 'normal', 'yaw': 6.72, 'datetime': '2018-10-09 13:39:09.468122', 'mgs': 0, 'volt': 0.9326, 'depth': 2.072, 'time': 341, 'pitch': -4.38, 'roll': -3.83, 'pres': 191}
{'lipoC2': 7.35, 'lipoC3S1': 3.89, 'temp': 30.56, 'lipoC3S3': 11.76, 'lipoC3S2': 7.77, 'rot1': 1455, 'rot0': 1451, 'rot3': 650, 'rot2': 582, 'state': 'normal', 'yaw': 7.98, 'datetime': '2018-10-09 13:39:09.572538', 'mgs': 0, 'volt': 0.9326, 'depth': 2.072, 'time': 341, 'pitch': -4.11, 'roll': -3.9, 'pres': 191}
{'lipoC2': 7.35, 'lipoC3S1': 3.89, 'temp': 30.56, 'lipoC3S3': 11.76, 'lipoC3S2': 7.77, 'rot1': 1455, 'rot0': 1451, 'rot3': 650, 'rot2': 582, 'state': 'normal', 'yaw': 9.15, 'datetime': '2018-10-09 13:39:09.676973', 'mgs': 0, 'volt': 0.9326, 'depth': 2.072, 'time': 341, 'pitch': -3.32, 'roll': -3.94, 'pres': 191}
{'lipoC2': 7.35, 'lipoC3S1': 3.89, 'temp': 30.56, 'lipoC3S3': 11.76, 'lipoC3S2': 7.78, 'rot1': 1455, 'rot0': 1451, 'rot3': 650, 'rot2': 582, 'state': 'normal', 'yaw': 10.2, 'datetime': '2018-10-09 13:39:09.781641', 'mgs': 0, 'volt': 0.9326, 'depth': 2.072, 'time': 341, 'pitch': -2.37, 'roll': -3.84, 'pres': 191}
{'lipoC2': 7.35, 'lipoC3S1': 3.89, 'temp': 30.56, 'lipoC3S3': 11.76, 'lipoC3S2': 7.77, 'rot1': 1455, 'rot0': 1451, 'rot3': 650, 'rot2': 582, 'state': 'normal', 'yaw': 11.18, 'datetime': '2018-10-09 13:39:09.890002', 'mgs': 0, 'volt': 0.9375, 'depth': 2.148, 'time': 341, 'pitch': -1.42, 'roll': -3.58, 'pres': 192}
{'lipoC2': 7.35, 'lipoC3S1': 3.89, 'temp': 30.56, 'lipoC3S3': 11.76, 'lipoC3S2': 7.77, 'rot1': 1455, 'rot0': 1451, 'rot3': 650, 'rot2': 582, 'state': 'normal', 'yaw': 12.07, 'datetime': '2018-10-09 13:39:09.997309', 'mgs': 0, 'volt': 0.9375, 'depth': 2.148, 'time': 341, 'pitch': -0.68, 'roll': -3.29, 'pres': 192}
{'lipoC2': 7.35, 'lipoC3S1': 3.89, 'temp': 30.56, 'lipoC3S3': 11.76, 'lipoC3S2': 7.78, 'rot1': 1455, 'rot0': 1451, 'rot3': 650, 'rot2': 582, 'state': 'normal', 'yaw': 13.04, 'datetime': '2018-10-09 13:39:10.101989', 'mgs': 0, 'volt': 0.9375, 'depth': 2.148, 'time': 341, 'pitch': 0.17, 'roll': -2.99, 'pres': 192}
{'lipoC2': 7.35, 'lipoC3S1': 3.89, 'temp': 30.56, 'lipoC3S3': 11.76, 'lipoC3S2': 7.77, 'rot1': 1455, 'rot0': 1451, 'rot3': 650, 'rot2': 582, 'state': 'normal', 'yaw': 13.67, 'datetime': '2018-10-09 13:39:10.207589', 'mgs': 0, 'volt': 0.9375, 'depth': 2.148, 'time': 341, 'pitch': 1.15, 'roll': -2.54, 'pres': 192}
{'lipoC2': 7.35, 'lipoC3S1': 3.89, 'temp': 30.56, 'lipoC3S3': 11.76, 'lipoC3S2': 7.77, 'rot1': 1455, 'rot0': 1451, 'rot3': 650, 'rot2': 582, 'state': 'normal', 'yaw': 14.09, 'datetime': '2018-10-09 13:39:10.311941', 'mgs': 0, 'volt': 0.9424, 'depth': 2.225, 'time': 342, 'pitch': 2.16, 'roll': -1.82, 'pres': 193}
{'lipoC2': 7.35, 'lipoC3S1': 3.89, 'temp': 30.56, 'lipoC3S3': 11.76, 'lipoC3S2': 7.77, 'rot1': 1455, 'rot0': 1451, 'rot3': 650, 'rot2': 582, 'state': 'normal', 'yaw': 14.12, 'datetime': '2018-10-09 13:39:10.417691', 'mgs': 0, 'volt': 0.9424, 'depth': 2.225, 'time': 342, 'pitch': 2.69, 'roll': -0.96, 'pres': 193}
{'lipoC2': 7.35, 'lipoC3S1': 3.89, 'temp': 30.56, 'lipoC3S3': 11.76, 'lipoC3S2': 7.77, 'rot1': 1455, 'rot0': 1451, 'rot3': 650, 'rot2': 582, 'state': 'normal', 'yaw': 13.62, 'datetime': '2018-10-09 13:39:10.522034', 'mgs': 0, 'volt': 0.9473, 'depth': 2.301, 'time': 342, 'pitch': 3.06, 'roll': 0.12, 'pres': 194}
{'lipoC2': 7.35, 'lipoC3S1': 3.89, 'temp': 30.56, 'lipoC3S3': 11.76, 'lipoC3S2': 7.78, 'rot1': 1455, 'rot0': 1451, 'rot3': 650, 'rot2': 582, 'state': 'normal', 'yaw': 12.7, 'datetime': '2018-10-09 13:39:10.626490', 'mgs': 0, 'volt': 0.9521, 'depth': 2.377, 'time': 342, 'pitch': 4.02, 'roll': 1.06, 'pres': 195}
{'lipoC2': 7.35, 'lipoC3S1': 3.89, 'temp': 30.56, 'lipoC3S3': 11.76, 'lipoC3S2': 7.77, 'rot1': 1455, 'rot0': 1451, 'rot3': 650, 'rot2': 582, 'state': 'normal', 'yaw': 11.46, 'datetime': '2018-10-09 13:39:10.730963', 'mgs': 0, 'volt': 0.9521, 'depth': 2.377, 'time': 342, 'pitch': 6.0, 'roll': 1.8, 'pres': 195}
{'lipoC2': 7.35, 'lipoC3S1': 3.89, 'temp': 30.56, 'lipoC3S3': 11.76, 'lipoC3S2': 7.77, 'rot1': 1455, 'rot0': 1451, 'rot3': 650, 'rot2': 582, 'state': 'normal', 'yaw': 10.28, 'datetime': '2018-10-09 13:39:10.835456', 'mgs': 0, 'volt': 0.957, 'depth': 2.454, 'time': 342, 'pitch': 8.19, 'roll': 2.12, 'pres': 196}
