{'lipoC2': 7.83, 'lipoC3S1': 3.93, 'temp': 28.38, 'lipoC3S3': 11.87, 'lipoC3S2': 7.85, 'rot1': 287, 'rot0': 293, 'rot3': 219, 'rot2': 180, 'state': 'normal', 'yaw': 16.65, 'datetime': '2018-10-05 19:45:31.828434', 'mgs': 0, 'volt': 0.8154, 'depth': 0.241, 'time': 56, 'pitch': -24.35, 'roll': 13.55, 'pres': 167}
{'lipoC2': 7.83, 'lipoC3S1': 3.93, 'temp': 28.5, 'lipoC3S3': 11.87, 'lipoC3S2': 7.85, 'rot1': 287, 'rot0': 293, 'rot3': 219, 'rot2': 180, 'state': 'normal', 'yaw': 16.69, 'datetime': '2018-10-05 19:45:31.852468', 'mgs': 0, 'volt': 0.8154, 'depth': 0.241, 'time': 56, 'pitch': -24.37, 'roll': 13.54, 'pres': 167}
{'lipoC2': 7.83, 'lipoC3S1': 3.93, 'temp': 28.5, 'lipoC3S3': 11.87, 'lipoC3S2': 7.84, 'rot1': 287, 'rot0': 293, 'rot3': 219, 'rot2': 180, 'state': 'normal', 'yaw': 16.5, 'datetime': '2018-10-05 19:45:31.875219', 'mgs': 0, 'volt': 0.8203, 'depth': 0.317, 'time': 56, 'pitch': -24.49, 'roll': 13.71, 'pres': 168}
{'lipoC2': 7.83, 'lipoC3S1': 3.93, 'temp': 28.5, 'lipoC3S3': 11.87, 'lipoC3S2': 7.84, 'rot1': 287, 'rot0': 293, 'rot3': 219, 'rot2': 180, 'state': 'normal', 'yaw': 16.27, 'datetime': '2018-10-05 19:45:31.885665', 'mgs': 0, 'volt': 0.8154, 'depth': 0.241, 'time': 56, 'pitch': -24.76, 'roll': 13.87, 'pres': 167}
{'lipoC2': 7.83, 'lipoC3S1': 3.93, 'temp': 28.44, 'lipoC3S3': 11.87, 'lipoC3S2': 7.85, 'rot1': 287, 'rot0': 293, 'rot3': 219, 'rot2': 180, 'state': 'normal', 'yaw': 16.14, 'datetime': '2018-10-05 19:45:31.896031', 'mgs': 0, 'volt': 0.8154, 'depth': 0.241, 'time': 56, 'pitch': -25.24, 'roll': 13.92, 'pres': 167}
{'lipoC2': 7.83, 'lipoC3S1': 3.93, 'temp': 28.44, 'lipoC3S3': 11.87, 'lipoC3S2': 7.85, 'rot1': 287, 'rot0': 293, 'rot3': 219, 'rot2': 180, 'state': 'normal', 'yaw': 15.97, 'datetime': '2018-10-05 19:45:31.906444', 'mgs': 0, 'volt': 0.8154, 'depth': 0.241, 'time': 56, 'pitch': -25.88, 'roll': 13.89, 'pres': 167}
{'lipoC2': 7.83, 'lipoC3S1': 3.93, 'temp': 28.5, 'lipoC3S3': 11.87, 'lipoC3S2': 7.85, 'rot1': 287, 'rot0': 293, 'rot3': 219, 'rot2': 180, 'state': 'normal', 'yaw': 15.87, 'datetime': '2018-10-05 19:45:31.916552', 'mgs': 0, 'volt': 0.8154, 'depth': 0.241, 'time': 56, 'pitch': -26.25, 'roll': 13.85, 'pres': 167}
{'lipoC2': 7.83, 'lipoC3S1': 3.93, 'temp': 28.5, 'lipoC3S3': 11.87, 'lipoC3S2': 7.85, 'rot1': 287, 'rot0': 293, 'rot3': 219, 'rot2': 180, 'state': 'normal', 'yaw': 15.86, 'datetime': '2018-10-05 19:45:31.926412', 'mgs': 0, 'volt': 0.8154, 'depth': 0.241, 'time': 57, 'pitch': -26.25, 'roll': 13.79, 'pres': 167}
{'lipoC2': 7.83, 'lipoC3S1': 3.92, 'temp': 28.44, 'lipoC3S3': 11.85, 'lipoC3S2': 7.84, 'rot1': 287, 'rot0': 293, 'rot3': 219, 'rot2': 180, 'state': 'normal', 'yaw': 15.89, 'datetime': '2018-10-05 19:45:31.936208', 'mgs': 0, 'volt': 0.8154, 'depth': 0.241, 'time': 57, 'pitch': -26.12, 'roll': 13.79, 'pres': 167}
{'lipoC2': 7.83, 'lipoC3S1': 3.92, 'temp': 28.44, 'lipoC3S3': 11.85, 'lipoC3S2': 7.84, 'rot1': 287, 'rot0': 293, 'rot3': 219, 'rot2': 180, 'state': 'normal', 'yaw': 15.68, 'datetime': '2018-10-05 19:45:31.945939', 'mgs': 0, 'volt': 0.8154, 'depth': 0.241, 'time': 57, 'pitch': -26.14, 'roll': 14.0, 'pres': 167}
{'lipoC2': 7.83, 'lipoC3S1': 3.92, 'temp': 28.44, 'lipoC3S3': 11.85, 'lipoC3S2': 7.84, 'rot1': 287, 'rot0': 293, 'rot3': 219, 'rot2': 180, 'state': 'normal', 'yaw': 15.3, 'datetime': '2018-10-05 19:45:31.955699', 'mgs': 0, 'volt': 0.8154, 'depth': 0.241, 'time': 57, 'pitch': -26.53, 'roll': 14.34, 'pres': 167}
{'lipoC2': 7.83, 'lipoC3S1': 3.92, 'temp': 28.44, 'lipoC3S3': 11.85, 'lipoC3S2': 7.84, 'rot1': 287, 'rot0': 293, 'rot3': 219, 'rot2': 180, 'state': 'normal', 'yaw': 14.87, 'datetime': '2018-10-05 19:45:31.965466', 'mgs': 0, 'volt': 0.8154, 'depth': 0.241, 'time': 57, 'pitch': -27.31, 'roll': 14.68, 'pres': 167}
{'lipoC2': 7.83, 'lipoC3S1': 3.92, 'temp': 28.44, 'lipoC3S3': 11.85, 'lipoC3S2': 7.84, 'rot1': 287, 'rot0': 293, 'rot3': 219, 'rot2': 180, 'state': 'normal', 'yaw': 14.66, 'datetime': '2018-10-05 19:45:31.975301', 'mgs': 0, 'volt': 0.8154, 'depth': 0.241, 'time': 57, 'pitch': -27.87, 'roll': 14.8, 'pres': 167}
{'lipoC2': 7.83, 'lipoC3S1': 3.92, 'temp': 28.44, 'lipoC3S3': 11.85, 'lipoC3S2': 7.84, 'rot1': 287, 'rot0': 293, 'rot3': 219, 'rot2': 180, 'state': 'normal', 'yaw': 14.63, 'datetime': '2018-10-05 19:45:31.985129', 'mgs': 0, 'volt': 0.8154, 'depth': 0.241, 'time': 57, 'pitch': -27.99, 'roll': 14.82, 'pres': 167}
{'lipoC2': 7.83, 'lipoC3S1': 3.92, 'temp': 28.44, 'lipoC3S3': 11.87, 'lipoC3S2': 7.84, 'rot1': 287, 'rot0': 293, 'rot3': 219, 'rot2': 180, 'state': 'normal', 'yaw': 14.68, 'datetime': '2018-10-05 19:45:32.002035', 'mgs': 0, 'volt': 0.8154, 'depth': 0.241, 'time': 57, 'pitch': -27.8, 'roll': 14.87, 'pres': 167}
{'lipoC2': 7.83, 'lipoC3S1': 3.92, 'temp': 28.44, 'lipoC3S3': 11.85, 'lipoC3S2': 7.84, 'rot1': 287, 'rot0': 293, 'rot3': 219, 'rot2': 180, 'state': 'normal', 'yaw': 14.62, 'datetime': '2018-10-05 19:45:32.011891', 'mgs': 0, 'volt': 0.8203, 'depth': 0.317, 'time': 57, 'pitch': -27.68, 'roll': 15.07, 'pres': 168}
{'lipoC2': 7.83, 'lipoC3S1': 3.92, 'temp': 28.44, 'lipoC3S3': 11.85, 'lipoC3S2': 7.84, 'rot1': 287, 'rot0': 293, 'rot3': 219, 'rot2': 180, 'state': 'normal', 'yaw': 14.32, 'datetime': '2018-10-05 19:45:32.021769', 'mgs': 0, 'volt': 0.8203, 'depth': 0.317, 'time': 57, 'pitch': -27.74, 'roll': 15.48, 'pres': 168}
{'lipoC2': 7.83, 'lipoC3S1': 3.92, 'temp': 28.44, 'lipoC3S3': 11.85, 'lipoC3S2': 7.84, 'rot1': 287, 'rot0': 293, 'rot3': 219, 'rot2': 180, 'state': 'normal', 'yaw': 14.01, 'datetime': '2018-10-05 19:45:32.031684', 'mgs': 0, 'volt': 0.8252, 'depth': 0.394, 'time': 58, 'pitch': -27.85, 'roll': 15.81, 'pres': 169}
{'lipoC2': 7.83, 'lipoC3S1': 3.92, 'temp': 28.5, 'lipoC3S3': 11.85, 'lipoC3S2': 7.84, 'rot1': 287, 'rot0': 293, 'rot3': 219, 'rot2': 180, 'state': 'normal', 'yaw': 13.78, 'datetime': '2018-10-05 19:45:32.041621', 'mgs': 0, 'volt': 0.8252, 'depth': 0.394, 'time': 58, 'pitch': -27.94, 'roll': 15.99, 'pres': 169}
{'lipoC2': 7.83, 'lipoC3S1': 3.92, 'temp': 28.5, 'lipoC3S3': 11.85, 'lipoC3S2': 7.84, 'rot1': 287, 'rot0': 293, 'rot3': 219, 'rot2': 180, 'state': 'normal', 'yaw': 13.72, 'datetime': '2018-10-05 19:45:32.051551', 'mgs': 0, 'volt': 0.8252, 'depth': 0.394, 'time': 58, 'pitch': -27.93, 'roll': 15.99, 'pres': 169}
{'lipoC2': 7.83, 'lipoC3S1': 3.92, 'temp': 28.44, 'lipoC3S3': 11.87, 'lipoC3S2': 7.84, 'rot1': 287, 'rot0': 293, 'rot3': 219, 'rot2': 180, 'state': 'normal', 'yaw': 13.74, 'datetime': '2018-10-05 19:45:32.061434', 'mgs': 0, 'volt': 0.8252, 'depth': 0.394, 'time': 58, 'pitch': -27.89, 'roll': 15.9, 'pres': 169}
{'lipoC2': 7.83, 'lipoC3S1': 3.92, 'temp': 28.44, 'lipoC3S3': 11.85, 'lipoC3S2': 7.84, 'rot1': 287, 'rot0': 293, 'rot3': 219, 'rot2': 180, 'state': 'normal', 'yaw': 13.71, 'datetime': '2018-10-05 19:45:32.071340', 'mgs': 0, 'volt': 0.8252, 'depth': 0.394, 'time': 58, 'pitch': -27.95, 'roll': 15.77, 'pres': 169}
{'lipoC2': 7.83, 'lipoC3S1': 3.92, 'temp': 28.44, 'lipoC3S3': 11.87, 'lipoC3S2': 7.84, 'rot1': 287, 'rot0': 293, 'rot3': 219, 'rot2': 180, 'state': 'normal', 'yaw': 13.56, 'datetime': '2018-10-05 19:45:32.081324', 'mgs': 0, 'volt': 0.8252, 'depth': 0.394, 'time': 58, 'pitch': -28.21, 'roll': 15.72, 'pres': 169}
{'lipoC2': 7.83, 'lipoC3S1': 3.92, 'temp': 28.44, 'lipoC3S3': 11.85, 'lipoC3S2': 7.84, 'rot1': 287, 'rot0': 293, 'rot3': 219, 'rot2': 180, 'state': 'normal', 'yaw': 13.42, 'datetime': '2018-10-05 19:45:32.109869', 'mgs': 0, 'volt': 0.8252, 'depth': 0.394, 'time': 58, 'pitch': -28.59, 'roll': 15.55, 'pres': 169}
{'lipoC2': 7.83, 'lipoC3S1': 3.92, 'temp': 28.44, 'lipoC3S3': 11.85, 'lipoC3S2': 7.84, 'rot1': 287, 'rot0': 293, 'rot3': 219, 'rot2': 180, 'state': 'normal', 'yaw': 13.49, 'datetime': '2018-10-05 19:45:32.214120', 'mgs': 0, 'volt': 0.8252, 'depth': 0.394, 'time': 58, 'pitch': -28.97, 'roll': 15.14, 'pres': 169}
{'lipoC2': 7.83, 'lipoC3S1': 3.92, 'temp': 28.31, 'lipoC3S3': 11.85, 'lipoC3S2': 7.84, 'rot1': 287, 'rot0': 293, 'rot3': 219, 'rot2': 180, 'state': 'normal', 'yaw': 13.83, 'datetime': '2018-10-05 19:45:32.318269', 'mgs': 0, 'volt': 0.8252, 'depth': 0.394, 'time': 58, 'pitch': -29.44, 'roll': 14.45, 'pres': 169}
{'lipoC2': 7.83, 'lipoC3S1': 3.92, 'temp': 28.31, 'lipoC3S3': 11.87, 'lipoC3S2': 7.84, 'rot1': 287, 'rot0': 293, 'rot3': 219, 'rot2': 180, 'state': 'normal', 'yaw': 14.24, 'datetime': '2018-10-05 19:45:32.422477', 'mgs': 0, 'volt': 0.8252, 'depth': 0.394, 'time': 58, 'pitch': -30.06, 'roll': 13.79, 'pres': 169}
{'lipoC2': 7.83, 'lipoC3S1': 3.92, 'temp': 28.44, 'lipoC3S3': 11.87, 'lipoC3S2': 7.84, 'rot1': 287, 'rot0': 293, 'rot3': 219, 'rot2': 180, 'state': 'normal', 'yaw': 14.51, 'datetime': '2018-10-05 19:45:32.526703', 'mgs': 0, 'volt': 0.8252, 'depth': 0.394, 'time': 59, 'pitch': -30.87, 'roll': 13.37, 'pres': 169}
{'lipoC2': 7.83, 'lipoC3S1': 3.92, 'temp': 28.44, 'lipoC3S3': 11.85, 'lipoC3S2': 7.84, 'rot1': 287, 'rot0': 293, 'rot3': 219, 'rot2': 180, 'state': 'normal', 'yaw': 14.53, 'datetime': '2018-10-05 19:45:32.638023', 'mgs': 0, 'volt': 0.8252, 'depth': 0.394, 'time': 59, 'pitch': -32.03, 'roll': 13.35, 'pres': 169}
{'lipoC2': 7.83, 'lipoC3S1': 3.92, 'temp': 28.44, 'lipoC3S3': 11.87, 'lipoC3S2': 7.84, 'rot1': 287, 'rot0': 293, 'rot3': 219, 'rot2': 180, 'state': 'normal', 'yaw': 14.68, 'datetime': '2018-10-05 19:45:32.743063', 'mgs': 0, 'volt': 0.8252, 'depth': 0.394, 'time': 59, 'pitch': -33.2, 'roll': 13.35, 'pres': 169}
{'lipoC2': 7.83, 'lipoC3S1': 3.92, 'temp': 28.44, 'lipoC3S3': 11.85, 'lipoC3S2': 7.84, 'rot1': 287, 'rot0': 293, 'rot3': 219, 'rot2': 180, 'state': 'normal', 'yaw': 15.53, 'datetime': '2018-10-05 19:45:32.847258', 'mgs': 0, 'volt': 0.8252, 'depth': 0.394, 'time': 59, 'pitch': -34.32, 'roll': 12.88, 'pres': 169}
{'lipoC2': 7.83, 'lipoC3S1': 3.92, 'temp': 28.44, 'lipoC3S3': 11.85, 'lipoC3S2': 7.84, 'rot1': 287, 'rot0': 293, 'rot3': 219, 'rot2': 180, 'state': 'normal', 'yaw': 16.53, 'datetime': '2018-10-05 19:45:32.952374', 'mgs': 0, 'volt': 0.8252, 'depth': 0.394, 'time': 59, 'pitch': -35.17, 'roll': 12.41, 'pres': 169}
{'lipoC2': 7.83, 'lipoC3S1': 3.92, 'temp': 28.44, 'lipoC3S3': 11.87, 'lipoC3S2': 7.84, 'rot1': 287, 'rot0': 293, 'rot3': 219, 'rot2': 180, 'state': 'normal', 'yaw': 17.7, 'datetime': '2018-10-05 19:45:33.056950', 'mgs': 0, 'volt': 0.8301, 'depth': 0.47, 'time': 59, 'pitch': -35.81, 'roll': 12.1, 'pres': 170}
{'lipoC2': 7.83, 'lipoC3S1': 3.92, 'temp': 28.44, 'lipoC3S3': 11.87, 'lipoC3S2': 7.84, 'rot1': 287, 'rot0': 293, 'rot3': 219, 'rot2': 180, 'state': 'normal', 'yaw': 18.8, 'datetime': '2018-10-05 19:45:33.161151', 'mgs': 0, 'volt': 0.8252, 'depth': 0.394, 'time': 59, 'pitch': -36.34, 'roll': 11.98, 'pres': 169}
{'lipoC2': 7.83, 'lipoC3S1': 3.92, 'temp': 28.44, 'lipoC3S3': 11.87, 'lipoC3S2': 7.84, 'rot1': 287, 'rot0': 293, 'rot3': 219, 'rot2': 180, 'state': 'normal', 'yaw': 20.02, 'datetime': '2018-10-05 19:45:33.266751', 'mgs': 0, 'volt': 0.8301, 'depth': 0.47, 'time': 59, 'pitch': -36.86, 'roll': 11.89, 'pres': 170}
{'lipoC2': 7.83, 'lipoC3S1': 3.92, 'temp': 28.44, 'lipoC3S3': 11.87, 'lipoC3S2': 7.84, 'rot1': 287, 'rot0': 293, 'rot3': 219, 'rot2': 180, 'state': 'normal', 'yaw': 21.69, 'datetime': '2018-10-05 19:45:33.371074', 'mgs': 0, 'volt': 0.8252, 'depth': 0.394, 'time': 59, 'pitch': -37.1, 'roll': 11.65, 'pres': 169}
{'lipoC2': 7.83, 'lipoC3S1': 3.92, 'temp': 28.44, 'lipoC3S3': 11.85, 'lipoC3S2': 7.84, 'rot1': 287, 'rot0': 293, 'rot3': 219, 'rot2': 180, 'state': 'normal', 'yaw': 23.07, 'datetime': '2018-10-05 19:45:33.475154', 'mgs': 0, 'volt': 0.8252, 'depth': 0.394, 'time': 60, 'pitch': -36.9, 'roll': 11.74, 'pres': 169}
{'lipoC2': 7.83, 'lipoC3S1': 3.92, 'temp': 28.44, 'lipoC3S3': 11.85, 'lipoC3S2': 7.84, 'rot1': 287, 'rot0': 293, 'rot3': 219, 'rot2': 180, 'state': 'normal', 'yaw': 24.07, 'datetime': '2018-10-05 19:45:33.579543', 'mgs': 0, 'volt': 0.8252, 'depth': 0.394, 'time': 60, 'pitch': -36.35, 'roll': 12.46, 'pres': 169}
{'lipoC2': 7.83, 'lipoC3S1': 3.92, 'temp': 28.44, 'lipoC3S3': 11.85, 'lipoC3S2': 7.84, 'rot1': 287, 'rot0': 293, 'rot3': 219, 'rot2': 180, 'state': 'normal', 'yaw': 24.55, 'datetime': '2018-10-05 19:45:33.683562', 'mgs': 0, 'volt': 0.8252, 'depth': 0.394, 'time': 60, 'pitch': -35.82, 'roll': 13.5, 'pres': 169}
{'lipoC2': 7.83, 'lipoC3S1': 3.92, 'temp': 28.44, 'lipoC3S3': 11.85, 'lipoC3S2': 7.84, 'rot1': 287, 'rot0': 293, 'rot3': 219, 'rot2': 180, 'state': 'normal', 'yaw': 24.73, 'datetime': '2018-10-05 19:45:33.787977', 'mgs': 0, 'volt': 0.8252, 'depth': 0.394, 'time': 60, 'pitch': -35.37, 'roll': 14.67, 'pres': 169}
{'lipoC2': 7.83, 'lipoC3S1': 3.92, 'temp': 28.44, 'lipoC3S3': 11.85, 'lipoC3S2': 7.84, 'rot1': 287, 'rot0': 293, 'rot3': 219, 'rot2': 180, 'state': 'normal', 'yaw': 24.84, 'datetime': '2018-10-05 19:45:33.892295', 'mgs': 0, 'volt': 0.8252, 'depth': 0.394, 'time': 60, 'pitch': -35.03, 'roll': 15.67, 'pres': 169}
{'lipoC2': 7.83, 'lipoC3S1': 3.92, 'temp': 28.44, 'lipoC3S3': 11.87, 'lipoC3S2': 7.84, 'rot1': 287, 'rot0': 293, 'rot3': 219, 'rot2': 180, 'state': 'normal', 'yaw': 24.99, 'datetime': '2018-10-05 19:45:33.997731', 'mgs': 0, 'volt': 0.8203, 'depth': 0.317, 'time': 60, 'pitch': -34.8, 'roll': 16.09, 'pres': 168}
{'lipoC2': 7.83, 'lipoC3S1': 3.92, 'temp': 28.44, 'lipoC3S3': 11.87, 'lipoC3S2': 7.84, 'rot1': 287, 'rot0': 293, 'rot3': 219, 'rot2': 180, 'state': 'normal', 'yaw': 25.69, 'datetime': '2018-10-05 19:45:34.101912', 'mgs': 0, 'volt': 0.8203, 'depth': 0.317, 'time': 60, 'pitch': -34.49, 'roll': 15.65, 'pres': 168}
{'lipoC2': 7.83, 'lipoC3S1': 3.92, 'temp': 28.44, 'lipoC3S3': 11.87, 'lipoC3S2': 7.84, 'rot1': 287, 'rot0': 293, 'rot3': 219, 'rot2': 180, 'state': 'normal', 'yaw': 26.53, 'datetime': '2018-10-05 19:45:34.207423', 'mgs': 0, 'volt': 0.8203, 'depth': 0.317, 'time': 60, 'pitch': -34.09, 'roll': 14.79, 'pres': 168}
{'lipoC2': 7.83, 'lipoC3S1': 3.92, 'temp': 28.44, 'lipoC3S3': 11.87, 'lipoC3S2': 7.84, 'rot1': 287, 'rot0': 293, 'rot3': 219, 'rot2': 180, 'state': 'normal', 'yaw': 27.31, 'datetime': '2018-10-05 19:45:34.311697', 'mgs': 0, 'volt': 0.8154, 'depth': 0.241, 'time': 60, 'pitch': -33.5, 'roll': 13.86, 'pres': 167}
{'lipoC2': 7.83, 'lipoC3S1': 3.92, 'temp': 28.44, 'lipoC3S3': 11.87, 'lipoC3S2': 7.84, 'rot1': 287, 'rot0': 293, 'rot3': 219, 'rot2': 180, 'state': 'normal', 'yaw': 28.09, 'datetime': '2018-10-05 19:45:34.417430', 'mgs': 0, 'volt': 0.8105, 'depth': 0.165, 'time': 60, 'pitch': -32.8, 'roll': 12.92, 'pres': 166}
{'lipoC2': 7.83, 'lipoC3S1': 3.92, 'temp': 28.44, 'lipoC3S3': 11.87, 'lipoC3S2': 7.84, 'rot1': 287, 'rot0': 293, 'rot3': 219, 'rot2': 180, 'state': 'normal', 'yaw': 28.72, 'datetime': '2018-10-05 19:45:34.521463', 'mgs': 0, 'volt': 0.8105, 'depth': 0.165, 'time': 61, 'pitch': -32.1, 'roll': 12.1, 'pres': 166}
{'lipoC2': 7.83, 'lipoC3S1': 3.92, 'temp': 28.44, 'lipoC3S3': 11.87, 'lipoC3S2': 7.84, 'rot1': 287, 'rot0': 293, 'rot3': 219, 'rot2': 180, 'state': 'normal', 'yaw': 28.79, 'datetime': '2018-10-05 19:45:34.625565', 'mgs': 0, 'volt': 0.8057, 'depth': 0.089, 'time': 61, 'pitch': -31.7, 'roll': 11.8, 'pres': 165}
{'lipoC2': 7.83, 'lipoC3S1': 3.93, 'temp': 28.44, 'lipoC3S3': 11.87, 'lipoC3S2': 7.84, 'rot1': 287, 'rot0': 293, 'rot3': 219, 'rot2': 180, 'state': 'normal', 'yaw': 28.29, 'datetime': '2018-10-05 19:45:34.729750', 'mgs': 0, 'volt': 0.8057, 'depth': 0.089, 'time': 61, 'pitch': -31.59, 'roll': 11.98, 'pres': 165}
{'lipoC2': 7.83, 'lipoC3S1': 3.92, 'temp': 28.44, 'lipoC3S3': 11.85, 'lipoC3S2': 7.85, 'rot1': 287, 'rot0': 293, 'rot3': 219, 'rot2': 180, 'state': 'normal', 'yaw': 27.5, 'datetime': '2018-10-05 19:45:34.834107', 'mgs': 0, 'volt': 0.8057, 'depth': 0.089, 'time': 61, 'pitch': -31.5, 'roll': 12.34, 'pres': 165}
{'lipoC2': 7.83, 'lipoC3S1': 3.92, 'temp': 28.44, 'lipoC3S3': 11.87, 'lipoC3S2': 7.84, 'rot1': 287, 'rot0': 293, 'rot3': 219, 'rot2': 180, 'state': 'normal', 'yaw': 26.86, 'datetime': '2018-10-05 19:45:34.938191', 'mgs': 0, 'volt': 0.8057, 'depth': 0.089, 'time': 61, 'pitch': -31.28, 'roll': 12.53, 'pres': 165}
{'lipoC2': 7.83, 'lipoC3S1': 3.93, 'temp': 28.44, 'lipoC3S3': 11.87, 'lipoC3S2': 7.84, 'rot1': 287, 'rot0': 293, 'rot3': 219, 'rot2': 180, 'state': 'normal', 'yaw': 26.34, 'datetime': '2018-10-05 19:45:35.042331', 'mgs': 0, 'volt': 0.8008, 'depth': 0.012, 'time': 61, 'pitch': -31.02, 'roll': 12.51, 'pres': 164}
{'lipoC2': 7.83, 'lipoC3S1': 3.93, 'temp': 28.38, 'lipoC3S3': 11.87, 'lipoC3S2': 7.84, 'rot1': 287, 'rot0': 293, 'rot3': 219, 'rot2': 180, 'state': 'normal', 'yaw': 26.22, 'datetime': '2018-10-05 19:45:35.146597', 'mgs': 0, 'volt': 0.8008, 'depth': 0.012, 'time': 61, 'pitch': -30.81, 'roll': 12.15, 'pres': 164}
{'lipoC2': 7.83, 'lipoC3S1': 3.93, 'temp': 28.38, 'lipoC3S3': 11.87, 'lipoC3S2': 7.84, 'rot1': 287, 'rot0': 293, 'rot3': 219, 'rot2': 180, 'state': 'normal', 'yaw': 26.35, 'datetime': '2018-10-05 19:45:35.251669', 'mgs': 0, 'volt': 0.8008, 'depth': 0.012, 'time': 61, 'pitch': -30.47, 'roll': 11.59, 'pres': 164}
{'lipoC2': 7.83, 'lipoC3S1': 3.92, 'temp': 28.38, 'lipoC3S3': 11.87, 'lipoC3S2': 7.84, 'rot1': 287, 'rot0': 293, 'rot3': 219, 'rot2': 180, 'state': 'normal', 'yaw': 26.58, 'datetime': '2018-10-05 19:45:35.356028', 'mgs': 0, 'volt': 0.7959, 'depth': -0.064, 'time': 61, 'pitch': -29.89, 'roll': 11.0, 'pres': 163}
{'lipoC2': 7.83, 'lipoC3S1': 3.93, 'temp': 28.44, 'lipoC3S3': 11.87, 'lipoC3S2': 7.84, 'rot1': 287, 'rot0': 293, 'rot3': 219, 'rot2': 180, 'state': 'normal', 'yaw': 26.5, 'datetime': '2018-10-05 19:45:35.461534', 'mgs': 0, 'volt': 0.8008, 'depth': 0.012, 'time': 62, 'pitch': -29.34, 'roll': 10.82, 'pres': 164}
{'lipoC2': 7.83, 'lipoC3S1': 3.92, 'temp': 28.44, 'lipoC3S3': 11.87, 'lipoC3S2': 7.84, 'rot1': 287, 'rot0': 293, 'rot3': 219, 'rot2': 180, 'state': 'normal', 'yaw': 26.11, 'datetime': '2018-10-05 19:45:35.565798', 'mgs': 0, 'volt': 0.7959, 'depth': -0.064, 'time': 62, 'pitch': -28.76, 'roll': 10.98, 'pres': 163}
{'lipoC2': 7.83, 'lipoC3S1': 3.93, 'temp': 28.44, 'lipoC3S3': 11.87, 'lipoC3S2': 7.84, 'rot1': 287, 'rot0': 293, 'rot3': 219, 'rot2': 180, 'state': 'normal', 'yaw': 25.43, 'datetime': '2018-10-05 19:45:35.671512', 'mgs': 0, 'volt': 0.8008, 'depth': 0.012, 'time': 62, 'pitch': -28.4, 'roll': 11.48, 'pres': 164}
{'lipoC2': 7.83, 'lipoC3S1': 3.92, 'temp': 28.44, 'lipoC3S3': 11.87, 'lipoC3S2': 7.84, 'rot1': 287, 'rot0': 293, 'rot3': 219, 'rot2': 180, 'state': 'normal', 'yaw': 24.39, 'datetime': '2018-10-05 19:45:35.775485', 'mgs': 0, 'volt': 0.8008, 'depth': 0.012, 'time': 62, 'pitch': -28.18, 'roll': 12.36, 'pres': 164}
{'lipoC2': 7.83, 'lipoC3S1': 3.92, 'temp': 28.44, 'lipoC3S3': 11.85, 'lipoC3S2': 7.85, 'rot1': 287, 'rot0': 293, 'rot3': 219, 'rot2': 180, 'state': 'normal', 'yaw': 23.56, 'datetime': '2018-10-05 19:45:35.879580', 'mgs': 0, 'volt': 0.8008, 'depth': 0.012, 'time': 62, 'pitch': -27.99, 'roll': 13.12, 'pres': 164}
{'lipoC2': 7.83, 'lipoC3S1': 3.92, 'temp': 28.44, 'lipoC3S3': 11.87, 'lipoC3S2': 7.84, 'rot1': 287, 'rot0': 293, 'rot3': 219, 'rot2': 180, 'state': 'normal', 'yaw': 22.97, 'datetime': '2018-10-05 19:45:35.984031', 'mgs': 0, 'volt': 0.8008, 'depth': 0.012, 'time': 62, 'pitch': -27.68, 'roll': 13.71, 'pres': 164}
{'lipoC2': 7.83, 'lipoC3S1': 3.92, 'temp': 28.44, 'lipoC3S3': 11.87, 'lipoC3S2': 7.84, 'rot1': 287, 'rot0': 293, 'rot3': 219, 'rot2': 180, 'state': 'normal', 'yaw': 22.54, 'datetime': '2018-10-05 19:45:36.088349', 'mgs': 0, 'volt': 0.8008, 'depth': 0.012, 'time': 62, 'pitch': -27.31, 'roll': 14.19, 'pres': 164}
{'lipoC2': 7.83, 'lipoC3S1': 3.93, 'temp': 28.44, 'lipoC3S3': 11.85, 'lipoC3S2': 7.84, 'rot1': 287, 'rot0': 293, 'rot3': 219, 'rot2': 180, 'state': 'normal', 'yaw': 22.33, 'datetime': '2018-10-05 19:45:36.192438', 'mgs': 0, 'volt': 0.8008, 'depth': 0.012, 'time': 62, 'pitch': -27.05, 'roll': 14.42, 'pres': 164}
{'lipoC2': 7.83, 'lipoC3S1': 3.92, 'temp': 28.44, 'lipoC3S3': 11.87, 'lipoC3S2': 7.85, 'rot1': 287, 'rot0': 293, 'rot3': 219, 'rot2': 180, 'state': 'normal', 'yaw': 22.2, 'datetime': '2018-10-05 19:45:36.296785', 'mgs': 0, 'volt': 0.8008, 'depth': 0.012, 'time': 62, 'pitch': -26.95, 'roll': 14.49, 'pres': 164}
{'lipoC2': 7.83, 'lipoC3S1': 3.92, 'temp': 28.44, 'lipoC3S3': 11.87, 'lipoC3S2': 7.84, 'rot1': 287, 'rot0': 293, 'rot3': 219, 'rot2': 180, 'state': 'normal', 'yaw': 21.94, 'datetime': '2018-10-05 19:45:36.401300', 'mgs': 0, 'volt': 0.8008, 'depth': 0.012, 'time': 62, 'pitch': -27.11, 'roll': 14.6, 'pres': 164}
{'lipoC2': 7.83, 'lipoC3S1': 3.93, 'temp': 28.44, 'lipoC3S3': 11.87, 'lipoC3S2': 7.84, 'rot1': 287, 'rot0': 293, 'rot3': 219, 'rot2': 180, 'state': 'normal', 'yaw': 21.57, 'datetime': '2018-10-05 19:45:36.505618', 'mgs': 0, 'volt': 0.8008, 'depth': 0.012, 'time': 63, 'pitch': -27.33, 'roll': 14.77, 'pres': 164}
{'lipoC2': 7.83, 'lipoC3S1': 3.93, 'temp': 28.44, 'lipoC3S3': 11.87, 'lipoC3S2': 7.84, 'rot1': 287, 'rot0': 293, 'rot3': 219, 'rot2': 180, 'state': 'normal', 'yaw': 21.25, 'datetime': '2018-10-05 19:45:36.610103', 'mgs': 0, 'volt': 0.8008, 'depth': 0.012, 'time': 63, 'pitch': -27.38, 'roll': 14.88, 'pres': 164}
{'lipoC2': 7.83, 'lipoC3S1': 3.93, 'temp': 28.44, 'lipoC3S3': 11.87, 'lipoC3S2': 7.84, 'rot1': 287, 'rot0': 293, 'rot3': 219, 'rot2': 180, 'state': 'normal', 'yaw': 20.87, 'datetime': '2018-10-05 19:45:36.715329', 'mgs': 0, 'volt': 0.8008, 'depth': 0.012, 'time': 63, 'pitch': -27.28, 'roll': 15.05, 'pres': 164}
{'lipoC2': 7.83, 'lipoC3S1': 3.93, 'temp': 28.44, 'lipoC3S3': 11.87, 'lipoC3S2': 7.84, 'rot1': 287, 'rot0': 293, 'rot3': 219, 'rot2': 180, 'state': 'normal', 'yaw': 20.38, 'datetime': '2018-10-05 19:45:36.819564', 'mgs': 0, 'volt': 0.8008, 'depth': 0.012, 'time': 63, 'pitch': -27.15, 'roll': 15.23, 'pres': 164}
{'lipoC2': 7.83, 'lipoC3S1': 3.92, 'temp': 28.44, 'lipoC3S3': 11.87, 'lipoC3S2': 7.84, 'rot1': 287, 'rot0': 293, 'rot3': 219, 'rot2': 180, 'state': 'normal', 'yaw': 20.03, 'datetime': '2018-10-05 19:45:36.925084', 'mgs': 0, 'volt': 0.8008, 'depth': 0.012, 'time': 63, 'pitch': -26.95, 'roll': 15.26, 'pres': 164}
{'lipoC2': 7.83, 'lipoC3S1': 3.93, 'temp': 28.44, 'lipoC3S3': 11.87, 'lipoC3S2': 7.84, 'rot1': 287, 'rot0': 293, 'rot3': 219, 'rot2': 180, 'state': 'normal', 'yaw': 19.76, 'datetime': '2018-10-05 19:45:37.029231', 'mgs': 0, 'volt': 0.8008, 'depth': 0.012, 'time': 63, 'pitch': -26.69, 'roll': 15.15, 'pres': 164}
{'lipoC2': 7.83, 'lipoC3S1': 3.93, 'temp': 28.44, 'lipoC3S3': 11.87, 'lipoC3S2': 7.85, 'rot1': 287, 'rot0': 293, 'rot3': 219, 'rot2': 180, 'state': 'normal', 'yaw': 19.43, 'datetime': '2018-10-05 19:45:37.133390', 'mgs': 0, 'volt': 0.8008, 'depth': 0.012, 'time': 63, 'pitch': -26.51, 'roll': 15.09, 'pres': 164}
{'lipoC2': 7.83, 'lipoC3S1': 3.92, 'temp': 28.44, 'lipoC3S3': 11.85, 'lipoC3S2': 7.84, 'rot1': 287, 'rot0': 293, 'rot3': 219, 'rot2': 180, 'state': 'normal', 'yaw': 18.97, 'datetime': '2018-10-05 19:45:37.237556', 'mgs': 0, 'volt': 0.8008, 'depth': 0.012, 'time': 63, 'pitch': -26.4, 'roll': 15.13, 'pres': 164}
{'lipoC2': 7.83, 'lipoC3S1': 3.93, 'temp': 28.44, 'lipoC3S3': 11.87, 'lipoC3S2': 7.84, 'rot1': 287, 'rot0': 293, 'rot3': 219, 'rot2': 180, 'state': 'normal', 'yaw': 18.55, 'datetime': '2018-10-05 19:45:37.341754', 'mgs': 0, 'volt': 0.8008, 'depth': 0.012, 'time': 63, 'pitch': -26.29, 'roll': 15.25, 'pres': 164}
{'lipoC2': 7.83, 'lipoC3S1': 3.92, 'temp': 28.44, 'lipoC3S3': 11.87, 'lipoC3S2': 7.85, 'rot1': 287, 'rot0': 293, 'rot3': 219, 'rot2': 180, 'state': 'normal', 'yaw': 17.97, 'datetime': '2018-10-05 19:45:37.446024', 'mgs': 0, 'volt': 0.8008, 'depth': 0.012, 'time': 64, 'pitch': -26.29, 'roll': 15.5, 'pres': 164}
{'lipoC2': 7.83, 'lipoC3S1': 3.93, 'temp': 28.44, 'lipoC3S3': 11.87, 'lipoC3S2': 7.84, 'rot1': 287, 'rot0': 293, 'rot3': 219, 'rot2': 180, 'state': 'normal', 'yaw': 17.33, 'datetime': '2018-10-05 19:45:37.550241', 'mgs': 0, 'volt': 0.8008, 'depth': 0.012, 'time': 64, 'pitch': -26.39, 'roll': 15.78, 'pres': 164}
{'lipoC2': 7.83, 'lipoC3S1': 3.93, 'temp': 28.44, 'lipoC3S3': 11.87, 'lipoC3S2': 7.84, 'rot1': 287, 'rot0': 293, 'rot3': 219, 'rot2': 180, 'state': 'normal', 'yaw': 16.72, 'datetime': '2018-10-05 19:45:37.655343', 'mgs': 0, 'volt': 0.8008, 'depth': 0.012, 'time': 64, 'pitch': -26.7, 'roll': 15.96, 'pres': 164}
{'lipoC2': 7.83, 'lipoC3S1': 3.93, 'temp': 28.44, 'lipoC3S3': 11.87, 'lipoC3S2': 7.85, 'rot1': 287, 'rot0': 293, 'rot3': 219, 'rot2': 180, 'state': 'normal', 'yaw': 15.98, 'datetime': '2018-10-05 19:45:37.759755', 'mgs': 0, 'volt': 0.8008, 'depth': 0.012, 'time': 64, 'pitch': -27.32, 'roll': 16.13, 'pres': 164}
{'lipoC2': 7.83, 'lipoC3S1': 3.93, 'temp': 28.44, 'lipoC3S3': 11.87, 'lipoC3S2': 7.84, 'rot1': 287, 'rot0': 293, 'rot3': 219, 'rot2': 180, 'state': 'normal', 'yaw': 15.15, 'datetime': '2018-10-05 19:45:37.865333', 'mgs': 0, 'volt': 0.7959, 'depth': -0.064, 'time': 64, 'pitch': -28.1, 'roll': 16.38, 'pres': 163}
{'lipoC2': 7.83, 'lipoC3S1': 3.92, 'temp': 28.44, 'lipoC3S3': 11.87, 'lipoC3S2': 7.84, 'rot1': 287, 'rot0': 293, 'rot3': 219, 'rot2': 180, 'state': 'normal', 'yaw': 14.07, 'datetime': '2018-10-05 19:45:37.969400', 'mgs': 0, 'volt': 0.7959, 'depth': -0.064, 'time': 64, 'pitch': -28.78, 'roll': 16.86, 'pres': 163}
{'lipoC2': 7.83, 'lipoC3S1': 3.93, 'temp': 28.44, 'lipoC3S3': 11.87, 'lipoC3S2': 7.84, 'rot1': 287, 'rot0': 293, 'rot3': 219, 'rot2': 180, 'state': 'normal', 'yaw': 13.5, 'datetime': '2018-10-05 19:45:38.074168', 'mgs': 0, 'volt': 0.7959, 'depth': -0.064, 'time': 64, 'pitch': -29.14, 'roll': 16.98, 'pres': 163}
{'lipoC2': 7.83, 'lipoC3S1': 3.93, 'temp': 28.44, 'lipoC3S3': 11.87, 'lipoC3S2': 7.85, 'rot1': 287, 'rot0': 293, 'rot3': 219, 'rot2': 180, 'state': 'normal', 'yaw': 13.73, 'datetime': '2018-10-05 19:45:38.179537', 'mgs': 0, 'volt': 0.7959, 'depth': -0.064, 'time': 64, 'pitch': -29.27, 'roll': 16.46, 'pres': 163}
{'lipoC2': 7.83, 'lipoC3S1': 3.93, 'temp': 28.44, 'lipoC3S3': 11.87, 'lipoC3S2': 7.85, 'rot1': 287, 'rot0': 293, 'rot3': 219, 'rot2': 180, 'state': 'normal', 'yaw': 14.52, 'datetime': '2018-10-05 19:45:38.283736', 'mgs': 0, 'volt': 0.791, 'depth': -0.14, 'time': 64, 'pitch': -29.46, 'roll': 15.44, 'pres': 162}
{'lipoC2': 7.83, 'lipoC3S1': 3.93, 'temp': 28.44, 'lipoC3S3': 11.87, 'lipoC3S2': 7.84, 'rot1': 287, 'rot0': 293, 'rot3': 219, 'rot2': 180, 'state': 'normal', 'yaw': 15.24, 'datetime': '2018-10-05 19:45:38.388027', 'mgs': 0, 'volt': 0.791, 'depth': -0.14, 'time': 64, 'pitch': -29.35, 'roll': 14.64, 'pres': 162}
{'lipoC2': 7.83, 'lipoC3S1': 3.92, 'temp': 28.44, 'lipoC3S3': 11.87, 'lipoC3S2': 7.85, 'rot1': 287, 'rot0': 293, 'rot3': 219, 'rot2': 180, 'state': 'normal', 'yaw': 15.85, 'datetime': '2018-10-05 19:45:38.492294', 'mgs': 0, 'volt': 0.791, 'depth': -0.14, 'time': 65, 'pitch': -28.92, 'roll': 14.11, 'pres': 162}
{'lipoC2': 7.83, 'lipoC3S1': 3.92, 'temp': 28.38, 'lipoC3S3': 11.87, 'lipoC3S2': 7.84, 'rot1': 287, 'rot0': 293, 'rot3': 219, 'rot2': 180, 'state': 'normal', 'yaw': 16.18, 'datetime': '2018-10-05 19:45:38.596587', 'mgs': 0, 'volt': 0.791, 'depth': -0.14, 'time': 65, 'pitch': -28.5, 'roll': 13.96, 'pres': 162}
{'lipoC2': 7.83, 'lipoC3S1': 3.93, 'temp': 28.38, 'lipoC3S3': 11.87, 'lipoC3S2': 7.84, 'rot1': 287, 'rot0': 293, 'rot3': 219, 'rot2': 180, 'state': 'normal', 'yaw': 16.22, 'datetime': '2018-10-05 19:45:38.701029', 'mgs': 0, 'volt': 0.791, 'depth': -0.14, 'time': 65, 'pitch': -28.15, 'roll': 14.14, 'pres': 162}
{'lipoC2': 7.83, 'lipoC3S1': 3.93, 'temp': 28.38, 'lipoC3S3': 11.87, 'lipoC3S2': 7.85, 'rot1': 287, 'rot0': 293, 'rot3': 219, 'rot2': 180, 'state': 'normal', 'yaw': 16.22, 'datetime': '2018-10-05 19:45:38.805256', 'mgs': 0, 'volt': 0.791, 'depth': -0.14, 'time': 65, 'pitch': -28.02, 'roll': 14.44, 'pres': 162}
{'lipoC2': 7.83, 'lipoC3S1': 3.93, 'temp': 28.38, 'lipoC3S3': 11.87, 'lipoC3S2': 7.84, 'rot1': 287, 'rot0': 293, 'rot3': 219, 'rot2': 180, 'state': 'normal', 'yaw': 16.42, 'datetime': '2018-10-05 19:45:38.910692', 'mgs': 0, 'volt': 0.791, 'depth': -0.14, 'time': 65, 'pitch': -28.07, 'roll': 14.58, 'pres': 162}
{'lipoC2': 7.83, 'lipoC3S1': 3.93, 'temp': 28.38, 'lipoC3S3': 11.87, 'lipoC3S2': 7.85, 'rot1': 287, 'rot0': 293, 'rot3': 219, 'rot2': 180, 'state': 'normal', 'yaw': 16.93, 'datetime': '2018-10-05 19:45:39.014966', 'mgs': 0, 'volt': 0.791, 'depth': -0.14, 'time': 65, 'pitch': -28.36, 'roll': 14.52, 'pres': 162}
{'lipoC2': 7.83, 'lipoC3S1': 3.92, 'temp': 28.44, 'lipoC3S3': 11.87, 'lipoC3S2': 7.84, 'rot1': 287, 'rot0': 293, 'rot3': 219, 'rot2': 180, 'state': 'normal', 'yaw': 17.41, 'datetime': '2018-10-05 19:45:39.120535', 'mgs': 0, 'volt': 0.791, 'depth': -0.14, 'time': 65, 'pitch': -28.89, 'roll': 14.49, 'pres': 162}
{'lipoC2': 7.83, 'lipoC3S1': 3.93, 'temp': 28.44, 'lipoC3S3': 11.87, 'lipoC3S2': 7.84, 'rot1': 287, 'rot0': 293, 'rot3': 219, 'rot2': 180, 'state': 'normal', 'yaw': 17.81, 'datetime': '2018-10-05 19:45:39.224832', 'mgs': 0, 'volt': 0.7959, 'depth': -0.064, 'time': 65, 'pitch': -29.4, 'roll': 14.65, 'pres': 163}
{'lipoC2': 7.83, 'lipoC3S1': 3.93, 'temp': 28.44, 'lipoC3S3': 11.87, 'lipoC3S2': 7.84, 'rot1': 287, 'rot0': 293, 'rot3': 219, 'rot2': 180, 'state': 'normal', 'yaw': 18.08, 'datetime': '2018-10-05 19:45:39.330545', 'mgs': 0, 'volt': 0.7959, 'depth': -0.064, 'time': 65, 'pitch': -29.45, 'roll': 15.0, 'pres': 163}
{'lipoC2': 7.83, 'lipoC3S1': 3.93, 'temp': 28.44, 'lipoC3S3': 11.87, 'lipoC3S2': 7.85, 'rot1': 287, 'rot0': 293, 'rot3': 219, 'rot2': 180, 'state': 'normal', 'yaw': 18.2, 'datetime': '2018-10-05 19:45:39.435409', 'mgs': 0, 'volt': 0.8008, 'depth': 0.012, 'time': 65, 'pitch': -29.33, 'roll': 15.62, 'pres': 164}
{'lipoC2': 7.83, 'lipoC3S1': 3.93, 'temp': 28.44, 'lipoC3S3': 11.87, 'lipoC3S2': 7.84, 'rot1': 287, 'rot0': 293, 'rot3': 219, 'rot2': 180, 'state': 'normal', 'yaw': 18.27, 'datetime': '2018-10-05 19:45:39.535414', 'mgs': 0, 'volt': 0.8057, 'depth': 0.089, 'time': 66, 'pitch': -29.39, 'roll': 16.19, 'pres': 165}
{'lipoC2': 7.83, 'lipoC3S1': 3.93, 'temp': 28.44, 'lipoC3S3': 11.87, 'lipoC3S2': 7.84, 'rot1': 287, 'rot0': 293, 'rot3': 219, 'rot2': 180, 'state': 'normal', 'yaw': 18.61, 'datetime': '2018-10-05 19:45:39.636753', 'mgs': 0, 'volt': 0.8057, 'depth': 0.089, 'time': 66, 'pitch': -29.35, 'roll': 16.49, 'pres': 165}
{'lipoC2': 7.83, 'lipoC3S1': 3.93, 'temp': 28.44, 'lipoC3S3': 11.87, 'lipoC3S2': 7.85, 'rot1': 287, 'rot0': 293, 'rot3': 219, 'rot2': 180, 'state': 'normal', 'yaw': 19.23, 'datetime': '2018-10-05 19:45:39.740940', 'mgs': 0, 'volt': 0.8057, 'depth': 0.089, 'time': 66, 'pitch': -29.18, 'roll': 16.38, 'pres': 165}
{'lipoC2': 7.83, 'lipoC3S1': 3.92, 'temp': 28.44, 'lipoC3S3': 11.87, 'lipoC3S2': 7.85, 'rot1': 287, 'rot0': 293, 'rot3': 219, 'rot2': 180, 'state': 'normal', 'yaw': 19.81, 'datetime': '2018-10-05 19:45:39.845162', 'mgs': 0, 'volt': 0.8057, 'depth': 0.089, 'time': 66, 'pitch': -29.28, 'roll': 16.12, 'pres': 165}
{'lipoC2': 7.83, 'lipoC3S1': 3.93, 'temp': 28.44, 'lipoC3S3': 11.87, 'lipoC3S2': 7.85, 'rot1': 287, 'rot0': 293, 'rot3': 219, 'rot2': 180, 'state': 'normal', 'yaw': 19.96, 'datetime': '2018-10-05 19:45:39.949316', 'mgs': 0, 'volt': 0.8105, 'depth': 0.165, 'time': 66, 'pitch': -29.6, 'roll': 16.13, 'pres': 166}
{'lipoC2': 7.83, 'lipoC3S1': 3.93, 'temp': 28.38, 'lipoC3S3': 11.87, 'lipoC3S2': 7.85, 'rot1': 287, 'rot0': 293, 'rot3': 219, 'rot2': 180, 'state': 'normal', 'yaw': 19.58, 'datetime': '2018-10-05 19:45:40.054140', 'mgs': 0, 'volt': 0.8105, 'depth': 0.165, 'time': 66, 'pitch': -29.67, 'roll': 16.56, 'pres': 166}
{'lipoC2': 7.83, 'lipoC3S1': 3.93, 'temp': 28.38, 'lipoC3S3': 11.87, 'lipoC3S2': 7.84, 'rot1': 287, 'rot0': 293, 'rot3': 219, 'rot2': 180, 'state': 'normal', 'yaw': 19.04, 'datetime': '2018-10-05 19:45:40.158344', 'mgs': 0, 'volt': 0.8105, 'depth': 0.165, 'time': 66, 'pitch': -29.54, 'roll': 17.11, 'pres': 166}
{'lipoC2': 7.83, 'lipoC3S1': 3.93, 'temp': 28.38, 'lipoC3S3': 11.87, 'lipoC3S2': 7.85, 'rot1': 287, 'rot0': 293, 'rot3': 219, 'rot2': 180, 'state': 'normal', 'yaw': 18.9, 'datetime': '2018-10-05 19:45:40.262940', 'mgs': 0, 'volt': 0.8105, 'depth': 0.165, 'time': 66, 'pitch': -29.16, 'roll': 17.29, 'pres': 166}
{'lipoC2': 7.83, 'lipoC3S1': 3.92, 'temp': 28.38, 'lipoC3S3': 11.87, 'lipoC3S2': 7.84, 'rot1': 287, 'rot0': 293, 'rot3': 219, 'rot2': 180, 'state': 'normal', 'yaw': 19.24, 'datetime': '2018-10-05 19:45:40.367971', 'mgs': 0, 'volt': 0.8105, 'depth': 0.165, 'time': 66, 'pitch': -28.65, 'roll': 16.98, 'pres': 166}
{'lipoC2': 7.83, 'lipoC3S1': 3.93, 'temp': 28.38, 'lipoC3S3': 11.87, 'lipoC3S2': 7.85, 'rot1': 287, 'rot0': 293, 'rot3': 219, 'rot2': 180, 'state': 'normal', 'yaw': 19.9, 'datetime': '2018-10-05 19:45:40.472231', 'mgs': 0, 'volt': 0.8154, 'depth': 0.241, 'time': 67, 'pitch': -27.92, 'roll': 16.3, 'pres': 167}
{'lipoC2': 7.83, 'lipoC3S1': 3.93, 'temp': 28.38, 'lipoC3S3': 11.87, 'lipoC3S2': 7.85, 'rot1': 287, 'rot0': 293, 'rot3': 219, 'rot2': 180, 'state': 'normal', 'yaw': 20.33, 'datetime': '2018-10-05 19:45:40.577696', 'mgs': 0, 'volt': 0.8154, 'depth': 0.241, 'time': 67, 'pitch': -27.45, 'roll': 15.75, 'pres': 167}
{'lipoC2': 7.83, 'lipoC3S1': 3.93, 'temp': 28.38, 'lipoC3S3': 11.87, 'lipoC3S2': 7.85, 'rot1': 287, 'rot0': 293, 'rot3': 219, 'rot2': 180, 'state': 'normal', 'yaw': 20.27, 'datetime': '2018-10-05 19:45:40.681887', 'mgs': 0, 'volt': 0.8154, 'depth': 0.241, 'time': 67, 'pitch': -27.67, 'roll': 15.49, 'pres': 167}
{'lipoC2': 7.83, 'lipoC3S1': 3.93, 'temp': 28.38, 'lipoC3S3': 11.87, 'lipoC3S2': 7.85, 'rot1': 287, 'rot0': 293, 'rot3': 219, 'rot2': 180, 'state': 'normal', 'yaw': 19.79, 'datetime': '2018-10-05 19:45:40.786111', 'mgs': 0, 'volt': 0.8154, 'depth': 0.241, 'time': 67, 'pitch': -28.16, 'roll': 15.65, 'pres': 167}
{'lipoC2': 7.83, 'lipoC3S1': 3.93, 'temp': 28.38, 'lipoC3S3': 11.87, 'lipoC3S2': 7.85, 'rot1': 287, 'rot0': 293, 'rot3': 219, 'rot2': 180, 'state': 'normal', 'yaw': 18.99, 'datetime': '2018-10-05 19:45:40.890315', 'mgs': 0, 'volt': 0.8154, 'depth': 0.241, 'time': 67, 'pitch': -28.64, 'roll': 16.15, 'pres': 167}
{'lipoC2': 7.83, 'lipoC3S1': 3.93, 'temp': 28.38, 'lipoC3S3': 11.87, 'lipoC3S2': 7.85, 'rot1': 287, 'rot0': 293, 'rot3': 219, 'rot2': 180, 'state': 'normal', 'yaw': 18.32, 'datetime': '2018-10-05 19:45:40.994465', 'mgs': 0, 'volt': 0.8154, 'depth': 0.241, 'time': 67, 'pitch': -29.04, 'roll': 16.6, 'pres': 167}
{'lipoC2': 7.83, 'lipoC3S1': 3.93, 'temp': 28.38, 'lipoC3S3': 11.87, 'lipoC3S2': 7.85, 'rot1': 287, 'rot0': 293, 'rot3': 219, 'rot2': 180, 'state': 'normal', 'yaw': 18.02, 'datetime': '2018-10-05 19:45:41.098608', 'mgs': 0, 'volt': 0.8105, 'depth': 0.165, 'time': 67, 'pitch': -29.43, 'roll': 16.71, 'pres': 166}
{'lipoC2': 7.83, 'lipoC3S1': 3.93, 'temp': 28.38, 'lipoC3S3': 11.87, 'lipoC3S2': 7.85, 'rot1': 287, 'rot0': 293, 'rot3': 219, 'rot2': 180, 'state': 'normal', 'yaw': 18.28, 'datetime': '2018-10-05 19:45:41.202821', 'mgs': 0, 'volt': 0.8154, 'depth': 0.241, 'time': 67, 'pitch': -29.87, 'roll': 16.28, 'pres': 167}
{'lipoC2': 7.83, 'lipoC3S1': 3.92, 'temp': 28.38, 'lipoC3S3': 11.87, 'lipoC3S2': 7.85, 'rot1': 287, 'rot0': 293, 'rot3': 219, 'rot2': 180, 'state': 'normal', 'yaw': 18.53, 'datetime': '2018-10-05 19:45:41.307468', 'mgs': 0, 'volt': 0.8105, 'depth': 0.165, 'time': 67, 'pitch': -30.22, 'roll': 15.88, 'pres': 166}
{'lipoC2': 7.83, 'lipoC3S1': 3.93, 'temp': 28.38, 'lipoC3S3': 11.87, 'lipoC3S2': 7.85, 'rot1': 287, 'rot0': 293, 'rot3': 219, 'rot2': 180, 'state': 'normal', 'yaw': 19.1, 'datetime': '2018-10-05 19:45:41.411631', 'mgs': 0, 'volt': 0.8105, 'depth': 0.165, 'time': 67, 'pitch': -30.32, 'roll': 15.19, 'pres': 166}
{'lipoC2': 7.83, 'lipoC3S1': 3.93, 'temp': 28.44, 'lipoC3S3': 11.87, 'lipoC3S2': 7.85, 'rot1': 287, 'rot0': 293, 'rot3': 219, 'rot2': 180, 'state': 'normal', 'yaw': 19.7, 'datetime': '2018-10-05 19:45:41.516280', 'mgs': 0, 'volt': 0.8105, 'depth': 0.165, 'time': 68, 'pitch': -30.08, 'roll': 14.59, 'pres': 166}
{'lipoC2': 7.83, 'lipoC3S1': 3.93, 'temp': 28.44, 'lipoC3S3': 11.87, 'lipoC3S2': 7.84, 'rot1': 287, 'rot0': 293, 'rot3': 219, 'rot2': 180, 'state': 'normal', 'yaw': 20.13, 'datetime': '2018-10-05 19:45:41.621268', 'mgs': 0, 'volt': 0.8105, 'depth': 0.165, 'time': 68, 'pitch': -29.84, 'roll': 14.27, 'pres': 166}
{'lipoC2': 7.83, 'lipoC3S1': 3.93, 'temp': 28.38, 'lipoC3S3': 11.87, 'lipoC3S2': 7.85, 'rot1': 287, 'rot0': 293, 'rot3': 219, 'rot2': 180, 'state': 'normal', 'yaw': 20.08, 'datetime': '2018-10-05 19:45:41.725491', 'mgs': 0, 'volt': 0.8105, 'depth': 0.165, 'time': 68, 'pitch': -29.72, 'roll': 14.43, 'pres': 166}
{'lipoC2': 7.83, 'lipoC3S1': 3.93, 'temp': 28.38, 'lipoC3S3': 11.87, 'lipoC3S2': 7.85, 'rot1': 287, 'rot0': 293, 'rot3': 219, 'rot2': 180, 'state': 'normal', 'yaw': 19.64, 'datetime': '2018-10-05 19:45:41.830983', 'mgs': 0, 'volt': 0.8105, 'depth': 0.165, 'time': 68, 'pitch': -29.81, 'roll': 14.91, 'pres': 166}
{'lipoC2': 7.83, 'lipoC3S1': 3.93, 'temp': 28.38, 'lipoC3S3': 11.87, 'lipoC3S2': 7.85, 'rot1': 287, 'rot0': 293, 'rot3': 219, 'rot2': 180, 'state': 'normal', 'yaw': 19.03, 'datetime': '2018-10-05 19:45:41.935189', 'mgs': 0, 'volt': 0.8105, 'depth': 0.165, 'time': 68, 'pitch': -29.74, 'roll': 15.53, 'pres': 166}
{'lipoC2': 7.83, 'lipoC3S1': 3.93, 'temp': 28.38, 'lipoC3S3': 11.87, 'lipoC3S2': 7.85, 'rot1': 287, 'rot0': 293, 'rot3': 219, 'rot2': 180, 'state': 'normal', 'yaw': 18.68, 'datetime': '2018-10-05 19:45:42.039542', 'mgs': 0, 'volt': 0.8105, 'depth': 0.165, 'time': 68, 'pitch': -29.55, 'roll': 15.89, 'pres': 166}
{'lipoC2': 7.83, 'lipoC3S1': 3.93, 'temp': 28.38, 'lipoC3S3': 11.87, 'lipoC3S2': 7.84, 'rot1': 287, 'rot0': 293, 'rot3': 219, 'rot2': 180, 'state': 'normal', 'yaw': 18.92, 'datetime': '2018-10-05 19:45:42.143765', 'mgs': 0, 'volt': 0.8154, 'depth': 0.241, 'time': 68, 'pitch': -29.59, 'roll': 15.69, 'pres': 167}
{'lipoC2': 7.83, 'lipoC3S1': 3.93, 'temp': 28.44, 'lipoC3S3': 11.87, 'lipoC3S2': 7.85, 'rot1': 287, 'rot0': 293, 'rot3': 219, 'rot2': 180, 'state': 'normal', 'yaw': 19.36, 'datetime': '2018-10-05 19:45:42.247954', 'mgs': 0, 'volt': 0.8105, 'depth': 0.165, 'time': 68, 'pitch': -29.36, 'roll': 15.41, 'pres': 166}
{'lipoC2': 7.83, 'lipoC3S1': 3.92, 'temp': 28.44, 'lipoC3S3': 11.87, 'lipoC3S2': 7.85, 'rot1': 287, 'rot0': 293, 'rot3': 219, 'rot2': 180, 'state': 'normal', 'yaw': 19.91, 'datetime': '2018-10-05 19:45:42.352126', 'mgs': 0, 'volt': 0.8105, 'depth': 0.165, 'time': 68, 'pitch': -29.47, 'roll': 15.17, 'pres': 166}
{'lipoC2': 7.83, 'lipoC3S1': 3.93, 'temp': 28.38, 'lipoC3S3': 11.87, 'lipoC3S2': 7.85, 'rot1': 287, 'rot0': 293, 'rot3': 219, 'rot2': 180, 'state': 'normal', 'yaw': 20.43, 'datetime': '2018-10-05 19:45:42.456366', 'mgs': 0, 'volt': 0.8154, 'depth': 0.241, 'time': 69, 'pitch': -29.31, 'roll': 15.2, 'pres': 167}
{'lipoC2': 7.83, 'lipoC3S1': 3.93, 'temp': 28.38, 'lipoC3S3': 11.87, 'lipoC3S2': 7.85, 'rot1': 287, 'rot0': 293, 'rot3': 219, 'rot2': 180, 'state': 'normal', 'yaw': 20.95, 'datetime': '2018-10-05 19:45:42.561764', 'mgs': 0, 'volt': 0.8154, 'depth': 0.241, 'time': 69, 'pitch': -28.85, 'roll': 15.37, 'pres': 167}
{'lipoC2': 7.83, 'lipoC3S1': 3.93, 'temp': 28.44, 'lipoC3S3': 11.87, 'lipoC3S2': 7.85, 'rot1': 287, 'rot0': 293, 'rot3': 219, 'rot2': 180, 'state': 'normal', 'yaw': 21.35, 'datetime': '2018-10-05 19:45:42.665947', 'mgs': 0, 'volt': 0.8154, 'depth': 0.241, 'time': 69, 'pitch': -28.47, 'roll': 15.95, 'pres': 167}
{'lipoC2': 7.83, 'lipoC3S1': 3.93, 'temp': 28.44, 'lipoC3S3': 11.87, 'lipoC3S2': 7.85, 'rot1': 287, 'rot0': 293, 'rot3': 219, 'rot2': 180, 'state': 'normal', 'yaw': 21.76, 'datetime': '2018-10-05 19:45:42.771437', 'mgs': 0, 'volt': 0.8203, 'depth': 0.317, 'time': 69, 'pitch': -28.47, 'roll': 16.59, 'pres': 168}
{'lipoC2': 7.83, 'lipoC3S1': 3.93, 'temp': 28.44, 'lipoC3S3': 11.87, 'lipoC3S2': 7.85, 'rot1': 287, 'rot0': 293, 'rot3': 219, 'rot2': 180, 'state': 'normal', 'yaw': 22.55, 'datetime': '2018-10-05 19:45:42.876016', 'mgs': 0, 'volt': 0.8203, 'depth': 0.317, 'time': 69, 'pitch': -28.44, 'roll': 17.12, 'pres': 168}
{'lipoC2': 7.83, 'lipoC3S1': 3.93, 'temp': 28.38, 'lipoC3S3': 11.87, 'lipoC3S2': 7.85, 'rot1': 287, 'rot0': 293, 'rot3': 219, 'rot2': 180, 'state': 'normal', 'yaw': 23.3, 'datetime': '2018-10-05 19:45:42.980552', 'mgs': 0, 'volt': 0.8203, 'depth': 0.317, 'time': 69, 'pitch': -28.46, 'roll': 17.53, 'pres': 168}
{'lipoC2': 7.83, 'lipoC3S1': 3.93, 'temp': 28.38, 'lipoC3S3': 11.87, 'lipoC3S2': 7.85, 'rot1': 287, 'rot0': 293, 'rot3': 219, 'rot2': 180, 'state': 'normal', 'yaw': 23.78, 'datetime': '2018-10-05 19:45:43.085384', 'mgs': 0, 'volt': 0.8203, 'depth': 0.317, 'time': 69, 'pitch': -28.63, 'roll': 18.02, 'pres': 168}
{'lipoC2': 7.83, 'lipoC3S1': 3.93, 'temp': 28.44, 'lipoC3S3': 11.87, 'lipoC3S2': 7.85, 'rot1': 287, 'rot0': 293, 'rot3': 219, 'rot2': 180, 'state': 'normal', 'yaw': 23.84, 'datetime': '2018-10-05 19:45:43.193676', 'mgs': 0, 'volt': 0.8203, 'depth': 0.317, 'time': 69, 'pitch': -28.65, 'roll': 18.62, 'pres': 168}
{'lipoC2': 7.83, 'lipoC3S1': 3.93, 'temp': 28.44, 'lipoC3S3': 11.87, 'lipoC3S2': 7.85, 'rot1': 287, 'rot0': 293, 'rot3': 219, 'rot2': 180, 'state': 'normal', 'yaw': 23.82, 'datetime': '2018-10-05 19:45:43.300279', 'mgs': 0, 'volt': 0.8203, 'depth': 0.317, 'time': 69, 'pitch': -28.65, 'roll': 18.89, 'pres': 168}
{'lipoC2': 7.83, 'lipoC3S1': 3.93, 'temp': 28.38, 'lipoC3S3': 11.87, 'lipoC3S2': 7.85, 'rot1': 287, 'rot0': 293, 'rot3': 219, 'rot2': 180, 'state': 'normal', 'yaw': 23.81, 'datetime': '2018-10-05 19:45:43.398534', 'mgs': 0, 'volt': 0.8203, 'depth': 0.317, 'time': 69, 'pitch': -28.66, 'roll': 18.67, 'pres': 168}
{'lipoC2': 7.83, 'lipoC3S1': 3.93, 'temp': 28.38, 'lipoC3S3': 11.87, 'lipoC3S2': 7.85, 'rot1': 287, 'rot0': 293, 'rot3': 219, 'rot2': 180, 'state': 'normal', 'yaw': 23.85, 'datetime': '2018-10-05 19:45:43.502721', 'mgs': 0, 'volt': 0.8203, 'depth': 0.317, 'time': 70, 'pitch': -28.57, 'roll': 18.02, 'pres': 168}
{'lipoC2': 7.83, 'lipoC3S1': 3.93, 'temp': 28.38, 'lipoC3S3': 11.87, 'lipoC3S2': 7.85, 'rot1': 287, 'rot0': 293, 'rot3': 219, 'rot2': 180, 'state': 'normal', 'yaw': 23.84, 'datetime': '2018-10-05 19:45:43.606888', 'mgs': 0, 'volt': 0.8203, 'depth': 0.317, 'time': 70, 'pitch': -28.18, 'roll': 17.12, 'pres': 168}
{'lipoC2': 7.83, 'lipoC3S1': 3.93, 'temp': 28.38, 'lipoC3S3': 11.87, 'lipoC3S2': 7.85, 'rot1': 287, 'rot0': 293, 'rot3': 219, 'rot2': 180, 'state': 'normal', 'yaw': 23.64, 'datetime': '2018-10-05 19:45:43.711065', 'mgs': 0, 'volt': 0.8203, 'depth': 0.317, 'time': 70, 'pitch': -27.65, 'roll': 16.08, 'pres': 168}
{'lipoC2': 7.83, 'lipoC3S1': 3.93, 'temp': 28.38, 'lipoC3S3': 11.87, 'lipoC3S2': 7.85, 'rot1': 287, 'rot0': 293, 'rot3': 219, 'rot2': 180, 'state': 'normal', 'yaw': 23.19, 'datetime': '2018-10-05 19:45:43.816496', 'mgs': 0, 'volt': 0.8154, 'depth': 0.241, 'time': 70, 'pitch': -27.35, 'roll': 15.29, 'pres': 167}
{'lipoC2': 7.83, 'lipoC3S1': 3.93, 'temp': 28.38, 'lipoC3S3': 11.87, 'lipoC3S2': 7.85, 'rot1': 287, 'rot0': 293, 'rot3': 219, 'rot2': 180, 'state': 'normal', 'yaw': 22.5, 'datetime': '2018-10-05 19:45:43.920631', 'mgs': 0, 'volt': 0.8154, 'depth': 0.241, 'time': 70, 'pitch': -27.19, 'roll': 14.65, 'pres': 167}
{'lipoC2': 7.83, 'lipoC3S1': 3.93, 'temp': 28.38, 'lipoC3S3': 11.87, 'lipoC3S2': 7.85, 'rot1': 287, 'rot0': 293, 'rot3': 219, 'rot2': 180, 'state': 'normal', 'yaw': 21.92, 'datetime': '2018-10-05 19:45:44.026118', 'mgs': 0, 'volt': 0.8154, 'depth': 0.241, 'time': 70, 'pitch': -27.06, 'roll': 14.1, 'pres': 167}
{'lipoC2': 7.83, 'lipoC3S1': 3.93, 'temp': 28.38, 'lipoC3S3': 11.87, 'lipoC3S2': 7.85, 'rot1': 287, 'rot0': 293, 'rot3': 219, 'rot2': 180, 'state': 'normal', 'yaw': 21.31, 'datetime': '2018-10-05 19:45:44.130307', 'mgs': 0, 'volt': 0.8105, 'depth': 0.165, 'time': 70, 'pitch': -26.79, 'roll': 13.5, 'pres': 166}
{'lipoC2': 7.83, 'lipoC3S1': 3.93, 'temp': 28.38, 'lipoC3S3': 11.87, 'lipoC3S2': 7.85, 'rot1': 287, 'rot0': 293, 'rot3': 219, 'rot2': 180, 'state': 'normal', 'yaw': 20.91, 'datetime': '2018-10-05 19:45:44.235831', 'mgs': 0, 'volt': 0.8105, 'depth': 0.165, 'time': 70, 'pitch': -26.45, 'roll': 12.84, 'pres': 166}
{'lipoC2': 7.83, 'lipoC3S1': 3.93, 'temp': 28.38, 'lipoC3S3': 11.87, 'lipoC3S2': 7.85, 'rot1': 287, 'rot0': 293, 'rot3': 219, 'rot2': 180, 'state': 'normal', 'yaw': 20.73, 'datetime': '2018-10-05 19:45:44.340023', 'mgs': 0, 'volt': 0.8057, 'depth': 0.089, 'time': 70, 'pitch': -26.41, 'roll': 12.07, 'pres': 165}
{'lipoC2': 7.83, 'lipoC3S1': 3.93, 'temp': 28.38, 'lipoC3S3': 11.87, 'lipoC3S2': 7.85, 'rot1': 287, 'rot0': 293, 'rot3': 219, 'rot2': 180, 'state': 'normal', 'yaw': 20.72, 'datetime': '2018-10-05 19:45:44.444820', 'mgs': 0, 'volt': 0.8105, 'depth': 0.165, 'time': 70, 'pitch': -26.71, 'roll': 11.51, 'pres': 166}
{'lipoC2': 7.83, 'lipoC3S1': 3.93, 'temp': 28.38, 'lipoC3S3': 11.87, 'lipoC3S2': 7.85, 'rot1': 287, 'rot0': 293, 'rot3': 219, 'rot2': 180, 'state': 'normal', 'yaw': 20.85, 'datetime': '2018-10-05 19:45:44.548690', 'mgs': 0, 'volt': 0.8057, 'depth': 0.089, 'time': 71, 'pitch': -26.59, 'roll': 11.19, 'pres': 165}
{'lipoC2': 7.83, 'lipoC3S1': 3.93, 'temp': 28.38, 'lipoC3S3': 11.87, 'lipoC3S2': 7.85, 'rot1': 287, 'rot0': 293, 'rot3': 219, 'rot2': 180, 'state': 'normal', 'yaw': 21.19, 'datetime': '2018-10-05 19:45:44.652815', 'mgs': 0, 'volt': 0.8105, 'depth': 0.165, 'time': 71, 'pitch': -26.62, 'roll': 11.05, 'pres': 166}
{'lipoC2': 7.83, 'lipoC3S1': 3.93, 'temp': 28.38, 'lipoC3S3': 11.87, 'lipoC3S2': 7.85, 'rot1': 287, 'rot0': 293, 'rot3': 219, 'rot2': 180, 'state': 'normal', 'yaw': 21.76, 'datetime': '2018-10-05 19:45:44.757029', 'mgs': 0, 'volt': 0.8105, 'depth': 0.165, 'time': 71, 'pitch': -26.41, 'roll': 11.09, 'pres': 166}
{'lipoC2': 7.83, 'lipoC3S1': 3.93, 'temp': 28.44, 'lipoC3S3': 11.87, 'lipoC3S2': 7.85, 'rot1': 287, 'rot0': 293, 'rot3': 219, 'rot2': 180, 'state': 'normal', 'yaw': 21.59, 'datetime': '2018-10-05 19:45:44.861211', 'mgs': 0, 'volt': 0.8057, 'depth': 0.089, 'time': 71, 'pitch': -26.23, 'roll': 12.26, 'pres': 165}
{'lipoC2': 7.83, 'lipoC3S1': 3.93, 'temp': 28.44, 'lipoC3S3': 11.87, 'lipoC3S2': 7.85, 'rot1': 287, 'rot0': 293, 'rot3': 219, 'rot2': 180, 'state': 'normal', 'yaw': 20.98, 'datetime': '2018-10-05 19:45:44.965408', 'mgs': 0, 'volt': 0.8105, 'depth': 0.165, 'time': 71, 'pitch': -26.26, 'roll': 14.08, 'pres': 166}
{'lipoC2': 7.83, 'lipoC3S1': 3.93, 'temp': 28.44, 'lipoC3S3': 11.87, 'lipoC3S2': 7.85, 'rot1': 287, 'rot0': 293, 'rot3': 219, 'rot2': 180, 'state': 'normal', 'yaw': 20.88, 'datetime': '2018-10-05 19:45:45.070209', 'mgs': 0, 'volt': 0.8105, 'depth': 0.165, 'time': 71, 'pitch': -26.0, 'roll': 15.79, 'pres': 166}
{'lipoC2': 7.83, 'lipoC3S1': 3.93, 'temp': 28.38, 'lipoC3S3': 11.87, 'lipoC3S2': 7.85, 'rot1': 287, 'rot0': 293, 'rot3': 219, 'rot2': 180, 'state': 'normal', 'yaw': 21.05, 'datetime': '2018-10-05 19:45:45.174395', 'mgs': 0, 'volt': 0.8105, 'depth': 0.165, 'time': 71, 'pitch': -25.51, 'roll': 17.54, 'pres': 166}
{'lipoC2': 7.83, 'lipoC3S1': 3.93, 'temp': 28.38, 'lipoC3S3': 11.87, 'lipoC3S2': 7.85, 'rot1': 287, 'rot0': 293, 'rot3': 219, 'rot2': 180, 'state': 'normal', 'yaw': 21.43, 'datetime': '2018-10-05 19:45:45.279860', 'mgs': 0, 'volt': 0.8105, 'depth': 0.165, 'time': 71, 'pitch': -25.46, 'roll': 18.66, 'pres': 166}
{'lipoC2': 7.83, 'lipoC3S1': 3.93, 'temp': 28.38, 'lipoC3S3': 11.87, 'lipoC3S2': 7.85, 'rot1': 287, 'rot0': 293, 'rot3': 219, 'rot2': 180, 'state': 'normal', 'yaw': 22.1, 'datetime': '2018-10-05 19:45:45.384033', 'mgs': 0, 'volt': 0.8105, 'depth': 0.165, 'time': 71, 'pitch': -26.03, 'roll': 19.13, 'pres': 166}
{'lipoC2': 7.83, 'lipoC3S1': 3.93, 'temp': 28.38, 'lipoC3S3': 11.87, 'lipoC3S2': 7.85, 'rot1': 287, 'rot0': 293, 'rot3': 219, 'rot2': 180, 'state': 'normal', 'yaw': 22.71, 'datetime': '2018-10-05 19:45:45.489513', 'mgs': 0, 'volt': 0.8105, 'depth': 0.165, 'time': 72, 'pitch': -26.58, 'roll': 19.14, 'pres': 166}
{'lipoC2': 7.83, 'lipoC3S1': 3.93, 'temp': 28.38, 'lipoC3S3': 11.87, 'lipoC3S2': 7.85, 'rot1': 287, 'rot0': 293, 'rot3': 219, 'rot2': 180, 'state': 'normal', 'yaw': 23.02, 'datetime': '2018-10-05 19:45:45.593645', 'mgs': 0, 'volt': 0.8154, 'depth': 0.241, 'time': 72, 'pitch': -26.94, 'roll': 19.04, 'pres': 167}
{'lipoC2': 7.83, 'lipoC3S1': 3.93, 'temp': 28.38, 'lipoC3S3': 11.87, 'lipoC3S2': 7.85, 'rot1': 287, 'rot0': 293, 'rot3': 219, 'rot2': 180, 'state': 'normal', 'yaw': 23.13, 'datetime': '2018-10-05 19:45:45.697869', 'mgs': 0, 'volt': 0.8105, 'depth': 0.165, 'time': 72, 'pitch': -26.9, 'roll': 18.82, 'pres': 166}
{'lipoC2': 7.83, 'lipoC3S1': 3.93, 'temp': 28.38, 'lipoC3S3': 11.87, 'lipoC3S2': 7.85, 'rot1': 287, 'rot0': 293, 'rot3': 219, 'rot2': 180, 'state': 'normal', 'yaw': 22.88, 'datetime': '2018-10-05 19:45:45.802204', 'mgs': 0, 'volt': 0.8105, 'depth': 0.165, 'time': 72, 'pitch': -26.62, 'roll': 18.68, 'pres': 166}
{'lipoC2': 7.83, 'lipoC3S1': 3.93, 'temp': 28.38, 'lipoC3S3': 11.87, 'lipoC3S2': 7.85, 'rot1': 287, 'rot0': 293, 'rot3': 219, 'rot2': 180, 'state': 'normal', 'yaw': 22.42, 'datetime': '2018-10-05 19:45:45.906631', 'mgs': 0, 'volt': 0.8105, 'depth': 0.165, 'time': 72, 'pitch': -26.34, 'roll': 18.43, 'pres': 166}
{'lipoC2': 7.83, 'lipoC3S1': 3.93, 'temp': 28.38, 'lipoC3S3': 11.87, 'lipoC3S2': 7.85, 'rot1': 287, 'rot0': 293, 'rot3': 219, 'rot2': 180, 'state': 'normal', 'yaw': 22.11, 'datetime': '2018-10-05 19:45:46.010639', 'mgs': 0, 'volt': 0.8105, 'depth': 0.165, 'time': 72, 'pitch': -26.24, 'roll': 17.89, 'pres': 166}
{'lipoC2': 7.83, 'lipoC3S1': 3.93, 'temp': 28.38, 'lipoC3S3': 11.87, 'lipoC3S2': 7.85, 'rot1': 287, 'rot0': 293, 'rot3': 219, 'rot2': 180, 'state': 'normal', 'yaw': 22.02, 'datetime': '2018-10-05 19:45:46.114784', 'mgs': 0, 'volt': 0.8105, 'depth': 0.165, 'time': 72, 'pitch': -26.26, 'roll': 16.93, 'pres': 166}
{'lipoC2': 7.83, 'lipoC3S1': 3.93, 'temp': 28.38, 'lipoC3S3': 11.87, 'lipoC3S2': 7.85, 'rot1': 287, 'rot0': 293, 'rot3': 219, 'rot2': 180, 'state': 'normal', 'yaw': 22.22, 'datetime': '2018-10-05 19:45:46.218969', 'mgs': 0, 'volt': 0.8105, 'depth': 0.165, 'time': 72, 'pitch': -26.34, 'roll': 15.83, 'pres': 166}
{'lipoC2': 7.83, 'lipoC3S1': 3.93, 'temp': 28.38, 'lipoC3S3': 11.87, 'lipoC3S2': 7.85, 'rot1': 287, 'rot0': 293, 'rot3': 219, 'rot2': 180, 'state': 'normal', 'yaw': 22.53, 'datetime': '2018-10-05 19:45:46.323615', 'mgs': 0, 'volt': 0.8105, 'depth': 0.165, 'time': 72, 'pitch': -26.28, 'roll': 14.86, 'pres': 166}
{'lipoC2': 7.83, 'lipoC3S1': 3.93, 'temp': 28.38, 'lipoC3S3': 11.87, 'lipoC3S2': 7.85, 'rot1': 287, 'rot0': 293, 'rot3': 219, 'rot2': 180, 'state': 'normal', 'yaw': 22.68, 'datetime': '2018-10-05 19:45:46.427797', 'mgs': 0, 'volt': 0.8105, 'depth': 0.165, 'time': 72, 'pitch': -26.15, 'roll': 14.34, 'pres': 166}
{'lipoC2': 7.83, 'lipoC3S1': 3.93, 'temp': 28.38, 'lipoC3S3': 11.87, 'lipoC3S2': 7.85, 'rot1': 287, 'rot0': 293, 'rot3': 219, 'rot2': 180, 'state': 'normal', 'yaw': 22.71, 'datetime': '2018-10-05 19:45:46.533320', 'mgs': 0, 'volt': 0.8105, 'depth': 0.165, 'time': 73, 'pitch': -26.1, 'roll': 14.34, 'pres': 166}
{'lipoC2': 7.83, 'lipoC3S1': 3.93, 'temp': 28.38, 'lipoC3S3': 11.87, 'lipoC3S2': 7.85, 'rot1': 287, 'rot0': 293, 'rot3': 219, 'rot2': 180, 'state': 'normal', 'yaw': 22.93, 'datetime': '2018-10-05 19:45:46.637567', 'mgs': 0, 'volt': 0.8105, 'depth': 0.165, 'time': 73, 'pitch': -26.26, 'roll': 14.53, 'pres': 166}
{'lipoC2': 7.83, 'lipoC3S1': 3.93, 'temp': 28.38, 'lipoC3S3': 11.87, 'lipoC3S2': 7.85, 'rot1': 287, 'rot0': 293, 'rot3': 219, 'rot2': 180, 'state': 'normal', 'yaw': 23.45, 'datetime': '2018-10-05 19:45:46.743014', 'mgs': 0, 'volt': 0.8154, 'depth': 0.241, 'time': 73, 'pitch': -26.47, 'roll': 14.72, 'pres': 167}
{'lipoC2': 7.83, 'lipoC3S1': 3.93, 'temp': 28.38, 'lipoC3S3': 11.87, 'lipoC3S2': 7.85, 'rot1': 287, 'rot0': 293, 'rot3': 219, 'rot2': 180, 'state': 'normal', 'yaw': 24.21, 'datetime': '2018-10-05 19:45:46.847246', 'mgs': 0, 'volt': 0.8154, 'depth': 0.241, 'time': 73, 'pitch': -26.67, 'roll': 15.07, 'pres': 167}
{'lipoC2': 7.83, 'lipoC3S1': 3.93, 'temp': 28.38, 'lipoC3S3': 11.87, 'lipoC3S2': 7.85, 'rot1': 287, 'rot0': 293, 'rot3': 219, 'rot2': 180, 'state': 'normal', 'yaw': 24.7, 'datetime': '2018-10-05 19:45:46.951365', 'mgs': 0, 'volt': 0.8154, 'depth': 0.241, 'time': 73, 'pitch': -26.86, 'roll': 15.79, 'pres': 167}
{'lipoC2': 7.83, 'lipoC3S1': 3.93, 'temp': 28.38, 'lipoC3S3': 11.87, 'lipoC3S2': 7.85, 'rot1': 287, 'rot0': 293, 'rot3': 219, 'rot2': 180, 'state': 'normal', 'yaw': 24.78, 'datetime': '2018-10-05 19:45:47.055635', 'mgs': 0, 'volt': 0.8203, 'depth': 0.317, 'time': 73, 'pitch': -27.19, 'roll': 16.9, 'pres': 168}
{'lipoC2': 7.83, 'lipoC3S1': 3.93, 'temp': 28.38, 'lipoC3S3': 11.87, 'lipoC3S2': 7.85, 'rot1': 287, 'rot0': 293, 'rot3': 219, 'rot2': 180, 'state': 'normal', 'yaw': 24.78, 'datetime': '2018-10-05 19:45:47.159829', 'mgs': 0, 'volt': 0.8203, 'depth': 0.317, 'time': 73, 'pitch': -27.58, 'roll': 18.01, 'pres': 168}
{'lipoC2': 7.83, 'lipoC3S1': 3.93, 'temp': 28.38, 'lipoC3S3': 11.87, 'lipoC3S2': 7.85, 'rot1': 287, 'rot0': 293, 'rot3': 219, 'rot2': 180, 'state': 'normal', 'yaw': 24.93, 'datetime': '2018-10-05 19:45:47.263995', 'mgs': 0, 'volt': 0.8203, 'depth': 0.317, 'time': 73, 'pitch': -27.88, 'roll': 18.55, 'pres': 168}
{'lipoC2': 7.83, 'lipoC3S1': 3.93, 'temp': 28.38, 'lipoC3S3': 11.87, 'lipoC3S2': 7.85, 'rot1': 287, 'rot0': 293, 'rot3': 219, 'rot2': 180, 'state': 'normal', 'yaw': 25.06, 'datetime': '2018-10-05 19:45:47.368123', 'mgs': 0, 'volt': 0.8203, 'depth': 0.317, 'time': 73, 'pitch': -28.1, 'roll': 18.61, 'pres': 168}
{'lipoC2': 7.83, 'lipoC3S1': 3.93, 'temp': 28.38, 'lipoC3S3': 11.87, 'lipoC3S2': 7.85, 'rot1': 287, 'rot0': 293, 'rot3': 219, 'rot2': 180, 'state': 'normal', 'yaw': 25.1, 'datetime': '2018-10-05 19:45:47.473103', 'mgs': 0, 'volt': 0.8203, 'depth': 0.317, 'time': 74, 'pitch': -28.06, 'roll': 18.3, 'pres': 168}
{'lipoC2': 7.83, 'lipoC3S1': 3.93, 'temp': 28.38, 'lipoC3S3': 11.87, 'lipoC3S2': 7.85, 'rot1': 287, 'rot0': 293, 'rot3': 219, 'rot2': 180, 'state': 'normal', 'yaw': 24.99, 'datetime': '2018-10-05 19:45:47.577216', 'mgs': 1, 'volt': 0.8203, 'depth': 0.317, 'time': 74, 'pitch': -27.81, 'roll': 17.87, 'pres': 168}
{'lipoC2': 7.83, 'lipoC3S1': 3.93, 'temp': 28.38, 'lipoC3S3': 11.87, 'lipoC3S2': 7.85, 'rot1': 0, 'rot0': 0, 'rot3': 0, 'rot2': 0, 'state': 'normal', 'yaw': -0.0, 'datetime': '2018-10-05 19:45:53.608720', 'mgs': 1, 'volt': 0.8252, 'depth': 0.394, 'time': 1, 'pitch': -28.48, 'roll': 19.46, 'pres': 169}
{'lipoC2': 7.83, 'lipoC3S1': 3.93, 'temp': 28.38, 'lipoC3S3': 11.87, 'lipoC3S2': 7.85, 'rot1': 0, 'rot0': 0, 'rot3': 0, 'rot2': 0, 'state': 'normal', 'yaw': -0.11, 'datetime': '2018-10-05 19:45:56.650375', 'mgs': 1, 'volt': 0.8203, 'depth': 0.317, 'time': 1, 'pitch': -28.44, 'roll': 19.58, 'pres': 168}
{'lipoC2': 7.83, 'lipoC3S1': 3.93, 'temp': 28.38, 'lipoC3S3': 11.87, 'lipoC3S2': 7.85, 'rot1': 0, 'rot0': 0, 'rot3': 0, 'rot2': 0, 'state': 'normal', 'yaw': -0.2, 'datetime': '2018-10-05 19:45:56.685713', 'mgs': 1, 'volt': 0.8203, 'depth': 0.317, 'time': 1, 'pitch': -28.41, 'roll': 19.5, 'pres': 168}
{'lipoC2': 7.83, 'lipoC3S1': 3.93, 'temp': 28.38, 'lipoC3S3': 11.88, 'lipoC3S2': 7.85, 'rot1': 0, 'rot0': 0, 'rot3': 0, 'rot2': 0, 'state': 'normal', 'yaw': -0.23, 'datetime': '2018-10-05 19:45:56.705585', 'mgs': 1, 'volt': 0.8203, 'depth': 0.317, 'time': 1, 'pitch': -28.32, 'roll': 19.23, 'pres': 168}
{'lipoC2': 7.83, 'lipoC3S1': 3.93, 'temp': 28.38, 'lipoC3S3': 11.87, 'lipoC3S2': 7.85, 'rot1': 0, 'rot0': 0, 'rot3': 0, 'rot2': 0, 'state': 'normal', 'yaw': -0.28, 'datetime': '2018-10-05 19:45:56.721510', 'mgs': 1, 'volt': 0.8203, 'depth': 0.317, 'time': 1, 'pitch': -28.13, 'roll': 18.87, 'pres': 168}
{'lipoC2': 7.83, 'lipoC3S1': 3.93, 'temp': 28.44, 'lipoC3S3': 11.87, 'lipoC3S2': 7.85, 'rot1': 0, 'rot0': 0, 'rot3': 0, 'rot2': 0, 'state': 'normal', 'yaw': -0.38, 'datetime': '2018-10-05 19:45:56.737291', 'mgs': 1, 'volt': 0.8203, 'depth': 0.317, 'time': 1, 'pitch': -27.9, 'roll': 18.6, 'pres': 168}
{'lipoC2': 7.83, 'lipoC3S1': 3.93, 'temp': 28.44, 'lipoC3S3': 11.87, 'lipoC3S2': 7.85, 'rot1': 0, 'rot0': 0, 'rot3': 0, 'rot2': 0, 'state': 'normal', 'yaw': -0.46, 'datetime': '2018-10-05 19:45:56.747161', 'mgs': 0, 'volt': 0.8203, 'depth': 0.317, 'time': 1, 'pitch': -27.59, 'roll': 18.43, 'pres': 168}
{'lipoC2': 7.83, 'lipoC3S1': 3.93, 'temp': 28.44, 'lipoC3S3': 11.87, 'lipoC3S2': 7.85, 'rot1': 0, 'rot0': 0, 'rot3': 0, 'rot2': 0, 'state': 'normal', 'yaw': -0.42, 'datetime': '2018-10-05 19:45:56.762888', 'mgs': 0, 'volt': 0.8154, 'depth': 0.241, 'time': 1, 'pitch': -27.34, 'roll': 18.21, 'pres': 167}
{'lipoC2': 7.83, 'lipoC3S1': 3.93, 'temp': 28.44, 'lipoC3S3': 11.87, 'lipoC3S2': 7.85, 'rot1': 0, 'rot0': 0, 'rot3': 0, 'rot2': 0, 'state': 'normal', 'yaw': -0.38, 'datetime': '2018-10-05 19:45:56.778724', 'mgs': 0, 'volt': 0.8203, 'depth': 0.317, 'time': 2, 'pitch': -27.22, 'roll': 18.04, 'pres': 168}
{'lipoC2': 7.83, 'lipoC3S1': 3.93, 'temp': 28.44, 'lipoC3S3': 11.87, 'lipoC3S2': 7.85, 'rot1': 0, 'rot0': 0, 'rot3': 0, 'rot2': 0, 'state': 'normal', 'yaw': -0.33, 'datetime': '2018-10-05 19:45:56.788632', 'mgs': 0, 'volt': 0.8154, 'depth': 0.241, 'time': 2, 'pitch': -27.1, 'roll': 17.98, 'pres': 167}
{'lipoC2': 7.83, 'lipoC3S1': 3.93, 'temp': 28.44, 'lipoC3S3': 11.87, 'lipoC3S2': 7.85, 'rot1': 0, 'rot0': 0, 'rot3': 0, 'rot2': 0, 'state': 'normal', 'yaw': -0.3, 'datetime': '2018-10-05 19:45:56.804400', 'mgs': 0, 'volt': 0.8203, 'depth': 0.317, 'time': 2, 'pitch': -26.94, 'roll': 17.97, 'pres': 168}
{'lipoC2': 7.83, 'lipoC3S1': 3.93, 'temp': 28.44, 'lipoC3S3': 11.87, 'lipoC3S2': 7.85, 'rot1': 0, 'rot0': 0, 'rot3': 0, 'rot2': 0, 'state': 'normal', 'yaw': -0.24, 'datetime': '2018-10-05 19:45:56.820118', 'mgs': 0, 'volt': 0.8203, 'depth': 0.317, 'time': 2, 'pitch': -26.81, 'roll': 17.94, 'pres': 168}
{'lipoC2': 7.83, 'lipoC3S1': 3.93, 'temp': 28.44, 'lipoC3S3': 11.87, 'lipoC3S2': 7.85, 'rot1': 0, 'rot0': 0, 'rot3': 0, 'rot2': 0, 'state': 'normal', 'yaw': -0.1, 'datetime': '2018-10-05 19:45:56.830123', 'mgs': 0, 'volt': 0.8154, 'depth': 0.241, 'time': 2, 'pitch': -26.73, 'roll': 17.88, 'pres': 167}
{'lipoC2': 7.83, 'lipoC3S1': 3.93, 'temp': 28.44, 'lipoC3S3': 11.87, 'lipoC3S2': 7.85, 'rot1': 0, 'rot0': 0, 'rot3': 0, 'rot2': 0, 'state': 'normal', 'yaw': 0.2, 'datetime': '2018-10-05 19:45:56.845832', 'mgs': 0, 'volt': 0.8154, 'depth': 0.241, 'time': 2, 'pitch': -26.69, 'roll': 17.68, 'pres': 167}
{'lipoC2': 7.83, 'lipoC3S1': 3.93, 'temp': 28.38, 'lipoC3S3': 11.87, 'lipoC3S2': 7.85, 'rot1': 0, 'rot0': 0, 'rot3': 0, 'rot2': 0, 'state': 'normal', 'yaw': 0.52, 'datetime': '2018-10-05 19:45:56.861652', 'mgs': 0, 'volt': 0.8154, 'depth': 0.241, 'time': 2, 'pitch': -26.67, 'roll': 17.53, 'pres': 167}
{'lipoC2': 7.83, 'lipoC3S1': 3.93, 'temp': 28.38, 'lipoC3S3': 11.88, 'lipoC3S2': 7.85, 'rot1': 0, 'rot0': 0, 'rot3': 0, 'rot2': 0, 'state': 'normal', 'yaw': 0.66, 'datetime': '2018-10-05 19:45:56.871558', 'mgs': 0, 'volt': 0.8203, 'depth': 0.317, 'time': 2, 'pitch': -26.6, 'roll': 17.59, 'pres': 168}
{'lipoC2': 7.83, 'lipoC3S1': 3.93, 'temp': 28.44, 'lipoC3S3': 11.88, 'lipoC3S2': 7.85, 'rot1': 0, 'rot0': 0, 'rot3': 0, 'rot2': 0, 'state': 'normal', 'yaw': 0.59, 'datetime': '2018-10-05 19:45:56.887428', 'mgs': 0, 'volt': 0.8203, 'depth': 0.317, 'time': 2, 'pitch': -26.46, 'roll': 17.84, 'pres': 168}
{'lipoC2': 7.83, 'lipoC3S1': 3.93, 'temp': 28.44, 'lipoC3S3': 11.87, 'lipoC3S2': 7.85, 'rot1': 0, 'rot0': 0, 'rot3': 0, 'rot2': 0, 'state': 'normal', 'yaw': 0.38, 'datetime': '2018-10-05 19:45:56.903256', 'mgs': 0, 'volt': 0.8154, 'depth': 0.241, 'time': 3, 'pitch': -26.24, 'roll': 18.13, 'pres': 167}
{'lipoC2': 7.83, 'lipoC3S1': 3.93, 'temp': 28.44, 'lipoC3S3': 11.87, 'lipoC3S2': 7.85, 'rot1': 0, 'rot0': 0, 'rot3': 0, 'rot2': 0, 'state': 'normal', 'yaw': 0.3, 'datetime': '2018-10-05 19:45:56.913165', 'mgs': 0, 'volt': 0.8154, 'depth': 0.241, 'time': 3, 'pitch': -26.01, 'roll': 18.19, 'pres': 167}
{'lipoC2': 7.83, 'lipoC3S1': 3.93, 'temp': 28.38, 'lipoC3S3': 11.87, 'lipoC3S2': 7.85, 'rot1': 0, 'rot0': 0, 'rot3': 0, 'rot2': 0, 'state': 'normal', 'yaw': 0.53, 'datetime': '2018-10-05 19:45:56.928939', 'mgs': 0, 'volt': 0.8154, 'depth': 0.241, 'time': 3, 'pitch': -25.75, 'roll': 17.89, 'pres': 167}
