{'lipoC2': 7.44, 'lipoC3S1': 3.82, 'temp': 30.13, 'lipoC3S3': 11.54, 'lipoC3S2': 7.65, 'rot1': 0, 'rot0': 0, 'rot3': 0, 'rot2': 0, 'state': 'normal', 'yaw': -0.0, 'datetime': '2018-10-10 01:18:14.691207', 'mgs': 0, 'volt': 0.8643, 'depth': 1.004, 'time': 1, 'pitch': -11.19, 'roll': -24.1, 'pres': 177}
{'lipoC2': 7.46, 'lipoC3S1': 3.82, 'temp': 30.13, 'lipoC3S3': 11.54, 'lipoC3S2': 7.65, 'rot1': 0, 'rot0': 0, 'rot3': 0, 'rot2': 0, 'state': 'normal', 'yaw': 0.14, 'datetime': '2018-10-10 01:18:14.713911', 'mgs': 0, 'volt': 0.8594, 'depth': 0.928, 'time': 1, 'pitch': -11.1, 'roll': -24.03, 'pres': 176}
{'lipoC2': 7.44, 'lipoC3S1': 3.82, 'temp': 30.06, 'lipoC3S3': 11.54, 'lipoC3S2': 7.65, 'rot1': 0, 'rot0': 0, 'rot3': 0, 'rot2': 0, 'state': 'normal', 'yaw': 0.47, 'datetime': '2018-10-10 01:18:14.725322', 'mgs': 0, 'volt': 0.8643, 'depth': 1.004, 'time': 1, 'pitch': -11.03, 'roll': -23.7, 'pres': 177}
{'lipoC2': 7.44, 'lipoC3S1': 3.82, 'temp': 30.06, 'lipoC3S3': 11.54, 'lipoC3S2': 7.65, 'rot1': 0, 'rot0': 0, 'rot3': 0, 'rot2': 0, 'state': 'normal', 'yaw': 0.92, 'datetime': '2018-10-10 01:18:14.735409', 'mgs': 0, 'volt': 0.8594, 'depth': 0.928, 'time': 1, 'pitch': -10.55, 'roll': -23.33, 'pres': 176}
{'lipoC2': 7.44, 'lipoC3S1': 3.82, 'temp': 30.06, 'lipoC3S3': 11.54, 'lipoC3S2': 7.64, 'rot1': 0, 'rot0': 0, 'rot3': 0, 'rot2': 0, 'state': 'normal', 'yaw': 1.22, 'datetime': '2018-10-10 01:18:14.745420', 'mgs': 0, 'volt': 0.8594, 'depth': 0.928, 'time': 1, 'pitch': -10.28, 'roll': -22.92, 'pres': 176}
{'lipoC2': 7.44, 'lipoC3S1': 3.82, 'temp': 30.06, 'lipoC3S3': 11.54, 'lipoC3S2': 7.65, 'rot1': 0, 'rot0': 0, 'rot3': 0, 'rot2': 0, 'state': 'normal', 'yaw': 1.58, 'datetime': '2018-10-10 01:18:14.755225', 'mgs': 0, 'volt': 0.8594, 'depth': 0.928, 'time': 1, 'pitch': -10.24, 'roll': -22.67, 'pres': 176}
{'lipoC2': 7.44, 'lipoC3S1': 3.82, 'temp': 30.06, 'lipoC3S3': 11.54, 'lipoC3S2': 7.65, 'rot1': 0, 'rot0': 0, 'rot3': 0, 'rot2': 0, 'state': 'normal', 'yaw': 2.1, 'datetime': '2018-10-10 01:18:14.765221', 'mgs': 0, 'volt': 0.8594, 'depth': 0.928, 'time': 1, 'pitch': -10.37, 'roll': -22.78, 'pres': 176}
{'lipoC2': 7.44, 'lipoC3S1': 3.82, 'temp': 30.06, 'lipoC3S3': 11.54, 'lipoC3S2': 7.65, 'rot1': 0, 'rot0': 0, 'rot3': 0, 'rot2': 0, 'state': 'normal', 'yaw': 2.45, 'datetime': '2018-10-10 01:18:14.775274', 'mgs': 0, 'volt': 0.8643, 'depth': 1.004, 'time': 1, 'pitch': -10.49, 'roll': -23.26, 'pres': 177}
{'lipoC2': 7.44, 'lipoC3S1': 3.82, 'temp': 30.06, 'lipoC3S3': 11.54, 'lipoC3S2': 7.65, 'rot1': 0, 'rot0': 0, 'rot3': 0, 'rot2': 0, 'state': 'normal', 'yaw': 2.21, 'datetime': '2018-10-10 01:18:14.785148', 'mgs': 0, 'volt': 0.8594, 'depth': 0.928, 'time': 2, 'pitch': -10.17, 'roll': -23.76, 'pres': 176}
{'lipoC2': 7.46, 'lipoC3S1': 3.82, 'temp': 30.06, 'lipoC3S3': 11.54, 'lipoC3S2': 7.65, 'rot1': 0, 'rot0': 0, 'rot3': 0, 'rot2': 0, 'state': 'normal', 'yaw': 1.68, 'datetime': '2018-10-10 01:18:14.794748', 'mgs': 0, 'volt': 0.8594, 'depth': 0.928, 'time': 2, 'pitch': -9.9, 'roll': -24.0, 'pres': 176}
{'lipoC2': 7.44, 'lipoC3S1': 3.82, 'temp': 30.06, 'lipoC3S3': 11.54, 'lipoC3S2': 7.65, 'rot1': 0, 'rot0': 0, 'rot3': 0, 'rot2': 0, 'state': 'normal', 'yaw': 1.54, 'datetime': '2018-10-10 01:18:14.804717', 'mgs': 0, 'volt': 0.8594, 'depth': 0.928, 'time': 2, 'pitch': -9.92, 'roll': -24.04, 'pres': 176}
{'lipoC2': 7.44, 'lipoC3S1': 3.82, 'temp': 30.06, 'lipoC3S3': 11.54, 'lipoC3S2': 7.65, 'rot1': 0, 'rot0': 0, 'rot3': 0, 'rot2': 0, 'state': 'normal', 'yaw': 2.03, 'datetime': '2018-10-10 01:18:14.814764', 'mgs': 0, 'volt': 0.8594, 'depth': 0.928, 'time': 2, 'pitch': -10.15, 'roll': -24.02, 'pres': 176}
{'lipoC2': 7.46, 'lipoC3S1': 3.82, 'temp': 30.06, 'lipoC3S3': 11.54, 'lipoC3S2': 7.65, 'rot1': 0, 'rot0': 0, 'rot3': 0, 'rot2': 0, 'state': 'normal', 'yaw': 2.71, 'datetime': '2018-10-10 01:18:14.824754', 'mgs': 0, 'volt': 0.8594, 'depth': 0.928, 'time': 2, 'pitch': -10.37, 'roll': -24.17, 'pres': 176}
{'lipoC2': 7.46, 'lipoC3S1': 3.82, 'temp': 30.06, 'lipoC3S3': 11.54, 'lipoC3S2': 7.65, 'rot1': 0, 'rot0': 0, 'rot3': 0, 'rot2': 0, 'state': 'normal', 'yaw': 3.04, 'datetime': '2018-10-10 01:18:14.834564', 'mgs': 0, 'volt': 0.8594, 'depth': 0.928, 'time': 2, 'pitch': -10.45, 'roll': -24.56, 'pres': 176}
{'lipoC2': 7.46, 'lipoC3S1': 3.82, 'temp': 30.13, 'lipoC3S3': 11.54, 'lipoC3S2': 7.65, 'rot1': 0, 'rot0': 0, 'rot3': 0, 'rot2': 0, 'state': 'normal', 'yaw': 2.91, 'datetime': '2018-10-10 01:18:14.844666', 'mgs': 0, 'volt': 0.8643, 'depth': 1.004, 'time': 2, 'pitch': -10.37, 'roll': -25.03, 'pres': 177}
{'lipoC2': 7.44, 'lipoC3S1': 3.82, 'temp': 30.13, 'lipoC3S3': 11.54, 'lipoC3S2': 7.65, 'rot1': 0, 'rot0': 0, 'rot3': 0, 'rot2': 0, 'state': 'normal', 'yaw': 2.69, 'datetime': '2018-10-10 01:18:14.854744', 'mgs': 0, 'volt': 0.8594, 'depth': 0.928, 'time': 2, 'pitch': -10.41, 'roll': -25.23, 'pres': 176}
{'lipoC2': 7.44, 'lipoC3S1': 3.82, 'temp': 30.06, 'lipoC3S3': 11.54, 'lipoC3S2': 7.65, 'rot1': 0, 'rot0': 0, 'rot3': 0, 'rot2': 0, 'state': 'normal', 'yaw': 2.8, 'datetime': '2018-10-10 01:18:14.864658', 'mgs': 0, 'volt': 0.8594, 'depth': 0.928, 'time': 2, 'pitch': -10.64, 'roll': -25.07, 'pres': 176}
{'lipoC2': 7.44, 'lipoC3S1': 3.82, 'temp': 30.06, 'lipoC3S3': 11.54, 'lipoC3S2': 7.65, 'rot1': 0, 'rot0': 0, 'rot3': 0, 'rot2': 0, 'state': 'normal', 'yaw': 3.34, 'datetime': '2018-10-10 01:18:14.874241', 'mgs': 0, 'volt': 0.8643, 'depth': 1.004, 'time': 3, 'pitch': -10.76, 'roll': -25.1, 'pres': 177}
{'lipoC2': 7.44, 'lipoC3S1': 3.82, 'temp': 30.06, 'lipoC3S3': 11.54, 'lipoC3S2': 7.65, 'rot1': 0, 'rot0': 0, 'rot3': 0, 'rot2': 0, 'state': 'normal', 'yaw': 4.16, 'datetime': '2018-10-10 01:18:14.884245', 'mgs': 0, 'volt': 0.8643, 'depth': 1.004, 'time': 3, 'pitch': -10.73, 'roll': -25.38, 'pres': 177}
{'lipoC2': 7.44, 'lipoC3S1': 3.82, 'temp': 30.06, 'lipoC3S3': 11.54, 'lipoC3S2': 7.65, 'rot1': 0, 'rot0': 0, 'rot3': 0, 'rot2': 0, 'state': 'normal', 'yaw': 4.69, 'datetime': '2018-10-10 01:18:14.894295', 'mgs': 0, 'volt': 0.8643, 'depth': 1.004, 'time': 3, 'pitch': -10.75, 'roll': -25.75, 'pres': 177}
{'lipoC2': 7.44, 'lipoC3S1': 3.82, 'temp': 30.06, 'lipoC3S3': 11.54, 'lipoC3S2': 7.65, 'rot1': 0, 'rot0': 0, 'rot3': 0, 'rot2': 0, 'state': 'normal', 'yaw': 4.62, 'datetime': '2018-10-10 01:18:14.904287', 'mgs': 0, 'volt': 0.8643, 'depth': 1.004, 'time': 3, 'pitch': -10.32, 'roll': -26.18, 'pres': 177}
{'lipoC2': 7.44, 'lipoC3S1': 3.82, 'temp': 30.06, 'lipoC3S3': 11.54, 'lipoC3S2': 7.65, 'rot1': 0, 'rot0': 0, 'rot3': 0, 'rot2': 0, 'state': 'normal', 'yaw': 4.2, 'datetime': '2018-10-10 01:18:14.914007', 'mgs': 0, 'volt': 0.8594, 'depth': 0.928, 'time': 3, 'pitch': -9.76, 'roll': -26.61, 'pres': 176}
{'lipoC2': 7.44, 'lipoC3S1': 3.82, 'temp': 30.06, 'lipoC3S3': 11.54, 'lipoC3S2': 7.65, 'rot1': 0, 'rot0': 0, 'rot3': 0, 'rot2': 0, 'state': 'normal', 'yaw': 3.76, 'datetime': '2018-10-10 01:18:14.923892', 'mgs': 0, 'volt': 0.8594, 'depth': 0.928, 'time': 3, 'pitch': -9.73, 'roll': -26.58, 'pres': 176}
{'lipoC2': 7.44, 'lipoC3S1': 3.82, 'temp': 30.13, 'lipoC3S3': 11.54, 'lipoC3S2': 7.65, 'rot1': 0, 'rot0': 0, 'rot3': 0, 'rot2': 0, 'state': 'normal', 'yaw': 3.81, 'datetime': '2018-10-10 01:18:14.933958', 'mgs': 0, 'volt': 0.8643, 'depth': 1.004, 'time': 3, 'pitch': -10.17, 'roll': -26.12, 'pres': 177}
{'lipoC2': 7.44, 'lipoC3S1': 3.82, 'temp': 30.13, 'lipoC3S3': 11.54, 'lipoC3S2': 7.65, 'rot1': 0, 'rot0': 0, 'rot3': 0, 'rot2': 0, 'state': 'normal', 'yaw': 4.29, 'datetime': '2018-10-10 01:18:14.943973', 'mgs': 0, 'volt': 0.8643, 'depth': 1.004, 'time': 3, 'pitch': -10.68, 'roll': -25.81, 'pres': 177}
{'lipoC2': 7.44, 'lipoC3S1': 3.82, 'temp': 30.13, 'lipoC3S3': 11.54, 'lipoC3S2': 7.65, 'rot1': 0, 'rot0': 0, 'rot3': 0, 'rot2': 0, 'state': 'normal', 'yaw': 4.82, 'datetime': '2018-10-10 01:18:14.953720', 'mgs': 0, 'volt': 0.8643, 'depth': 1.004, 'time': 3, 'pitch': -11.16, 'roll': -25.83, 'pres': 177}
{'lipoC2': 7.44, 'lipoC3S1': 3.82, 'temp': 30.06, 'lipoC3S3': 11.54, 'lipoC3S2': 7.65, 'rot1': 0, 'rot0': 0, 'rot3': 0, 'rot2': 0, 'state': 'normal', 'yaw': 4.56, 'datetime': '2018-10-10 01:18:14.963555', 'mgs': 0, 'volt': 0.8643, 'depth': 1.004, 'time': 3, 'pitch': -11.1, 'roll': -25.95, 'pres': 177}
{'lipoC2': 7.44, 'lipoC3S1': 3.82, 'temp': 30.06, 'lipoC3S3': 11.54, 'lipoC3S2': 7.65, 'rot1': 0, 'rot0': 0, 'rot3': 0, 'rot2': 0, 'state': 'normal', 'yaw': 3.61, 'datetime': '2018-10-10 01:18:14.973763', 'mgs': 0, 'volt': 0.8643, 'depth': 1.004, 'time': 4, 'pitch': -10.6, 'roll': -25.98, 'pres': 177}
{'lipoC2': 7.44, 'lipoC3S1': 3.82, 'temp': 30.06, 'lipoC3S3': 11.54, 'lipoC3S2': 7.65, 'rot1': 0, 'rot0': 0, 'rot3': 0, 'rot2': 0, 'state': 'normal', 'yaw': 2.85, 'datetime': '2018-10-10 01:18:14.983802', 'mgs': 0, 'volt': 0.8643, 'depth': 1.004, 'time': 4, 'pitch': -10.42, 'roll': -25.9, 'pres': 177}
{'lipoC2': 7.44, 'lipoC3S1': 3.82, 'temp': 30.06, 'lipoC3S3': 11.54, 'lipoC3S2': 7.65, 'rot1': 0, 'rot0': 0, 'rot3': 0, 'rot2': 0, 'state': 'normal', 'yaw': 2.94, 'datetime': '2018-10-10 01:18:14.993622', 'mgs': 0, 'volt': 0.8643, 'depth': 1.004, 'time': 4, 'pitch': -10.61, 'roll': -25.6, 'pres': 177}
{'lipoC2': 7.44, 'lipoC3S1': 3.82, 'temp': 30.06, 'lipoC3S3': 11.54, 'lipoC3S2': 7.65, 'rot1': 0, 'rot0': 0, 'rot3': 0, 'rot2': 0, 'state': 'normal', 'yaw': 3.39, 'datetime': '2018-10-10 01:18:15.003605', 'mgs': 0, 'volt': 0.8643, 'depth': 1.004, 'time': 4, 'pitch': -10.74, 'roll': -25.3, 'pres': 177}
{'lipoC2': 7.44, 'lipoC3S1': 3.82, 'temp': 30.06, 'lipoC3S3': 11.54, 'lipoC3S2': 7.65, 'rot1': 0, 'rot0': 0, 'rot3': 0, 'rot2': 0, 'state': 'normal', 'yaw': 3.41, 'datetime': '2018-10-10 01:18:15.013675', 'mgs': 0, 'volt': 0.8643, 'depth': 1.004, 'time': 4, 'pitch': -10.42, 'roll': -25.15, 'pres': 177}
{'lipoC2': 7.44, 'lipoC3S1': 3.82, 'temp': 30.06, 'lipoC3S3': 11.54, 'lipoC3S2': 7.65, 'rot1': 0, 'rot0': 0, 'rot3': 0, 'rot2': 0, 'state': 'normal', 'yaw': 2.66, 'datetime': '2018-10-10 01:18:15.023622', 'mgs': 0, 'volt': 0.8643, 'depth': 1.004, 'time': 4, 'pitch': -9.64, 'roll': -25.04, 'pres': 177}
{'lipoC2': 7.46, 'lipoC3S1': 3.82, 'temp': 30.06, 'lipoC3S3': 11.54, 'lipoC3S2': 7.65, 'rot1': 0, 'rot0': 0, 'rot3': 0, 'rot2': 0, 'state': 'normal', 'yaw': 1.88, 'datetime': '2018-10-10 01:18:15.033162', 'mgs': 0, 'volt': 0.8594, 'depth': 0.928, 'time': 4, 'pitch': -9.19, 'roll': -25.03, 'pres': 176}
{'lipoC2': 7.46, 'lipoC3S1': 3.82, 'temp': 30.06, 'lipoC3S3': 11.54, 'lipoC3S2': 7.65, 'rot1': 0, 'rot0': 0, 'rot3': 0, 'rot2': 0, 'state': 'normal', 'yaw': 1.88, 'datetime': '2018-10-10 01:18:15.043115', 'mgs': 0, 'volt': 0.8594, 'depth': 0.928, 'time': 4, 'pitch': -9.42, 'roll': -25.15, 'pres': 176}
{'lipoC2': 7.46, 'lipoC3S1': 3.82, 'temp': 30.06, 'lipoC3S3': 11.54, 'lipoC3S2': 7.65, 'rot1': 0, 'rot0': 0, 'rot3': 0, 'rot2': 0, 'state': 'normal', 'yaw': 2.55, 'datetime': '2018-10-10 01:18:15.053182', 'mgs': 0, 'volt': 0.8643, 'depth': 1.004, 'time': 4, 'pitch': -9.75, 'roll': -25.27, 'pres': 177}
{'lipoC2': 7.46, 'lipoC3S1': 3.82, 'temp': 30.06, 'lipoC3S3': 11.54, 'lipoC3S2': 7.65, 'rot1': 0, 'rot0': 0, 'rot3': 0, 'rot2': 0, 'state': 'normal', 'yaw': 3.19, 'datetime': '2018-10-10 01:18:15.063235', 'mgs': 0, 'volt': 0.8643, 'depth': 1.004, 'time': 4, 'pitch': -9.75, 'roll': -25.53, 'pres': 177}
{'lipoC2': 7.44, 'lipoC3S1': 3.82, 'temp': 30.06, 'lipoC3S3': 11.54, 'lipoC3S2': 7.65, 'rot1': 0, 'rot0': 0, 'rot3': 0, 'rot2': 0, 'state': 'normal', 'yaw': 3.11, 'datetime': '2018-10-10 01:18:15.073070', 'mgs': 0, 'volt': 0.8594, 'depth': 0.928, 'time': 5, 'pitch': -9.21, 'roll': -25.59, 'pres': 176}
{'lipoC2': 7.44, 'lipoC3S1': 3.82, 'temp': 30.06, 'lipoC3S3': 11.54, 'lipoC3S2': 7.65, 'rot1': 0, 'rot0': 0, 'rot3': 0, 'rot2': 0, 'state': 'normal', 'yaw': 2.45, 'datetime': '2018-10-10 01:18:15.083008', 'mgs': 0, 'volt': 0.8594, 'depth': 0.928, 'time': 5, 'pitch': -8.56, 'roll': -25.45, 'pres': 176}
{'lipoC2': 7.46, 'lipoC3S1': 3.82, 'temp': 30.06, 'lipoC3S3': 11.54, 'lipoC3S2': 7.65, 'rot1': 0, 'rot0': 0, 'rot3': 0, 'rot2': 0, 'state': 'normal', 'yaw': 1.89, 'datetime': '2018-10-10 01:18:15.093071', 'mgs': 0, 'volt': 0.8594, 'depth': 0.928, 'time': 5, 'pitch': -8.34, 'roll': -25.2, 'pres': 176}
{'lipoC2': 7.46, 'lipoC3S1': 3.82, 'temp': 30.13, 'lipoC3S3': 11.54, 'lipoC3S2': 7.65, 'rot1': 0, 'rot0': 0, 'rot3': 0, 'rot2': 0, 'state': 'normal', 'yaw': 1.95, 'datetime': '2018-10-10 01:18:15.103062', 'mgs': 0, 'volt': 0.8594, 'depth': 0.928, 'time': 5, 'pitch': -8.55, 'roll': -24.82, 'pres': 176}
{'lipoC2': 7.44, 'lipoC3S1': 3.82, 'temp': 30.13, 'lipoC3S3': 11.54, 'lipoC3S2': 7.65, 'rot1': 0, 'rot0': 0, 'rot3': 0, 'rot2': 0, 'state': 'normal', 'yaw': 2.55, 'datetime': '2018-10-10 01:18:15.112666', 'mgs': 0, 'volt': 0.8594, 'depth': 0.928, 'time': 5, 'pitch': -8.8, 'roll': -24.24, 'pres': 176}
{'lipoC2': 7.44, 'lipoC3S1': 3.82, 'temp': 30.13, 'lipoC3S3': 11.54, 'lipoC3S2': 7.65, 'rot1': 0, 'rot0': 0, 'rot3': 0, 'rot2': 0, 'state': 'normal', 'yaw': 3.26, 'datetime': '2018-10-10 01:18:15.122616', 'mgs': 0, 'volt': 0.8643, 'depth': 1.004, 'time': 5, 'pitch': -8.71, 'roll': -23.78, 'pres': 177}
{'lipoC2': 7.44, 'lipoC3S1': 3.82, 'temp': 30.13, 'lipoC3S3': 11.54, 'lipoC3S2': 7.65, 'rot1': 0, 'rot0': 0, 'rot3': 0, 'rot2': 0, 'state': 'normal', 'yaw': 3.8, 'datetime': '2018-10-10 01:18:15.132690', 'mgs': 0, 'volt': 0.8594, 'depth': 0.928, 'time': 5, 'pitch': -8.56, 'roll': -23.6, 'pres': 176}
{'lipoC2': 7.44, 'lipoC3S1': 3.82, 'temp': 30.13, 'lipoC3S3': 11.54, 'lipoC3S2': 7.65, 'rot1': 0, 'rot0': 0, 'rot3': 0, 'rot2': 0, 'state': 'normal', 'yaw': 3.93, 'datetime': '2018-10-10 01:18:15.142747', 'mgs': 0, 'volt': 0.8594, 'depth': 0.928, 'time': 5, 'pitch': -8.13, 'roll': -23.79, 'pres': 176}
{'lipoC2': 7.46, 'lipoC3S1': 3.82, 'temp': 30.13, 'lipoC3S3': 11.54, 'lipoC3S2': 7.65, 'rot1': 0, 'rot0': 0, 'rot3': 0, 'rot2': 0, 'state': 'normal', 'yaw': 3.53, 'datetime': '2018-10-10 01:18:15.152529', 'mgs': 0, 'volt': 0.8643, 'depth': 1.004, 'time': 5, 'pitch': -7.72, 'roll': -24.19, 'pres': 177}
{'lipoC2': 7.44, 'lipoC3S1': 3.82, 'temp': 30.13, 'lipoC3S3': 11.54, 'lipoC3S2': 7.65, 'rot1': 0, 'rot0': 0, 'rot3': 0, 'rot2': 0, 'state': 'normal', 'yaw': 2.81, 'datetime': '2018-10-10 01:18:15.162306', 'mgs': 0, 'volt': 0.8594, 'depth': 0.928, 'time': 6, 'pitch': -7.54, 'roll': -24.55, 'pres': 176}
{'lipoC2': 7.44, 'lipoC3S1': 3.82, 'temp': 30.06, 'lipoC3S3': 11.54, 'lipoC3S2': 7.65, 'rot1': 0, 'rot0': 0, 'rot3': 0, 'rot2': 0, 'state': 'normal', 'yaw': 2.22, 'datetime': '2018-10-10 01:18:15.172383', 'mgs': 0, 'volt': 0.8594, 'depth': 0.928, 'time': 6, 'pitch': -7.62, 'roll': -24.64, 'pres': 176}
{'lipoC2': 7.46, 'lipoC3S1': 3.82, 'temp': 30.06, 'lipoC3S3': 11.54, 'lipoC3S2': 7.65, 'rot1': 0, 'rot0': 0, 'rot3': 0, 'rot2': 0, 'state': 'normal', 'yaw': 2.16, 'datetime': '2018-10-10 01:18:15.182440', 'mgs': 0, 'volt': 0.8594, 'depth': 0.928, 'time': 6, 'pitch': -7.82, 'roll': -24.34, 'pres': 176}
{'lipoC2': 7.44, 'lipoC3S1': 3.82, 'temp': 30.06, 'lipoC3S3': 11.54, 'lipoC3S2': 7.65, 'rot1': 0, 'rot0': 0, 'rot3': 0, 'rot2': 0, 'state': 'normal', 'yaw': 2.46, 'datetime': '2018-10-10 01:18:15.192255', 'mgs': 0, 'volt': 0.8643, 'depth': 1.004, 'time': 6, 'pitch': -7.97, 'roll': -23.92, 'pres': 177}
{'lipoC2': 7.44, 'lipoC3S1': 3.82, 'temp': 30.06, 'lipoC3S3': 11.54, 'lipoC3S2': 7.65, 'rot1': 0, 'rot0': 0, 'rot3': 0, 'rot2': 0, 'state': 'normal', 'yaw': 2.83, 'datetime': '2018-10-10 01:18:15.202163', 'mgs': 0, 'volt': 0.8643, 'depth': 1.004, 'time': 6, 'pitch': -8.06, 'roll': -23.78, 'pres': 177}
{'lipoC2': 7.44, 'lipoC3S1': 3.82, 'temp': 30.13, 'lipoC3S3': 11.54, 'lipoC3S2': 7.65, 'rot1': 0, 'rot0': 0, 'rot3': 0, 'rot2': 0, 'state': 'normal', 'yaw': 3.0, 'datetime': '2018-10-10 01:18:15.212239', 'mgs': 0, 'volt': 0.8643, 'depth': 1.004, 'time': 6, 'pitch': -8.14, 'roll': -24.01, 'pres': 177}
{'lipoC2': 7.44, 'lipoC3S1': 3.82, 'temp': 30.13, 'lipoC3S3': 11.54, 'lipoC3S2': 7.65, 'rot1': 0, 'rot0': 0, 'rot3': 0, 'rot2': 0, 'state': 'normal', 'yaw': 2.8, 'datetime': '2018-10-10 01:18:15.222274', 'mgs': 0, 'volt': 0.8643, 'depth': 1.004, 'time': 6, 'pitch': -8.24, 'roll': -24.45, 'pres': 177}
{'lipoC2': 7.44, 'lipoC3S1': 3.82, 'temp': 30.13, 'lipoC3S3': 11.54, 'lipoC3S2': 7.65, 'rot1': 0, 'rot0': 0, 'rot3': 0, 'rot2': 0, 'state': 'normal', 'yaw': 2.33, 'datetime': '2018-10-10 01:18:15.231755', 'mgs': 0, 'volt': 0.8643, 'depth': 1.004, 'time': 6, 'pitch': -8.37, 'roll': -24.86, 'pres': 177}
{'lipoC2': 7.44, 'lipoC3S1': 3.82, 'temp': 30.13, 'lipoC3S3': 11.54, 'lipoC3S2': 7.65, 'rot1': 0, 'rot0': 0, 'rot3': 0, 'rot2': 0, 'state': 'normal', 'yaw': 2.07, 'datetime': '2018-10-10 01:18:15.241241', 'mgs': 0, 'volt': 0.8594, 'depth': 0.928, 'time': 6, 'pitch': -8.66, 'roll': -25.0, 'pres': 176}
{'lipoC2': 7.44, 'lipoC3S1': 3.82, 'temp': 30.13, 'lipoC3S3': 11.54, 'lipoC3S2': 7.65, 'rot1': 0, 'rot0': 0, 'rot3': 0, 'rot2': 0, 'state': 'normal', 'yaw': 2.16, 'datetime': '2018-10-10 01:18:15.250895', 'mgs': 0, 'volt': 0.8594, 'depth': 0.928, 'time': 6, 'pitch': -9.11, 'roll': -25.02, 'pres': 176}
{'lipoC2': 7.44, 'lipoC3S1': 3.82, 'temp': 30.06, 'lipoC3S3': 11.54, 'lipoC3S2': 7.65, 'rot1': 0, 'rot0': 0, 'rot3': 0, 'rot2': 0, 'state': 'normal', 'yaw': 2.44, 'datetime': '2018-10-10 01:18:15.260480', 'mgs': 0, 'volt': 0.8594, 'depth': 0.928, 'time': 7, 'pitch': -9.42, 'roll': -25.06, 'pres': 176}
{'lipoC2': 7.44, 'lipoC3S1': 3.82, 'temp': 30.06, 'lipoC3S3': 11.54, 'lipoC3S2': 7.65, 'rot1': 0, 'rot0': 0, 'rot3': 0, 'rot2': 0, 'state': 'normal', 'yaw': 2.56, 'datetime': '2018-10-10 01:18:15.270004', 'mgs': 0, 'volt': 0.8594, 'depth': 0.928, 'time': 7, 'pitch': -9.65, 'roll': -25.06, 'pres': 176}
{'lipoC2': 7.44, 'lipoC3S1': 3.82, 'temp': 30.06, 'lipoC3S3': 11.54, 'lipoC3S2': 7.65, 'rot1': 0, 'rot0': 0, 'rot3': 0, 'rot2': 0, 'state': 'normal', 'yaw': 2.45, 'datetime': '2018-10-10 01:18:15.279580', 'mgs': 0, 'volt': 0.8594, 'depth': 0.928, 'time': 7, 'pitch': -9.78, 'roll': -24.91, 'pres': 176}
{'lipoC2': 7.44, 'lipoC3S1': 3.82, 'temp': 30.13, 'lipoC3S3': 11.54, 'lipoC3S2': 7.65, 'rot1': 0, 'rot0': 0, 'rot3': 0, 'rot2': 0, 'state': 'normal', 'yaw': 2.32, 'datetime': '2018-10-10 01:18:15.289084', 'mgs': 0, 'volt': 0.8594, 'depth': 0.928, 'time': 7, 'pitch': -9.71, 'roll': -24.78, 'pres': 176}
{'lipoC2': 7.44, 'lipoC3S1': 3.82, 'temp': 30.13, 'lipoC3S3': 11.54, 'lipoC3S2': 7.65, 'rot1': 0, 'rot0': 0, 'rot3': 0, 'rot2': 0, 'state': 'normal', 'yaw': 2.29, 'datetime': '2018-10-10 01:18:15.298552', 'mgs': 0, 'volt': 0.8643, 'depth': 1.004, 'time': 7, 'pitch': -9.65, 'roll': -24.78, 'pres': 177}
{'lipoC2': 7.44, 'lipoC3S1': 3.82, 'temp': 30.13, 'lipoC3S3': 11.54, 'lipoC3S2': 7.65, 'rot1': 0, 'rot0': 0, 'rot3': 0, 'rot2': 0, 'state': 'normal', 'yaw': 2.3, 'datetime': '2018-10-10 01:18:15.308009', 'mgs': 0, 'volt': 0.8594, 'depth': 0.928, 'time': 7, 'pitch': -9.57, 'roll': -24.79, 'pres': 176}
{'lipoC2': 7.44, 'lipoC3S1': 3.82, 'temp': 30.13, 'lipoC3S3': 11.54, 'lipoC3S2': 7.65, 'rot1': 0, 'rot0': 0, 'rot3': 0, 'rot2': 0, 'state': 'normal', 'yaw': 2.31, 'datetime': '2018-10-10 01:18:15.317477', 'mgs': 0, 'volt': 0.8643, 'depth': 1.004, 'time': 7, 'pitch': -9.75, 'roll': -25.0, 'pres': 177}
{'lipoC2': 7.44, 'lipoC3S1': 3.82, 'temp': 30.13, 'lipoC3S3': 11.54, 'lipoC3S2': 7.65, 'rot1': 0, 'rot0': 0, 'rot3': 0, 'rot2': 0, 'state': 'normal', 'yaw': 2.23, 'datetime': '2018-10-10 01:18:15.326957', 'mgs': 0, 'volt': 0.8643, 'depth': 1.004, 'time': 7, 'pitch': -10.0, 'roll': -25.33, 'pres': 177}
{'lipoC2': 7.44, 'lipoC3S1': 3.82, 'temp': 30.13, 'lipoC3S3': 11.54, 'lipoC3S2': 7.65, 'rot1': 0, 'rot0': 0, 'rot3': 0, 'rot2': 0, 'state': 'normal', 'yaw': 2.21, 'datetime': '2018-10-10 01:18:15.336428', 'mgs': 0, 'volt': 0.8643, 'depth': 1.004, 'time': 7, 'pitch': -10.09, 'roll': -25.41, 'pres': 177}
{'lipoC2': 7.44, 'lipoC3S1': 3.82, 'temp': 30.13, 'lipoC3S3': 11.54, 'lipoC3S2': 7.65, 'rot1': 0, 'rot0': 0, 'rot3': 0, 'rot2': 0, 'state': 'normal', 'yaw': 2.44, 'datetime': '2018-10-10 01:18:15.345946', 'mgs': 0, 'volt': 0.8594, 'depth': 0.928, 'time': 7, 'pitch': -9.93, 'roll': -24.84, 'pres': 176}
{'lipoC2': 7.44, 'lipoC3S1': 3.82, 'temp': 30.06, 'lipoC3S3': 11.54, 'lipoC3S2': 7.65, 'rot1': 0, 'rot0': 0, 'rot3': 0, 'rot2': 0, 'state': 'normal', 'yaw': 2.89, 'datetime': '2018-10-10 01:18:15.355477', 'mgs': 0, 'volt': 0.8594, 'depth': 0.928, 'time': 8, 'pitch': -10.04, 'roll': -23.85, 'pres': 176}
{'lipoC2': 7.44, 'lipoC3S1': 3.82, 'temp': 30.06, 'lipoC3S3': 11.54, 'lipoC3S2': 7.65, 'rot1': 0, 'rot0': 0, 'rot3': 0, 'rot2': 0, 'state': 'normal', 'yaw': 3.37, 'datetime': '2018-10-10 01:18:15.364984', 'mgs': 0, 'volt': 0.8643, 'depth': 1.004, 'time': 8, 'pitch': -10.41, 'roll': -23.02, 'pres': 177}
{'lipoC2': 7.44, 'lipoC3S1': 3.82, 'temp': 29.94, 'lipoC3S3': 11.54, 'lipoC3S2': 7.65, 'rot1': 0, 'rot0': 0, 'rot3': 0, 'rot2': 0, 'state': 'normal', 'yaw': 3.56, 'datetime': '2018-10-10 01:18:15.374584', 'mgs': 0, 'volt': 0.8643, 'depth': 1.004, 'time': 8, 'pitch': -10.72, 'roll': -23.01, 'pres': 177}
{'lipoC2': 7.44, 'lipoC3S1': 3.82, 'temp': 29.94, 'lipoC3S3': 11.54, 'lipoC3S2': 7.65, 'rot1': 0, 'rot0': 0, 'rot3': 0, 'rot2': 0, 'state': 'normal', 'yaw': 3.06, 'datetime': '2018-10-10 01:18:15.384070', 'mgs': 0, 'volt': 0.8643, 'depth': 1.004, 'time': 8, 'pitch': -11.02, 'roll': -23.48, 'pres': 177}
{'lipoC2': 7.44, 'lipoC3S1': 3.82, 'temp': 30.06, 'lipoC3S3': 11.54, 'lipoC3S2': 7.64, 'rot1': 0, 'rot0': 0, 'rot3': 0, 'rot2': 0, 'state': 'normal', 'yaw': 2.35, 'datetime': '2018-10-10 01:18:15.393606', 'mgs': 0, 'volt': 0.8643, 'depth': 1.004, 'time': 8, 'pitch': -10.99, 'roll': -23.94, 'pres': 177}
{'lipoC2': 7.44, 'lipoC3S1': 3.82, 'temp': 30.06, 'lipoC3S3': 11.54, 'lipoC3S2': 7.65, 'rot1': 0, 'rot0': 0, 'rot3': 0, 'rot2': 0, 'state': 'normal', 'yaw': 2.17, 'datetime': '2018-10-10 01:18:15.463191', 'mgs': 0, 'volt': 0.8643, 'depth': 1.004, 'time': 8, 'pitch': -10.82, 'roll': -24.61, 'pres': 177}
{'lipoC2': 7.44, 'lipoC3S1': 3.82, 'temp': 30.06, 'lipoC3S3': 11.54, 'lipoC3S2': 7.65, 'rot1': 0, 'rot0': 0, 'rot3': 0, 'rot2': 0, 'state': 'normal', 'yaw': 2.35, 'datetime': '2018-10-10 01:18:15.566390', 'mgs': 0, 'volt': 0.8643, 'depth': 1.004, 'time': 8, 'pitch': -10.74, 'roll': -24.5, 'pres': 177}
{'lipoC2': 7.44, 'lipoC3S1': 3.82, 'temp': 30.0, 'lipoC3S3': 11.54, 'lipoC3S2': 7.65, 'rot1': 0, 'rot0': 0, 'rot3': 0, 'rot2': 0, 'state': 'normal', 'yaw': 2.32, 'datetime': '2018-10-10 01:18:15.670890', 'mgs': 0, 'volt': 0.8643, 'depth': 1.004, 'time': 8, 'pitch': -10.7, 'roll': -23.17, 'pres': 177}
{'lipoC2': 7.44, 'lipoC3S1': 3.82, 'temp': 30.0, 'lipoC3S3': 11.54, 'lipoC3S2': 7.65, 'rot1': 0, 'rot0': 0, 'rot3': 0, 'rot2': 0, 'state': 'normal', 'yaw': 2.64, 'datetime': '2018-10-10 01:18:15.774082', 'mgs': 0, 'volt': 0.8594, 'depth': 0.928, 'time': 8, 'pitch': -10.5, 'roll': -21.76, 'pres': 176}
{'lipoC2': 7.44, 'lipoC3S1': 3.82, 'temp': 30.0, 'lipoC3S3': 11.54, 'lipoC3S2': 7.65, 'rot1': 0, 'rot0': 0, 'rot3': 0, 'rot2': 0, 'state': 'normal', 'yaw': 3.69, 'datetime': '2018-10-10 01:18:15.877332', 'mgs': 0, 'volt': 0.8643, 'depth': 1.004, 'time': 9, 'pitch': -11.07, 'roll': -22.08, 'pres': 177}
{'lipoC2': 7.44, 'lipoC3S1': 3.82, 'temp': 30.0, 'lipoC3S3': 11.54, 'lipoC3S2': 7.65, 'rot1': 0, 'rot0': 0, 'rot3': 0, 'rot2': 0, 'state': 'normal', 'yaw': 4.51, 'datetime': '2018-10-10 01:18:15.981824', 'mgs': 0, 'volt': 0.8691, 'depth': 1.08, 'time': 9, 'pitch': -12.11, 'roll': -23.02, 'pres': 178}
{'lipoC2': 7.44, 'lipoC3S1': 3.82, 'temp': 30.06, 'lipoC3S3': 11.54, 'lipoC3S2': 7.65, 'rot1': 0, 'rot0': 0, 'rot3': 0, 'rot2': 0, 'state': 'normal', 'yaw': 3.65, 'datetime': '2018-10-10 01:18:16.085041', 'mgs': 0, 'volt': 0.8691, 'depth': 1.08, 'time': 9, 'pitch': -11.14, 'roll': -23.33, 'pres': 178}
{'lipoC2': 7.44, 'lipoC3S1': 3.82, 'temp': 30.06, 'lipoC3S3': 11.54, 'lipoC3S2': 7.65, 'rot1': 0, 'rot0': 0, 'rot3': 0, 'rot2': 0, 'state': 'normal', 'yaw': 2.09, 'datetime': '2018-10-10 01:18:16.194479', 'mgs': 0, 'volt': 0.8643, 'depth': 1.004, 'time': 9, 'pitch': -9.24, 'roll': -23.63, 'pres': 177}
{'lipoC2': 7.44, 'lipoC3S1': 3.82, 'temp': 30.06, 'lipoC3S3': 11.54, 'lipoC3S2': 7.65, 'rot1': 0, 'rot0': 0, 'rot3': 0, 'rot2': 0, 'state': 'normal', 'yaw': 0.98, 'datetime': '2018-10-10 01:18:16.299694', 'mgs': 0, 'volt': 0.8691, 'depth': 1.08, 'time': 9, 'pitch': -8.63, 'roll': -23.87, 'pres': 178}
{'lipoC2': 7.44, 'lipoC3S1': 3.82, 'temp': 30.06, 'lipoC3S3': 11.54, 'lipoC3S2': 7.65, 'rot1': 0, 'rot0': 0, 'rot3': 0, 'rot2': 0, 'state': 'normal', 'yaw': 0.96, 'datetime': '2018-10-10 01:18:16.402910', 'mgs': 0, 'volt': 0.8691, 'depth': 1.08, 'time': 9, 'pitch': -8.97, 'roll': -23.42, 'pres': 178}
{'lipoC2': 7.44, 'lipoC3S1': 3.82, 'temp': 30.06, 'lipoC3S3': 11.54, 'lipoC3S2': 7.65, 'rot1': 0, 'rot0': 0, 'rot3': 0, 'rot2': 0, 'state': 'normal', 'yaw': 1.65, 'datetime': '2018-10-10 01:18:16.506103', 'mgs': 0, 'volt': 0.8691, 'depth': 1.08, 'time': 9, 'pitch': -9.2, 'roll': -23.01, 'pres': 178}
{'lipoC2': 7.44, 'lipoC3S1': 3.82, 'temp': 30.06, 'lipoC3S3': 11.54, 'lipoC3S2': 7.65, 'rot1': 0, 'rot0': 0, 'rot3': 0, 'rot2': 0, 'state': 'normal', 'yaw': 2.4, 'datetime': '2018-10-10 01:18:16.609464', 'mgs': 0, 'volt': 0.8643, 'depth': 1.004, 'time': 9, 'pitch': -9.59, 'roll': -23.0, 'pres': 177}
{'lipoC2': 7.44, 'lipoC3S1': 3.82, 'temp': 30.06, 'lipoC3S3': 11.54, 'lipoC3S2': 7.65, 'rot1': 0, 'rot0': 0, 'rot3': 0, 'rot2': 0, 'state': 'normal', 'yaw': 3.02, 'datetime': '2018-10-10 01:18:16.712767', 'mgs': 0, 'volt': 0.8691, 'depth': 1.08, 'time': 9, 'pitch': -9.86, 'roll': -23.62, 'pres': 178}
{'lipoC2': 7.44, 'lipoC3S1': 3.82, 'temp': 30.13, 'lipoC3S3': 11.54, 'lipoC3S2': 7.65, 'rot1': 0, 'rot0': 0, 'rot3': 0, 'rot2': 0, 'state': 'normal', 'yaw': 3.17, 'datetime': '2018-10-10 01:18:16.815999', 'mgs': 0, 'volt': 0.8691, 'depth': 1.08, 'time': 9, 'pitch': -9.68, 'roll': -24.45, 'pres': 178}
{'lipoC2': 7.44, 'lipoC3S1': 3.82, 'temp': 30.13, 'lipoC3S3': 11.54, 'lipoC3S2': 7.65, 'rot1': 0, 'rot0': 0, 'rot3': 0, 'rot2': 0, 'state': 'normal', 'yaw': 3.02, 'datetime': '2018-10-10 01:18:16.919321', 'mgs': 0, 'volt': 0.8691, 'depth': 1.08, 'time': 10, 'pitch': -8.86, 'roll': -25.1, 'pres': 178}
{'lipoC2': 7.44, 'lipoC3S1': 3.82, 'temp': 30.13, 'lipoC3S3': 11.54, 'lipoC3S2': 7.65, 'rot1': 0, 'rot0': 0, 'rot3': 0, 'rot2': 0, 'state': 'normal', 'yaw': 2.7, 'datetime': '2018-10-10 01:18:17.022920', 'mgs': 0, 'volt': 0.8691, 'depth': 1.08, 'time': 10, 'pitch': -7.85, 'roll': -25.13, 'pres': 178}
{'lipoC2': 7.44, 'lipoC3S1': 3.82, 'temp': 30.13, 'lipoC3S3': 11.54, 'lipoC3S2': 7.65, 'rot1': 0, 'rot0': 0, 'rot3': 0, 'rot2': 0, 'state': 'normal', 'yaw': 2.47, 'datetime': '2018-10-10 01:18:17.127018', 'mgs': 0, 'volt': 0.8691, 'depth': 1.08, 'time': 10, 'pitch': -7.18, 'roll': -24.37, 'pres': 178}
{'lipoC2': 7.44, 'lipoC3S1': 3.82, 'temp': 30.13, 'lipoC3S3': 11.54, 'lipoC3S2': 7.65, 'rot1': 0, 'rot0': 0, 'rot3': 0, 'rot2': 0, 'state': 'normal', 'yaw': 2.84, 'datetime': '2018-10-10 01:18:17.229690', 'mgs': 0, 'volt': 0.8691, 'depth': 1.08, 'time': 10, 'pitch': -7.32, 'roll': -23.7, 'pres': 178}
{'lipoC2': 7.44, 'lipoC3S1': 3.82, 'temp': 30.13, 'lipoC3S3': 11.54, 'lipoC3S2': 7.65, 'rot1': 0, 'rot0': 0, 'rot3': 0, 'rot2': 0, 'state': 'normal', 'yaw': 3.85, 'datetime': '2018-10-10 01:18:17.333924', 'mgs': 0, 'volt': 0.8691, 'depth': 1.08, 'time': 10, 'pitch': -8.02, 'roll': -23.83, 'pres': 178}
{'lipoC2': 7.44, 'lipoC3S1': 3.82, 'temp': 30.13, 'lipoC3S3': 11.54, 'lipoC3S2': 7.65, 'rot1': 0, 'rot0': 0, 'rot3': 0, 'rot2': 0, 'state': 'normal', 'yaw': 4.98, 'datetime': '2018-10-10 01:18:17.437271', 'mgs': 0, 'volt': 0.874, 'depth': 1.157, 'time': 10, 'pitch': -8.69, 'roll': -24.85, 'pres': 179}
{'lipoC2': 7.44, 'lipoC3S1': 3.82, 'temp': 30.13, 'lipoC3S3': 11.54, 'lipoC3S2': 7.65, 'rot1': 0, 'rot0': 0, 'rot3': 0, 'rot2': 0, 'state': 'normal', 'yaw': 5.02, 'datetime': '2018-10-10 01:18:17.541895', 'mgs': 0, 'volt': 0.874, 'depth': 1.157, 'time': 10, 'pitch': -8.47, 'roll': -26.11, 'pres': 179}
{'lipoC2': 7.44, 'lipoC3S1': 3.82, 'temp': 30.13, 'lipoC3S3': 11.54, 'lipoC3S2': 7.65, 'rot1': 0, 'rot0': 0, 'rot3': 0, 'rot2': 0, 'state': 'normal', 'yaw': 4.31, 'datetime': '2018-10-10 01:18:17.645524', 'mgs': 0, 'volt': 0.8691, 'depth': 1.08, 'time': 10, 'pitch': -7.59, 'roll': -27.22, 'pres': 178}
{'lipoC2': 7.44, 'lipoC3S1': 3.82, 'temp': 30.13, 'lipoC3S3': 11.54, 'lipoC3S2': 7.65, 'rot1': 0, 'rot0': 0, 'rot3': 0, 'rot2': 0, 'state': 'normal', 'yaw': 3.7, 'datetime': '2018-10-10 01:18:17.748991', 'mgs': 0, 'volt': 0.8691, 'depth': 1.08, 'time': 10, 'pitch': -7.24, 'roll': -27.41, 'pres': 178}
{'lipoC2': 7.44, 'lipoC3S1': 3.82, 'temp': 30.13, 'lipoC3S3': 11.54, 'lipoC3S2': 7.65, 'rot1': 0, 'rot0': 0, 'rot3': 0, 'rot2': 0, 'state': 'normal', 'yaw': 3.56, 'datetime': '2018-10-10 01:18:17.853479', 'mgs': 0, 'volt': 0.8691, 'depth': 1.08, 'time': 10, 'pitch': -7.45, 'roll': -26.85, 'pres': 178}
{'lipoC2': 7.44, 'lipoC3S1': 3.82, 'temp': 30.13, 'lipoC3S3': 11.54, 'lipoC3S2': 7.65, 'rot1': 0, 'rot0': 0, 'rot3': 0, 'rot2': 0, 'state': 'normal', 'yaw': 4.1, 'datetime': '2018-10-10 01:18:17.956809', 'mgs': 0, 'volt': 0.8691, 'depth': 1.08, 'time': 11, 'pitch': -8.02, 'roll': -26.18, 'pres': 178}
{'lipoC2': 7.44, 'lipoC3S1': 3.82, 'temp': 30.13, 'lipoC3S3': 11.54, 'lipoC3S2': 7.65, 'rot1': 0, 'rot0': 0, 'rot3': 0, 'rot2': 0, 'state': 'normal', 'yaw': 4.84, 'datetime': '2018-10-10 01:18:18.060063', 'mgs': 0, 'volt': 0.8691, 'depth': 1.08, 'time': 11, 'pitch': -8.59, 'roll': -26.24, 'pres': 178}
{'lipoC2': 7.44, 'lipoC3S1': 3.82, 'temp': 30.13, 'lipoC3S3': 11.54, 'lipoC3S2': 7.65, 'rot1': 0, 'rot0': 0, 'rot3': 0, 'rot2': 0, 'state': 'normal', 'yaw': 5.08, 'datetime': '2018-10-10 01:18:18.163504', 'mgs': 0, 'volt': 0.8691, 'depth': 1.08, 'time': 11, 'pitch': -8.92, 'roll': -26.75, 'pres': 178}
{'lipoC2': 7.44, 'lipoC3S1': 3.82, 'temp': 30.13, 'lipoC3S3': 11.54, 'lipoC3S2': 7.65, 'rot1': 0, 'rot0': 0, 'rot3': 0, 'rot2': 0, 'state': 'normal', 'yaw': 4.51, 'datetime': '2018-10-10 01:18:18.267013', 'mgs': 0, 'volt': 0.8691, 'depth': 1.08, 'time': 11, 'pitch': -8.51, 'roll': -27.56, 'pres': 178}
{'lipoC2': 7.44, 'lipoC3S1': 3.82, 'temp': 30.13, 'lipoC3S3': 11.54, 'lipoC3S2': 7.65, 'rot1': 0, 'rot0': 0, 'rot3': 0, 'rot2': 0, 'state': 'normal', 'yaw': 3.83, 'datetime': '2018-10-10 01:18:18.370373', 'mgs': 0, 'volt': 0.8691, 'depth': 1.08, 'time': 11, 'pitch': -7.98, 'roll': -28.26, 'pres': 178}
{'lipoC2': 7.44, 'lipoC3S1': 3.82, 'temp': 30.13, 'lipoC3S3': 11.54, 'lipoC3S2': 7.65, 'rot1': 0, 'rot0': 0, 'rot3': 0, 'rot2': 0, 'state': 'normal', 'yaw': 3.48, 'datetime': '2018-10-10 01:18:18.473687', 'mgs': 0, 'volt': 0.8691, 'depth': 1.08, 'time': 11, 'pitch': -7.81, 'roll': -28.42, 'pres': 178}
{'lipoC2': 7.44, 'lipoC3S1': 3.82, 'temp': 30.13, 'lipoC3S3': 11.54, 'lipoC3S2': 7.65, 'rot1': 0, 'rot0': 0, 'rot3': 0, 'rot2': 0, 'state': 'normal', 'yaw': 3.58, 'datetime': '2018-10-10 01:18:18.577311', 'mgs': 0, 'volt': 0.8691, 'depth': 1.08, 'time': 11, 'pitch': -7.97, 'roll': -27.82, 'pres': 178}
{'lipoC2': 7.44, 'lipoC3S1': 3.82, 'temp': 30.13, 'lipoC3S3': 11.54, 'lipoC3S2': 7.65, 'rot1': 0, 'rot0': 0, 'rot3': 0, 'rot2': 0, 'state': 'normal', 'yaw': 3.69, 'datetime': '2018-10-10 01:18:18.680658', 'mgs': 1, 'volt': 0.8691, 'depth': 1.08, 'time': 11, 'pitch': -7.95, 'roll': -26.85, 'pres': 178}
{'lipoC2': 7.44, 'lipoC3S1': 3.82, 'temp': 30.19, 'lipoC3S3': 11.54, 'lipoC3S2': 7.65, 'rot1': 0, 'rot0': 0, 'rot3': 0, 'rot2': 0, 'state': 'normal', 'yaw': 0.0, 'datetime': '2018-10-10 01:18:23.210349', 'mgs': 1, 'volt': 0.8643, 'depth': 1.004, 'time': 1, 'pitch': 4.96, 'roll': -7.02, 'pres': 177}
{'lipoC2': 7.46, 'lipoC3S1': 3.82, 'temp': 30.19, 'lipoC3S3': 11.54, 'lipoC3S2': 7.65, 'rot1': 0, 'rot0': 0, 'rot3': 0, 'rot2': 0, 'state': 'normal', 'yaw': 0.37, 'datetime': '2018-10-10 01:18:26.263400', 'mgs': 0, 'volt': 0.8643, 'depth': 1.004, 'time': 1, 'pitch': 6.25, 'roll': -5.11, 'pres': 177}
{'lipoC2': 7.44, 'lipoC3S1': 3.82, 'temp': 30.13, 'lipoC3S3': 11.54, 'lipoC3S2': 7.64, 'rot1': 0, 'rot0': 0, 'rot3': 0, 'rot2': 0, 'state': 'normal', 'yaw': 0.38, 'datetime': '2018-10-10 01:18:26.300120', 'mgs': 1, 'volt': 0.8643, 'depth': 1.004, 'time': 1, 'pitch': 6.96, 'roll': -4.01, 'pres': 177}
{'lipoC2': 7.44, 'lipoC3S1': 3.82, 'temp': 30.13, 'lipoC3S3': 11.54, 'lipoC3S2': 7.65, 'rot1': 0, 'rot0': 0, 'rot3': 0, 'rot2': 0, 'state': 'normal', 'yaw': 0.23, 'datetime': '2018-10-10 01:18:26.321402', 'mgs': 1, 'volt': 0.8643, 'depth': 1.004, 'time': 1, 'pitch': 7.67, 'roll': -3.42, 'pres': 177}
{'lipoC2': 7.44, 'lipoC3S1': 3.82, 'temp': 30.13, 'lipoC3S3': 11.54, 'lipoC3S2': 7.65, 'rot1': 0, 'rot0': 0, 'rot3': 0, 'rot2': 0, 'state': 'normal', 'yaw': 0.07, 'datetime': '2018-10-10 01:18:26.341112', 'mgs': 1, 'volt': 0.8643, 'depth': 1.004, 'time': 1, 'pitch': 7.88, 'roll': -3.52, 'pres': 177}
{'lipoC2': 7.44, 'lipoC3S1': 3.82, 'temp': 30.19, 'lipoC3S3': 11.54, 'lipoC3S2': 7.65, 'rot1': 0, 'rot0': 0, 'rot3': 0, 'rot2': 0, 'state': 'normal', 'yaw': -0.33, 'datetime': '2018-10-10 01:18:26.360119', 'mgs': 1, 'volt': 0.8643, 'depth': 1.004, 'time': 1, 'pitch': 7.77, 'roll': -3.63, 'pres': 177}
{'lipoC2': 7.44, 'lipoC3S1': 3.82, 'temp': 30.19, 'lipoC3S3': 11.54, 'lipoC3S2': 7.65, 'rot1': 0, 'rot0': 0, 'rot3': 0, 'rot2': 0, 'state': 'normal', 'yaw': -0.74, 'datetime': '2018-10-10 01:18:26.373355', 'mgs': 1, 'volt': 0.8643, 'depth': 1.004, 'time': 1, 'pitch': 7.84, 'roll': -3.31, 'pres': 177}
{'lipoC2': 7.44, 'lipoC3S1': 3.82, 'temp': 30.13, 'lipoC3S3': 11.54, 'lipoC3S2': 7.65, 'rot1': 0, 'rot0': 0, 'rot3': 0, 'rot2': 0, 'state': 'normal', 'yaw': -0.94, 'datetime': '2018-10-10 01:18:26.392355', 'mgs': 1, 'volt': 0.8643, 'depth': 1.004, 'time': 1, 'pitch': 8.08, 'roll': -2.85, 'pres': 177}
{'lipoC2': 7.44, 'lipoC3S1': 3.82, 'temp': 30.13, 'lipoC3S3': 11.54, 'lipoC3S2': 7.65, 'rot1': 0, 'rot0': 0, 'rot3': 0, 'rot2': 0, 'state': 'normal', 'yaw': -1.14, 'datetime': '2018-10-10 01:18:26.411342', 'mgs': 1, 'volt': 0.8643, 'depth': 1.004, 'time': 2, 'pitch': 8.35, 'roll': -2.42, 'pres': 177}
{'lipoC2': 7.46, 'lipoC3S1': 3.82, 'temp': 30.19, 'lipoC3S3': 11.54, 'lipoC3S2': 7.65, 'rot1': 0, 'rot0': 0, 'rot3': 0, 'rot2': 0, 'state': 'normal', 'yaw': -1.47, 'datetime': '2018-10-10 01:18:26.425289', 'mgs': 1, 'volt': 0.8643, 'depth': 1.004, 'time': 2, 'pitch': 8.3, 'roll': -2.27, 'pres': 177}
{'lipoC2': 7.44, 'lipoC3S1': 3.82, 'temp': 30.19, 'lipoC3S3': 11.54, 'lipoC3S2': 7.65, 'rot1': 0, 'rot0': 0, 'rot3': 0, 'rot2': 0, 'state': 'normal', 'yaw': -1.79, 'datetime': '2018-10-10 01:18:26.443618', 'mgs': 0, 'volt': 0.8643, 'depth': 1.004, 'time': 2, 'pitch': 8.16, 'roll': -2.51, 'pres': 177}
{'lipoC2': 7.44, 'lipoC3S1': 3.82, 'temp': 30.19, 'lipoC3S3': 11.54, 'lipoC3S2': 7.65, 'rot1': 0, 'rot0': 0, 'rot3': 0, 'rot2': 0, 'state': 'normal', 'yaw': -1.94, 'datetime': '2018-10-10 01:18:26.462711', 'mgs': 0, 'volt': 0.8691, 'depth': 1.08, 'time': 2, 'pitch': 7.95, 'roll': -2.8, 'pres': 178}
{'lipoC2': 7.44, 'lipoC3S1': 3.82, 'temp': 30.13, 'lipoC3S3': 11.54, 'lipoC3S2': 7.65, 'rot1': 0, 'rot0': 0, 'rot3': 0, 'rot2': 0, 'state': 'normal', 'yaw': -1.92, 'datetime': '2018-10-10 01:18:26.475991', 'mgs': 0, 'volt': 0.8643, 'depth': 1.004, 'time': 2, 'pitch': 7.66, 'roll': -2.9, 'pres': 177}
{'lipoC2': 7.44, 'lipoC3S1': 3.82, 'temp': 30.13, 'lipoC3S3': 11.54, 'lipoC3S2': 7.65, 'rot1': 0, 'rot0': 0, 'rot3': 0, 'rot2': 0, 'state': 'normal', 'yaw': -1.89, 'datetime': '2018-10-10 01:18:26.495090', 'mgs': 0, 'volt': 0.8691, 'depth': 1.08, 'time': 2, 'pitch': 7.71, 'roll': -2.79, 'pres': 178}
{'lipoC2': 7.44, 'lipoC3S1': 3.82, 'temp': 30.06, 'lipoC3S3': 11.54, 'lipoC3S2': 7.65, 'rot1': 0, 'rot0': 0, 'rot3': 0, 'rot2': 0, 'state': 'normal', 'yaw': -1.9, 'datetime': '2018-10-10 01:18:26.514155', 'mgs': 0, 'volt': 0.8691, 'depth': 1.08, 'time': 2, 'pitch': 8.02, 'roll': -2.52, 'pres': 178}
{'lipoC2': 7.44, 'lipoC3S1': 3.82, 'temp': 30.06, 'lipoC3S3': 11.54, 'lipoC3S2': 7.65, 'rot1': 0, 'rot0': 0, 'rot3': 0, 'rot2': 0, 'state': 'normal', 'yaw': -1.96, 'datetime': '2018-10-10 01:18:26.527905', 'mgs': 0, 'volt': 0.8691, 'depth': 1.08, 'time': 2, 'pitch': 8.66, 'roll': -2.15, 'pres': 178}
{'lipoC2': 7.44, 'lipoC3S1': 3.82, 'temp': 30.13, 'lipoC3S3': 11.54, 'lipoC3S2': 7.65, 'rot1': 0, 'rot0': 0, 'rot3': 0, 'rot2': 0, 'state': 'normal', 'yaw': -2.2, 'datetime': '2018-10-10 01:18:26.546243', 'mgs': 0, 'volt': 0.8691, 'depth': 1.08, 'time': 2, 'pitch': 9.54, 'roll': -1.74, 'pres': 178}
{'lipoC2': 7.44, 'lipoC3S1': 3.82, 'temp': 30.13, 'lipoC3S3': 11.54, 'lipoC3S2': 7.65, 'rot1': 0, 'rot0': 0, 'rot3': 0, 'rot2': 0, 'state': 'normal', 'yaw': -2.48, 'datetime': '2018-10-10 01:18:26.565320', 'mgs': 0, 'volt': 0.874, 'depth': 1.157, 'time': 3, 'pitch': 10.44, 'roll': -1.38, 'pres': 179}
{'lipoC2': 7.44, 'lipoC3S1': 3.82, 'temp': 30.13, 'lipoC3S3': 11.54, 'lipoC3S2': 7.65, 'rot1': 0, 'rot0': 0, 'rot3': 0, 'rot2': 0, 'state': 'normal', 'yaw': -2.57, 'datetime': '2018-10-10 01:18:26.578468', 'mgs': 0, 'volt': 0.874, 'depth': 1.157, 'time': 3, 'pitch': 11.08, 'roll': -1.12, 'pres': 179}
{'lipoC2': 7.44, 'lipoC3S1': 3.82, 'temp': 30.19, 'lipoC3S3': 11.54, 'lipoC3S2': 7.65, 'rot1': 0, 'rot0': 0, 'rot3': 0, 'rot2': 0, 'state': 'normal', 'yaw': -2.58, 'datetime': '2018-10-10 01:18:26.597803', 'mgs': 0, 'volt': 0.874, 'depth': 1.157, 'time': 3, 'pitch': 11.32, 'roll': -1.09, 'pres': 179}
{'lipoC2': 7.44, 'lipoC3S1': 3.82, 'temp': 30.19, 'lipoC3S3': 11.54, 'lipoC3S2': 7.65, 'rot1': 0, 'rot0': 0, 'rot3': 0, 'rot2': 0, 'state': 'normal', 'yaw': -2.57, 'datetime': '2018-10-10 01:18:26.616935', 'mgs': 0, 'volt': 0.874, 'depth': 1.157, 'time': 3, 'pitch': 11.18, 'roll': -1.27, 'pres': 179}
{'lipoC2': 7.46, 'lipoC3S1': 3.82, 'temp': 30.19, 'lipoC3S3': 11.54, 'lipoC3S2': 7.65, 'rot1': 0, 'rot0': 0, 'rot3': 0, 'rot2': 0, 'state': 'normal', 'yaw': -2.77, 'datetime': '2018-10-10 01:18:26.629690', 'mgs': 0, 'volt': 0.874, 'depth': 1.157, 'time': 3, 'pitch': 10.68, 'roll': -1.64, 'pres': 179}
{'lipoC2': 7.44, 'lipoC3S1': 3.82, 'temp': 30.19, 'lipoC3S3': 11.54, 'lipoC3S2': 7.65, 'rot1': 0, 'rot0': 0, 'rot3': 0, 'rot2': 0, 'state': 'normal', 'yaw': -2.87, 'datetime': '2018-10-10 01:18:26.649280', 'mgs': 0, 'volt': 0.874, 'depth': 1.157, 'time': 3, 'pitch': 10.07, 'roll': -2.19, 'pres': 179}
{'lipoC2': 7.44, 'lipoC3S1': 3.82, 'temp': 30.19, 'lipoC3S3': 11.54, 'lipoC3S2': 7.65, 'rot1': 0, 'rot0': 0, 'rot3': 0, 'rot2': 0, 'state': 'normal', 'yaw': -2.64, 'datetime': '2018-10-10 01:18:26.668416', 'mgs': 0, 'volt': 0.8691, 'depth': 1.08, 'time': 3, 'pitch': 8.91, 'roll': -3.17, 'pres': 178}
{'lipoC2': 7.46, 'lipoC3S1': 3.82, 'temp': 30.19, 'lipoC3S3': 11.54, 'lipoC3S2': 7.65, 'rot1': 0, 'rot0': 0, 'rot3': 0, 'rot2': 0, 'state': 'normal', 'yaw': -2.52, 'datetime': '2018-10-10 01:18:26.681636', 'mgs': 0, 'volt': 0.8643, 'depth': 1.004, 'time': 3, 'pitch': 7.46, 'roll': -4.36, 'pres': 177}
{'lipoC2': 7.44, 'lipoC3S1': 3.82, 'temp': 30.19, 'lipoC3S3': 11.54, 'lipoC3S2': 7.65, 'rot1': 0, 'rot0': 0, 'rot3': 0, 'rot2': 0, 'state': 'normal', 'yaw': -2.5, 'datetime': '2018-10-10 01:18:26.700878', 'mgs': 0, 'volt': 0.8594, 'depth': 0.928, 'time': 3, 'pitch': 6.38, 'roll': -5.21, 'pres': 176}
{'lipoC2': 7.46, 'lipoC3S1': 3.82, 'temp': 30.19, 'lipoC3S3': 11.54, 'lipoC3S2': 7.65, 'rot1': 0, 'rot0': 0, 'rot3': 0, 'rot2': 0, 'state': 'normal', 'yaw': -2.4, 'datetime': '2018-10-10 01:18:26.720074', 'mgs': 0, 'volt': 0.8545, 'depth': 0.851, 'time': 3, 'pitch': 5.78, 'roll': -5.59, 'pres': 175}
{'lipoC2': 7.46, 'lipoC3S1': 3.82, 'temp': 30.19, 'lipoC3S3': 11.54, 'lipoC3S2': 7.65, 'rot1': 0, 'rot0': 0, 'rot3': 0, 'rot2': 0, 'state': 'normal', 'yaw': -2.04, 'datetime': '2018-10-10 01:18:26.733887', 'mgs': 0, 'volt': 0.8545, 'depth': 0.851, 'time': 4, 'pitch': 4.97, 'roll': -5.67, 'pres': 175}
{'lipoC2': 7.46, 'lipoC3S1': 3.82, 'temp': 30.19, 'lipoC3S3': 11.54, 'lipoC3S2': 7.65, 'rot1': 0, 'rot0': 0, 'rot3': 0, 'rot2': 0, 'state': 'normal', 'yaw': -1.41, 'datetime': '2018-10-10 01:18:26.750878', 'mgs': 0, 'volt': 0.8496, 'depth': 0.775, 'time': 4, 'pitch': 3.82, 'roll': -5.83, 'pres': 174}
{'lipoC2': 7.46, 'lipoC3S1': 3.82, 'temp': 30.19, 'lipoC3S3': 11.54, 'lipoC3S2': 7.65, 'rot1': 0, 'rot0': 0, 'rot3': 0, 'rot2': 0, 'state': 'normal', 'yaw': -0.88, 'datetime': '2018-10-10 01:18:26.770014', 'mgs': 0, 'volt': 0.8447, 'depth': 0.699, 'time': 4, 'pitch': 2.79, 'roll': -6.08, 'pres': 173}
{'lipoC2': 7.46, 'lipoC3S1': 3.82, 'temp': 30.19, 'lipoC3S3': 11.54, 'lipoC3S2': 7.65, 'rot1': 0, 'rot0': 0, 'rot3': 0, 'rot2': 0, 'state': 'normal', 'yaw': -0.82, 'datetime': '2018-10-10 01:18:26.783225', 'mgs': 0, 'volt': 0.8447, 'depth': 0.699, 'time': 4, 'pitch': 2.45, 'roll': -6.28, 'pres': 173}
{'lipoC2': 7.44, 'lipoC3S1': 3.82, 'temp': 30.19, 'lipoC3S3': 11.54, 'lipoC3S2': 7.64, 'rot1': 0, 'rot0': 0, 'rot3': 0, 'rot2': 0, 'state': 'normal', 'yaw': -1.17, 'datetime': '2018-10-10 01:18:26.802370', 'mgs': 0, 'volt': 0.8447, 'depth': 0.699, 'time': 4, 'pitch': 2.68, 'roll': -6.16, 'pres': 173}
{'lipoC2': 7.43, 'lipoC3S1': 3.78, 'temp': 30.19, 'lipoC3S3': 11.39, 'lipoC3S2': 7.59, 'rot1': 0, 'rot0': 0, 'rot3': 0, 'rot2': 1, 'state': 'normal', 'yaw': -1.55, 'datetime': '2018-10-10 01:18:26.821435', 'mgs': 0, 'volt': 0.8643, 'depth': 1.004, 'time': 4, 'pitch': 3.04, 'roll': -5.63, 'pres': 177}
{'lipoC2': 7.44, 'lipoC3S1': 3.79, 'temp': 30.19, 'lipoC3S3': 11.44, 'lipoC3S2': 7.58, 'rot1': 0, 'rot0': 0, 'rot3': 1, 'rot2': 1, 'state': 'normal', 'yaw': -1.86, 'datetime': '2018-10-10 01:18:26.835059', 'mgs': 0, 'volt': 0.8496, 'depth': 0.775, 'time': 4, 'pitch': 3.67, 'roll': -4.57, 'pres': 174}
{'lipoC2': 7.44, 'lipoC3S1': 3.78, 'temp': 30.19, 'lipoC3S3': 11.46, 'lipoC3S2': 7.59, 'rot1': 0, 'rot0': 0, 'rot3': 2, 'rot2': 2, 'state': 'normal', 'yaw': -2.05, 'datetime': '2018-10-10 01:18:26.855335', 'mgs': 0, 'volt': 0.8643, 'depth': 1.004, 'time': 4, 'pitch': 4.23, 'roll': -3.12, 'pres': 177}
{'lipoC2': 7.44, 'lipoC3S1': 3.8, 'temp': 30.13, 'lipoC3S3': 11.43, 'lipoC3S2': 7.61, 'rot1': 0, 'rot0': 0, 'rot3': 3, 'rot2': 3, 'state': 'normal', 'yaw': -2.01, 'datetime': '2018-10-10 01:18:26.874405', 'mgs': 0, 'volt': 0.8545, 'depth': 0.851, 'time': 4, 'pitch': 4.41, 'roll': -2.12, 'pres': 175}
{'lipoC2': 7.44, 'lipoC3S1': 3.8, 'temp': 30.13, 'lipoC3S3': 11.43, 'lipoC3S2': 7.61, 'rot1': 0, 'rot0': 0, 'rot3': 4, 'rot2': 4, 'state': 'normal', 'yaw': -1.97, 'datetime': '2018-10-10 01:18:26.887573', 'mgs': 0, 'volt': 0.8545, 'depth': 0.851, 'time': 4, 'pitch': 4.19, 'roll': -1.93, 'pres': 175}
{'lipoC2': 7.44, 'lipoC3S1': 3.8, 'temp': 30.13, 'lipoC3S3': 11.43, 'lipoC3S2': 7.58, 'rot1': 0, 'rot0': 0, 'rot3': 6, 'rot2': 5, 'state': 'normal', 'yaw': -2.04, 'datetime': '2018-10-10 01:18:26.906687', 'mgs': 0, 'volt': 0.8496, 'depth': 0.775, 'time': 5, 'pitch': 3.62, 'roll': -2.57, 'pres': 174}
{'lipoC2': 7.44, 'lipoC3S1': 3.77, 'temp': 30.13, 'lipoC3S3': 11.47, 'lipoC3S2': 7.59, 'rot1': 0, 'rot0': 0, 'rot3': 7, 'rot2': 6, 'state': 'normal', 'yaw': -2.1, 'datetime': '2018-10-10 01:18:26.925811', 'mgs': 0, 'volt': 0.8301, 'depth': 0.47, 'time': 5, 'pitch': 3.25, 'roll': -3.22, 'pres': 170}
{'lipoC2': 7.44, 'lipoC3S1': 3.79, 'temp': 30.13, 'lipoC3S3': 11.43, 'lipoC3S2': 7.61, 'rot1': 0, 'rot0': 0, 'rot3': 8, 'rot2': 6, 'state': 'normal', 'yaw': -2.05, 'datetime': '2018-10-10 01:18:26.939063', 'mgs': 0, 'volt': 0.8545, 'depth': 0.851, 'time': 5, 'pitch': 3.07, 'roll': -3.42, 'pres': 175}
{'lipoC2': 7.44, 'lipoC3S1': 3.78, 'temp': 30.19, 'lipoC3S3': 11.46, 'lipoC3S2': 7.58, 'rot1': 0, 'rot0': 0, 'rot3': 9, 'rot2': 7, 'state': 'normal', 'yaw': -1.87, 'datetime': '2018-10-10 01:18:26.958293', 'mgs': 0, 'volt': 0.835, 'depth': 0.546, 'time': 5, 'pitch': 3.13, 'roll': -3.01, 'pres': 171}
{'lipoC2': 7.44, 'lipoC3S1': 3.78, 'temp': 30.19, 'lipoC3S3': 11.47, 'lipoC3S2': 7.63, 'rot1': 0, 'rot0': 0, 'rot3': 10, 'rot2': 8, 'state': 'normal', 'yaw': -1.52, 'datetime': '2018-10-10 01:18:26.977410', 'mgs': 0, 'volt': 0.8496, 'depth': 0.775, 'time': 5, 'pitch': 3.12, 'roll': -1.98, 'pres': 174}
{'lipoC2': 7.44, 'lipoC3S1': 3.8, 'temp': 30.13, 'lipoC3S3': 11.43, 'lipoC3S2': 7.58, 'rot1': 0, 'rot0': 0, 'rot3': 11, 'rot2': 9, 'state': 'normal', 'yaw': -1.04, 'datetime': '2018-10-10 01:18:26.990630', 'mgs': 0, 'volt': 0.8496, 'depth': 0.775, 'time': 5, 'pitch': 2.91, 'roll': -0.97, 'pres': 174}
{'lipoC2': 7.44, 'lipoC3S1': 3.77, 'temp': 30.13, 'lipoC3S3': 11.44, 'lipoC3S2': 7.57, 'rot1': 0, 'rot0': 0, 'rot3': 12, 'rot2': 10, 'state': 'normal', 'yaw': -0.56, 'datetime': '2018-10-10 01:18:27.009866', 'mgs': 0, 'volt': 0.8398, 'depth': 0.623, 'time': 5, 'pitch': 2.35, 'roll': -0.35, 'pres': 172}
{'lipoC2': 7.44, 'lipoC3S1': 3.8, 'temp': 30.13, 'lipoC3S3': 11.46, 'lipoC3S2': 7.58, 'rot1': 0, 'rot0': 0, 'rot3': 13, 'rot2': 11, 'state': 'normal', 'yaw': -0.17, 'datetime': '2018-10-10 01:18:27.029079', 'mgs': 0, 'volt': 0.8447, 'depth': 0.699, 'time': 5, 'pitch': 1.67, 'roll': -0.15, 'pres': 173}
{'lipoC2': 7.44, 'lipoC3S1': 3.79, 'temp': 30.13, 'lipoC3S3': 11.44, 'lipoC3S2': 7.59, 'rot1': 0, 'rot0': 0, 'rot3': 15, 'rot2': 11, 'state': 'normal', 'yaw': 0.12, 'datetime': '2018-10-10 01:18:27.042318', 'mgs': 0, 'volt': 0.8447, 'depth': 0.699, 'time': 5, 'pitch': 1.13, 'roll': -0.35, 'pres': 173}
{'lipoC2': 7.44, 'lipoC3S1': 3.78, 'temp': 30.13, 'lipoC3S3': 11.47, 'lipoC3S2': 7.6, 'rot1': 0, 'rot0': 0, 'rot3': 16, 'rot2': 12, 'state': 'normal', 'yaw': 0.23, 'datetime': '2018-10-10 01:18:27.062786', 'mgs': 0, 'volt': 0.8594, 'depth': 0.928, 'time': 5, 'pitch': 1.03, 'roll': -0.5, 'pres': 176}
{'lipoC2': 7.44, 'lipoC3S1': 3.8, 'temp': 30.19, 'lipoC3S3': 11.43, 'lipoC3S2': 7.61, 'rot1': 0, 'rot0': 0, 'rot3': 17, 'rot2': 13, 'state': 'normal', 'yaw': 0.17, 'datetime': '2018-10-10 01:18:27.082032', 'mgs': 0, 'volt': 0.8447, 'depth': 0.699, 'time': 6, 'pitch': 1.24, 'roll': -0.36, 'pres': 173}
{'lipoC2': 7.44, 'lipoC3S1': 3.79, 'temp': 30.19, 'lipoC3S3': 11.43, 'lipoC3S2': 7.57, 'rot1': 0, 'rot0': 0, 'rot3': 18, 'rot2': 14, 'state': 'normal', 'yaw': 0.01, 'datetime': '2018-10-10 01:18:27.095317', 'mgs': 0, 'volt': 0.8496, 'depth': 0.775, 'time': 6, 'pitch': 1.42, 'roll': 0.19, 'pres': 174}
{'lipoC2': 7.44, 'lipoC3S1': 3.79, 'temp': 30.13, 'lipoC3S3': 11.44, 'lipoC3S2': 7.57, 'rot1': 0, 'rot0': 0, 'rot3': 19, 'rot2': 15, 'state': 'normal', 'yaw': -0.04, 'datetime': '2018-10-10 01:18:27.114538', 'mgs': 0, 'volt': 0.8447, 'depth': 0.699, 'time': 6, 'pitch': 1.37, 'roll': 0.91, 'pres': 173}
{'lipoC2': 7.44, 'lipoC3S1': 3.79, 'temp': 30.13, 'lipoC3S3': 11.42, 'lipoC3S2': 7.61, 'rot1': 0, 'rot0': 0, 'rot3': 20, 'rot2': 16, 'state': 'normal', 'yaw': -0.07, 'datetime': '2018-10-10 01:18:27.133738', 'mgs': 0, 'volt': 0.8545, 'depth': 0.851, 'time': 6, 'pitch': 1.07, 'roll': 1.6, 'pres': 175}
{'lipoC2': 7.44, 'lipoC3S1': 3.8, 'temp': 30.13, 'lipoC3S3': 11.44, 'lipoC3S2': 7.61, 'rot1': 0, 'rot0': 0, 'rot3': 21, 'rot2': 16, 'state': 'normal', 'yaw': -0.06, 'datetime': '2018-10-10 01:18:27.146738', 'mgs': 0, 'volt': 0.8447, 'depth': 0.699, 'time': 6, 'pitch': 0.66, 'roll': 1.81, 'pres': 173}
{'lipoC2': 7.44, 'lipoC3S1': 3.79, 'temp': 30.13, 'lipoC3S3': 11.43, 'lipoC3S2': 7.57, 'rot1': 0, 'rot0': 0, 'rot3': 22, 'rot2': 17, 'state': 'normal', 'yaw': 0.01, 'datetime': '2018-10-10 01:18:27.166355', 'mgs': 0, 'volt': 0.8447, 'depth': 0.699, 'time': 6, 'pitch': 0.37, 'roll': 1.33, 'pres': 173}
{'lipoC2': 7.44, 'lipoC3S1': 3.77, 'temp': 30.13, 'lipoC3S3': 11.47, 'lipoC3S2': 7.6, 'rot1': 0, 'rot0': 0, 'rot3': 24, 'rot2': 18, 'state': 'normal', 'yaw': -0.02, 'datetime': '2018-10-10 01:18:27.185550', 'mgs': 0, 'volt': 0.8643, 'depth': 1.004, 'time': 6, 'pitch': 0.17, 'roll': 0.65, 'pres': 177}
{'lipoC2': 7.44, 'lipoC3S1': 3.78, 'temp': 30.19, 'lipoC3S3': 11.47, 'lipoC3S2': 7.61, 'rot1': 0, 'rot0': 0, 'rot3': 25, 'rot2': 19, 'state': 'normal', 'yaw': -0.23, 'datetime': '2018-10-10 01:18:27.195434', 'mgs': 0, 'volt': 0.8594, 'depth': 0.928, 'time': 6, 'pitch': 0.25, 'roll': 0.2, 'pres': 176}
{'lipoC2': 7.44, 'lipoC3S1': 3.79, 'temp': 30.19, 'lipoC3S3': 11.47, 'lipoC3S2': 7.61, 'rot1': 0, 'rot0': 0, 'rot3': 26, 'rot2': 20, 'state': 'normal', 'yaw': -0.48, 'datetime': '2018-10-10 01:18:27.210979', 'mgs': 0, 'volt': 0.8594, 'depth': 0.928, 'time': 6, 'pitch': 0.63, 'roll': 0.24, 'pres': 176}
{'lipoC2': 7.44, 'lipoC3S1': 3.78, 'temp': 30.13, 'lipoC3S3': 11.46, 'lipoC3S2': 7.62, 'rot1': 0, 'rot0': 0, 'rot3': 27, 'rot2': 21, 'state': 'normal', 'yaw': -0.68, 'datetime': '2018-10-10 01:18:27.226533', 'mgs': 0, 'volt': 0.8545, 'depth': 0.851, 'time': 7, 'pitch': 1.02, 'roll': 0.57, 'pres': 175}
{'lipoC2': 7.44, 'lipoC3S1': 3.79, 'temp': 30.13, 'lipoC3S3': 11.43, 'lipoC3S2': 7.61, 'rot1': 0, 'rot0': 0, 'rot3': 28, 'rot2': 21, 'state': 'normal', 'yaw': -0.94, 'datetime': '2018-10-10 01:18:27.236165', 'mgs': 0, 'volt': 0.8447, 'depth': 0.699, 'time': 7, 'pitch': 1.11, 'roll': 0.9, 'pres': 173}
{'lipoC2': 7.44, 'lipoC3S1': 3.8, 'temp': 30.13, 'lipoC3S3': 11.42, 'lipoC3S2': 7.61, 'rot1': 0, 'rot0': 0, 'rot3': 29, 'rot2': 22, 'state': 'normal', 'yaw': -1.24, 'datetime': '2018-10-10 01:18:27.252741', 'mgs': 0, 'volt': 0.8496, 'depth': 0.775, 'time': 7, 'pitch': 0.93, 'roll': 0.84, 'pres': 174}
{'lipoC2': 7.44, 'lipoC3S1': 3.8, 'temp': 30.19, 'lipoC3S3': 11.42, 'lipoC3S2': 7.61, 'rot1': 0, 'rot0': 0, 'rot3': 30, 'rot2': 23, 'state': 'normal', 'yaw': -1.61, 'datetime': '2018-10-10 01:18:27.270015', 'mgs': 0, 'volt': 0.8496, 'depth': 0.775, 'time': 7, 'pitch': 0.63, 'roll': 0.41, 'pres': 174}
{'lipoC2': 7.44, 'lipoC3S1': 3.79, 'temp': 30.19, 'lipoC3S3': 11.44, 'lipoC3S2': 7.61, 'rot1': 0, 'rot0': 0, 'rot3': 32, 'rot2': 24, 'state': 'normal', 'yaw': -2.11, 'datetime': '2018-10-10 01:18:27.279797', 'mgs': 0, 'volt': 0.8496, 'depth': 0.775, 'time': 7, 'pitch': 0.38, 'roll': -0.01, 'pres': 174}
{'lipoC2': 7.44, 'lipoC3S1': 3.82, 'temp': 30.19, 'lipoC3S3': 11.52, 'lipoC3S2': 7.64, 'rot1': 0, 'rot0': 0, 'rot3': 32, 'rot2': 25, 'state': 'normal', 'yaw': -2.51, 'datetime': '2018-10-10 01:18:27.295409', 'mgs': 0, 'volt': 0.8398, 'depth': 0.623, 'time': 7, 'pitch': 0.22, 'roll': -0.19, 'pres': 172}
{'lipoC2': 7.44, 'lipoC3S1': 3.75, 'temp': 30.19, 'lipoC3S3': 11.43, 'lipoC3S2': 7.59, 'rot1': 0, 'rot0': 0, 'rot3': 32, 'rot2': 25, 'state': 'normal', 'yaw': -2.75, 'datetime': '2018-10-10 01:18:27.310897', 'mgs': 0, 'volt': 0.874, 'depth': 1.157, 'time': 7, 'pitch': -0.17, 'roll': -0.3, 'pres': 179}
{'lipoC2': 7.43, 'lipoC3S1': 3.78, 'temp': 30.19, 'lipoC3S3': 11.39, 'lipoC3S2': 7.58, 'rot1': 1, 'rot0': 1, 'rot3': 32, 'rot2': 25, 'state': 'normal', 'yaw': -2.97, 'datetime': '2018-10-10 01:18:27.320514', 'mgs': 0, 'volt': 0.8594, 'depth': 0.928, 'time': 7, 'pitch': -0.11, 'roll': -0.37, 'pres': 176}
{'lipoC2': 7.42, 'lipoC3S1': 3.78, 'temp': 30.19, 'lipoC3S3': 11.18, 'lipoC3S2': 7.58, 'rot1': 3, 'rot0': 3, 'rot3': 32, 'rot2': 25, 'state': 'normal', 'yaw': -3.37, 'datetime': '2018-10-10 01:18:27.336104', 'mgs': 0, 'volt': 0.8398, 'depth': 0.623, 'time': 7, 'pitch': 0.77, 'roll': -0.53, 'pres': 172}
{'lipoC2': 7.43, 'lipoC3S1': 3.78, 'temp': 30.19, 'lipoC3S3': 11.21, 'lipoC3S2': 7.58, 'rot1': 4, 'rot0': 4, 'rot3': 32, 'rot2': 25, 'state': 'normal', 'yaw': -3.87, 'datetime': '2018-10-10 01:18:27.351850', 'mgs': 0, 'volt': 0.8398, 'depth': 0.623, 'time': 7, 'pitch': 1.84, 'roll': -0.8, 'pres': 172}
{'lipoC2': 7.43, 'lipoC3S1': 3.78, 'temp': 30.13, 'lipoC3S3': 11.23, 'lipoC3S2': 7.57, 'rot1': 5, 'rot0': 6, 'rot3': 32, 'rot2': 25, 'state': 'normal', 'yaw': -4.4, 'datetime': '2018-10-10 01:18:27.361606', 'mgs': 0, 'volt': 0.8447, 'depth': 0.699, 'time': 8, 'pitch': 2.81, 'roll': -1.1, 'pres': 173}
{'lipoC2': 7.43, 'lipoC3S1': 3.77, 'temp': 30.13, 'lipoC3S3': 11.25, 'lipoC3S2': 7.56, 'rot1': 6, 'rot0': 7, 'rot3': 32, 'rot2': 25, 'state': 'normal', 'yaw': -4.95, 'datetime': '2018-10-10 01:18:27.377133', 'mgs': 0, 'volt': 0.8447, 'depth': 0.699, 'time': 8, 'pitch': 3.77, 'roll': -1.24, 'pres': 173}
{'lipoC2': 7.42, 'lipoC3S1': 3.78, 'temp': 30.13, 'lipoC3S3': 11.39, 'lipoC3S2': 7.58, 'rot1': 8, 'rot0': 8, 'rot3': 32, 'rot2': 25, 'state': 'normal', 'yaw': -5.44, 'datetime': '2018-10-10 01:18:27.392596', 'mgs': 0, 'volt': 0.8594, 'depth': 0.928, 'time': 8, 'pitch': 4.5, 'roll': -1.21, 'pres': 176}
{'lipoC2': 7.44, 'lipoC3S1': 3.75, 'temp': 30.13, 'lipoC3S3': 11.43, 'lipoC3S2': 7.59, 'rot1': 9, 'rot0': 10, 'rot3': 32, 'rot2': 25, 'state': 'normal', 'yaw': -6.09, 'datetime': '2018-10-10 01:18:27.402239', 'mgs': 0, 'volt': 0.9375, 'depth': 2.148, 'time': 8, 'pitch': 5.07, 'roll': -1.22, 'pres': 192}
{'lipoC2': 7.44, 'lipoC3S1': 3.71, 'temp': 30.06, 'lipoC3S3': 11.43, 'lipoC3S2': 7.57, 'rot1': 10, 'rot0': 11, 'rot3': 32, 'rot2': 25, 'state': 'normal', 'yaw': -6.99, 'datetime': '2018-10-10 01:18:27.417882', 'mgs': 0, 'volt': 0.8594, 'depth': 0.928, 'time': 8, 'pitch': 5.39, 'roll': -1.58, 'pres': 176}
{'lipoC2': 7.44, 'lipoC3S1': 3.77, 'temp': 30.06, 'lipoC3S3': 11.32, 'lipoC3S2': 7.48, 'rot1': 11, 'rot0': 12, 'rot3': 32, 'rot2': 25, 'state': 'normal', 'yaw': -7.85, 'datetime': '2018-10-10 01:18:27.433490', 'mgs': 0, 'volt': 0.8545, 'depth': 0.851, 'time': 8, 'pitch': 5.58, 'roll': -2.17, 'pres': 175}
{'lipoC2': 7.43, 'lipoC3S1': 3.78, 'temp': 30.06, 'lipoC3S3': 11.4, 'lipoC3S2': 7.58, 'rot1': 13, 'rot0': 14, 'rot3': 32, 'rot2': 25, 'state': 'normal', 'yaw': -8.75, 'datetime': '2018-10-10 01:18:27.476801', 'mgs': 0, 'volt': 0.9229, 'depth': 1.92, 'time': 8, 'pitch': 6.17, 'roll': -2.71, 'pres': 189}
{'lipoC2': 7.44, 'lipoC3S1': 3.68, 'temp': 30.06, 'lipoC3S3': 11.44, 'lipoC3S2': 7.47, 'rot1': 14, 'rot0': 15, 'rot3': 33, 'rot2': 25, 'state': 'normal', 'yaw': -9.28, 'datetime': '2018-10-10 01:18:27.580385', 'mgs': 0, 'volt': 0.8594, 'depth': 0.928, 'time': 8, 'pitch': 7.19, 'roll': -2.87, 'pres': 176}
{'lipoC2': 7.43, 'lipoC3S1': 3.78, 'temp': 30.06, 'lipoC3S3': 11.27, 'lipoC3S2': 7.57, 'rot1': 15, 'rot0': 15, 'rot3': 33, 'rot2': 26, 'state': 'normal', 'yaw': -9.29, 'datetime': '2018-10-10 01:18:27.683921', 'mgs': 0, 'volt': 0.8643, 'depth': 1.004, 'time': 8, 'pitch': 8.54, 'roll': -2.49, 'pres': 177}
{'lipoC2': 7.44, 'lipoC3S1': 3.7, 'temp': 30.13, 'lipoC3S3': 11.43, 'lipoC3S2': 7.6, 'rot1': 16, 'rot0': 16, 'rot3': 34, 'rot2': 26, 'state': 'normal', 'yaw': -8.91, 'datetime': '2018-10-10 01:18:27.787655', 'mgs': 0, 'volt': 0.8936, 'depth': 1.462, 'time': 8, 'pitch': 9.94, 'roll': -1.8, 'pres': 183}
{'lipoC2': 7.44, 'lipoC3S1': 3.77, 'temp': 30.13, 'lipoC3S3': 11.32, 'lipoC3S2': 7.46, 'rot1': 17, 'rot0': 17, 'rot3': 35, 'rot2': 27, 'state': 'normal', 'yaw': -8.22, 'datetime': '2018-10-10 01:18:27.891187', 'mgs': 0, 'volt': 0.8643, 'depth': 1.004, 'time': 9, 'pitch': 10.75, 'roll': -1.19, 'pres': 177}
{'lipoC2': 7.43, 'lipoC3S1': 3.78, 'temp': 30.19, 'lipoC3S3': 11.4, 'lipoC3S2': 7.59, 'rot1': 19, 'rot0': 18, 'rot3': 35, 'rot2': 27, 'state': 'normal', 'yaw': -7.4, 'datetime': '2018-10-10 01:18:27.994738', 'mgs': 0, 'volt': 0.8936, 'depth': 1.462, 'time': 9, 'pitch': 10.87, 'roll': -1.02, 'pres': 183}
{'lipoC2': 7.43, 'lipoC3S1': 3.78, 'temp': 30.19, 'lipoC3S3': 11.38, 'lipoC3S2': 7.57, 'rot1': 20, 'rot0': 19, 'rot3': 36, 'rot2': 28, 'state': 'normal', 'yaw': -6.41, 'datetime': '2018-10-10 01:18:28.098766', 'mgs': 0, 'volt': 0.8643, 'depth': 1.004, 'time': 9, 'pitch': 10.67, 'roll': -1.25, 'pres': 177}
{'lipoC2': 7.44, 'lipoC3S1': 3.79, 'temp': 30.19, 'lipoC3S3': 11.46, 'lipoC3S2': 7.61, 'rot1': 21, 'rot0': 19, 'rot3': 36, 'rot2': 28, 'state': 'normal', 'yaw': -5.03, 'datetime': '2018-10-10 01:18:28.202348', 'mgs': 0, 'volt': 0.9033, 'depth': 1.614, 'time': 9, 'pitch': 10.58, 'roll': -1.4, 'pres': 185}
{'lipoC2': 7.43, 'lipoC3S1': 3.79, 'temp': 30.13, 'lipoC3S3': 11.35, 'lipoC3S2': 7.6, 'rot1': 22, 'rot0': 20, 'rot3': 36, 'rot2': 28, 'state': 'normal', 'yaw': -3.58, 'datetime': '2018-10-10 01:18:28.307150', 'mgs': 0, 'volt': 0.8643, 'depth': 1.004, 'time': 9, 'pitch': 10.6, 'roll': -1.26, 'pres': 177}
{'lipoC2': 7.44, 'lipoC3S1': 3.79, 'temp': 30.13, 'lipoC3S3': 11.46, 'lipoC3S2': 7.61, 'rot1': 24, 'rot0': 21, 'rot3': 36, 'rot2': 28, 'state': 'normal', 'yaw': -1.93, 'datetime': '2018-10-10 01:18:28.410663', 'mgs': 0, 'volt': 0.8936, 'depth': 1.462, 'time': 9, 'pitch': 10.37, 'roll': -0.89, 'pres': 183}
{'lipoC2': 7.44, 'lipoC3S1': 3.69, 'temp': 30.13, 'lipoC3S3': 11.43, 'lipoC3S2': 7.51, 'rot1': 25, 'rot0': 22, 'rot3': 36, 'rot2': 29, 'state': 'normal', 'yaw': -0.39, 'datetime': '2018-10-10 01:18:28.521142', 'mgs': 0, 'volt': 0.8691, 'depth': 1.08, 'time': 9, 'pitch': 9.92, 'roll': -0.55, 'pres': 178}
{'lipoC2': 7.41, 'lipoC3S1': 3.77, 'temp': 30.13, 'lipoC3S3': 11.38, 'lipoC3S2': 7.57, 'rot1': 26, 'rot0': 23, 'rot3': 37, 'rot2': 29, 'state': 'normal', 'yaw': 1.19, 'datetime': '2018-10-10 01:18:28.625987', 'mgs': 0, 'volt': 0.9424, 'depth': 2.225, 'time': 9, 'pitch': 9.43, 'roll': -0.32, 'pres': 193}
{'lipoC2': 7.44, 'lipoC3S1': 3.65, 'temp': 30.13, 'lipoC3S3': 11.4, 'lipoC3S2': 7.54, 'rot1': 27, 'rot0': 24, 'rot3': 37, 'rot2': 30, 'state': 'normal', 'yaw': 2.5, 'datetime': '2018-10-10 01:18:28.729462', 'mgs': 0, 'volt': 0.8691, 'depth': 1.08, 'time': 9, 'pitch': 9.53, 'roll': -0.37, 'pres': 178}
{'lipoC2': 7.44, 'lipoC3S1': 3.77, 'temp': 30.13, 'lipoC3S3': 11.29, 'lipoC3S2': 7.39, 'rot1': 28, 'rot0': 26, 'rot3': 38, 'rot2': 30, 'state': 'normal', 'yaw': 3.1, 'datetime': '2018-10-10 01:18:28.833309', 'mgs': 0, 'volt': 0.8643, 'depth': 1.004, 'time': 10, 'pitch': 10.39, 'roll': -0.71, 'pres': 177}
{'lipoC2': 7.44, 'lipoC3S1': 3.75, 'temp': 30.13, 'lipoC3S3': 11.44, 'lipoC3S2': 7.6, 'rot1': 30, 'rot0': 27, 'rot3': 38, 'rot2': 30, 'state': 'normal', 'yaw': 3.31, 'datetime': '2018-10-10 01:18:28.937069', 'mgs': 0, 'volt': 0.9082, 'depth': 1.691, 'time': 10, 'pitch': 11.36, 'roll': -1.18, 'pres': 186}
{'lipoC2': 7.44, 'lipoC3S1': 3.78, 'temp': 30.13, 'lipoC3S3': 11.36, 'lipoC3S2': 7.48, 'rot1': 30, 'rot0': 28, 'rot3': 38, 'rot2': 30, 'state': 'normal', 'yaw': 2.91, 'datetime': '2018-10-10 01:18:29.040719', 'mgs': 0, 'volt': 0.8643, 'depth': 1.004, 'time': 10, 'pitch': 11.66, 'roll': -1.62, 'pres': 177}
{'lipoC2': 7.44, 'lipoC3S1': 3.75, 'temp': 30.13, 'lipoC3S3': 11.44, 'lipoC3S2': 7.6, 'rot1': 31, 'rot0': 30, 'rot3': 38, 'rot2': 30, 'state': 'normal', 'yaw': 1.9, 'datetime': '2018-10-10 01:18:29.144504', 'mgs': 0, 'volt': 0.9082, 'depth': 1.691, 'time': 10, 'pitch': 11.51, 'roll': -1.85, 'pres': 186}
{'lipoC2': 7.43, 'lipoC3S1': 3.78, 'temp': 30.13, 'lipoC3S3': 11.42, 'lipoC3S2': 7.59, 'rot1': 32, 'rot0': 31, 'rot3': 38, 'rot2': 30, 'state': 'normal', 'yaw': 0.41, 'datetime': '2018-10-10 01:18:29.248483', 'mgs': 0, 'volt': 0.8936, 'depth': 1.462, 'time': 10, 'pitch': 11.28, 'roll': -1.91, 'pres': 183}
{'lipoC2': 7.44, 'lipoC3S1': 3.72, 'temp': 30.13, 'lipoC3S3': 11.46, 'lipoC3S2': 7.53, 'rot1': 33, 'rot0': 33, 'rot3': 38, 'rot2': 30, 'state': 'normal', 'yaw': -1.7, 'datetime': '2018-10-10 01:18:29.352080', 'mgs': 0, 'volt': 0.8643, 'depth': 1.004, 'time': 10, 'pitch': 11.0, 'roll': -2.07, 'pres': 177}
{'lipoC2': 7.44, 'lipoC3S1': 3.78, 'temp': 30.19, 'lipoC3S3': 11.43, 'lipoC3S2': 7.59, 'rot1': 33, 'rot0': 34, 'rot3': 38, 'rot2': 30, 'state': 'normal', 'yaw': -3.94, 'datetime': '2018-10-10 01:18:29.455870', 'mgs': 0, 'volt': 0.8887, 'depth': 1.385, 'time': 10, 'pitch': 10.32, 'roll': -2.38, 'pres': 182}
{'lipoC2': 7.43, 'lipoC3S1': 3.77, 'temp': 30.19, 'lipoC3S3': 11.21, 'lipoC3S2': 7.57, 'rot1': 34, 'rot0': 36, 'rot3': 38, 'rot2': 30, 'state': 'normal', 'yaw': -6.38, 'datetime': '2018-10-10 01:18:29.559948', 'mgs': 0, 'volt': 0.8691, 'depth': 1.08, 'time': 10, 'pitch': 9.59, 'roll': -2.57, 'pres': 178}
{'lipoC2': 7.44, 'lipoC3S1': 3.67, 'temp': 30.19, 'lipoC3S3': 11.43, 'lipoC3S2': 7.55, 'rot1': 36, 'rot0': 37, 'rot3': 38, 'rot2': 30, 'state': 'normal', 'yaw': -8.81, 'datetime': '2018-10-10 01:18:29.663605', 'mgs': 0, 'volt': 0.8789, 'depth': 1.233, 'time': 10, 'pitch': 9.54, 'roll': -2.63, 'pres': 180}
{'lipoC2': 7.44, 'lipoC3S1': 3.73, 'temp': 30.13, 'lipoC3S3': 11.42, 'lipoC3S2': 7.58, 'rot1': 37, 'rot0': 38, 'rot3': 38, 'rot2': 30, 'state': 'normal', 'yaw': -10.65, 'datetime': '2018-10-10 01:18:29.768875', 'mgs': 0, 'volt': 0.8984, 'depth': 1.538, 'time': 10, 'pitch': 10.51, 'roll': -2.52, 'pres': 184}
