{'lipoC2': 8.11, 'lipoC3S1': 3.99, 'temp': 24.88, 'lipoC3S3': 12.09, 'lipoC3S2': 7.99, 'rot1': 0, 'rot0': 0, 'rot3': 0, 'rot2': 0, 'state': 'normal', 'yaw': 0.0, 'datetime': '2018-10-05 14:45:14.342535', 'mgs': 1, 'volt': 0.7813, 'depth': -0.293, 'time': 1, 'pitch': 73.2, 'roll': -82.29, 'pres': 160}
{'lipoC2': 8.11, 'lipoC3S1': 3.99, 'temp': 24.88, 'lipoC3S3': 12.09, 'lipoC3S2': 7.99, 'rot1': 0, 'rot0': 0, 'rot3': 0, 'rot2': 0, 'state': 'normal', 'yaw': 0.0, 'datetime': '2018-10-05 14:45:20.373462', 'mgs': 1, 'volt': 0.7861, 'depth': -0.217, 'time': 1, 'pitch': 73.2, 'roll': -82.29, 'pres': 161}
{'lipoC2': 8.11, 'lipoC3S1': 3.98, 'temp': 24.88, 'lipoC3S3': 12.09, 'lipoC3S2': 7.99, 'rot1': 0, 'rot0': 0, 'rot3': 0, 'rot2': 0, 'state': 'normal', 'yaw': 0.0, 'datetime': '2018-10-05 14:45:20.403655', 'mgs': 1, 'volt': 0.7813, 'depth': -0.293, 'time': 1, 'pitch': 73.2, 'roll': -82.29, 'pres': 160}
{'lipoC2': 8.11, 'lipoC3S1': 3.98, 'temp': 24.88, 'lipoC3S3': 12.09, 'lipoC3S2': 7.99, 'rot1': 0, 'rot0': 0, 'rot3': 0, 'rot2': 0, 'state': 'normal', 'yaw': 0.0, 'datetime': '2018-10-05 14:45:20.433465', 'mgs': 1, 'volt': 0.7813, 'depth': -0.293, 'time': 1, 'pitch': 73.2, 'roll': -82.29, 'pres': 160}
{'lipoC2': 8.11, 'lipoC3S1': 3.99, 'temp': 24.88, 'lipoC3S3': 12.09, 'lipoC3S2': 7.99, 'rot1': 0, 'rot0': 0, 'rot3': 0, 'rot2': 0, 'state': 'normal', 'yaw': 0.0, 'datetime': '2018-10-05 14:45:20.463145', 'mgs': 1, 'volt': 0.7813, 'depth': -0.293, 'time': 1, 'pitch': 73.2, 'roll': -82.29, 'pres': 160}
{'lipoC2': 8.11, 'lipoC3S1': 3.99, 'temp': 24.81, 'lipoC3S3': 12.09, 'lipoC3S2': 7.99, 'rot1': 0, 'rot0': 0, 'rot3': 0, 'rot2': 0, 'state': 'normal', 'yaw': 0.0, 'datetime': '2018-10-05 14:45:20.483971', 'mgs': 1, 'volt': 0.7813, 'depth': -0.293, 'time': 1, 'pitch': 73.2, 'roll': -82.29, 'pres': 160}
{'lipoC2': 8.11, 'lipoC3S1': 3.99, 'temp': 24.81, 'lipoC3S3': 12.09, 'lipoC3S2': 7.99, 'rot1': 0, 'rot0': 0, 'rot3': 0, 'rot2': 0, 'state': 'normal', 'yaw': 0.0, 'datetime': '2018-10-05 14:45:20.499725', 'mgs': 1, 'volt': 0.7813, 'depth': -0.293, 'time': 2, 'pitch': 73.2, 'roll': -82.29, 'pres': 160}
{'lipoC2': 8.11, 'lipoC3S1': 3.98, 'temp': 24.81, 'lipoC3S3': 12.09, 'lipoC3S2': 7.99, 'rot1': 0, 'rot0': 0, 'rot3': 0, 'rot2': 0, 'state': 'normal', 'yaw': 0.0, 'datetime': '2018-10-05 14:45:20.515346', 'mgs': 1, 'volt': 0.7813, 'depth': -0.293, 'time': 2, 'pitch': 73.2, 'roll': -82.29, 'pres': 160}
{'lipoC2': 8.11, 'lipoC3S1': 3.98, 'temp': 24.81, 'lipoC3S3': 12.09, 'lipoC3S2': 7.99, 'rot1': 0, 'rot0': 0, 'rot3': 0, 'rot2': 0, 'state': 'normal', 'yaw': 0.0, 'datetime': '2018-10-05 14:45:20.530882', 'mgs': 1, 'volt': 0.7813, 'depth': -0.293, 'time': 2, 'pitch': 73.2, 'roll': -82.29, 'pres': 160}
{'lipoC2': 8.11, 'lipoC3S1': 3.98, 'temp': 24.81, 'lipoC3S3': 12.09, 'lipoC3S2': 7.99, 'rot1': 0, 'rot0': 0, 'rot3': 0, 'rot2': 0, 'state': 'normal', 'yaw': 0.0, 'datetime': '2018-10-05 14:45:20.546406', 'mgs': 1, 'volt': 0.7813, 'depth': -0.293, 'time': 2, 'pitch': 73.2, 'roll': -82.29, 'pres': 160}
{'lipoC2': 8.11, 'lipoC3S1': 3.98, 'temp': 24.81, 'lipoC3S3': 12.09, 'lipoC3S2': 7.99, 'rot1': 0, 'rot0': 0, 'rot3': 0, 'rot2': 0, 'state': 'normal', 'yaw': 0.0, 'datetime': '2018-10-05 14:45:20.561958', 'mgs': 1, 'volt': 0.7813, 'depth': -0.293, 'time': 2, 'pitch': 73.2, 'roll': -82.29, 'pres': 160}
{'lipoC2': 8.11, 'lipoC3S1': 3.98, 'temp': 24.81, 'lipoC3S3': 12.09, 'lipoC3S2': 7.99, 'rot1': 0, 'rot0': 0, 'rot3': 0, 'rot2': 0, 'state': 'normal', 'yaw': 0.0, 'datetime': '2018-10-05 14:45:20.577505', 'mgs': 1, 'volt': 0.7813, 'depth': -0.293, 'time': 2, 'pitch': 73.2, 'roll': -82.29, 'pres': 160}
{'lipoC2': 8.11, 'lipoC3S1': 3.99, 'temp': 24.88, 'lipoC3S3': 12.09, 'lipoC3S2': 7.99, 'rot1': 0, 'rot0': 0, 'rot3': 0, 'rot2': 0, 'state': 'normal', 'yaw': 0.0, 'datetime': '2018-10-05 14:45:20.593023', 'mgs': 1, 'volt': 0.7861, 'depth': -0.217, 'time': 2, 'pitch': 73.2, 'roll': -82.29, 'pres': 161}
{'lipoC2': 8.11, 'lipoC3S1': 3.98, 'temp': 24.88, 'lipoC3S3': 12.09, 'lipoC3S2': 7.99, 'rot1': 0, 'rot0': 0, 'rot3': 0, 'rot2': 0, 'state': 'normal', 'yaw': 0.0, 'datetime': '2018-10-05 14:45:20.608553', 'mgs': 1, 'volt': 0.7813, 'depth': -0.293, 'time': 2, 'pitch': 73.2, 'roll': -82.29, 'pres': 160}
{'lipoC2': 8.11, 'lipoC3S1': 3.98, 'temp': 24.88, 'lipoC3S3': 12.09, 'lipoC3S2': 7.99, 'rot1': 0, 'rot0': 0, 'rot3': 0, 'rot2': 0, 'state': 'normal', 'yaw': 0.0, 'datetime': '2018-10-05 14:45:20.624218', 'mgs': 1, 'volt': 0.7813, 'depth': -0.293, 'time': 2, 'pitch': 73.2, 'roll': -82.29, 'pres': 160}
{'lipoC2': 8.11, 'lipoC3S1': 3.99, 'temp': 24.88, 'lipoC3S3': 12.09, 'lipoC3S2': 7.99, 'rot1': 0, 'rot0': 0, 'rot3': 0, 'rot2': 0, 'state': 'normal', 'yaw': 0.0, 'datetime': '2018-10-05 14:45:20.639847', 'mgs': 1, 'volt': 0.7813, 'depth': -0.293, 'time': 3, 'pitch': 73.2, 'roll': -82.29, 'pres': 160}
{'lipoC2': 8.11, 'lipoC3S1': 3.99, 'temp': 24.88, 'lipoC3S3': 12.09, 'lipoC3S2': 7.99, 'rot1': 0, 'rot0': 0, 'rot3': 0, 'rot2': 0, 'state': 'normal', 'yaw': 0.0, 'datetime': '2018-10-05 14:45:20.655390', 'mgs': 1, 'volt': 0.7813, 'depth': -0.293, 'time': 3, 'pitch': 73.2, 'roll': -82.29, 'pres': 160}
{'lipoC2': 8.11, 'lipoC3S1': 3.99, 'temp': 24.88, 'lipoC3S3': 12.09, 'lipoC3S2': 7.99, 'rot1': 0, 'rot0': 0, 'rot3': 0, 'rot2': 0, 'state': 'normal', 'yaw': 0.0, 'datetime': '2018-10-05 14:45:20.670934', 'mgs': 1, 'volt': 0.7813, 'depth': -0.293, 'time': 3, 'pitch': 73.2, 'roll': -82.29, 'pres': 160}
{'lipoC2': 8.11, 'lipoC3S1': 3.99, 'temp': 24.88, 'lipoC3S3': 12.09, 'lipoC3S2': 7.99, 'rot1': 0, 'rot0': 0, 'rot3': 0, 'rot2': 0, 'state': 'normal', 'yaw': 0.0, 'datetime': '2018-10-05 14:45:20.686488', 'mgs': 1, 'volt': 0.7813, 'depth': -0.293, 'time': 3, 'pitch': 73.2, 'roll': -82.29, 'pres': 160}
{'lipoC2': 8.11, 'lipoC3S1': 3.99, 'temp': 24.81, 'lipoC3S3': 12.09, 'lipoC3S2': 7.99, 'rot1': 0, 'rot0': 0, 'rot3': 0, 'rot2': 0, 'state': 'normal', 'yaw': 0.0, 'datetime': '2018-10-05 14:45:20.702044', 'mgs': 1, 'volt': 0.7813, 'depth': -0.293, 'time': 3, 'pitch': 73.2, 'roll': -82.29, 'pres': 160}
{'lipoC2': 8.11, 'lipoC3S1': 3.99, 'temp': 24.81, 'lipoC3S3': 12.09, 'lipoC3S2': 7.99, 'rot1': 0, 'rot0': 0, 'rot3': 0, 'rot2': 0, 'state': 'normal', 'yaw': 0.0, 'datetime': '2018-10-05 14:45:20.717606', 'mgs': 1, 'volt': 0.7813, 'depth': -0.293, 'time': 3, 'pitch': 73.2, 'roll': -82.29, 'pres': 160}
{'lipoC2': 8.11, 'lipoC3S1': 3.98, 'temp': 24.81, 'lipoC3S3': 12.09, 'lipoC3S2': 7.99, 'rot1': 0, 'rot0': 0, 'rot3': 0, 'rot2': 0, 'state': 'normal', 'yaw': 0.0, 'datetime': '2018-10-05 14:45:20.733148', 'mgs': 1, 'volt': 0.7861, 'depth': -0.217, 'time': 3, 'pitch': 73.2, 'roll': -82.29, 'pres': 161}
{'lipoC2': 8.11, 'lipoC3S1': 3.99, 'temp': 24.81, 'lipoC3S3': 12.09, 'lipoC3S2': 7.99, 'rot1': 0, 'rot0': 0, 'rot3': 0, 'rot2': 0, 'state': 'normal', 'yaw': 0.0, 'datetime': '2018-10-05 14:45:20.748685', 'mgs': 1, 'volt': 0.7813, 'depth': -0.293, 'time': 3, 'pitch': 73.2, 'roll': -82.29, 'pres': 160}
{'lipoC2': 8.11, 'lipoC3S1': 3.99, 'temp': 24.81, 'lipoC3S3': 12.09, 'lipoC3S2': 7.99, 'rot1': 0, 'rot0': 0, 'rot3': 0, 'rot2': 0, 'state': 'normal', 'yaw': 0.0, 'datetime': '2018-10-05 14:45:20.764212', 'mgs': 1, 'volt': 0.7813, 'depth': -0.293, 'time': 3, 'pitch': 73.2, 'roll': -82.29, 'pres': 160}
{'lipoC2': 8.11, 'lipoC3S1': 3.98, 'temp': 24.88, 'lipoC3S3': 12.09, 'lipoC3S2': 7.99, 'rot1': 0, 'rot0': 0, 'rot3': 0, 'rot2': 0, 'state': 'normal', 'yaw': 0.0, 'datetime': '2018-10-05 14:45:20.779783', 'mgs': 1, 'volt': 0.7813, 'depth': -0.293, 'time': 1, 'pitch': 73.2, 'roll': -82.29, 'pres': 160}
{'lipoC2': 8.11, 'lipoC3S1': 3.99, 'temp': 24.88, 'lipoC3S3': 12.09, 'lipoC3S2': 7.99, 'rot1': 0, 'rot0': 0, 'rot3': 0, 'rot2': 0, 'state': 'normal', 'yaw': 0.0, 'datetime': '2018-10-05 14:45:20.795337', 'mgs': 1, 'volt': 0.7861, 'depth': -0.217, 'time': 1, 'pitch': 73.2, 'roll': -82.29, 'pres': 161}
{'lipoC2': 8.11, 'lipoC3S1': 3.99, 'temp': 24.81, 'lipoC3S3': 12.09, 'lipoC3S2': 7.99, 'rot1': 0, 'rot0': 0, 'rot3': 0, 'rot2': 0, 'state': 'normal', 'yaw': 0.0, 'datetime': '2018-10-05 14:45:20.810912', 'mgs': 1, 'volt': 0.7813, 'depth': -0.293, 'time': 1, 'pitch': 73.2, 'roll': -82.29, 'pres': 160}
{'lipoC2': 8.11, 'lipoC3S1': 3.99, 'temp': 24.81, 'lipoC3S3': 12.09, 'lipoC3S2': 7.99, 'rot1': 0, 'rot0': 0, 'rot3': 0, 'rot2': 0, 'state': 'normal', 'yaw': 0.0, 'datetime': '2018-10-05 14:45:20.826495', 'mgs': 1, 'volt': 0.7861, 'depth': -0.217, 'time': 1, 'pitch': 73.2, 'roll': -82.29, 'pres': 161}
{'lipoC2': 8.11, 'lipoC3S1': 3.99, 'temp': 24.81, 'lipoC3S3': 12.09, 'lipoC3S2': 7.99, 'rot1': 0, 'rot0': 0, 'rot3': 0, 'rot2': 0, 'state': 'normal', 'yaw': 0.0, 'datetime': '2018-10-05 14:45:20.842176', 'mgs': 1, 'volt': 0.7861, 'depth': -0.217, 'time': 1, 'pitch': 73.2, 'roll': -82.29, 'pres': 161}
{'lipoC2': 8.11, 'lipoC3S1': 3.99, 'temp': 24.81, 'lipoC3S3': 12.09, 'lipoC3S2': 7.99, 'rot1': 0, 'rot0': 0, 'rot3': 0, 'rot2': 0, 'state': 'normal', 'yaw': 0.0, 'datetime': '2018-10-05 14:45:20.857750', 'mgs': 1, 'volt': 0.7813, 'depth': -0.293, 'time': 1, 'pitch': 73.2, 'roll': -82.29, 'pres': 160}
{'lipoC2': 8.11, 'lipoC3S1': 3.99, 'temp': 24.81, 'lipoC3S3': 12.09, 'lipoC3S2': 7.99, 'rot1': 0, 'rot0': 0, 'rot3': 0, 'rot2': 0, 'state': 'normal', 'yaw': 0.0, 'datetime': '2018-10-05 14:45:20.873272', 'mgs': 1, 'volt': 0.7861, 'depth': -0.217, 'time': 1, 'pitch': 73.2, 'roll': -82.29, 'pres': 161}
{'lipoC2': 8.11, 'lipoC3S1': 3.99, 'temp': 24.81, 'lipoC3S3': 12.09, 'lipoC3S2': 7.99, 'rot1': 0, 'rot0': 0, 'rot3': 0, 'rot2': 0, 'state': 'normal', 'yaw': 0.0, 'datetime': '2018-10-05 14:45:20.888821', 'mgs': 1, 'volt': 0.7813, 'depth': -0.293, 'time': 1, 'pitch': 73.2, 'roll': -82.29, 'pres': 160}
{'lipoC2': 8.11, 'lipoC3S1': 3.99, 'temp': 24.81, 'lipoC3S3': 12.08, 'lipoC3S2': 7.99, 'rot1': 0, 'rot0': 0, 'rot3': 0, 'rot2': 0, 'state': 'normal', 'yaw': 0.0, 'datetime': '2018-10-05 14:45:20.904321', 'mgs': 1, 'volt': 0.7813, 'depth': -0.293, 'time': 2, 'pitch': 73.2, 'roll': -82.29, 'pres': 160}
{'lipoC2': 8.11, 'lipoC3S1': 3.99, 'temp': 24.81, 'lipoC3S3': 12.09, 'lipoC3S2': 7.99, 'rot1': 0, 'rot0': 0, 'rot3': 0, 'rot2': 0, 'state': 'normal', 'yaw': 0.0, 'datetime': '2018-10-05 14:45:20.919876', 'mgs': 1, 'volt': 0.7813, 'depth': -0.293, 'time': 2, 'pitch': 73.2, 'roll': -82.29, 'pres': 160}
{'lipoC2': 8.11, 'lipoC3S1': 3.98, 'temp': 24.81, 'lipoC3S3': 12.09, 'lipoC3S2': 7.99, 'rot1': 0, 'rot0': 0, 'rot3': 0, 'rot2': 0, 'state': 'normal', 'yaw': 0.0, 'datetime': '2018-10-05 14:45:20.935445', 'mgs': 1, 'volt': 0.7813, 'depth': -0.293, 'time': 2, 'pitch': 73.2, 'roll': -82.29, 'pres': 160}
{'lipoC2': 8.11, 'lipoC3S1': 3.98, 'temp': 24.81, 'lipoC3S3': 12.09, 'lipoC3S2': 7.99, 'rot1': 0, 'rot0': 0, 'rot3': 0, 'rot2': 0, 'state': 'normal', 'yaw': 0.0, 'datetime': '2018-10-05 14:45:20.950986', 'mgs': 1, 'volt': 0.7861, 'depth': -0.217, 'time': 2, 'pitch': 73.2, 'roll': -82.29, 'pres': 161}
{'lipoC2': 8.11, 'lipoC3S1': 3.99, 'temp': 24.81, 'lipoC3S3': 12.09, 'lipoC3S2': 7.99, 'rot1': 0, 'rot0': 0, 'rot3': 0, 'rot2': 0, 'state': 'normal', 'yaw': 0.0, 'datetime': '2018-10-05 14:45:20.966557', 'mgs': 1, 'volt': 0.7861, 'depth': -0.217, 'time': 2, 'pitch': 73.2, 'roll': -82.29, 'pres': 161}
{'lipoC2': 8.11, 'lipoC3S1': 3.99, 'temp': 24.81, 'lipoC3S3': 12.09, 'lipoC3S2': 7.99, 'rot1': 0, 'rot0': 0, 'rot3': 0, 'rot2': 0, 'state': 'normal', 'yaw': 0.0, 'datetime': '2018-10-05 14:45:20.982101', 'mgs': 1, 'volt': 0.7861, 'depth': -0.217, 'time': 2, 'pitch': 73.2, 'roll': -82.29, 'pres': 161}
{'lipoC2': 8.11, 'lipoC3S1': 3.99, 'temp': 24.88, 'lipoC3S3': 12.09, 'lipoC3S2': 7.99, 'rot1': 0, 'rot0': 0, 'rot3': 0, 'rot2': 0, 'state': 'normal', 'yaw': 0.0, 'datetime': '2018-10-05 14:45:20.997668', 'mgs': 1, 'volt': 0.7813, 'depth': -0.293, 'time': 2, 'pitch': 73.2, 'roll': -82.29, 'pres': 160}
{'lipoC2': 8.11, 'lipoC3S1': 3.99, 'temp': 24.88, 'lipoC3S3': 12.09, 'lipoC3S2': 7.99, 'rot1': 0, 'rot0': 0, 'rot3': 0, 'rot2': 0, 'state': 'normal', 'yaw': 0.0, 'datetime': '2018-10-05 14:45:21.013194', 'mgs': 1, 'volt': 0.7861, 'depth': -0.217, 'time': 2, 'pitch': 73.2, 'roll': -82.29, 'pres': 161}
{'lipoC2': 8.11, 'lipoC3S1': 3.99, 'temp': 24.81, 'lipoC3S3': 12.09, 'lipoC3S2': 7.99, 'rot1': 0, 'rot0': 0, 'rot3': 0, 'rot2': 0, 'state': 'normal', 'yaw': 0.0, 'datetime': '2018-10-05 14:45:21.028760', 'mgs': 1, 'volt': 0.7813, 'depth': -0.293, 'time': 2, 'pitch': 73.2, 'roll': -82.29, 'pres': 160}
{'lipoC2': 8.11, 'lipoC3S1': 3.99, 'temp': 24.81, 'lipoC3S3': 12.09, 'lipoC3S2': 7.99, 'rot1': 0, 'rot0': 0, 'rot3': 0, 'rot2': 0, 'state': 'normal', 'yaw': 0.0, 'datetime': '2018-10-05 14:45:21.044482', 'mgs': 1, 'volt': 0.7813, 'depth': -0.293, 'time': 3, 'pitch': 73.2, 'roll': -82.29, 'pres': 160}
{'lipoC2': 8.11, 'lipoC3S1': 3.99, 'temp': 24.81, 'lipoC3S3': 12.09, 'lipoC3S2': 7.99, 'rot1': 0, 'rot0': 0, 'rot3': 0, 'rot2': 0, 'state': 'normal', 'yaw': 0.0, 'datetime': '2018-10-05 14:45:21.060043', 'mgs': 1, 'volt': 0.7813, 'depth': -0.293, 'time': 3, 'pitch': 73.2, 'roll': -82.29, 'pres': 160}
{'lipoC2': 8.11, 'lipoC3S1': 3.99, 'temp': 24.81, 'lipoC3S3': 12.09, 'lipoC3S2': 7.99, 'rot1': 0, 'rot0': 0, 'rot3': 0, 'rot2': 0, 'state': 'normal', 'yaw': 0.0, 'datetime': '2018-10-05 14:45:21.075569', 'mgs': 1, 'volt': 0.7813, 'depth': -0.293, 'time': 3, 'pitch': 73.2, 'roll': -82.29, 'pres': 160}
{'lipoC2': 8.11, 'lipoC3S1': 3.99, 'temp': 24.81, 'lipoC3S3': 12.09, 'lipoC3S2': 7.99, 'rot1': 0, 'rot0': 0, 'rot3': 0, 'rot2': 0, 'state': 'normal', 'yaw': 0.0, 'datetime': '2018-10-05 14:45:21.091107', 'mgs': 1, 'volt': 0.7813, 'depth': -0.293, 'time': 3, 'pitch': 73.2, 'roll': -82.29, 'pres': 160}
{'lipoC2': 8.11, 'lipoC3S1': 3.99, 'temp': 24.88, 'lipoC3S3': 12.09, 'lipoC3S2': 7.99, 'rot1': 0, 'rot0': 0, 'rot3': 0, 'rot2': 0, 'state': 'normal', 'yaw': 0.0, 'datetime': '2018-10-05 14:45:21.106646', 'mgs': 1, 'volt': 0.7861, 'depth': -0.217, 'time': 3, 'pitch': 73.2, 'roll': -82.29, 'pres': 161}
{'lipoC2': 8.11, 'lipoC3S1': 3.99, 'temp': 24.88, 'lipoC3S3': 12.09, 'lipoC3S2': 7.99, 'rot1': 0, 'rot0': 0, 'rot3': 0, 'rot2': 0, 'state': 'normal', 'yaw': 0.0, 'datetime': '2018-10-05 14:45:21.122159', 'mgs': 1, 'volt': 0.7861, 'depth': -0.217, 'time': 3, 'pitch': 73.2, 'roll': -82.29, 'pres': 161}
{'lipoC2': 8.11, 'lipoC3S1': 3.99, 'temp': 24.81, 'lipoC3S3': 12.09, 'lipoC3S2': 7.99, 'rot1': 0, 'rot0': 0, 'rot3': 0, 'rot2': 0, 'state': 'normal', 'yaw': 0.0, 'datetime': '2018-10-05 14:45:21.137715', 'mgs': 1, 'volt': 0.7813, 'depth': -0.293, 'time': 3, 'pitch': 73.2, 'roll': -82.29, 'pres': 160}
{'lipoC2': 8.11, 'lipoC3S1': 3.99, 'temp': 24.81, 'lipoC3S3': 12.09, 'lipoC3S2': 7.99, 'rot1': 0, 'rot0': 0, 'rot3': 0, 'rot2': 0, 'state': 'normal', 'yaw': 0.0, 'datetime': '2018-10-05 14:45:21.153258', 'mgs': 1, 'volt': 0.7861, 'depth': -0.217, 'time': 3, 'pitch': 73.2, 'roll': -82.29, 'pres': 161}
{'lipoC2': 8.11, 'lipoC3S1': 3.99, 'temp': 24.81, 'lipoC3S3': 12.09, 'lipoC3S2': 7.99, 'rot1': 0, 'rot0': 0, 'rot3': 0, 'rot2': 0, 'state': 'normal', 'yaw': 0.0, 'datetime': '2018-10-05 14:45:21.168795', 'mgs': 1, 'volt': 0.7861, 'depth': -0.217, 'time': 3, 'pitch': 73.2, 'roll': -82.29, 'pres': 161}
{'lipoC2': 8.11, 'lipoC3S1': 3.99, 'temp': 24.81, 'lipoC3S3': 12.09, 'lipoC3S2': 7.99, 'rot1': 0, 'rot0': 0, 'rot3': 0, 'rot2': 0, 'state': 'normal', 'yaw': 0.0, 'datetime': '2018-10-05 14:45:21.184295', 'mgs': 1, 'volt': 0.7813, 'depth': -0.293, 'time': 3, 'pitch': 73.2, 'roll': -82.29, 'pres': 160}
{'lipoC2': 8.11, 'lipoC3S1': 3.99, 'temp': 24.81, 'lipoC3S3': 12.09, 'lipoC3S2': 7.99, 'rot1': 0, 'rot0': 0, 'rot3': 0, 'rot2': 0, 'state': 'normal', 'yaw': 0.0, 'datetime': '2018-10-05 14:45:21.199878', 'mgs': 1, 'volt': 0.7813, 'depth': -0.293, 'time': 4, 'pitch': 73.2, 'roll': -82.29, 'pres': 160}
{'lipoC2': 8.11, 'lipoC3S1': 3.99, 'temp': 24.81, 'lipoC3S3': 12.09, 'lipoC3S2': 7.99, 'rot1': 0, 'rot0': 0, 'rot3': 0, 'rot2': 0, 'state': 'normal', 'yaw': 0.0, 'datetime': '2018-10-05 14:45:21.215469', 'mgs': 1, 'volt': 0.7813, 'depth': -0.293, 'time': 4, 'pitch': 73.2, 'roll': -82.29, 'pres': 160}
{'lipoC2': 8.11, 'lipoC3S1': 3.98, 'temp': 24.81, 'lipoC3S3': 12.09, 'lipoC3S2': 7.99, 'rot1': 0, 'rot0': 0, 'rot3': 0, 'rot2': 0, 'state': 'normal', 'yaw': 0.0, 'datetime': '2018-10-05 14:45:21.231017', 'mgs': 1, 'volt': 0.7861, 'depth': -0.217, 'time': 4, 'pitch': 73.2, 'roll': -82.29, 'pres': 161}
{'lipoC2': 8.11, 'lipoC3S1': 3.98, 'temp': 24.81, 'lipoC3S3': 12.09, 'lipoC3S2': 7.99, 'rot1': 0, 'rot0': 0, 'rot3': 0, 'rot2': 0, 'state': 'normal', 'yaw': 0.0, 'datetime': '2018-10-05 14:45:21.246566', 'mgs': 1, 'volt': 0.7861, 'depth': -0.217, 'time': 4, 'pitch': 73.2, 'roll': -82.29, 'pres': 161}
{'lipoC2': 8.11, 'lipoC3S1': 3.99, 'temp': 24.81, 'lipoC3S3': 12.09, 'lipoC3S2': 7.99, 'rot1': 0, 'rot0': 0, 'rot3': 0, 'rot2': 0, 'state': 'normal', 'yaw': 0.0, 'datetime': '2018-10-05 14:45:21.262254', 'mgs': 1, 'volt': 0.7861, 'depth': -0.217, 'time': 4, 'pitch': 73.2, 'roll': -82.29, 'pres': 161}
{'lipoC2': 8.11, 'lipoC3S1': 3.99, 'temp': 24.81, 'lipoC3S3': 12.09, 'lipoC3S2': 7.99, 'rot1': 0, 'rot0': 0, 'rot3': 0, 'rot2': 0, 'state': 'normal', 'yaw': 0.0, 'datetime': '2018-10-05 14:45:21.277782', 'mgs': 1, 'volt': 0.7861, 'depth': -0.217, 'time': 4, 'pitch': 73.2, 'roll': -82.29, 'pres': 161}
{'lipoC2': 8.11, 'lipoC3S1': 3.99, 'temp': 24.81, 'lipoC3S3': 12.09, 'lipoC3S2': 7.99, 'rot1': 0, 'rot0': 0, 'rot3': 0, 'rot2': 0, 'state': 'normal', 'yaw': 0.0, 'datetime': '2018-10-05 14:45:21.293320', 'mgs': 1, 'volt': 0.7813, 'depth': -0.293, 'time': 4, 'pitch': 73.2, 'roll': -82.29, 'pres': 160}
{'lipoC2': 8.11, 'lipoC3S1': 3.99, 'temp': 24.81, 'lipoC3S3': 12.09, 'lipoC3S2': 7.99, 'rot1': 0, 'rot0': 0, 'rot3': 0, 'rot2': 0, 'state': 'normal', 'yaw': 0.0, 'datetime': '2018-10-05 14:45:21.308863', 'mgs': 1, 'volt': 0.7861, 'depth': -0.217, 'time': 4, 'pitch': 73.2, 'roll': -82.29, 'pres': 161}
{'lipoC2': 8.11, 'lipoC3S1': 3.99, 'temp': 24.81, 'lipoC3S3': 12.09, 'lipoC3S2': 7.99, 'rot1': 0, 'rot0': 0, 'rot3': 0, 'rot2': 0, 'state': 'normal', 'yaw': 0.0, 'datetime': '2018-10-05 14:45:21.324384', 'mgs': 1, 'volt': 0.7861, 'depth': -0.217, 'time': 4, 'pitch': 73.2, 'roll': -82.29, 'pres': 161}
{'lipoC2': 8.11, 'lipoC3S1': 3.98, 'temp': 24.81, 'lipoC3S3': 12.09, 'lipoC3S2': 7.99, 'rot1': 0, 'rot0': 0, 'rot3': 0, 'rot2': 0, 'state': 'normal', 'yaw': 0.0, 'datetime': '2018-10-05 14:45:21.339939', 'mgs': 1, 'volt': 0.7861, 'depth': -0.217, 'time': 4, 'pitch': 73.2, 'roll': -82.29, 'pres': 161}
{'lipoC2': 8.11, 'lipoC3S1': 3.98, 'temp': 24.88, 'lipoC3S3': 12.09, 'lipoC3S2': 7.99, 'rot1': 0, 'rot0': 0, 'rot3': 0, 'rot2': 0, 'state': 'normal', 'yaw': 0.0, 'datetime': '2018-10-05 14:45:21.355484', 'mgs': 1, 'volt': 0.7813, 'depth': -0.293, 'time': 5, 'pitch': 73.2, 'roll': -82.29, 'pres': 160}
{'lipoC2': 8.11, 'lipoC3S1': 3.99, 'temp': 24.88, 'lipoC3S3': 12.09, 'lipoC3S2': 7.99, 'rot1': 0, 'rot0': 0, 'rot3': 0, 'rot2': 0, 'state': 'normal', 'yaw': 0.0, 'datetime': '2018-10-05 14:45:21.371065', 'mgs': 1, 'volt': 0.7861, 'depth': -0.217, 'time': 5, 'pitch': 73.2, 'roll': -82.29, 'pres': 161}
{'lipoC2': 8.11, 'lipoC3S1': 3.99, 'temp': 24.88, 'lipoC3S3': 12.08, 'lipoC3S2': 7.99, 'rot1': 0, 'rot0': 0, 'rot3': 0, 'rot2': 0, 'state': 'normal', 'yaw': 0.0, 'datetime': '2018-10-05 14:45:21.386067', 'mgs': 1, 'volt': 0.7861, 'depth': -0.217, 'time': 5, 'pitch': 73.2, 'roll': -82.29, 'pres': 161}
{'lipoC2': 8.11, 'lipoC3S1': 3.99, 'temp': 24.81, 'lipoC3S3': 12.09, 'lipoC3S2': 7.99, 'rot1': 0, 'rot0': 0, 'rot3': 0, 'rot2': 0, 'state': 'normal', 'yaw': 0.0, 'datetime': '2018-10-05 14:45:21.401034', 'mgs': 1, 'volt': 0.7861, 'depth': -0.217, 'time': 5, 'pitch': 73.2, 'roll': -82.29, 'pres': 161}
{'lipoC2': 8.11, 'lipoC3S1': 3.99, 'temp': 24.81, 'lipoC3S3': 12.09, 'lipoC3S2': 7.99, 'rot1': 0, 'rot0': 0, 'rot3': 0, 'rot2': 0, 'state': 'normal', 'yaw': 0.0, 'datetime': '2018-10-05 14:45:21.416002', 'mgs': 1, 'volt': 0.7861, 'depth': -0.217, 'time': 5, 'pitch': 73.2, 'roll': -82.29, 'pres': 161}
{'lipoC2': 8.11, 'lipoC3S1': 3.99, 'temp': 24.81, 'lipoC3S3': 12.09, 'lipoC3S2': 7.99, 'rot1': 0, 'rot0': 0, 'rot3': 0, 'rot2': 0, 'state': 'normal', 'yaw': 0.0, 'datetime': '2018-10-05 14:45:21.431008', 'mgs': 1, 'volt': 0.7861, 'depth': -0.217, 'time': 5, 'pitch': 73.2, 'roll': -82.29, 'pres': 161}
{'lipoC2': 8.11, 'lipoC3S1': 3.99, 'temp': 24.81, 'lipoC3S3': 12.09, 'lipoC3S2': 7.99, 'rot1': 0, 'rot0': 0, 'rot3': 0, 'rot2': 0, 'state': 'normal', 'yaw': 0.0, 'datetime': '2018-10-05 14:45:21.446044', 'mgs': 1, 'volt': 0.7861, 'depth': -0.217, 'time': 5, 'pitch': 73.2, 'roll': -82.29, 'pres': 161}
{'lipoC2': 8.11, 'lipoC3S1': 3.99, 'temp': 24.88, 'lipoC3S3': 12.09, 'lipoC3S2': 7.99, 'rot1': 0, 'rot0': 0, 'rot3': 0, 'rot2': 0, 'state': 'normal', 'yaw': 0.0, 'datetime': '2018-10-05 14:45:21.461183', 'mgs': 1, 'volt': 0.7813, 'depth': -0.293, 'time': 5, 'pitch': 73.2, 'roll': -82.29, 'pres': 160}
{'lipoC2': 8.11, 'lipoC3S1': 3.98, 'temp': 24.88, 'lipoC3S3': 12.08, 'lipoC3S2': 7.98, 'rot1': 0, 'rot0': 0, 'rot3': 0, 'rot2': 0, 'state': 'normal', 'yaw': 0.0, 'datetime': '2018-10-05 14:45:21.476171', 'mgs': 1, 'volt': 0.7813, 'depth': -0.293, 'time': 5, 'pitch': 73.2, 'roll': -82.29, 'pres': 160}
{'lipoC2': 8.1, 'lipoC3S1': 3.98, 'temp': 24.88, 'lipoC3S3': 12.08, 'lipoC3S2': 7.98, 'rot1': 0, 'rot0': 0, 'rot3': 0, 'rot2': 0, 'state': 'normal', 'yaw': 0.0, 'datetime': '2018-10-05 14:45:21.491159', 'mgs': 1, 'volt': 0.7861, 'depth': -0.217, 'time': 6, 'pitch': 73.2, 'roll': -82.29, 'pres': 161}
{'lipoC2': 8.11, 'lipoC3S1': 3.98, 'temp': 24.88, 'lipoC3S3': 12.08, 'lipoC3S2': 7.98, 'rot1': 0, 'rot0': 0, 'rot3': 0, 'rot2': 0, 'state': 'normal', 'yaw': 0.0, 'datetime': '2018-10-05 14:45:21.506108', 'mgs': 1, 'volt': 0.7813, 'depth': -0.293, 'time': 6, 'pitch': 73.2, 'roll': -82.29, 'pres': 160}
{'lipoC2': 8.11, 'lipoC3S1': 3.98, 'temp': 24.88, 'lipoC3S3': 12.08, 'lipoC3S2': 7.92, 'rot1': 0, 'rot0': 1, 'rot3': 0, 'rot2': 0, 'state': 'normal', 'yaw': 0.0, 'datetime': '2018-10-05 14:45:21.521061', 'mgs': 1, 'volt': 0.7813, 'depth': -0.293, 'time': 6, 'pitch': 73.2, 'roll': -82.29, 'pres': 160}
{'lipoC2': 8.11, 'lipoC3S1': 3.98, 'temp': 24.75, 'lipoC3S3': 12.08, 'lipoC3S2': 7.98, 'rot1': 0, 'rot0': 1, 'rot3': 0, 'rot2': 0, 'state': 'normal', 'yaw': 0.0, 'datetime': '2018-10-05 14:45:21.536085', 'mgs': 1, 'volt': 0.7813, 'depth': -0.293, 'time': 6, 'pitch': 73.2, 'roll': -82.29, 'pres': 160}
{'lipoC2': 8.11, 'lipoC3S1': 3.98, 'temp': 24.75, 'lipoC3S3': 12.05, 'lipoC3S2': 7.98, 'rot1': 0, 'rot0': 2, 'rot3': 0, 'rot2': 0, 'state': 'normal', 'yaw': 0.0, 'datetime': '2018-10-05 14:45:21.551046', 'mgs': 1, 'volt': 0.7813, 'depth': -0.293, 'time': 6, 'pitch': 73.2, 'roll': -82.29, 'pres': 160}
{'lipoC2': 8.1, 'lipoC3S1': 3.98, 'temp': 24.81, 'lipoC3S3': 12.06, 'lipoC3S2': 7.99, 'rot1': 0, 'rot0': 3, 'rot3': 0, 'rot2': 0, 'state': 'normal', 'yaw': 0.0, 'datetime': '2018-10-05 14:45:21.566029', 'mgs': 1, 'volt': 0.7813, 'depth': -0.293, 'time': 6, 'pitch': 73.2, 'roll': -82.29, 'pres': 160}
{'lipoC2': 8.1, 'lipoC3S1': 3.98, 'temp': 24.81, 'lipoC3S3': 12.08, 'lipoC3S2': 7.98, 'rot1': 0, 'rot0': 3, 'rot3': 0, 'rot2': 0, 'state': 'normal', 'yaw': 0.0, 'datetime': '2018-10-05 14:45:21.581004', 'mgs': 1, 'volt': 0.7813, 'depth': -0.293, 'time': 6, 'pitch': 73.2, 'roll': -82.29, 'pres': 160}
{'lipoC2': 8.11, 'lipoC3S1': 3.98, 'temp': 24.81, 'lipoC3S3': 12.01, 'lipoC3S2': 7.98, 'rot1': 0, 'rot0': 4, 'rot3': 0, 'rot2': 0, 'state': 'normal', 'yaw': 0.0, 'datetime': '2018-10-05 14:45:21.595947', 'mgs': 1, 'volt': 0.7813, 'depth': -0.293, 'time': 6, 'pitch': 73.2, 'roll': -82.29, 'pres': 160}
{'lipoC2': 8.1, 'lipoC3S1': 3.98, 'temp': 24.75, 'lipoC3S3': 12.08, 'lipoC3S2': 7.97, 'rot1': 0, 'rot0': 4, 'rot3': 0, 'rot2': 0, 'state': 'normal', 'yaw': 0.0, 'datetime': '2018-10-05 14:45:21.610909', 'mgs': 1, 'volt': 0.7813, 'depth': -0.293, 'time': 6, 'pitch': 73.2, 'roll': -82.29, 'pres': 160}
{'lipoC2': 8.1, 'lipoC3S1': 3.98, 'temp': 24.75, 'lipoC3S3': 12.08, 'lipoC3S2': 7.98, 'rot1': 0, 'rot0': 5, 'rot3': 0, 'rot2': 0, 'state': 'normal', 'yaw': 0.0, 'datetime': '2018-10-05 14:45:21.625838', 'mgs': 1, 'volt': 0.8008, 'depth': 0.012, 'time': 6, 'pitch': 73.2, 'roll': -82.29, 'pres': 164}
{'lipoC2': 8.1, 'lipoC3S1': 3.98, 'temp': 24.75, 'lipoC3S3': 12.08, 'lipoC3S2': 7.98, 'rot1': 0, 'rot0': 5, 'rot3': 0, 'rot2': 0, 'state': 'normal', 'yaw': 0.0, 'datetime': '2018-10-05 14:45:21.640864', 'mgs': 1, 'volt': 0.7764, 'depth': -0.369, 'time': 7, 'pitch': 73.2, 'roll': -82.29, 'pres': 159}
{'lipoC2': 8.1, 'lipoC3S1': 3.98, 'temp': 24.75, 'lipoC3S3': 12.08, 'lipoC3S2': 7.98, 'rot1': 0, 'rot0': 6, 'rot3': 0, 'rot2': 0, 'state': 'normal', 'yaw': 0.0, 'datetime': '2018-10-05 14:45:21.655891', 'mgs': 1, 'volt': 0.7813, 'depth': -0.293, 'time': 7, 'pitch': 73.2, 'roll': -82.29, 'pres': 160}
{'lipoC2': 8.11, 'lipoC3S1': 3.98, 'temp': 24.81, 'lipoC3S3': 12.08, 'lipoC3S2': 7.98, 'rot1': 0, 'rot0': 6, 'rot3': 0, 'rot2': 0, 'state': 'normal', 'yaw': 0.0, 'datetime': '2018-10-05 14:45:21.751756', 'mgs': 1, 'volt': 0.7813, 'depth': -0.293, 'time': 7, 'pitch': 73.2, 'roll': -82.29, 'pres': 160}
{'lipoC2': 8.11, 'lipoC3S1': 3.98, 'temp': 24.81, 'lipoC3S3': 12.08, 'lipoC3S2': 7.98, 'rot1': 0, 'rot0': 7, 'rot3': 0, 'rot2': 0, 'state': 'normal', 'yaw': 0.0, 'datetime': '2018-10-05 14:45:21.855540', 'mgs': 1, 'volt': 0.7813, 'depth': -0.293, 'time': 7, 'pitch': 73.2, 'roll': -82.29, 'pres': 160}
{'lipoC2': 8.11, 'lipoC3S1': 3.98, 'temp': 24.81, 'lipoC3S3': 12.08, 'lipoC3S2': 7.96, 'rot1': 0, 'rot0': 8, 'rot3': 0, 'rot2': 0, 'state': 'normal', 'yaw': 0.0, 'datetime': '2018-10-05 14:45:21.959548', 'mgs': 1, 'volt': 0.7813, 'depth': -0.293, 'time': 7, 'pitch': 73.2, 'roll': -82.29, 'pres': 160}
{'lipoC2': 8.11, 'lipoC3S1': 3.98, 'temp': 24.81, 'lipoC3S3': 12.08, 'lipoC3S2': 7.98, 'rot1': 0, 'rot0': 8, 'rot3': 0, 'rot2': 0, 'state': 'normal', 'yaw': 0.0, 'datetime': '2018-10-05 14:45:22.062983', 'mgs': 1, 'volt': 0.7813, 'depth': -0.293, 'time': 7, 'pitch': 73.2, 'roll': -82.29, 'pres': 160}
{'lipoC2': 8.11, 'lipoC3S1': 3.98, 'temp': 24.81, 'lipoC3S3': 12.06, 'lipoC3S2': 7.98, 'rot1': 0, 'rot0': 9, 'rot3': 0, 'rot2': 0, 'state': 'normal', 'yaw': 0.0, 'datetime': '2018-10-05 14:45:22.166841', 'mgs': 1, 'volt': 0.7813, 'depth': -0.293, 'time': 7, 'pitch': 73.2, 'roll': -82.29, 'pres': 160}
{'lipoC2': 8.11, 'lipoC3S1': 3.98, 'temp': 24.88, 'lipoC3S3': 12.06, 'lipoC3S2': 7.98, 'rot1': 0, 'rot0': 9, 'rot3': 0, 'rot2': 0, 'state': 'normal', 'yaw': 0.0, 'datetime': '2018-10-05 14:45:22.270215', 'mgs': 1, 'volt': 0.7813, 'depth': -0.293, 'time': 7, 'pitch': 73.2, 'roll': -82.29, 'pres': 160}
{'lipoC2': 8.11, 'lipoC3S1': 3.98, 'temp': 24.88, 'lipoC3S3': 12.06, 'lipoC3S2': 7.98, 'rot1': 0, 'rot0': 10, 'rot3': 0, 'rot2': 0, 'state': 'normal', 'yaw': 0.0, 'datetime': '2018-10-05 14:45:22.375009', 'mgs': 1, 'volt': 0.7861, 'depth': -0.217, 'time': 7, 'pitch': 73.2, 'roll': -82.29, 'pres': 161}
{'lipoC2': 8.11, 'lipoC3S1': 3.98, 'temp': 24.81, 'lipoC3S3': 12.06, 'lipoC3S2': 7.98, 'rot1': 0, 'rot0': 11, 'rot3': 0, 'rot2': 0, 'state': 'normal', 'yaw': 0.0, 'datetime': '2018-10-05 14:45:22.478404', 'mgs': 1, 'volt': 0.8105, 'depth': 0.165, 'time': 7, 'pitch': 73.2, 'roll': -82.29, 'pres': 166}
{'lipoC2': 8.11, 'lipoC3S1': 3.98, 'temp': 24.81, 'lipoC3S3': 12.08, 'lipoC3S2': 7.98, 'rot1': 0, 'rot0': 11, 'rot3': 0, 'rot2': 0, 'state': 'normal', 'yaw': 0.0, 'datetime': '2018-10-05 14:45:22.581844', 'mgs': 1, 'volt': 0.8057, 'depth': 0.089, 'time': 8, 'pitch': 73.2, 'roll': -82.29, 'pres': 165}
{'lipoC2': 8.11, 'lipoC3S1': 3.98, 'temp': 24.81, 'lipoC3S3': 12.08, 'lipoC3S2': 7.98, 'rot1': 0, 'rot0': 12, 'rot3': 0, 'rot2': 0, 'state': 'normal', 'yaw': 0.0, 'datetime': '2018-10-05 14:45:22.686629', 'mgs': 1, 'volt': 0.7813, 'depth': -0.293, 'time': 8, 'pitch': 73.2, 'roll': -82.29, 'pres': 160}
{'lipoC2': 8.11, 'lipoC3S1': 3.98, 'temp': 24.88, 'lipoC3S3': 12.08, 'lipoC3S2': 7.96, 'rot1': 0, 'rot0': 12, 'rot3': 0, 'rot2': 0, 'state': 'normal', 'yaw': 0.0, 'datetime': '2018-10-05 14:45:22.790162', 'mgs': 1, 'volt': 0.7813, 'depth': -0.293, 'time': 8, 'pitch': 73.2, 'roll': -82.29, 'pres': 160}
{'lipoC2': 8.11, 'lipoC3S1': 3.98, 'temp': 24.88, 'lipoC3S3': 12.08, 'lipoC3S2': 7.92, 'rot1': 0, 'rot0': 13, 'rot3': 0, 'rot2': 0, 'state': 'normal', 'yaw': 0.0, 'datetime': '2018-10-05 14:45:22.893636', 'mgs': 1, 'volt': 0.7813, 'depth': -0.293, 'time': 8, 'pitch': 73.2, 'roll': -82.29, 'pres': 160}
{'lipoC2': 8.11, 'lipoC3S1': 3.98, 'temp': 24.88, 'lipoC3S3': 12.06, 'lipoC3S2': 7.98, 'rot1': 0, 'rot0': 13, 'rot3': 0, 'rot2': 0, 'state': 'normal', 'yaw': 0.0, 'datetime': '2018-10-05 14:45:22.998495', 'mgs': 1, 'volt': 0.7813, 'depth': -0.293, 'time': 8, 'pitch': 73.2, 'roll': -82.29, 'pres': 160}
{'lipoC2': 8.11, 'lipoC3S1': 3.98, 'temp': 24.88, 'lipoC3S3': 12.08, 'lipoC3S2': 7.98, 'rot1': 0, 'rot0': 14, 'rot3': 0, 'rot2': 0, 'state': 'normal', 'yaw': 0.0, 'datetime': '2018-10-05 14:45:23.102048', 'mgs': 1, 'volt': 0.7861, 'depth': -0.217, 'time': 8, 'pitch': 73.2, 'roll': -82.29, 'pres': 161}
{'lipoC2': 8.11, 'lipoC3S1': 3.98, 'temp': 24.88, 'lipoC3S3': 12.06, 'lipoC3S2': 8.0, 'rot1': 0, 'rot0': 14, 'rot3': 0, 'rot2': 0, 'state': 'normal', 'yaw': 0.0, 'datetime': '2018-10-05 14:45:23.206834', 'mgs': 1, 'volt': 0.7813, 'depth': -0.293, 'time': 8, 'pitch': 73.2, 'roll': -82.29, 'pres': 160}
{'lipoC2': 8.11, 'lipoC3S1': 3.98, 'temp': 24.88, 'lipoC3S3': 12.06, 'lipoC3S2': 7.98, 'rot1': 0, 'rot0': 15, 'rot3': 0, 'rot2': 0, 'state': 'normal', 'yaw': 0.0, 'datetime': '2018-10-05 14:45:23.310662', 'mgs': 1, 'volt': 0.7813, 'depth': -0.293, 'time': 8, 'pitch': 73.2, 'roll': -82.29, 'pres': 160}
{'lipoC2': 8.1, 'lipoC3S1': 3.98, 'temp': 24.88, 'lipoC3S3': 12.06, 'lipoC3S2': 7.98, 'rot1': 0, 'rot0': 16, 'rot3': 0, 'rot2': 0, 'state': 'normal', 'yaw': 0.0, 'datetime': '2018-10-05 14:45:23.414145', 'mgs': 1, 'volt': 0.7813, 'depth': -0.293, 'time': 8, 'pitch': 73.2, 'roll': -82.29, 'pres': 160}
{'lipoC2': 8.11, 'lipoC3S1': 3.98, 'temp': 24.88, 'lipoC3S3': 12.08, 'lipoC3S2': 7.98, 'rot1': 0, 'rot0': 16, 'rot3': 0, 'rot2': 0, 'state': 'normal', 'yaw': 0.0, 'datetime': '2018-10-05 14:45:23.517733', 'mgs': 1, 'volt': 0.7813, 'depth': -0.293, 'time': 9, 'pitch': 73.2, 'roll': -82.29, 'pres': 160}
{'lipoC2': 8.11, 'lipoC3S1': 3.99, 'temp': 24.88, 'lipoC3S3': 12.08, 'lipoC3S2': 7.97, 'rot1': 0, 'rot0': 17, 'rot3': 0, 'rot2': 0, 'state': 'normal', 'yaw': 0.0, 'datetime': '2018-10-05 14:45:23.621411', 'mgs': 1, 'volt': 0.7813, 'depth': -0.293, 'time': 9, 'pitch': 73.2, 'roll': -82.29, 'pres': 160}
{'lipoC2': 8.11, 'lipoC3S1': 3.96, 'temp': 24.88, 'lipoC3S3': 12.06, 'lipoC3S2': 7.98, 'rot1': 0, 'rot0': 17, 'rot3': 0, 'rot2': 0, 'state': 'normal', 'yaw': 0.0, 'datetime': '2018-10-05 14:45:23.724956', 'mgs': 1, 'volt': 0.7813, 'depth': -0.293, 'time': 9, 'pitch': 73.2, 'roll': -82.29, 'pres': 160}
{'lipoC2': 8.11, 'lipoC3S1': 3.98, 'temp': 24.88, 'lipoC3S3': 12.0, 'lipoC3S2': 7.97, 'rot1': 0, 'rot0': 18, 'rot3': 0, 'rot2': 0, 'state': 'normal', 'yaw': 0.0, 'datetime': '2018-10-05 14:45:23.829738', 'mgs': 1, 'volt': 0.7813, 'depth': -0.293, 'time': 9, 'pitch': 73.2, 'roll': -82.29, 'pres': 160}
{'lipoC2': 8.11, 'lipoC3S1': 3.98, 'temp': 24.88, 'lipoC3S3': 12.06, 'lipoC3S2': 7.98, 'rot1': 0, 'rot0': 18, 'rot3': 0, 'rot2': 0, 'state': 'normal', 'yaw': 0.0, 'datetime': '2018-10-05 14:45:23.933241', 'mgs': 1, 'volt': 0.7813, 'depth': -0.293, 'time': 9, 'pitch': 73.2, 'roll': -82.29, 'pres': 160}
{'lipoC2': 8.1, 'lipoC3S1': 3.98, 'temp': 24.88, 'lipoC3S3': 12.06, 'lipoC3S2': 7.97, 'rot1': 0, 'rot0': 19, 'rot3': 0, 'rot2': 0, 'state': 'normal', 'yaw': 0.0, 'datetime': '2018-10-05 14:45:24.040671', 'mgs': 1, 'volt': 0.7813, 'depth': -0.293, 'time': 9, 'pitch': 73.2, 'roll': -82.29, 'pres': 160}
{'lipoC2': 8.11, 'lipoC3S1': 3.97, 'temp': 24.88, 'lipoC3S3': 12.08, 'lipoC3S2': 7.98, 'rot1': 0, 'rot0': 19, 'rot3': 0, 'rot2': 0, 'state': 'normal', 'yaw': 0.0, 'datetime': '2018-10-05 14:45:24.147334', 'mgs': 1, 'volt': 0.7813, 'depth': -0.293, 'time': 9, 'pitch': 73.2, 'roll': -82.29, 'pres': 160}
{'lipoC2': 8.11, 'lipoC3S1': 3.95, 'temp': 24.88, 'lipoC3S3': 12.08, 'lipoC3S2': 7.98, 'rot1': 0, 'rot0': 20, 'rot3': 0, 'rot2': 0, 'state': 'normal', 'yaw': 0.0, 'datetime': '2018-10-05 14:45:24.250684', 'mgs': 1, 'volt': 0.7813, 'depth': -0.293, 'time': 9, 'pitch': 73.2, 'roll': -82.29, 'pres': 160}
{'lipoC2': 8.11, 'lipoC3S1': 3.98, 'temp': 24.88, 'lipoC3S3': 12.08, 'lipoC3S2': 7.92, 'rot1': 0, 'rot0': 21, 'rot3': 0, 'rot2': 0, 'state': 'normal', 'yaw': 0.0, 'datetime': '2018-10-05 14:45:24.355363', 'mgs': 1, 'volt': 0.7813, 'depth': -0.293, 'time': 9, 'pitch': 73.2, 'roll': -82.29, 'pres': 160}
{'lipoC2': 8.11, 'lipoC3S1': 3.98, 'temp': 24.88, 'lipoC3S3': 12.08, 'lipoC3S2': 7.98, 'rot1': 0, 'rot0': 21, 'rot3': 0, 'rot2': 0, 'state': 'normal', 'yaw': 0.0, 'datetime': '2018-10-05 14:45:24.459385', 'mgs': 1, 'volt': 0.7813, 'depth': -0.293, 'time': 9, 'pitch': 73.2, 'roll': -82.29, 'pres': 160}
{'lipoC2': 8.11, 'lipoC3S1': 3.98, 'temp': 24.88, 'lipoC3S3': 12.08, 'lipoC3S2': 7.98, 'rot1': 0, 'rot0': 22, 'rot3': 0, 'rot2': 0, 'state': 'normal', 'yaw': 0.0, 'datetime': '2018-10-05 14:45:24.563106', 'mgs': 1, 'volt': 0.7813, 'depth': -0.293, 'time': 10, 'pitch': 73.2, 'roll': -82.29, 'pres': 160}
{'lipoC2': 8.11, 'lipoC3S1': 3.98, 'temp': 24.88, 'lipoC3S3': 12.09, 'lipoC3S2': 7.98, 'rot1': 0, 'rot0': 22, 'rot3': 0, 'rot2': 0, 'state': 'normal', 'yaw': 0.0, 'datetime': '2018-10-05 14:45:24.662274', 'mgs': 1, 'volt': 0.7813, 'depth': -0.293, 'time': 10, 'pitch': 73.2, 'roll': -82.29, 'pres': 160}
{'lipoC2': 8.1, 'lipoC3S1': 3.98, 'temp': 24.88, 'lipoC3S3': 12.06, 'lipoC3S2': 7.97, 'rot1': 0, 'rot0': 23, 'rot3': 0, 'rot2': 0, 'state': 'normal', 'yaw': 0.0, 'datetime': '2018-10-05 14:45:24.765924', 'mgs': 1, 'volt': 0.7813, 'depth': -0.293, 'time': 10, 'pitch': 73.2, 'roll': -82.29, 'pres': 160}
{'lipoC2': 8.11, 'lipoC3S1': 3.98, 'temp': 24.88, 'lipoC3S3': 12.06, 'lipoC3S2': 7.98, 'rot1': 0, 'rot0': 23, 'rot3': 0, 'rot2': 0, 'state': 'normal', 'yaw': 0.0, 'datetime': '2018-10-05 14:45:24.872588', 'mgs': 1, 'volt': 0.7764, 'depth': -0.369, 'time': 10, 'pitch': 73.2, 'roll': -82.29, 'pres': 159}
{'lipoC2': 8.11, 'lipoC3S1': 3.94, 'temp': 24.88, 'lipoC3S3': 12.06, 'lipoC3S2': 7.98, 'rot1': 0, 'rot0': 24, 'rot3': 0, 'rot2': 0, 'state': 'normal', 'yaw': 0.0, 'datetime': '2018-10-05 14:45:24.979874', 'mgs': 1, 'volt': 0.7813, 'depth': -0.293, 'time': 10, 'pitch': 73.2, 'roll': -82.29, 'pres': 160}
{'lipoC2': 8.11, 'lipoC3S1': 3.98, 'temp': 24.88, 'lipoC3S3': 12.06, 'lipoC3S2': 7.93, 'rot1': 0, 'rot0': 24, 'rot3': 0, 'rot2': 0, 'state': 'normal', 'yaw': 0.0, 'datetime': '2018-10-05 14:45:25.083665', 'mgs': 1, 'volt': 0.7813, 'depth': -0.293, 'time': 10, 'pitch': 73.2, 'roll': -82.29, 'pres': 160}
{'lipoC2': 8.11, 'lipoC3S1': 3.98, 'temp': 24.88, 'lipoC3S3': 12.06, 'lipoC3S2': 7.98, 'rot1': 0, 'rot0': 25, 'rot3': 0, 'rot2': 0, 'state': 'normal', 'yaw': 0.0, 'datetime': '2018-10-05 14:45:25.188423', 'mgs': 1, 'volt': 0.7959, 'depth': -0.064, 'time': 10, 'pitch': 73.2, 'roll': -82.29, 'pres': 163}
{'lipoC2': 8.11, 'lipoC3S1': 3.98, 'temp': 24.88, 'lipoC3S3': 12.06, 'lipoC3S2': 7.98, 'rot1': 0, 'rot0': 26, 'rot3': 0, 'rot2': 0, 'state': 'normal', 'yaw': 0.0, 'datetime': '2018-10-05 14:45:25.292275', 'mgs': 1, 'volt': 0.7813, 'depth': -0.293, 'time': 10, 'pitch': 73.2, 'roll': -82.29, 'pres': 160}
{'lipoC2': 8.11, 'lipoC3S1': 3.98, 'temp': 24.88, 'lipoC3S3': 12.08, 'lipoC3S2': 7.97, 'rot1': 0, 'rot0': 26, 'rot3': 0, 'rot2': 0, 'state': 'normal', 'yaw': 0.0, 'datetime': '2018-10-05 14:45:25.395898', 'mgs': 1, 'volt': 0.7813, 'depth': -0.293, 'time': 10, 'pitch': 73.2, 'roll': -82.29, 'pres': 160}
{'lipoC2': 8.11, 'lipoC3S1': 3.98, 'temp': 24.88, 'lipoC3S3': 12.06, 'lipoC3S2': 7.98, 'rot1': 0, 'rot0': 27, 'rot3': 0, 'rot2': 0, 'state': 'normal', 'yaw': 0.0, 'datetime': '2018-10-05 14:45:25.500831', 'mgs': 1, 'volt': 0.7813, 'depth': -0.293, 'time': 11, 'pitch': 73.2, 'roll': -82.29, 'pres': 160}
{'lipoC2': 8.11, 'lipoC3S1': 3.95, 'temp': 24.88, 'lipoC3S3': 12.08, 'lipoC3S2': 7.98, 'rot1': 0, 'rot0': 27, 'rot3': 0, 'rot2': 0, 'state': 'normal', 'yaw': 0.0, 'datetime': '2018-10-05 14:45:25.604337', 'mgs': 1, 'volt': 0.7813, 'depth': -0.293, 'time': 11, 'pitch': 73.2, 'roll': -82.29, 'pres': 160}
{'lipoC2': 8.11, 'lipoC3S1': 3.98, 'temp': 24.81, 'lipoC3S3': 12.06, 'lipoC3S2': 7.94, 'rot1': 0, 'rot0': 28, 'rot3': 0, 'rot2': 0, 'state': 'normal', 'yaw': 0.0, 'datetime': '2018-10-05 14:45:25.708040', 'mgs': 1, 'volt': 0.7813, 'depth': -0.293, 'time': 11, 'pitch': 73.2, 'roll': -82.29, 'pres': 160}
{'lipoC2': 8.11, 'lipoC3S1': 3.98, 'temp': 24.81, 'lipoC3S3': 12.06, 'lipoC3S2': 7.97, 'rot1': 0, 'rot0': 28, 'rot3': 0, 'rot2': 0, 'state': 'normal', 'yaw': 0.0, 'datetime': '2018-10-05 14:45:25.812759', 'mgs': 1, 'volt': 0.7813, 'depth': -0.293, 'time': 11, 'pitch': 73.2, 'roll': -82.29, 'pres': 160}
{'lipoC2': 8.11, 'lipoC3S1': 3.98, 'temp': 24.81, 'lipoC3S3': 12.06, 'lipoC3S2': 7.98, 'rot1': 0, 'rot0': 29, 'rot3': 0, 'rot2': 0, 'state': 'normal', 'yaw': 0.0, 'datetime': '2018-10-05 14:45:25.916433', 'mgs': 1, 'volt': 0.7813, 'depth': -0.293, 'time': 11, 'pitch': 73.2, 'roll': -82.29, 'pres': 160}
{'lipoC2': 8.11, 'lipoC3S1': 3.98, 'temp': 24.81, 'lipoC3S3': 12.06, 'lipoC3S2': 7.93, 'rot1': 0, 'rot0': 29, 'rot3': 0, 'rot2': 0, 'state': 'normal', 'yaw': 0.0, 'datetime': '2018-10-05 14:45:26.021271', 'mgs': 1, 'volt': 0.7813, 'depth': -0.293, 'time': 11, 'pitch': 73.2, 'roll': -82.29, 'pres': 160}
{'lipoC2': 8.11, 'lipoC3S1': 3.98, 'temp': 24.88, 'lipoC3S3': 12.01, 'lipoC3S2': 7.97, 'rot1': 0, 'rot0': 30, 'rot3': 0, 'rot2': 0, 'state': 'normal', 'yaw': 0.0, 'datetime': '2018-10-05 14:45:26.119200', 'mgs': 1, 'volt': 0.7813, 'depth': -0.293, 'time': 11, 'pitch': 73.2, 'roll': -82.29, 'pres': 160}
{'lipoC2': 8.11, 'lipoC3S1': 3.98, 'temp': 24.88, 'lipoC3S3': 12.06, 'lipoC3S2': 7.97, 'rot1': 0, 'rot0': 30, 'rot3': 0, 'rot2': 0, 'state': 'normal', 'yaw': 0.0, 'datetime': '2018-10-05 14:45:26.222826', 'mgs': 1, 'volt': 0.7813, 'depth': -0.293, 'time': 11, 'pitch': 73.2, 'roll': -82.29, 'pres': 160}
{'lipoC2': 8.11, 'lipoC3S1': 3.98, 'temp': 24.88, 'lipoC3S3': 12.06, 'lipoC3S2': 7.97, 'rot1': 0, 'rot0': 31, 'rot3': 0, 'rot2': 0, 'state': 'normal', 'yaw': 0.0, 'datetime': '2018-10-05 14:45:26.326589', 'mgs': 1, 'volt': 0.7813, 'depth': -0.293, 'time': 11, 'pitch': 73.2, 'roll': -82.29, 'pres': 160}
{'lipoC2': 8.11, 'lipoC3S1': 3.98, 'temp': 24.88, 'lipoC3S3': 12.06, 'lipoC3S2': 7.98, 'rot1': 0, 'rot0': 32, 'rot3': 0, 'rot2': 0, 'state': 'normal', 'yaw': 0.0, 'datetime': '2018-10-05 14:45:26.430592', 'mgs': 1, 'volt': 0.7813, 'depth': -0.293, 'time': 11, 'pitch': 73.2, 'roll': -82.29, 'pres': 160}
{'lipoC2': 8.11, 'lipoC3S1': 3.98, 'temp': 24.88, 'lipoC3S3': 12.06, 'lipoC3S2': 7.98, 'rot1': 0, 'rot0': 32, 'rot3': 0, 'rot2': 0, 'state': 'normal', 'yaw': 0.0, 'datetime': '2018-10-05 14:45:26.533895', 'mgs': 1, 'volt': 0.7813, 'depth': -0.293, 'time': 12, 'pitch': 73.2, 'roll': -82.29, 'pres': 160}
{'lipoC2': 8.11, 'lipoC3S1': 3.98, 'temp': 24.88, 'lipoC3S3': 12.06, 'lipoC3S2': 7.98, 'rot1': 0, 'rot0': 33, 'rot3': 0, 'rot2': 0, 'state': 'normal', 'yaw': 0.0, 'datetime': '2018-10-05 14:45:26.642647', 'mgs': 1, 'volt': 0.8057, 'depth': 0.089, 'time': 12, 'pitch': 73.2, 'roll': -82.29, 'pres': 165}
{'lipoC2': 8.11, 'lipoC3S1': 3.98, 'temp': 24.88, 'lipoC3S3': 12.06, 'lipoC3S2': 7.97, 'rot1': 0, 'rot0': 33, 'rot3': 0, 'rot2': 0, 'state': 'normal', 'yaw': 0.0, 'datetime': '2018-10-05 14:45:26.747990', 'mgs': 1, 'volt': 0.7813, 'depth': -0.293, 'time': 12, 'pitch': 73.2, 'roll': -82.29, 'pres': 160}
{'lipoC2': 8.11, 'lipoC3S1': 3.98, 'temp': 24.81, 'lipoC3S3': 12.06, 'lipoC3S2': 7.97, 'rot1': 0, 'rot0': 34, 'rot3': 0, 'rot2': 0, 'state': 'normal', 'yaw': 0.0, 'datetime': '2018-10-05 14:45:26.852815', 'mgs': 1, 'volt': 0.7813, 'depth': -0.293, 'time': 12, 'pitch': 73.2, 'roll': -82.29, 'pres': 160}
{'lipoC2': 8.11, 'lipoC3S1': 3.98, 'temp': 24.81, 'lipoC3S3': 12.06, 'lipoC3S2': 7.98, 'rot1': 0, 'rot0': 34, 'rot3': 0, 'rot2': 0, 'state': 'normal', 'yaw': 0.0, 'datetime': '2018-10-05 14:45:26.956839', 'mgs': 1, 'volt': 0.7861, 'depth': -0.217, 'time': 12, 'pitch': 73.2, 'roll': -82.29, 'pres': 161}
{'lipoC2': 8.11, 'lipoC3S1': 3.94, 'temp': 24.81, 'lipoC3S3': 12.06, 'lipoC3S2': 7.97, 'rot1': 0, 'rot0': 35, 'rot3': 0, 'rot2': 0, 'state': 'normal', 'yaw': 0.0, 'datetime': '2018-10-05 14:45:27.060375', 'mgs': 1, 'volt': 0.7813, 'depth': -0.293, 'time': 12, 'pitch': 73.2, 'roll': -82.29, 'pres': 160}
{'lipoC2': 8.1, 'lipoC3S1': 3.98, 'temp': 24.88, 'lipoC3S3': 12.06, 'lipoC3S2': 7.97, 'rot1': 0, 'rot0': 35, 'rot3': 0, 'rot2': 0, 'state': 'normal', 'yaw': 0.0, 'datetime': '2018-10-05 14:45:27.165325', 'mgs': 1, 'volt': 0.7813, 'depth': -0.293, 'time': 12, 'pitch': 73.2, 'roll': -82.29, 'pres': 160}
{'lipoC2': 8.11, 'lipoC3S1': 3.98, 'temp': 24.88, 'lipoC3S3': 12.06, 'lipoC3S2': 7.98, 'rot1': 0, 'rot0': 36, 'rot3': 0, 'rot2': 0, 'state': 'normal', 'yaw': 0.0, 'datetime': '2018-10-05 14:45:27.268972', 'mgs': 1, 'volt': 0.7959, 'depth': -0.064, 'time': 12, 'pitch': 73.2, 'roll': -82.29, 'pres': 163}
{'lipoC2': 8.11, 'lipoC3S1': 3.94, 'temp': 24.88, 'lipoC3S3': 12.06, 'lipoC3S2': 7.98, 'rot1': 0, 'rot0': 37, 'rot3': 0, 'rot2': 0, 'state': 'normal', 'yaw': 0.0, 'datetime': '2018-10-05 14:45:27.372689', 'mgs': 1, 'volt': 0.7813, 'depth': -0.293, 'time': 12, 'pitch': 73.2, 'roll': -82.29, 'pres': 160}
{'lipoC2': 8.11, 'lipoC3S1': 3.98, 'temp': 24.88, 'lipoC3S3': 12.06, 'lipoC3S2': 7.97, 'rot1': 0, 'rot0': 37, 'rot3': 0, 'rot2': 0, 'state': 'normal', 'yaw': 0.0, 'datetime': '2018-10-05 14:45:27.477740', 'mgs': 1, 'volt': 0.8057, 'depth': 0.089, 'time': 12, 'pitch': 73.2, 'roll': -82.29, 'pres': 165}
{'lipoC2': 8.11, 'lipoC3S1': 3.98, 'temp': 24.88, 'lipoC3S3': 12.06, 'lipoC3S2': 7.98, 'rot1': 0, 'rot0': 38, 'rot3': 0, 'rot2': 0, 'state': 'normal', 'yaw': 0.0, 'datetime': '2018-10-05 14:45:27.581386', 'mgs': 1, 'volt': 0.7813, 'depth': -0.293, 'time': 13, 'pitch': 73.2, 'roll': -82.29, 'pres': 160}
{'lipoC2': 8.11, 'lipoC3S1': 3.94, 'temp': 24.88, 'lipoC3S3': 12.06, 'lipoC3S2': 7.97, 'rot1': 0, 'rot0': 38, 'rot3': 0, 'rot2': 0, 'state': 'normal', 'yaw': 0.0, 'datetime': '2018-10-05 14:45:27.685025', 'mgs': 1, 'volt': 0.7813, 'depth': -0.293, 'time': 13, 'pitch': 73.2, 'roll': -82.29, 'pres': 160}
{'lipoC2': 8.11, 'lipoC3S1': 3.98, 'temp': 24.88, 'lipoC3S3': 12.06, 'lipoC3S2': 7.98, 'rot1': 0, 'rot0': 39, 'rot3': 0, 'rot2': 0, 'state': 'normal', 'yaw': 0.0, 'datetime': '2018-10-05 14:45:27.789204', 'mgs': 1, 'volt': 0.7764, 'depth': -0.369, 'time': 13, 'pitch': 73.2, 'roll': -82.29, 'pres': 159}
{'lipoC2': 8.11, 'lipoC3S1': 3.95, 'temp': 24.94, 'lipoC3S3': 12.06, 'lipoC3S2': 7.97, 'rot1': 0, 'rot0': 39, 'rot3': 0, 'rot2': 0, 'state': 'normal', 'yaw': 0.0, 'datetime': '2018-10-05 14:45:27.892888', 'mgs': 1, 'volt': 0.7813, 'depth': -0.293, 'time': 13, 'pitch': 73.2, 'roll': -82.29, 'pres': 160}
{'lipoC2': 8.11, 'lipoC3S1': 3.98, 'temp': 24.94, 'lipoC3S3': 12.06, 'lipoC3S2': 7.97, 'rot1': 0, 'rot0': 40, 'rot3': 0, 'rot2': 0, 'state': 'normal', 'yaw': 0.0, 'datetime': '2018-10-05 14:45:27.997951', 'mgs': 1, 'volt': 0.7813, 'depth': -0.293, 'time': 13, 'pitch': 73.2, 'roll': -82.29, 'pres': 160}
{'lipoC2': 8.11, 'lipoC3S1': 3.98, 'temp': 24.88, 'lipoC3S3': 12.06, 'lipoC3S2': 7.98, 'rot1': 0, 'rot0': 40, 'rot3': 0, 'rot2': 0, 'state': 'normal', 'yaw': 0.0, 'datetime': '2018-10-05 14:45:28.101401', 'mgs': 1, 'volt': 0.7813, 'depth': -0.293, 'time': 13, 'pitch': 73.2, 'roll': -82.29, 'pres': 160}
{'lipoC2': 8.11, 'lipoC3S1': 3.97, 'temp': 24.88, 'lipoC3S3': 12.06, 'lipoC3S2': 7.97, 'rot1': 0, 'rot0': 41, 'rot3': 0, 'rot2': 0, 'state': 'normal', 'yaw': 0.0, 'datetime': '2018-10-05 14:45:28.199426', 'mgs': 1, 'volt': 0.7813, 'depth': -0.293, 'time': 13, 'pitch': 73.2, 'roll': -82.29, 'pres': 160}
{'lipoC2': 8.11, 'lipoC3S1': 3.98, 'temp': 25.0, 'lipoC3S3': 12.06, 'lipoC3S2': 7.97, 'rot1': 0, 'rot0': 42, 'rot3': 0, 'rot2': 0, 'state': 'normal', 'yaw': 0.0, 'datetime': '2018-10-05 14:45:28.304393', 'mgs': 1, 'volt': 0.7813, 'depth': -0.293, 'time': 13, 'pitch': 73.2, 'roll': -82.29, 'pres': 160}
{'lipoC2': 8.11, 'lipoC3S1': 3.98, 'temp': 25.0, 'lipoC3S3': 12.06, 'lipoC3S2': 7.98, 'rot1': 0, 'rot0': 42, 'rot3': 0, 'rot2': 0, 'state': 'normal', 'yaw': 0.0, 'datetime': '2018-10-05 14:45:28.408014', 'mgs': 1, 'volt': 0.7813, 'depth': -0.293, 'time': 13, 'pitch': 73.2, 'roll': -82.29, 'pres': 160}
{'lipoC2': 8.11, 'lipoC3S1': 3.98, 'temp': 25.0, 'lipoC3S3': 12.06, 'lipoC3S2': 7.99, 'rot1': 0, 'rot0': 43, 'rot3': 0, 'rot2': 0, 'state': 'normal', 'yaw': 0.0, 'datetime': '2018-10-05 14:45:28.512845', 'mgs': 1, 'volt': 0.7813, 'depth': -0.293, 'time': 14, 'pitch': 73.2, 'roll': -82.29, 'pres': 160}
{'lipoC2': 8.11, 'lipoC3S1': 3.98, 'temp': 25.0, 'lipoC3S3': 12.08, 'lipoC3S2': 7.97, 'rot1': 0, 'rot0': 43, 'rot3': 0, 'rot2': 0, 'state': 'normal', 'yaw': 0.0, 'datetime': '2018-10-05 14:45:28.616433', 'mgs': 1, 'volt': 0.7813, 'depth': -0.293, 'time': 14, 'pitch': 73.2, 'roll': -82.29, 'pres': 160}
{'lipoC2': 8.11, 'lipoC3S1': 3.98, 'temp': 25.0, 'lipoC3S3': 12.06, 'lipoC3S2': 7.97, 'rot1': 0, 'rot0': 44, 'rot3': 0, 'rot2': 0, 'state': 'normal', 'yaw': 0.0, 'datetime': '2018-10-05 14:45:28.720069', 'mgs': 1, 'volt': 0.7813, 'depth': -0.293, 'time': 14, 'pitch': 73.2, 'roll': -82.29, 'pres': 160}
{'lipoC2': 8.11, 'lipoC3S1': 3.96, 'temp': 25.0, 'lipoC3S3': 12.06, 'lipoC3S2': 7.97, 'rot1': 0, 'rot0': 44, 'rot3': 0, 'rot2': 0, 'state': 'normal', 'yaw': 0.0, 'datetime': '2018-10-05 14:45:28.824993', 'mgs': 1, 'volt': 0.7813, 'depth': -0.293, 'time': 14, 'pitch': 73.2, 'roll': -82.29, 'pres': 160}
{'lipoC2': 8.11, 'lipoC3S1': 3.98, 'temp': 25.0, 'lipoC3S3': 12.06, 'lipoC3S2': 7.96, 'rot1': 0, 'rot0': 45, 'rot3': 0, 'rot2': 0, 'state': 'normal', 'yaw': 0.0, 'datetime': '2018-10-05 14:45:28.928606', 'mgs': 1, 'volt': 0.7813, 'depth': -0.293, 'time': 14, 'pitch': 73.2, 'roll': -82.29, 'pres': 160}
{'lipoC2': 8.11, 'lipoC3S1': 3.98, 'temp': 25.0, 'lipoC3S3': 12.08, 'lipoC3S2': 7.97, 'rot1': 0, 'rot0': 45, 'rot3': 0, 'rot2': 0, 'state': 'normal', 'yaw': 0.0, 'datetime': '2018-10-05 14:45:29.032212', 'mgs': 1, 'volt': 0.7813, 'depth': -0.293, 'time': 14, 'pitch': 73.2, 'roll': -82.29, 'pres': 160}
{'lipoC2': 8.11, 'lipoC3S1': 3.98, 'temp': 25.0, 'lipoC3S3': 12.06, 'lipoC3S2': 7.97, 'rot1': 0, 'rot0': 46, 'rot3': 0, 'rot2': 0, 'state': 'normal', 'yaw': 0.0, 'datetime': '2018-10-05 14:45:29.136926', 'mgs': 1, 'volt': 0.7813, 'depth': -0.293, 'time': 14, 'pitch': 73.2, 'roll': -82.29, 'pres': 160}
{'lipoC2': 8.11, 'lipoC3S1': 3.98, 'temp': 25.0, 'lipoC3S3': 12.06, 'lipoC3S2': 7.97, 'rot1': 0, 'rot0': 47, 'rot3': 0, 'rot2': 0, 'state': 'normal', 'yaw': 0.0, 'datetime': '2018-10-05 14:45:29.240508', 'mgs': 1, 'volt': 0.7861, 'depth': -0.217, 'time': 14, 'pitch': 73.2, 'roll': -82.29, 'pres': 161}
{'lipoC2': 8.11, 'lipoC3S1': 3.98, 'temp': 25.06, 'lipoC3S3': 12.06, 'lipoC3S2': 7.91, 'rot1': 0, 'rot0': 47, 'rot3': 0, 'rot2': 0, 'state': 'normal', 'yaw': 0.0, 'datetime': '2018-10-05 14:45:29.345452', 'mgs': 1, 'volt': 0.7813, 'depth': -0.293, 'time': 14, 'pitch': 73.2, 'roll': -82.29, 'pres': 160}
{'lipoC2': 8.11, 'lipoC3S1': 3.98, 'temp': 25.06, 'lipoC3S3': 12.01, 'lipoC3S2': 7.97, 'rot1': 0, 'rot0': 48, 'rot3': 0, 'rot2': 0, 'state': 'normal', 'yaw': 0.0, 'datetime': '2018-10-05 14:45:29.449003', 'mgs': 1, 'volt': 0.7813, 'depth': -0.293, 'time': 14, 'pitch': 73.2, 'roll': -82.29, 'pres': 160}
{'lipoC2': 8.1, 'lipoC3S1': 3.98, 'temp': 25.13, 'lipoC3S3': 12.06, 'lipoC3S2': 7.97, 'rot1': 0, 'rot0': 48, 'rot3': 0, 'rot2': 0, 'state': 'normal', 'yaw': 0.0, 'datetime': '2018-10-05 14:45:29.552737', 'mgs': 1, 'volt': 0.7813, 'depth': -0.293, 'time': 15, 'pitch': 73.2, 'roll': -82.29, 'pres': 160}
{'lipoC2': 8.11, 'lipoC3S1': 3.98, 'temp': 25.13, 'lipoC3S3': 12.06, 'lipoC3S2': 7.97, 'rot1': 0, 'rot0': 49, 'rot3': 0, 'rot2': 0, 'state': 'normal', 'yaw': 0.0, 'datetime': '2018-10-05 14:45:29.657584', 'mgs': 1, 'volt': 0.7813, 'depth': -0.293, 'time': 15, 'pitch': 73.2, 'roll': -82.29, 'pres': 160}
{'lipoC2': 8.11, 'lipoC3S1': 3.98, 'temp': 25.13, 'lipoC3S3': 12.06, 'lipoC3S2': 7.98, 'rot1': 0, 'rot0': 49, 'rot3': 0, 'rot2': 0, 'state': 'normal', 'yaw': 0.0, 'datetime': '2018-10-05 14:45:29.761196', 'mgs': 1, 'volt': 0.7813, 'depth': -0.293, 'time': 15, 'pitch': 73.2, 'roll': -82.29, 'pres': 160}
{'lipoC2': 8.1, 'lipoC3S1': 3.98, 'temp': 25.13, 'lipoC3S3': 12.06, 'lipoC3S2': 7.97, 'rot1': 0, 'rot0': 50, 'rot3': 0, 'rot2': 0, 'state': 'normal', 'yaw': 0.0, 'datetime': '2018-10-05 14:45:29.866057', 'mgs': 1, 'volt': 0.7861, 'depth': -0.217, 'time': 15, 'pitch': 73.2, 'roll': -82.29, 'pres': 161}
{'lipoC2': 8.11, 'lipoC3S1': 3.98, 'temp': 25.13, 'lipoC3S3': 12.06, 'lipoC3S2': 8.0, 'rot1': 0, 'rot0': 50, 'rot3': 0, 'rot2': 0, 'state': 'normal', 'yaw': 0.0, 'datetime': '2018-10-05 14:45:29.969987', 'mgs': 1, 'volt': 0.7813, 'depth': -0.293, 'time': 15, 'pitch': 73.2, 'roll': -82.29, 'pres': 160}
{'lipoC2': 8.11, 'lipoC3S1': 3.98, 'temp': 25.19, 'lipoC3S3': 12.06, 'lipoC3S2': 7.97, 'rot1': 0, 'rot0': 51, 'rot3': 0, 'rot2': 0, 'state': 'normal', 'yaw': 0.0, 'datetime': '2018-10-05 14:45:30.077535', 'mgs': 1, 'volt': 0.7813, 'depth': -0.293, 'time': 15, 'pitch': 73.2, 'roll': -82.29, 'pres': 160}
{'lipoC2': 8.11, 'lipoC3S1': 3.98, 'temp': 25.19, 'lipoC3S3': 12.06, 'lipoC3S2': 7.97, 'rot1': 0, 'rot0': 52, 'rot3': 0, 'rot2': 0, 'state': 'normal', 'yaw': 0.0, 'datetime': '2018-10-05 14:45:30.184512', 'mgs': 1, 'volt': 0.7813, 'depth': -0.293, 'time': 15, 'pitch': 73.2, 'roll': -82.29, 'pres': 160}
{'lipoC2': 8.11, 'lipoC3S1': 3.96, 'temp': 25.19, 'lipoC3S3': 12.06, 'lipoC3S2': 7.97, 'rot1': 0, 'rot0': 52, 'rot3': 0, 'rot2': 0, 'state': 'normal', 'yaw': 0.0, 'datetime': '2018-10-05 14:45:30.283862', 'mgs': 1, 'volt': 0.7813, 'depth': -0.293, 'time': 15, 'pitch': 73.2, 'roll': -82.29, 'pres': 160}
{'lipoC2': 8.11, 'lipoC3S1': 3.98, 'temp': 25.19, 'lipoC3S3': 12.06, 'lipoC3S2': 7.98, 'rot1': 0, 'rot0': 53, 'rot3': 0, 'rot2': 0, 'state': 'normal', 'yaw': 0.0, 'datetime': '2018-10-05 14:45:30.389781', 'mgs': 1, 'volt': 0.7813, 'depth': -0.293, 'time': 15, 'pitch': 73.2, 'roll': -82.29, 'pres': 160}
{'lipoC2': 8.11, 'lipoC3S1': 3.98, 'temp': 25.25, 'lipoC3S3': 12.04, 'lipoC3S2': 7.97, 'rot1': 0, 'rot0': 53, 'rot3': 0, 'rot2': 0, 'state': 'normal', 'yaw': 0.0, 'datetime': '2018-10-05 14:45:30.496020', 'mgs': 1, 'volt': 0.7813, 'depth': -0.293, 'time': 15, 'pitch': 73.2, 'roll': -82.29, 'pres': 160}
{'lipoC2': 8.1, 'lipoC3S1': 3.98, 'temp': 25.25, 'lipoC3S3': 12.06, 'lipoC3S2': 7.97, 'rot1': 0, 'rot0': 54, 'rot3': 0, 'rot2': 0, 'state': 'normal', 'yaw': 0.0, 'datetime': '2018-10-05 14:45:30.594277', 'mgs': 1, 'volt': 0.7813, 'depth': -0.293, 'time': 16, 'pitch': 73.2, 'roll': -82.29, 'pres': 160}
{'lipoC2': 8.11, 'lipoC3S1': 3.98, 'temp': 25.25, 'lipoC3S3': 12.06, 'lipoC3S2': 7.97, 'rot1': 0, 'rot0': 54, 'rot3': 0, 'rot2': 0, 'state': 'normal', 'yaw': 0.0, 'datetime': '2018-10-05 14:45:30.704525', 'mgs': 1, 'volt': 0.7813, 'depth': -0.293, 'time': 16, 'pitch': 73.2, 'roll': -82.29, 'pres': 160}
{'lipoC2': 8.11, 'lipoC3S1': 3.98, 'temp': 25.31, 'lipoC3S3': 12.04, 'lipoC3S2': 7.97, 'rot1': 0, 'rot0': 55, 'rot3': 0, 'rot2': 0, 'state': 'normal', 'yaw': 0.0, 'datetime': '2018-10-05 14:45:30.808279', 'mgs': 1, 'volt': 0.7813, 'depth': -0.293, 'time': 16, 'pitch': 73.2, 'roll': -82.29, 'pres': 160}
{'lipoC2': 8.11, 'lipoC3S1': 3.98, 'temp': 25.31, 'lipoC3S3': 12.06, 'lipoC3S2': 7.97, 'rot1': 0, 'rot0': 55, 'rot3': 0, 'rot2': 0, 'state': 'normal', 'yaw': 0.0, 'datetime': '2018-10-05 14:45:30.912100', 'mgs': 1, 'volt': 0.7813, 'depth': -0.293, 'time': 16, 'pitch': 73.2, 'roll': -82.29, 'pres': 160}
{'lipoC2': 8.11, 'lipoC3S1': 3.98, 'temp': 25.38, 'lipoC3S3': 12.06, 'lipoC3S2': 7.97, 'rot1': 0, 'rot0': 56, 'rot3': 0, 'rot2': 0, 'state': 'normal', 'yaw': 0.0, 'datetime': '2018-10-05 14:45:31.016981', 'mgs': 1, 'volt': 0.7813, 'depth': -0.293, 'time': 16, 'pitch': 73.2, 'roll': -82.29, 'pres': 160}
{'lipoC2': 8.11, 'lipoC3S1': 3.98, 'temp': 25.38, 'lipoC3S3': 12.06, 'lipoC3S2': 7.97, 'rot1': 0, 'rot0': 57, 'rot3': 0, 'rot2': 0, 'state': 'normal', 'yaw': 0.03, 'datetime': '2018-10-05 14:45:31.120706', 'mgs': 1, 'volt': 0.7813, 'depth': -0.293, 'time': 16, 'pitch': 73.2, 'roll': -82.26, 'pres': 160}
{'lipoC2': 8.11, 'lipoC3S1': 3.98, 'temp': 25.38, 'lipoC3S3': 12.06, 'lipoC3S2': 7.97, 'rot1': 0, 'rot0': 57, 'rot3': 0, 'rot2': 0, 'state': 'normal', 'yaw': -0.07, 'datetime': '2018-10-05 14:45:31.224255', 'mgs': 1, 'volt': 0.7813, 'depth': -0.293, 'time': 16, 'pitch': 73.21, 'roll': -82.36, 'pres': 160}
{'lipoC2': 8.11, 'lipoC3S1': 3.99, 'temp': 25.38, 'lipoC3S3': 12.06, 'lipoC3S2': 7.97, 'rot1': 0, 'rot0': 58, 'rot3': 0, 'rot2': 0, 'state': 'normal', 'yaw': 0.03, 'datetime': '2018-10-05 14:45:31.329154', 'mgs': 1, 'volt': 0.7813, 'depth': -0.293, 'time': 16, 'pitch': 73.21, 'roll': -82.27, 'pres': 160}
{'lipoC2': 8.11, 'lipoC3S1': 3.98, 'temp': 25.38, 'lipoC3S3': 12.06, 'lipoC3S2': 7.95, 'rot1': 0, 'rot0': 58, 'rot3': 0, 'rot2': 0, 'state': 'normal', 'yaw': 0.0, 'datetime': '2018-10-05 14:45:31.432758', 'mgs': 1, 'volt': 0.7813, 'depth': -0.293, 'time': 16, 'pitch': 73.21, 'roll': -82.3, 'pres': 160}
{'lipoC2': 8.11, 'lipoC3S1': 3.98, 'temp': 25.56, 'lipoC3S3': 12.06, 'lipoC3S2': 7.98, 'rot1': 0, 'rot0': 59, 'rot3': 0, 'rot2': 0, 'state': 'normal', 'yaw': 0.04, 'datetime': '2018-10-05 14:45:31.537692', 'mgs': 1, 'volt': 0.7959, 'depth': -0.064, 'time': 17, 'pitch': 73.21, 'roll': -82.26, 'pres': 163}
{'lipoC2': 8.11, 'lipoC3S1': 3.96, 'temp': 25.56, 'lipoC3S3': 12.06, 'lipoC3S2': 7.97, 'rot1': 0, 'rot0': 59, 'rot3': 0, 'rot2': 0, 'state': 'normal', 'yaw': 0.01, 'datetime': '2018-10-05 14:45:31.641372', 'mgs': 1, 'volt': 0.7813, 'depth': -0.293, 'time': 17, 'pitch': 73.21, 'roll': -82.29, 'pres': 160}
{'lipoC2': 8.11, 'lipoC3S1': 3.98, 'temp': 25.88, 'lipoC3S3': 12.06, 'lipoC3S2': 7.96, 'rot1': 0, 'rot0': 60, 'rot3': 0, 'rot2': 0, 'state': 'normal', 'yaw': 0.04, 'datetime': '2018-10-05 14:45:31.745087', 'mgs': 1, 'volt': 0.7813, 'depth': -0.293, 'time': 17, 'pitch': 73.21, 'roll': -82.26, 'pres': 160}
{'lipoC2': 8.11, 'lipoC3S1': 3.98, 'temp': 25.88, 'lipoC3S3': 12.02, 'lipoC3S2': 7.97, 'rot1': 0, 'rot0': 60, 'rot3': 0, 'rot2': 0, 'state': 'normal', 'yaw': 0.08, 'datetime': '2018-10-05 14:45:31.848702', 'mgs': 1, 'volt': 0.7813, 'depth': -0.293, 'time': 17, 'pitch': 73.21, 'roll': -82.22, 'pres': 160}
{'lipoC2': 8.1, 'lipoC3S1': 3.98, 'temp': 26.19, 'lipoC3S3': 12.06, 'lipoC3S2': 7.97, 'rot1': 0, 'rot0': 61, 'rot3': 0, 'rot2': 0, 'state': 'normal', 'yaw': 0.13, 'datetime': '2018-10-05 14:45:31.952340', 'mgs': 1, 'volt': 0.7813, 'depth': -0.293, 'time': 17, 'pitch': 73.2, 'roll': -82.16, 'pres': 160}
{'lipoC2': 8.11, 'lipoC3S1': 3.98, 'temp': 26.19, 'lipoC3S3': 12.06, 'lipoC3S2': 7.97, 'rot1': 0, 'rot0': 61, 'rot3': 0, 'rot2': 0, 'state': 'normal', 'yaw': 0.18, 'datetime': '2018-10-05 14:45:32.056310', 'mgs': 1, 'volt': 0.7715, 'depth': -0.446, 'time': 17, 'pitch': 73.21, 'roll': -82.12, 'pres': 158}
{'lipoC2': 8.11, 'lipoC3S1': 3.98, 'temp': 26.19, 'lipoC3S3': 12.02, 'lipoC3S2': 7.97, 'rot1': 0, 'rot0': 62, 'rot3': 0, 'rot2': 0, 'state': 'normal', 'yaw': 0.18, 'datetime': '2018-10-05 14:45:32.161040', 'mgs': 1, 'volt': 0.7813, 'depth': -0.293, 'time': 17, 'pitch': 73.21, 'roll': -82.12, 'pres': 160}
{'lipoC2': 8.1, 'lipoC3S1': 3.98, 'temp': 26.5, 'lipoC3S3': 12.06, 'lipoC3S2': 7.97, 'rot1': 0, 'rot0': 63, 'rot3': 0, 'rot2': 0, 'state': 'normal', 'yaw': 0.18, 'datetime': '2018-10-05 14:45:32.264641', 'mgs': 1, 'volt': 0.7813, 'depth': -0.293, 'time': 17, 'pitch': 73.21, 'roll': -82.12, 'pres': 160}
{'lipoC2': 8.11, 'lipoC3S1': 3.98, 'temp': 26.5, 'lipoC3S3': 12.06, 'lipoC3S2': 7.97, 'rot1': 0, 'rot0': 63, 'rot3': 0, 'rot2': 0, 'state': 'normal', 'yaw': 0.15, 'datetime': '2018-10-05 14:45:32.369365', 'mgs': 1, 'volt': 0.7813, 'depth': -0.293, 'time': 17, 'pitch': 73.21, 'roll': -82.15, 'pres': 160}
{'lipoC2': 8.11, 'lipoC3S1': 3.98, 'temp': 26.69, 'lipoC3S3': 12.08, 'lipoC3S2': 7.97, 'rot1': 0, 'rot0': 64, 'rot3': 0, 'rot2': 0, 'state': 'normal', 'yaw': 0.11, 'datetime': '2018-10-05 14:45:32.473244', 'mgs': 1, 'volt': 0.7813, 'depth': -0.293, 'time': 17, 'pitch': 73.21, 'roll': -82.19, 'pres': 160}
{'lipoC2': 8.1, 'lipoC3S1': 3.98, 'temp': 26.69, 'lipoC3S3': 12.06, 'lipoC3S2': 7.97, 'rot1': 0, 'rot0': 64, 'rot3': 0, 'rot2': 0, 'state': 'normal', 'yaw': 0.25, 'datetime': '2018-10-05 14:45:32.577297', 'mgs': 1, 'volt': 0.7813, 'depth': -0.293, 'time': 18, 'pitch': 73.21, 'roll': -82.05, 'pres': 160}
{'lipoC2': 8.11, 'lipoC3S1': 3.98, 'temp': 26.94, 'lipoC3S3': 12.06, 'lipoC3S2': 7.98, 'rot1': 0, 'rot0': 65, 'rot3': 0, 'rot2': 0, 'state': 'normal', 'yaw': 0.18, 'datetime': '2018-10-05 14:45:32.681892', 'mgs': 1, 'volt': 0.7813, 'depth': -0.293, 'time': 18, 'pitch': 73.22, 'roll': -82.11, 'pres': 160}
{'lipoC2': 8.11, 'lipoC3S1': 3.98, 'temp': 26.94, 'lipoC3S3': 12.06, 'lipoC3S2': 7.97, 'rot1': 0, 'rot0': 66, 'rot3': 0, 'rot2': 0, 'state': 'normal', 'yaw': 0.25, 'datetime': '2018-10-05 14:45:32.785746', 'mgs': 1, 'volt': 0.7813, 'depth': -0.293, 'time': 18, 'pitch': 73.21, 'roll': -82.04, 'pres': 160}
{'lipoC2': 8.11, 'lipoC3S1': 3.98, 'temp': 26.94, 'lipoC3S3': 12.06, 'lipoC3S2': 7.97, 'rot1': 0, 'rot0': 66, 'rot3': 0, 'rot2': 0, 'state': 'normal', 'yaw': 0.25, 'datetime': '2018-10-05 14:45:32.889270', 'mgs': 1, 'volt': 0.7813, 'depth': -0.293, 'time': 18, 'pitch': 73.21, 'roll': -82.04, 'pres': 160}
{'lipoC2': 8.11, 'lipoC3S1': 3.98, 'temp': 27.06, 'lipoC3S3': 12.06, 'lipoC3S2': 7.97, 'rot1': 0, 'rot0': 67, 'rot3': 0, 'rot2': 0, 'state': 'normal', 'yaw': 0.22, 'datetime': '2018-10-05 14:45:32.994192', 'mgs': 1, 'volt': 0.7813, 'depth': -0.293, 'time': 18, 'pitch': 73.21, 'roll': -82.07, 'pres': 160}
{'lipoC2': 8.11, 'lipoC3S1': 3.98, 'temp': 27.06, 'lipoC3S3': 12.06, 'lipoC3S2': 7.97, 'rot1': 0, 'rot0': 67, 'rot3': 0, 'rot2': 0, 'state': 'normal', 'yaw': 0.22, 'datetime': '2018-10-05 14:45:33.093163', 'mgs': 1, 'volt': 0.7813, 'depth': -0.293, 'time': 18, 'pitch': 73.21, 'roll': -82.08, 'pres': 160}
{'lipoC2': 8.1, 'lipoC3S1': 3.98, 'temp': 27.19, 'lipoC3S3': 12.06, 'lipoC3S2': 7.97, 'rot1': 0, 'rot0': 68, 'rot3': 0, 'rot2': 0, 'state': 'normal', 'yaw': 0.18, 'datetime': '2018-10-05 14:45:33.195833', 'mgs': 1, 'volt': 0.7813, 'depth': -0.293, 'time': 18, 'pitch': 73.21, 'roll': -82.12, 'pres': 160}
{'lipoC2': 8.11, 'lipoC3S1': 3.98, 'temp': 27.19, 'lipoC3S3': 12.09, 'lipoC3S2': 7.97, 'rot1': 0, 'rot0': 68, 'rot3': 0, 'rot2': 0, 'state': 'normal', 'yaw': 0.18, 'datetime': '2018-10-05 14:45:33.300108', 'mgs': 1, 'volt': 0.7813, 'depth': -0.293, 'time': 18, 'pitch': 73.21, 'roll': -82.12, 'pres': 160}
{'lipoC2': 8.11, 'lipoC3S1': 3.98, 'temp': 27.25, 'lipoC3S3': 12.06, 'lipoC3S2': 7.97, 'rot1': 0, 'rot0': 69, 'rot3': 0, 'rot2': 0, 'state': 'normal', 'yaw': 0.18, 'datetime': '2018-10-05 14:45:33.403718', 'mgs': 1, 'volt': 0.7813, 'depth': -0.293, 'time': 18, 'pitch': 73.21, 'roll': -82.12, 'pres': 160}
{'lipoC2': 8.11, 'lipoC3S1': 3.98, 'temp': 27.25, 'lipoC3S3': 12.06, 'lipoC3S2': 7.98, 'rot1': 0, 'rot0': 69, 'rot3': 0, 'rot2': 0, 'state': 'normal', 'yaw': 0.18, 'datetime': '2018-10-05 14:45:33.508775', 'mgs': 1, 'volt': 0.7813, 'depth': -0.293, 'time': 19, 'pitch': 73.21, 'roll': -82.12, 'pres': 160}
{'lipoC2': 8.11, 'lipoC3S1': 3.98, 'temp': 27.25, 'lipoC3S3': 12.06, 'lipoC3S2': 7.97, 'rot1': 0, 'rot0': 70, 'rot3': 0, 'rot2': 0, 'state': 'normal', 'yaw': 0.22, 'datetime': '2018-10-05 14:45:33.612382', 'mgs': 1, 'volt': 0.7813, 'depth': -0.293, 'time': 19, 'pitch': 73.19, 'roll': -82.08, 'pres': 160}
