{'lipoC2': 7.27, 'lipoC3S1': 4.16, 'temp': 27.19, 'lipoC3S3': 12.55, 'lipoC3S2': 8.31, 'rot1': 95, 'rot0': 99, 'rot3': 39, 'rot2': 42, 'state': 'normal', 'yaw': 25.62, 'datetime': '2018-10-03 17:37:22.666051', 'mgs': 0, 'volt': 0.9863, 'depth': 2.911, 'time': 27, 'pitch': -8.56, 'roll': 0.27, 'pres': 202}
{'lipoC2': 7.27, 'lipoC3S1': 4.16, 'temp': 27.19, 'lipoC3S3': 12.55, 'lipoC3S2': 8.3, 'rot1': 95, 'rot0': 99, 'rot3': 39, 'rot2': 42, 'state': 'normal', 'yaw': 28.38, 'datetime': '2018-10-03 17:37:22.676690', 'mgs': 0, 'volt': 0.9814, 'depth': 2.835, 'time': 27, 'pitch': -9.99, 'roll': 0.65, 'pres': 201}
{'lipoC2': 7.27, 'lipoC3S1': 4.16, 'temp': 27.19, 'lipoC3S3': 12.55, 'lipoC3S2': 8.31, 'rot1': 95, 'rot0': 99, 'rot3': 39, 'rot2': 42, 'state': 'normal', 'yaw': 31.45, 'datetime': '2018-10-03 17:37:22.686864', 'mgs': 0, 'volt': 0.9766, 'depth': 2.759, 'time': 27, 'pitch': -11.79, 'roll': 1.02, 'pres': 200}
{'lipoC2': 7.27, 'lipoC3S1': 4.16, 'temp': 27.19, 'lipoC3S3': 12.55, 'lipoC3S2': 8.31, 'rot1': 95, 'rot0': 99, 'rot3': 39, 'rot2': 42, 'state': 'normal', 'yaw': 35.06, 'datetime': '2018-10-03 17:37:22.696973', 'mgs': 0, 'volt': 0.9717, 'depth': 2.682, 'time': 28, 'pitch': -14.12, 'roll': 0.95, 'pres': 199}
{'lipoC2': 7.27, 'lipoC3S1': 4.16, 'temp': 27.19, 'lipoC3S3': 12.55, 'lipoC3S2': 8.31, 'rot1': 95, 'rot0': 99, 'rot3': 39, 'rot2': 42, 'state': 'normal', 'yaw': 38.46, 'datetime': '2018-10-03 17:37:22.707076', 'mgs': 0, 'volt': 0.9668, 'depth': 2.606, 'time': 28, 'pitch': -16.09, 'roll': 0.46, 'pres': 198}
{'lipoC2': 7.27, 'lipoC3S1': 4.16, 'temp': 27.19, 'lipoC3S3': 12.55, 'lipoC3S2': 8.31, 'rot1': 95, 'rot0': 99, 'rot3': 39, 'rot2': 42, 'state': 'normal', 'yaw': 42.33, 'datetime': '2018-10-03 17:37:22.717181', 'mgs': 0, 'volt': 0.9619, 'depth': 2.53, 'time': 28, 'pitch': -17.46, 'roll': -0.42, 'pres': 197}
{'lipoC2': 7.27, 'lipoC3S1': 4.16, 'temp': 27.19, 'lipoC3S3': 12.55, 'lipoC3S2': 8.31, 'rot1': 95, 'rot0': 99, 'rot3': 39, 'rot2': 42, 'state': 'normal', 'yaw': 45.95, 'datetime': '2018-10-03 17:37:22.727291', 'mgs': 0, 'volt': 0.957, 'depth': 2.454, 'time': 28, 'pitch': -17.8, 'roll': -1.41, 'pres': 196}
{'lipoC2': 7.27, 'lipoC3S1': 4.16, 'temp': 27.19, 'lipoC3S3': 12.55, 'lipoC3S2': 8.31, 'rot1': 95, 'rot0': 99, 'rot3': 39, 'rot2': 42, 'state': 'normal', 'yaw': 49.69, 'datetime': '2018-10-03 17:37:22.737412', 'mgs': 0, 'volt': 0.9521, 'depth': 2.377, 'time': 28, 'pitch': -18.08, 'roll': -2.45, 'pres': 195}
{'lipoC2': 7.27, 'lipoC3S1': 4.16, 'temp': 27.25, 'lipoC3S3': 12.55, 'lipoC3S2': 8.31, 'rot1': 95, 'rot0': 99, 'rot3': 39, 'rot2': 42, 'state': 'normal', 'yaw': 53.9, 'datetime': '2018-10-03 17:37:22.747732', 'mgs': 0, 'volt': 0.9521, 'depth': 2.377, 'time': 28, 'pitch': -18.51, 'roll': -3.49, 'pres': 195}
{'lipoC2': 7.27, 'lipoC3S1': 4.16, 'temp': 27.25, 'lipoC3S3': 12.55, 'lipoC3S2': 8.3, 'rot1': 95, 'rot0': 99, 'rot3': 39, 'rot2': 42, 'state': 'normal', 'yaw': 57.36, 'datetime': '2018-10-03 17:37:22.757862', 'mgs': 0, 'volt': 0.9473, 'depth': 2.301, 'time': 28, 'pitch': -18.22, 'roll': -3.92, 'pres': 194}
{'lipoC2': 7.27, 'lipoC3S1': 4.15, 'temp': 27.19, 'lipoC3S3': 12.54, 'lipoC3S2': 8.3, 'rot1': 0, 'rot0': 0, 'rot3': 0, 'rot2': 0, 'state': 'normal', 'yaw': -0.25, 'datetime': '2018-10-03 17:37:22.767786', 'mgs': 0, 'volt': 0.9229, 'depth': 1.92, 'time': 1, 'pitch': -19.37, 'roll': 6.19, 'pres': 189}
{'lipoC2': 7.27, 'lipoC3S1': 4.16, 'temp': 27.19, 'lipoC3S3': 12.54, 'lipoC3S2': 8.3, 'rot1': 0, 'rot0': 0, 'rot3': 0, 'rot2': 0, 'state': 'normal', 'yaw': -2.41, 'datetime': '2018-10-03 17:37:22.777709', 'mgs': 0, 'volt': 0.918, 'depth': 1.843, 'time': 1, 'pitch': -19.41, 'roll': 5.32, 'pres': 188}
{'lipoC2': 7.27, 'lipoC3S1': 4.16, 'temp': 27.19, 'lipoC3S3': 12.54, 'lipoC3S2': 8.3, 'rot1': 0, 'rot0': 0, 'rot3': 0, 'rot2': 0, 'state': 'normal', 'yaw': -3.83, 'datetime': '2018-10-03 17:37:22.787649', 'mgs': 0, 'volt': 0.9082, 'depth': 1.691, 'time': 1, 'pitch': -19.18, 'roll': 3.83, 'pres': 186}
{'lipoC2': 7.27, 'lipoC3S1': 4.16, 'temp': 27.19, 'lipoC3S3': 12.54, 'lipoC3S2': 8.3, 'rot1': 0, 'rot0': 0, 'rot3': 0, 'rot2': 0, 'state': 'normal', 'yaw': -4.29, 'datetime': '2018-10-03 17:37:22.797590', 'mgs': 0, 'volt': 0.9033, 'depth': 1.614, 'time': 1, 'pitch': -19.37, 'roll': 1.36, 'pres': 185}
{'lipoC2': 7.27, 'lipoC3S1': 4.16, 'temp': 27.19, 'lipoC3S3': 12.54, 'lipoC3S2': 8.3, 'rot1': 0, 'rot0': 0, 'rot3': 0, 'rot2': 0, 'state': 'normal', 'yaw': -3.43, 'datetime': '2018-10-03 17:37:22.807690', 'mgs': 0, 'volt': 0.8984, 'depth': 1.538, 'time': 1, 'pitch': -19.8, 'roll': -1.57, 'pres': 184}
{'lipoC2': 7.27, 'lipoC3S1': 4.15, 'temp': 27.25, 'lipoC3S3': 12.54, 'lipoC3S2': 8.3, 'rot1': 0, 'rot0': 0, 'rot3': 0, 'rot2': 0, 'state': 'normal', 'yaw': -1.4, 'datetime': '2018-10-03 17:37:22.817649', 'mgs': 0, 'volt': 0.8887, 'depth': 1.385, 'time': 1, 'pitch': -20.26, 'roll': -4.82, 'pres': 182}
{'lipoC2': 7.27, 'lipoC3S1': 4.16, 'temp': 27.25, 'lipoC3S3': 12.54, 'lipoC3S2': 8.3, 'rot1': 0, 'rot0': 0, 'rot3': 0, 'rot2': 0, 'state': 'normal', 'yaw': 1.55, 'datetime': '2018-10-03 17:37:22.827592', 'mgs': 0, 'volt': 0.8838, 'depth': 1.309, 'time': 1, 'pitch': -20.35, 'roll': -8.06, 'pres': 181}
{'lipoC2': 7.27, 'lipoC3S1': 4.15, 'temp': 27.19, 'lipoC3S3': 12.54, 'lipoC3S2': 8.3, 'rot1': 0, 'rot0': 0, 'rot3': 0, 'rot2': 0, 'state': 'normal', 'yaw': 5.55, 'datetime': '2018-10-03 17:37:22.837531', 'mgs': 0, 'volt': 0.8789, 'depth': 1.233, 'time': 1, 'pitch': -19.73, 'roll': -11.19, 'pres': 180}
{'lipoC2': 7.27, 'lipoC3S1': 4.16, 'temp': 27.19, 'lipoC3S3': 12.54, 'lipoC3S2': 8.3, 'rot1': 0, 'rot0': 0, 'rot3': 0, 'rot2': 0, 'state': 'normal', 'yaw': 9.7, 'datetime': '2018-10-03 17:37:22.847646', 'mgs': 0, 'volt': 0.8691, 'depth': 1.08, 'time': 2, 'pitch': -18.7, 'roll': -13.38, 'pres': 178}
{'lipoC2': 7.27, 'lipoC3S1': 4.16, 'temp': 27.19, 'lipoC3S3': 12.54, 'lipoC3S2': 8.3, 'rot1': 0, 'rot0': 0, 'rot3': 0, 'rot2': 0, 'state': 'normal', 'yaw': 14.32, 'datetime': '2018-10-03 17:37:22.857609', 'mgs': 0, 'volt': 0.8643, 'depth': 1.004, 'time': 2, 'pitch': -17.47, 'roll': -14.81, 'pres': 177}
{'lipoC2': 7.27, 'lipoC3S1': 4.16, 'temp': 27.19, 'lipoC3S3': 12.54, 'lipoC3S2': 8.3, 'rot1': 0, 'rot0': 0, 'rot3': 0, 'rot2': 0, 'state': 'normal', 'yaw': 19.92, 'datetime': '2018-10-03 17:37:22.867509', 'mgs': 0, 'volt': 0.8643, 'depth': 1.004, 'time': 2, 'pitch': -16.26, 'roll': -15.52, 'pres': 177}
{'lipoC2': 7.27, 'lipoC3S1': 4.16, 'temp': 27.19, 'lipoC3S3': 12.54, 'lipoC3S2': 8.3, 'rot1': 0, 'rot0': 0, 'rot3': 0, 'rot2': 0, 'state': 'normal', 'yaw': 25.3, 'datetime': '2018-10-03 17:37:22.877420', 'mgs': 0, 'volt': 0.8594, 'depth': 0.928, 'time': 2, 'pitch': -15.88, 'roll': -15.35, 'pres': 176}
{'lipoC2': 7.27, 'lipoC3S1': 4.16, 'temp': 27.19, 'lipoC3S3': 12.54, 'lipoC3S2': 8.3, 'rot1': 0, 'rot0': 0, 'rot3': 0, 'rot2': 0, 'state': 'normal', 'yaw': 30.78, 'datetime': '2018-10-03 17:37:22.887329', 'mgs': 0, 'volt': 0.8545, 'depth': 0.851, 'time': 2, 'pitch': -16.47, 'roll': -14.49, 'pres': 175}
{'lipoC2': 7.27, 'lipoC3S1': 4.16, 'temp': 27.19, 'lipoC3S3': 12.55, 'lipoC3S2': 8.3, 'rot1': 0, 'rot0': 0, 'rot3': 0, 'rot2': 0, 'state': 'normal', 'yaw': 36.78, 'datetime': '2018-10-03 17:37:22.897310', 'mgs': 0, 'volt': 0.8545, 'depth': 0.851, 'time': 2, 'pitch': -18.24, 'roll': -13.01, 'pres': 175}
{'lipoC2': 7.27, 'lipoC3S1': 4.16, 'temp': 27.13, 'lipoC3S3': 12.54, 'lipoC3S2': 8.3, 'rot1': 0, 'rot0': 0, 'rot3': 0, 'rot2': 0, 'state': 'normal', 'yaw': 42.07, 'datetime': '2018-10-03 17:37:22.907239', 'mgs': 0, 'volt': 0.8545, 'depth': 0.851, 'time': 2, 'pitch': -19.79, 'roll': -11.44, 'pres': 175}
{'lipoC2': 7.27, 'lipoC3S1': 4.15, 'temp': 27.13, 'lipoC3S3': 12.54, 'lipoC3S2': 8.3, 'rot1': 0, 'rot0': 0, 'rot3': 0, 'rot2': 0, 'state': 'normal', 'yaw': 47.11, 'datetime': '2018-10-03 17:37:22.917142', 'mgs': 0, 'volt': 0.8545, 'depth': 0.851, 'time': 2, 'pitch': -20.5, 'roll': -9.73, 'pres': 175}
{'lipoC2': 7.27, 'lipoC3S1': 4.16, 'temp': 27.25, 'lipoC3S3': 12.55, 'lipoC3S2': 8.3, 'rot1': 0, 'rot0': 0, 'rot3': 0, 'rot2': 0, 'state': 'normal', 'yaw': 52.24, 'datetime': '2018-10-03 17:37:22.927093', 'mgs': 0, 'volt': 0.8594, 'depth': 0.928, 'time': 2, 'pitch': -20.4, 'roll': -7.71, 'pres': 176}
{'lipoC2': 7.27, 'lipoC3S1': 4.16, 'temp': 27.25, 'lipoC3S3': 12.54, 'lipoC3S2': 8.3, 'rot1': 0, 'rot0': 0, 'rot3': 0, 'rot2': 0, 'state': 'normal', 'yaw': 56.62, 'datetime': '2018-10-03 17:37:22.937157', 'mgs': 0, 'volt': 0.8594, 'depth': 0.928, 'time': 3, 'pitch': -19.85, 'roll': -5.83, 'pres': 176}
{'lipoC2': 7.27, 'lipoC3S1': 4.15, 'temp': 27.25, 'lipoC3S3': 12.54, 'lipoC3S2': 8.3, 'rot1': 0, 'rot0': 0, 'rot3': 0, 'rot2': 0, 'state': 'normal', 'yaw': 60.91, 'datetime': '2018-10-03 17:37:22.947237', 'mgs': 0, 'volt': 0.8594, 'depth': 0.928, 'time': 3, 'pitch': -19.43, 'roll': -4.05, 'pres': 176}
{'lipoC2': 7.27, 'lipoC3S1': 4.16, 'temp': 27.25, 'lipoC3S3': 12.54, 'lipoC3S2': 8.3, 'rot1': 0, 'rot0': 0, 'rot3': 0, 'rot2': 0, 'state': 'normal', 'yaw': 65.7, 'datetime': '2018-10-03 17:37:22.957210', 'mgs': 0, 'volt': 0.8643, 'depth': 1.004, 'time': 3, 'pitch': -19.48, 'roll': -2.41, 'pres': 177}
{'lipoC2': 7.27, 'lipoC3S1': 4.16, 'temp': 27.25, 'lipoC3S3': 12.54, 'lipoC3S2': 8.3, 'rot1': 0, 'rot0': 0, 'rot3': 0, 'rot2': 0, 'state': 'normal', 'yaw': 70.11, 'datetime': '2018-10-03 17:37:22.967144', 'mgs': 0, 'volt': 0.8691, 'depth': 1.08, 'time': 3, 'pitch': -19.87, 'roll': -1.31, 'pres': 178}
{'lipoC2': 7.27, 'lipoC3S1': 4.16, 'temp': 27.25, 'lipoC3S3': 12.54, 'lipoC3S2': 8.3, 'rot1': 0, 'rot0': 0, 'rot3': 0, 'rot2': 0, 'state': 'normal', 'yaw': 74.6, 'datetime': '2018-10-03 17:37:22.977047', 'mgs': 0, 'volt': 0.8691, 'depth': 1.08, 'time': 3, 'pitch': -20.34, 'roll': -0.66, 'pres': 178}
{'lipoC2': 7.27, 'lipoC3S1': 4.15, 'temp': 27.25, 'lipoC3S3': 12.54, 'lipoC3S2': 8.3, 'rot1': 0, 'rot0': 0, 'rot3': 0, 'rot2': 0, 'state': 'normal', 'yaw': 79.71, 'datetime': '2018-10-03 17:37:22.986983', 'mgs': 0, 'volt': 0.874, 'depth': 1.157, 'time': 3, 'pitch': -20.64, 'roll': -0.59, 'pres': 179}
{'lipoC2': 7.27, 'lipoC3S1': 4.16, 'temp': 27.25, 'lipoC3S3': 12.54, 'lipoC3S2': 8.3, 'rot1': 0, 'rot0': 0, 'rot3': 0, 'rot2': 0, 'state': 'normal', 'yaw': 84.44, 'datetime': '2018-10-03 17:37:22.996919', 'mgs': 0, 'volt': 0.874, 'depth': 1.157, 'time': 3, 'pitch': -20.53, 'roll': -1.01, 'pres': 179}
{'lipoC2': 7.27, 'lipoC3S1': 4.16, 'temp': 27.25, 'lipoC3S3': 12.54, 'lipoC3S2': 8.3, 'rot1': 0, 'rot0': 0, 'rot3': 0, 'rot2': 0, 'state': 'normal', 'yaw': 89.21, 'datetime': '2018-10-03 17:37:23.006832', 'mgs': 0, 'volt': 0.874, 'depth': 1.157, 'time': 3, 'pitch': -20.19, 'roll': -1.77, 'pres': 179}
{'lipoC2': 7.27, 'lipoC3S1': 4.16, 'temp': 27.25, 'lipoC3S3': 12.54, 'lipoC3S2': 8.3, 'rot1': 0, 'rot0': 0, 'rot3': 0, 'rot2': 0, 'state': 'normal', 'yaw': 93.91, 'datetime': '2018-10-03 17:37:23.016766', 'mgs': 0, 'volt': 0.874, 'depth': 1.157, 'time': 3, 'pitch': -19.94, 'roll': -2.67, 'pres': 179}
{'lipoC2': 7.27, 'lipoC3S1': 4.16, 'temp': 27.25, 'lipoC3S3': 12.54, 'lipoC3S2': 8.3, 'rot1': 0, 'rot0': 0, 'rot3': 0, 'rot2': 0, 'state': 'normal', 'yaw': 98.82, 'datetime': '2018-10-03 17:37:23.026683', 'mgs': 0, 'volt': 0.8789, 'depth': 1.233, 'time': 3, 'pitch': -19.7, 'roll': -3.61, 'pres': 180}
{'lipoC2': 7.27, 'lipoC3S1': 4.16, 'temp': 27.25, 'lipoC3S3': 12.54, 'lipoC3S2': 8.3, 'rot1': 0, 'rot0': 0, 'rot3': 0, 'rot2': 0, 'state': 'normal', 'yaw': 102.95, 'datetime': '2018-10-03 17:37:23.036609', 'mgs': 0, 'volt': 0.8789, 'depth': 1.233, 'time': 4, 'pitch': -19.39, 'roll': -4.26, 'pres': 180}
{'lipoC2': 7.27, 'lipoC3S1': 4.15, 'temp': 27.25, 'lipoC3S3': 12.54, 'lipoC3S2': 8.3, 'rot1': 0, 'rot0': 0, 'rot3': 0, 'rot2': 0, 'state': 'normal', 'yaw': 106.87, 'datetime': '2018-10-03 17:37:23.046689', 'mgs': 0, 'volt': 0.8887, 'depth': 1.385, 'time': 4, 'pitch': -18.52, 'roll': -4.53, 'pres': 182}
{'lipoC2': 7.27, 'lipoC3S1': 4.16, 'temp': 27.25, 'lipoC3S3': 12.54, 'lipoC3S2': 8.3, 'rot1': 0, 'rot0': 0, 'rot3': 0, 'rot2': 0, 'state': 'normal', 'yaw': 109.85, 'datetime': '2018-10-03 17:37:23.056664', 'mgs': 0, 'volt': 0.8887, 'depth': 1.385, 'time': 4, 'pitch': -17.32, 'roll': -4.25, 'pres': 182}
{'lipoC2': 7.27, 'lipoC3S1': 4.16, 'temp': 27.25, 'lipoC3S3': 12.54, 'lipoC3S2': 8.3, 'rot1': 0, 'rot0': 0, 'rot3': 0, 'rot2': 0, 'state': 'normal', 'yaw': 112.56, 'datetime': '2018-10-03 17:37:23.066574', 'mgs': 0, 'volt': 0.8936, 'depth': 1.462, 'time': 4, 'pitch': -15.74, 'roll': -3.71, 'pres': 183}
{'lipoC2': 7.27, 'lipoC3S1': 4.16, 'temp': 27.25, 'lipoC3S3': 12.55, 'lipoC3S2': 8.3, 'rot1': 0, 'rot0': 0, 'rot3': 0, 'rot2': 0, 'state': 'normal', 'yaw': 114.97, 'datetime': '2018-10-03 17:37:23.076959', 'mgs': 0, 'volt': 0.8984, 'depth': 1.538, 'time': 4, 'pitch': -13.64, 'roll': -2.67, 'pres': 184}
{'lipoC2': 7.27, 'lipoC3S1': 4.16, 'temp': 27.25, 'lipoC3S3': 12.54, 'lipoC3S2': 8.3, 'rot1': 0, 'rot0': 0, 'rot3': 0, 'rot2': 0, 'state': 'normal', 'yaw': 116.71, 'datetime': '2018-10-03 17:37:23.086973', 'mgs': 0, 'volt': 0.9033, 'depth': 1.614, 'time': 4, 'pitch': -11.84, 'roll': -1.42, 'pres': 185}
{'lipoC2': 7.27, 'lipoC3S1': 4.16, 'temp': 27.19, 'lipoC3S3': 12.54, 'lipoC3S2': 8.3, 'rot1': 0, 'rot0': 0, 'rot3': 0, 'rot2': 0, 'state': 'normal', 'yaw': 117.99, 'datetime': '2018-10-03 17:37:23.096939', 'mgs': 0, 'volt': 0.9082, 'depth': 1.691, 'time': 4, 'pitch': -10.43, 'roll': 0.08, 'pres': 186}
{'lipoC2': 7.27, 'lipoC3S1': 4.16, 'temp': 27.19, 'lipoC3S3': 12.54, 'lipoC3S2': 8.3, 'rot1': 0, 'rot0': 0, 'rot3': 0, 'rot2': 0, 'state': 'normal', 'yaw': 118.77, 'datetime': '2018-10-03 17:37:23.106891', 'mgs': 0, 'volt': 0.9131, 'depth': 1.767, 'time': 4, 'pitch': -9.25, 'roll': 1.75, 'pres': 187}
{'lipoC2': 7.27, 'lipoC3S1': 4.15, 'temp': 27.19, 'lipoC3S3': 12.54, 'lipoC3S2': 8.3, 'rot1': 0, 'rot0': 0, 'rot3': 0, 'rot2': 0, 'state': 'normal', 'yaw': 119.25, 'datetime': '2018-10-03 17:37:23.116815', 'mgs': 0, 'volt': 0.9131, 'depth': 1.767, 'time': 4, 'pitch': -8.4, 'roll': 3.59, 'pres': 187}
{'lipoC2': 7.27, 'lipoC3S1': 4.16, 'temp': 27.19, 'lipoC3S3': 12.55, 'lipoC3S2': 8.3, 'rot1': 0, 'rot0': 0, 'rot3': 0, 'rot2': 0, 'state': 'normal', 'yaw': 119.58, 'datetime': '2018-10-03 17:37:23.126756', 'mgs': 0, 'volt': 0.9131, 'depth': 1.767, 'time': 4, 'pitch': -8.55, 'roll': 5.04, 'pres': 187}
{'lipoC2': 7.27, 'lipoC3S1': 4.16, 'temp': 27.19, 'lipoC3S3': 12.55, 'lipoC3S2': 8.3, 'rot1': 0, 'rot0': 0, 'rot3': 0, 'rot2': 0, 'state': 'normal', 'yaw': 119.68, 'datetime': '2018-10-03 17:37:23.136710', 'mgs': 0, 'volt': 0.9082, 'depth': 1.691, 'time': 5, 'pitch': -10.06, 'roll': 6.26, 'pres': 186}
{'lipoC2': 7.27, 'lipoC3S1': 4.16, 'temp': 27.19, 'lipoC3S3': 12.54, 'lipoC3S2': 8.3, 'rot1': 0, 'rot0': 0, 'rot3': 0, 'rot2': 0, 'state': 'normal', 'yaw': 119.79, 'datetime': '2018-10-03 17:37:23.146791', 'mgs': 0, 'volt': 0.9082, 'depth': 1.691, 'time': 5, 'pitch': -12.76, 'roll': 7.09, 'pres': 186}
{'lipoC2': 7.27, 'lipoC3S1': 4.16, 'temp': 27.19, 'lipoC3S3': 12.55, 'lipoC3S2': 8.3, 'rot1': 0, 'rot0': 0, 'rot3': 0, 'rot2': 0, 'state': 'normal', 'yaw': 120.16, 'datetime': '2018-10-03 17:37:23.156771', 'mgs': 0, 'volt': 0.9082, 'depth': 1.691, 'time': 5, 'pitch': -15.15, 'roll': 7.31, 'pres': 186}
{'lipoC2': 7.27, 'lipoC3S1': 4.16, 'temp': 27.19, 'lipoC3S3': 12.55, 'lipoC3S2': 8.3, 'rot1': 0, 'rot0': 0, 'rot3': 0, 'rot2': 0, 'state': 'normal', 'yaw': 120.85, 'datetime': '2018-10-03 17:37:23.166756', 'mgs': 0, 'volt': 0.9033, 'depth': 1.614, 'time': 5, 'pitch': -16.95, 'roll': 6.99, 'pres': 185}
{'lipoC2': 7.27, 'lipoC3S1': 4.16, 'temp': 27.19, 'lipoC3S3': 12.55, 'lipoC3S2': 8.3, 'rot1': 0, 'rot0': 0, 'rot3': 0, 'rot2': 0, 'state': 'normal', 'yaw': 121.89, 'datetime': '2018-10-03 17:37:23.176865', 'mgs': 0, 'volt': 0.8984, 'depth': 1.538, 'time': 5, 'pitch': -18.04, 'roll': 6.12, 'pres': 184}
{'lipoC2': 7.27, 'lipoC3S1': 4.16, 'temp': 27.19, 'lipoC3S3': 12.54, 'lipoC3S2': 8.3, 'rot1': 0, 'rot0': 0, 'rot3': 0, 'rot2': 0, 'state': 'normal', 'yaw': 122.85, 'datetime': '2018-10-03 17:37:23.186808', 'mgs': 0, 'volt': 0.8936, 'depth': 1.462, 'time': 5, 'pitch': -18.09, 'roll': 5.1, 'pres': 183}
{'lipoC2': 7.27, 'lipoC3S1': 4.16, 'temp': 27.19, 'lipoC3S3': 12.54, 'lipoC3S2': 8.3, 'rot1': 0, 'rot0': 0, 'rot3': 0, 'rot2': 0, 'state': 'normal', 'yaw': 123.59, 'datetime': '2018-10-03 17:37:23.196764', 'mgs': 0, 'volt': 0.8936, 'depth': 1.462, 'time': 5, 'pitch': -17.38, 'roll': 4.11, 'pres': 183}
{'lipoC2': 7.27, 'lipoC3S1': 4.15, 'temp': 27.19, 'lipoC3S3': 12.54, 'lipoC3S2': 8.3, 'rot1': 0, 'rot0': 0, 'rot3': 0, 'rot2': 0, 'state': 'normal', 'yaw': 124.05, 'datetime': '2018-10-03 17:37:23.206863', 'mgs': 0, 'volt': 0.8936, 'depth': 1.462, 'time': 5, 'pitch': -16.08, 'roll': 3.2, 'pres': 183}
{'lipoC2': 7.27, 'lipoC3S1': 4.16, 'temp': 27.19, 'lipoC3S3': 12.55, 'lipoC3S2': 8.3, 'rot1': 0, 'rot0': 0, 'rot3': 0, 'rot2': 0, 'state': 'normal', 'yaw': 124.05, 'datetime': '2018-10-03 17:37:23.216780', 'mgs': 0, 'volt': 0.8936, 'depth': 1.462, 'time': 5, 'pitch': -14.7, 'roll': 2.62, 'pres': 183}
{'lipoC2': 7.27, 'lipoC3S1': 4.16, 'temp': 27.19, 'lipoC3S3': 12.55, 'lipoC3S2': 8.3, 'rot1': 0, 'rot0': 0, 'rot3': 0, 'rot2': 0, 'state': 'normal', 'yaw': 123.75, 'datetime': '2018-10-03 17:37:23.226708', 'mgs': 0, 'volt': 0.8936, 'depth': 1.462, 'time': 6, 'pitch': -13.36, 'roll': 2.21, 'pres': 183}
{'lipoC2': 7.27, 'lipoC3S1': 4.16, 'temp': 27.13, 'lipoC3S3': 12.54, 'lipoC3S2': 8.3, 'rot1': 0, 'rot0': 0, 'rot3': 0, 'rot2': 0, 'state': 'normal', 'yaw': 123.15, 'datetime': '2018-10-03 17:37:23.236651', 'mgs': 0, 'volt': 0.8887, 'depth': 1.385, 'time': 6, 'pitch': -12.18, 'roll': 1.92, 'pres': 182}
{'lipoC2': 7.27, 'lipoC3S1': 4.16, 'temp': 27.13, 'lipoC3S3': 12.54, 'lipoC3S2': 8.3, 'rot1': 0, 'rot0': 0, 'rot3': 0, 'rot2': 0, 'state': 'normal', 'yaw': 122.44, 'datetime': '2018-10-03 17:37:23.246736', 'mgs': 0, 'volt': 0.8887, 'depth': 1.385, 'time': 6, 'pitch': -11.38, 'roll': 1.74, 'pres': 182}
{'lipoC2': 7.27, 'lipoC3S1': 4.16, 'temp': 27.19, 'lipoC3S3': 12.54, 'lipoC3S2': 8.3, 'rot1': 0, 'rot0': 0, 'rot3': 0, 'rot2': 0, 'state': 'normal', 'yaw': 121.69, 'datetime': '2018-10-03 17:37:23.256708', 'mgs': 0, 'volt': 0.8887, 'depth': 1.385, 'time': 6, 'pitch': -10.86, 'roll': 1.6, 'pres': 182}
{'lipoC2': 7.27, 'lipoC3S1': 4.16, 'temp': 27.19, 'lipoC3S3': 12.55, 'lipoC3S2': 8.3, 'rot1': 0, 'rot0': 0, 'rot3': 0, 'rot2': 0, 'state': 'normal', 'yaw': 120.96, 'datetime': '2018-10-03 17:37:23.266639', 'mgs': 0, 'volt': 0.8838, 'depth': 1.309, 'time': 6, 'pitch': -10.56, 'roll': 1.45, 'pres': 181}
{'lipoC2': 7.27, 'lipoC3S1': 4.16, 'temp': 27.19, 'lipoC3S3': 12.55, 'lipoC3S2': 8.3, 'rot1': 0, 'rot0': 0, 'rot3': 0, 'rot2': 0, 'state': 'normal', 'yaw': 120.31, 'datetime': '2018-10-03 17:37:23.276595', 'mgs': 0, 'volt': 0.8838, 'depth': 1.309, 'time': 6, 'pitch': -10.35, 'roll': 1.19, 'pres': 181}
{'lipoC2': 7.27, 'lipoC3S1': 4.16, 'temp': 27.19, 'lipoC3S3': 12.55, 'lipoC3S2': 8.3, 'rot1': 0, 'rot0': 0, 'rot3': 0, 'rot2': 0, 'state': 'normal', 'yaw': 119.9, 'datetime': '2018-10-03 17:37:23.286503', 'mgs': 0, 'volt': 0.8789, 'depth': 1.233, 'time': 6, 'pitch': -10.13, 'roll': 0.85, 'pres': 180}
{'lipoC2': 7.27, 'lipoC3S1': 4.16, 'temp': 27.19, 'lipoC3S3': 12.55, 'lipoC3S2': 8.3, 'rot1': 0, 'rot0': 0, 'rot3': 0, 'rot2': 0, 'state': 'normal', 'yaw': 119.72, 'datetime': '2018-10-03 17:37:23.296437', 'mgs': 0, 'volt': 0.8789, 'depth': 1.233, 'time': 6, 'pitch': -9.9, 'roll': 0.44, 'pres': 180}
{'lipoC2': 7.27, 'lipoC3S1': 4.16, 'temp': 27.19, 'lipoC3S3': 12.54, 'lipoC3S2': 8.3, 'rot1': 0, 'rot0': 0, 'rot3': 0, 'rot2': 0, 'state': 'normal', 'yaw': 119.77, 'datetime': '2018-10-03 17:37:23.306345', 'mgs': 0, 'volt': 0.8789, 'depth': 1.233, 'time': 6, 'pitch': -9.61, 'roll': -0.03, 'pres': 180}
{'lipoC2': 7.27, 'lipoC3S1': 4.16, 'temp': 27.19, 'lipoC3S3': 12.55, 'lipoC3S2': 8.3, 'rot1': 0, 'rot0': 0, 'rot3': 0, 'rot2': 0, 'state': 'normal', 'yaw': 119.91, 'datetime': '2018-10-03 17:37:23.316275', 'mgs': 0, 'volt': 0.874, 'depth': 1.157, 'time': 6, 'pitch': -9.4, 'roll': -0.35, 'pres': 179}
{'lipoC2': 7.27, 'lipoC3S1': 4.16, 'temp': 27.19, 'lipoC3S3': 12.55, 'lipoC3S2': 8.3, 'rot1': 0, 'rot0': 0, 'rot3': 0, 'rot2': 0, 'state': 'normal', 'yaw': 120.07, 'datetime': '2018-10-03 17:37:23.326199', 'mgs': 0, 'volt': 0.874, 'depth': 1.157, 'time': 7, 'pitch': -9.21, 'roll': -0.5, 'pres': 179}
{'lipoC2': 7.27, 'lipoC3S1': 4.16, 'temp': 27.19, 'lipoC3S3': 12.54, 'lipoC3S2': 8.3, 'rot1': 0, 'rot0': 0, 'rot3': 0, 'rot2': 0, 'state': 'normal', 'yaw': 120.31, 'datetime': '2018-10-03 17:37:23.336179', 'mgs': 0, 'volt': 0.874, 'depth': 1.157, 'time': 7, 'pitch': -8.97, 'roll': -0.53, 'pres': 179}
{'lipoC2': 7.27, 'lipoC3S1': 4.16, 'temp': 27.19, 'lipoC3S3': 12.54, 'lipoC3S2': 8.3, 'rot1': 0, 'rot0': 0, 'rot3': 0, 'rot2': 0, 'state': 'normal', 'yaw': 120.69, 'datetime': '2018-10-03 17:37:23.346382', 'mgs': 0, 'volt': 0.874, 'depth': 1.157, 'time': 7, 'pitch': -8.67, 'roll': -0.48, 'pres': 179}
{'lipoC2': 7.27, 'lipoC3S1': 4.16, 'temp': 27.19, 'lipoC3S3': 12.55, 'lipoC3S2': 8.3, 'rot1': 0, 'rot0': 0, 'rot3': 0, 'rot2': 0, 'state': 'normal', 'yaw': 121.37, 'datetime': '2018-10-03 17:37:23.356358', 'mgs': 0, 'volt': 0.874, 'depth': 1.157, 'time': 7, 'pitch': -8.17, 'roll': -0.5, 'pres': 179}
{'lipoC2': 7.27, 'lipoC3S1': 4.16, 'temp': 27.19, 'lipoC3S3': 12.54, 'lipoC3S2': 8.3, 'rot1': 0, 'rot0': 0, 'rot3': 0, 'rot2': 0, 'state': 'normal', 'yaw': 122.57, 'datetime': '2018-10-03 17:37:23.366309', 'mgs': 0, 'volt': 0.874, 'depth': 1.157, 'time': 7, 'pitch': -7.37, 'roll': -0.66, 'pres': 179}
{'lipoC2': 7.27, 'lipoC3S1': 4.16, 'temp': 27.19, 'lipoC3S3': 12.55, 'lipoC3S2': 8.31, 'rot1': 0, 'rot0': 0, 'rot3': 0, 'rot2': 0, 'state': 'normal', 'yaw': 123.84, 'datetime': '2018-10-03 17:37:23.376265', 'mgs': 0, 'volt': 0.874, 'depth': 1.157, 'time': 7, 'pitch': -6.69, 'roll': -0.81, 'pres': 179}
{'lipoC2': 7.27, 'lipoC3S1': 4.16, 'temp': 27.19, 'lipoC3S3': 12.54, 'lipoC3S2': 8.3, 'rot1': 0, 'rot0': 0, 'rot3': 0, 'rot2': 0, 'state': 'normal', 'yaw': 125.1, 'datetime': '2018-10-03 17:37:23.386204', 'mgs': 0, 'volt': 0.874, 'depth': 1.157, 'time': 7, 'pitch': -6.19, 'roll': -0.91, 'pres': 179}
{'lipoC2': 7.27, 'lipoC3S1': 4.16, 'temp': 27.19, 'lipoC3S3': 12.54, 'lipoC3S2': 8.3, 'rot1': 0, 'rot0': 0, 'rot3': 0, 'rot2': 0, 'state': 'normal', 'yaw': 126.18, 'datetime': '2018-10-03 17:37:23.396139', 'mgs': 0, 'volt': 0.874, 'depth': 1.157, 'time': 7, 'pitch': -6.06, 'roll': -0.74, 'pres': 179}
{'lipoC2': 7.27, 'lipoC3S1': 4.16, 'temp': 27.19, 'lipoC3S3': 12.55, 'lipoC3S2': 8.3, 'rot1': 0, 'rot0': 0, 'rot3': 0, 'rot2': 0, 'state': 'normal', 'yaw': 126.87, 'datetime': '2018-10-03 17:37:23.406089', 'mgs': 0, 'volt': 0.874, 'depth': 1.157, 'time': 7, 'pitch': -6.22, 'roll': -0.31, 'pres': 179}
{'lipoC2': 7.27, 'lipoC3S1': 4.16, 'temp': 27.19, 'lipoC3S3': 12.55, 'lipoC3S2': 8.3, 'rot1': 0, 'rot0': 0, 'rot3': 0, 'rot2': 0, 'state': 'normal', 'yaw': 127.77, 'datetime': '2018-10-03 17:37:23.416038', 'mgs': 0, 'volt': 0.8789, 'depth': 1.233, 'time': 7, 'pitch': -5.87, 'roll': 0.12, 'pres': 180}
{'lipoC2': 7.27, 'lipoC3S1': 4.16, 'temp': 27.19, 'lipoC3S3': 12.55, 'lipoC3S2': 8.31, 'rot1': 0, 'rot0': 0, 'rot3': 0, 'rot2': 0, 'state': 'normal', 'yaw': 129.17, 'datetime': '2018-10-03 17:37:23.426554', 'mgs': 0, 'volt': 0.874, 'depth': 1.157, 'time': 8, 'pitch': -5.05, 'roll': 0.3, 'pres': 179}
{'lipoC2': 7.27, 'lipoC3S1': 4.16, 'temp': 27.19, 'lipoC3S3': 12.55, 'lipoC3S2': 8.3, 'rot1': 0, 'rot0': 0, 'rot3': 0, 'rot2': 0, 'state': 'normal', 'yaw': 130.67, 'datetime': '2018-10-03 17:37:23.436593', 'mgs': 0, 'volt': 0.874, 'depth': 1.157, 'time': 8, 'pitch': -5.54, 'roll': 0.51, 'pres': 179}
{'lipoC2': 7.27, 'lipoC3S1': 4.16, 'temp': 27.19, 'lipoC3S3': 12.55, 'lipoC3S2': 8.3, 'rot1': 0, 'rot0': 0, 'rot3': 0, 'rot2': 0, 'state': 'normal', 'yaw': 132.02, 'datetime': '2018-10-03 17:37:23.446722', 'mgs': 0, 'volt': 0.874, 'depth': 1.157, 'time': 8, 'pitch': -6.62, 'roll': 0.63, 'pres': 179}
{'lipoC2': 7.27, 'lipoC3S1': 4.16, 'temp': 27.19, 'lipoC3S3': 12.54, 'lipoC3S2': 8.3, 'rot1': 0, 'rot0': 0, 'rot3': 0, 'rot2': 0, 'state': 'normal', 'yaw': 133.29, 'datetime': '2018-10-03 17:37:23.456698', 'mgs': 0, 'volt': 0.8691, 'depth': 1.08, 'time': 8, 'pitch': -7.75, 'roll': 0.72, 'pres': 178}
{'lipoC2': 7.27, 'lipoC3S1': 4.16, 'temp': 27.19, 'lipoC3S3': 12.55, 'lipoC3S2': 8.3, 'rot1': 0, 'rot0': 0, 'rot3': 0, 'rot2': 0, 'state': 'normal', 'yaw': 134.34, 'datetime': '2018-10-03 17:37:23.466640', 'mgs': 0, 'volt': 0.8691, 'depth': 1.08, 'time': 8, 'pitch': -8.66, 'roll': 0.95, 'pres': 178}
{'lipoC2': 7.27, 'lipoC3S1': 4.16, 'temp': 27.19, 'lipoC3S3': 12.54, 'lipoC3S2': 8.3, 'rot1': 0, 'rot0': 0, 'rot3': 0, 'rot2': 0, 'state': 'normal', 'yaw': 135.04, 'datetime': '2018-10-03 17:37:23.476917', 'mgs': 0, 'volt': 0.8691, 'depth': 1.08, 'time': 8, 'pitch': -8.77, 'roll': 1.27, 'pres': 178}
{'lipoC2': 7.27, 'lipoC3S1': 4.16, 'temp': 27.19, 'lipoC3S3': 12.54, 'lipoC3S2': 8.3, 'rot1': 0, 'rot0': 0, 'rot3': 0, 'rot2': 0, 'state': 'normal', 'yaw': 135.39, 'datetime': '2018-10-03 17:37:23.487019', 'mgs': 0, 'volt': 0.8691, 'depth': 1.08, 'time': 8, 'pitch': -8.18, 'roll': 1.78, 'pres': 178}
{'lipoC2': 7.27, 'lipoC3S1': 4.16, 'temp': 27.19, 'lipoC3S3': 12.55, 'lipoC3S2': 8.3, 'rot1': 0, 'rot0': 0, 'rot3': 0, 'rot2': 0, 'state': 'normal', 'yaw': 135.28, 'datetime': '2018-10-03 17:37:23.496993', 'mgs': 0, 'volt': 0.8691, 'depth': 1.08, 'time': 8, 'pitch': -7.33, 'roll': 2.57, 'pres': 178}
{'lipoC2': 7.27, 'lipoC3S1': 4.16, 'temp': 27.19, 'lipoC3S3': 12.55, 'lipoC3S2': 8.3, 'rot1': 0, 'rot0': 0, 'rot3': 0, 'rot2': 0, 'state': 'normal', 'yaw': 134.83, 'datetime': '2018-10-03 17:37:23.506931', 'mgs': 0, 'volt': 0.8691, 'depth': 1.08, 'time': 8, 'pitch': -6.7, 'roll': 3.36, 'pres': 178}
{'lipoC2': 7.27, 'lipoC3S1': 4.16, 'temp': 27.19, 'lipoC3S3': 12.54, 'lipoC3S2': 8.31, 'rot1': 0, 'rot0': 0, 'rot3': 0, 'rot2': 0, 'state': 'normal', 'yaw': 134.39, 'datetime': '2018-10-03 17:37:23.516888', 'mgs': 0, 'volt': 0.8691, 'depth': 1.08, 'time': 9, 'pitch': -6.17, 'roll': 3.88, 'pres': 178}
{'lipoC2': 7.27, 'lipoC3S1': 4.16, 'temp': 27.19, 'lipoC3S3': 12.55, 'lipoC3S2': 8.3, 'rot1': 0, 'rot0': 0, 'rot3': 0, 'rot2': 0, 'state': 'normal', 'yaw': 134.05, 'datetime': '2018-10-03 17:37:23.526823', 'mgs': 0, 'volt': 0.8691, 'depth': 1.08, 'time': 9, 'pitch': -5.7, 'roll': 3.97, 'pres': 178}
{'lipoC2': 7.27, 'lipoC3S1': 4.16, 'temp': 27.19, 'lipoC3S3': 12.55, 'lipoC3S2': 8.3, 'rot1': 0, 'rot0': 0, 'rot3': 0, 'rot2': 0, 'state': 'normal', 'yaw': 133.75, 'datetime': '2018-10-03 17:37:23.536758', 'mgs': 0, 'volt': 0.8691, 'depth': 1.08, 'time': 9, 'pitch': -5.44, 'roll': 3.72, 'pres': 178}
{'lipoC2': 7.27, 'lipoC3S1': 4.16, 'temp': 27.19, 'lipoC3S3': 12.55, 'lipoC3S2': 8.3, 'rot1': 0, 'rot0': 0, 'rot3': 0, 'rot2': 0, 'state': 'normal', 'yaw': 133.42, 'datetime': '2018-10-03 17:37:23.546821', 'mgs': 0, 'volt': 0.8691, 'depth': 1.08, 'time': 9, 'pitch': -5.28, 'roll': 3.22, 'pres': 178}
{'lipoC2': 7.27, 'lipoC3S1': 4.16, 'temp': 27.19, 'lipoC3S3': 12.55, 'lipoC3S2': 8.31, 'rot1': 0, 'rot0': 0, 'rot3': 0, 'rot2': 0, 'state': 'normal', 'yaw': 133.09, 'datetime': '2018-10-03 17:37:23.556780', 'mgs': 0, 'volt': 0.8643, 'depth': 1.004, 'time': 9, 'pitch': -5.12, 'roll': 2.44, 'pres': 177}
{'lipoC2': 7.27, 'lipoC3S1': 4.16, 'temp': 27.19, 'lipoC3S3': 12.55, 'lipoC3S2': 8.3, 'rot1': 0, 'rot0': 0, 'rot3': 0, 'rot2': 0, 'state': 'normal', 'yaw': 132.78, 'datetime': '2018-10-03 17:37:23.566761', 'mgs': 0, 'volt': 0.8643, 'depth': 1.004, 'time': 9, 'pitch': -4.84, 'roll': 1.62, 'pres': 177}
{'lipoC2': 7.27, 'lipoC3S1': 4.16, 'temp': 27.19, 'lipoC3S3': 12.54, 'lipoC3S2': 8.3, 'rot1': 0, 'rot0': 0, 'rot3': 0, 'rot2': 0, 'state': 'normal', 'yaw': 132.41, 'datetime': '2018-10-03 17:37:23.576671', 'mgs': 0, 'volt': 0.8643, 'depth': 1.004, 'time': 9, 'pitch': -4.66, 'roll': 0.81, 'pres': 177}
{'lipoC2': 7.27, 'lipoC3S1': 4.16, 'temp': 27.19, 'lipoC3S3': 12.55, 'lipoC3S2': 8.3, 'rot1': 0, 'rot0': 0, 'rot3': 0, 'rot2': 0, 'state': 'normal', 'yaw': 131.93, 'datetime': '2018-10-03 17:37:23.586587', 'mgs': 0, 'volt': 0.8643, 'depth': 1.004, 'time': 9, 'pitch': -4.74, 'roll': 0.1, 'pres': 177}
{'lipoC2': 7.27, 'lipoC3S1': 4.16, 'temp': 27.19, 'lipoC3S3': 12.55, 'lipoC3S2': 8.3, 'rot1': 0, 'rot0': 0, 'rot3': 0, 'rot2': 0, 'state': 'normal', 'yaw': 131.3, 'datetime': '2018-10-03 17:37:23.596496', 'mgs': 0, 'volt': 0.8594, 'depth': 0.928, 'time': 9, 'pitch': -4.99, 'roll': -0.44, 'pres': 176}
{'lipoC2': 7.27, 'lipoC3S1': 4.16, 'temp': 27.19, 'lipoC3S3': 12.55, 'lipoC3S2': 8.3, 'rot1': 0, 'rot0': 0, 'rot3': 0, 'rot2': 0, 'state': 'normal', 'yaw': 130.78, 'datetime': '2018-10-03 17:37:23.606393', 'mgs': 0, 'volt': 0.8594, 'depth': 0.928, 'time': 9, 'pitch': -5.29, 'roll': -0.82, 'pres': 176}
{'lipoC2': 7.27, 'lipoC3S1': 4.16, 'temp': 27.19, 'lipoC3S3': 12.54, 'lipoC3S2': 8.3, 'rot1': 0, 'rot0': 0, 'rot3': 0, 'rot2': 0, 'state': 'normal', 'yaw': 130.38, 'datetime': '2018-10-03 17:37:23.616500', 'mgs': 0, 'volt': 0.8594, 'depth': 0.928, 'time': 10, 'pitch': -5.68, 'roll': -1.08, 'pres': 176}
{'lipoC2': 7.27, 'lipoC3S1': 4.16, 'temp': 27.19, 'lipoC3S3': 12.55, 'lipoC3S2': 8.3, 'rot1': 0, 'rot0': 0, 'rot3': 0, 'rot2': 0, 'state': 'normal', 'yaw': 130.19, 'datetime': '2018-10-03 17:37:23.626495', 'mgs': 0, 'volt': 0.8545, 'depth': 0.851, 'time': 10, 'pitch': -6.29, 'roll': -1.34, 'pres': 175}
{'lipoC2': 7.27, 'lipoC3S1': 4.16, 'temp': 27.19, 'lipoC3S3': 12.55, 'lipoC3S2': 8.3, 'rot1': 0, 'rot0': 0, 'rot3': 0, 'rot2': 0, 'state': 'normal', 'yaw': 130.21, 'datetime': '2018-10-03 17:37:23.636457', 'mgs': 0, 'volt': 0.8545, 'depth': 0.851, 'time': 10, 'pitch': -6.96, 'roll': -1.54, 'pres': 175}
{'lipoC2': 7.27, 'lipoC3S1': 4.16, 'temp': 27.19, 'lipoC3S3': 12.55, 'lipoC3S2': 8.3, 'rot1': 0, 'rot0': 0, 'rot3': 0, 'rot2': 0, 'state': 'normal', 'yaw': 130.43, 'datetime': '2018-10-03 17:37:23.646567', 'mgs': 0, 'volt': 0.8545, 'depth': 0.851, 'time': 10, 'pitch': -7.62, 'roll': -1.71, 'pres': 175}
{'lipoC2': 7.27, 'lipoC3S1': 4.16, 'temp': 27.19, 'lipoC3S3': 12.55, 'lipoC3S2': 8.31, 'rot1': 0, 'rot0': 0, 'rot3': 0, 'rot2': 0, 'state': 'normal', 'yaw': 130.94, 'datetime': '2018-10-03 17:37:23.656574', 'mgs': 0, 'volt': 0.8496, 'depth': 0.775, 'time': 10, 'pitch': -8.15, 'roll': -1.89, 'pres': 174}
{'lipoC2': 7.27, 'lipoC3S1': 4.16, 'temp': 27.19, 'lipoC3S3': 12.55, 'lipoC3S2': 8.3, 'rot1': 0, 'rot0': 0, 'rot3': 0, 'rot2': 0, 'state': 'normal', 'yaw': 131.49, 'datetime': '2018-10-03 17:37:23.666511', 'mgs': 0, 'volt': 0.8496, 'depth': 0.775, 'time': 10, 'pitch': -8.54, 'roll': -1.99, 'pres': 174}
{'lipoC2': 7.27, 'lipoC3S1': 4.16, 'temp': 27.19, 'lipoC3S3': 12.55, 'lipoC3S2': 8.3, 'rot1': 0, 'rot0': 0, 'rot3': 0, 'rot2': 0, 'state': 'normal', 'yaw': 132.1, 'datetime': '2018-10-03 17:37:23.676475', 'mgs': 0, 'volt': 0.8496, 'depth': 0.775, 'time': 10, 'pitch': -8.94, 'roll': -1.95, 'pres': 174}
{'lipoC2': 7.27, 'lipoC3S1': 4.16, 'temp': 27.19, 'lipoC3S3': 12.54, 'lipoC3S2': 8.3, 'rot1': 0, 'rot0': 0, 'rot3': 0, 'rot2': 0, 'state': 'normal', 'yaw': 132.85, 'datetime': '2018-10-03 17:37:23.686426', 'mgs': 0, 'volt': 0.8496, 'depth': 0.775, 'time': 10, 'pitch': -9.35, 'roll': -1.79, 'pres': 174}
{'lipoC2': 7.27, 'lipoC3S1': 4.16, 'temp': 27.19, 'lipoC3S3': 12.55, 'lipoC3S2': 8.3, 'rot1': 0, 'rot0': 0, 'rot3': 0, 'rot2': 0, 'state': 'normal', 'yaw': 133.51, 'datetime': '2018-10-03 17:37:23.696395', 'mgs': 0, 'volt': 0.8447, 'depth': 0.699, 'time': 10, 'pitch': -9.5, 'roll': -1.53, 'pres': 173}
{'lipoC2': 7.27, 'lipoC3S1': 4.16, 'temp': 27.19, 'lipoC3S3': 12.54, 'lipoC3S2': 8.3, 'rot1': 0, 'rot0': 0, 'rot3': 0, 'rot2': 0, 'state': 'normal', 'yaw': 134.19, 'datetime': '2018-10-03 17:37:23.706364', 'mgs': 0, 'volt': 0.8447, 'depth': 0.699, 'time': 10, 'pitch': -9.61, 'roll': -1.18, 'pres': 173}
{'lipoC2': 7.27, 'lipoC3S1': 4.16, 'temp': 27.19, 'lipoC3S3': 12.55, 'lipoC3S2': 8.3, 'rot1': 0, 'rot0': 0, 'rot3': 0, 'rot2': 0, 'state': 'normal', 'yaw': 134.98, 'datetime': '2018-10-03 17:37:23.716316', 'mgs': 0, 'volt': 0.8447, 'depth': 0.699, 'time': 11, 'pitch': -9.76, 'roll': -0.78, 'pres': 173}
{'lipoC2': 7.27, 'lipoC3S1': 4.16, 'temp': 27.19, 'lipoC3S3': 12.55, 'lipoC3S2': 8.3, 'rot1': 0, 'rot0': 0, 'rot3': 0, 'rot2': 0, 'state': 'normal', 'yaw': 135.72, 'datetime': '2018-10-03 17:37:23.726311', 'mgs': 0, 'volt': 0.8447, 'depth': 0.699, 'time': 11, 'pitch': -9.79, 'roll': -0.41, 'pres': 173}
{'lipoC2': 7.27, 'lipoC3S1': 4.16, 'temp': 27.19, 'lipoC3S3': 12.55, 'lipoC3S2': 8.31, 'rot1': 0, 'rot0': 0, 'rot3': 0, 'rot2': 0, 'state': 'normal', 'yaw': 136.38, 'datetime': '2018-10-03 17:37:23.736286', 'mgs': 0, 'volt': 0.8496, 'depth': 0.775, 'time': 11, 'pitch': -9.6, 'roll': 0.0, 'pres': 174}
{'lipoC2': 7.27, 'lipoC3S1': 4.16, 'temp': 27.19, 'lipoC3S3': 12.55, 'lipoC3S2': 8.3, 'rot1': 0, 'rot0': 0, 'rot3': 0, 'rot2': 0, 'state': 'normal', 'yaw': 136.65, 'datetime': '2018-10-03 17:37:23.746394', 'mgs': 0, 'volt': 0.8496, 'depth': 0.775, 'time': 11, 'pitch': -9.33, 'roll': 0.65, 'pres': 174}
{'lipoC2': 7.27, 'lipoC3S1': 4.16, 'temp': 27.19, 'lipoC3S3': 12.55, 'lipoC3S2': 8.31, 'rot1': 0, 'rot0': 0, 'rot3': 0, 'rot2': 0, 'state': 'normal', 'yaw': 136.66, 'datetime': '2018-10-03 17:37:23.756503', 'mgs': 0, 'volt': 0.8496, 'depth': 0.775, 'time': 11, 'pitch': -9.34, 'roll': 1.49, 'pres': 174}
{'lipoC2': 7.27, 'lipoC3S1': 4.16, 'temp': 27.19, 'lipoC3S3': 12.55, 'lipoC3S2': 8.3, 'rot1': 0, 'rot0': 0, 'rot3': 0, 'rot2': 0, 'state': 'normal', 'yaw': 136.67, 'datetime': '2018-10-03 17:37:23.766522', 'mgs': 0, 'volt': 0.8545, 'depth': 0.851, 'time': 11, 'pitch': -9.32, 'roll': 2.05, 'pres': 175}
{'lipoC2': 7.27, 'lipoC3S1': 4.16, 'temp': 27.25, 'lipoC3S3': 12.55, 'lipoC3S2': 8.3, 'rot1': 0, 'rot0': 0, 'rot3': 0, 'rot2': 0, 'state': 'normal', 'yaw': 136.77, 'datetime': '2018-10-03 17:37:23.776511', 'mgs': 0, 'volt': 0.8545, 'depth': 0.851, 'time': 11, 'pitch': -9.21, 'roll': 2.35, 'pres': 175}
{'lipoC2': 7.27, 'lipoC3S1': 4.16, 'temp': 27.25, 'lipoC3S3': 12.55, 'lipoC3S2': 8.3, 'rot1': 0, 'rot0': 0, 'rot3': 0, 'rot2': 0, 'state': 'normal', 'yaw': 136.86, 'datetime': '2018-10-03 17:37:23.786470', 'mgs': 0, 'volt': 0.8545, 'depth': 0.851, 'time': 11, 'pitch': -9.18, 'roll': 2.44, 'pres': 175}
{'lipoC2': 7.27, 'lipoC3S1': 4.16, 'temp': 27.19, 'lipoC3S3': 12.55, 'lipoC3S2': 8.3, 'rot1': 0, 'rot0': 0, 'rot3': 0, 'rot2': 0, 'state': 'normal', 'yaw': 136.87, 'datetime': '2018-10-03 17:37:23.796456', 'mgs': 0, 'volt': 0.8545, 'depth': 0.851, 'time': 11, 'pitch': -9.07, 'roll': 2.39, 'pres': 175}
{'lipoC2': 7.27, 'lipoC3S1': 4.15, 'temp': 27.19, 'lipoC3S3': 12.55, 'lipoC3S2': 8.31, 'rot1': 0, 'rot0': 0, 'rot3': 0, 'rot2': 0, 'state': 'normal', 'yaw': 136.73, 'datetime': '2018-10-03 17:37:23.806429', 'mgs': 0, 'volt': 0.8545, 'depth': 0.851, 'time': 12, 'pitch': -9.23, 'roll': 2.26, 'pres': 175}
{'lipoC2': 7.27, 'lipoC3S1': 4.16, 'temp': 27.19, 'lipoC3S3': 12.54, 'lipoC3S2': 8.3, 'rot1': 0, 'rot0': 0, 'rot3': 0, 'rot2': 0, 'state': 'normal', 'yaw': 136.39, 'datetime': '2018-10-03 17:37:23.816420', 'mgs': 0, 'volt': 0.8545, 'depth': 0.851, 'time': 12, 'pitch': -9.6, 'roll': 2.15, 'pres': 175}
{'lipoC2': 7.27, 'lipoC3S1': 4.16, 'temp': 27.19, 'lipoC3S3': 12.55, 'lipoC3S2': 8.3, 'rot1': 0, 'rot0': 0, 'rot3': 0, 'rot2': 0, 'state': 'normal', 'yaw': 135.9, 'datetime': '2018-10-03 17:37:23.826398', 'mgs': 0, 'volt': 0.8545, 'depth': 0.851, 'time': 12, 'pitch': -10.11, 'roll': 2.02, 'pres': 175}
{'lipoC2': 7.27, 'lipoC3S1': 4.16, 'temp': 27.19, 'lipoC3S3': 12.54, 'lipoC3S2': 8.3, 'rot1': 0, 'rot0': 0, 'rot3': 0, 'rot2': 0, 'state': 'normal', 'yaw': 135.18, 'datetime': '2018-10-03 17:37:23.836348', 'mgs': 0, 'volt': 0.8545, 'depth': 0.851, 'time': 12, 'pitch': -10.52, 'roll': 1.87, 'pres': 175}
{'lipoC2': 7.27, 'lipoC3S1': 4.16, 'temp': 27.19, 'lipoC3S3': 12.54, 'lipoC3S2': 8.31, 'rot1': 0, 'rot0': 0, 'rot3': 0, 'rot2': 0, 'state': 'normal', 'yaw': 134.19, 'datetime': '2018-10-03 17:37:23.846460', 'mgs': 0, 'volt': 0.8594, 'depth': 0.928, 'time': 12, 'pitch': -10.39, 'roll': 1.87, 'pres': 176}
{'lipoC2': 7.27, 'lipoC3S1': 4.16, 'temp': 27.19, 'lipoC3S3': 12.55, 'lipoC3S2': 8.3, 'rot1': 0, 'rot0': 0, 'rot3': 0, 'rot2': 0, 'state': 'normal', 'yaw': 132.96, 'datetime': '2018-10-03 17:37:23.856457', 'mgs': 0, 'volt': 0.8594, 'depth': 0.928, 'time': 12, 'pitch': -9.9, 'roll': 1.94, 'pres': 176}
{'lipoC2': 7.27, 'lipoC3S1': 4.16, 'temp': 27.19, 'lipoC3S3': 12.55, 'lipoC3S2': 8.3, 'rot1': 0, 'rot0': 0, 'rot3': 0, 'rot2': 0, 'state': 'normal', 'yaw': 131.71, 'datetime': '2018-10-03 17:37:23.866424', 'mgs': 0, 'volt': 0.8643, 'depth': 1.004, 'time': 12, 'pitch': -9.46, 'roll': 1.84, 'pres': 177}
{'lipoC2': 7.27, 'lipoC3S1': 4.16, 'temp': 27.19, 'lipoC3S3': 12.55, 'lipoC3S2': 8.3, 'rot1': 0, 'rot0': 0, 'rot3': 0, 'rot2': 0, 'state': 'normal', 'yaw': 130.9, 'datetime': '2018-10-03 17:37:23.876726', 'mgs': 0, 'volt': 0.8594, 'depth': 0.928, 'time': 12, 'pitch': -9.33, 'roll': 1.41, 'pres': 176}
{'lipoC2': 7.27, 'lipoC3S1': 4.16, 'temp': 27.25, 'lipoC3S3': 12.55, 'lipoC3S2': 8.3, 'rot1': 0, 'rot0': 0, 'rot3': 0, 'rot2': 0, 'state': 'normal', 'yaw': 130.67, 'datetime': '2018-10-03 17:37:23.886861', 'mgs': 0, 'volt': 0.8643, 'depth': 1.004, 'time': 12, 'pitch': -9.91, 'roll': 0.49, 'pres': 177}
{'lipoC2': 7.27, 'lipoC3S1': 4.16, 'temp': 27.25, 'lipoC3S3': 12.54, 'lipoC3S2': 8.31, 'rot1': 0, 'rot0': 0, 'rot3': 0, 'rot2': 0, 'state': 'normal', 'yaw': 130.59, 'datetime': '2018-10-03 17:37:23.896849', 'mgs': 0, 'volt': 0.8594, 'depth': 0.928, 'time': 12, 'pitch': -10.81, 'roll': -0.56, 'pres': 176}
{'lipoC2': 7.27, 'lipoC3S1': 4.16, 'temp': 27.25, 'lipoC3S3': 12.55, 'lipoC3S2': 8.3, 'rot1': 0, 'rot0': 0, 'rot3': 0, 'rot2': 0, 'state': 'normal', 'yaw': 130.61, 'datetime': '2018-10-03 17:37:23.906807', 'mgs': 0, 'volt': 0.8594, 'depth': 0.928, 'time': 13, 'pitch': -12.09, 'roll': -1.67, 'pres': 176}
{'lipoC2': 7.27, 'lipoC3S1': 4.16, 'temp': 27.25, 'lipoC3S3': 12.54, 'lipoC3S2': 8.31, 'rot1': 0, 'rot0': 0, 'rot3': 0, 'rot2': 0, 'state': 'normal', 'yaw': 130.49, 'datetime': '2018-10-03 17:37:23.916767', 'mgs': 0, 'volt': 0.8594, 'depth': 0.928, 'time': 13, 'pitch': -13.08, 'roll': -2.49, 'pres': 176}
{'lipoC2': 7.27, 'lipoC3S1': 4.16, 'temp': 27.25, 'lipoC3S3': 12.55, 'lipoC3S2': 8.3, 'rot1': 0, 'rot0': 0, 'rot3': 0, 'rot2': 0, 'state': 'normal', 'yaw': 130.33, 'datetime': '2018-10-03 17:37:23.926757', 'mgs': 0, 'volt': 0.8545, 'depth': 0.851, 'time': 13, 'pitch': -13.79, 'roll': -3.05, 'pres': 175}
{'lipoC2': 7.27, 'lipoC3S1': 4.16, 'temp': 27.25, 'lipoC3S3': 12.54, 'lipoC3S2': 8.31, 'rot1': 0, 'rot0': 0, 'rot3': 0, 'rot2': 0, 'state': 'normal', 'yaw': 130.15, 'datetime': '2018-10-03 17:37:23.936712', 'mgs': 0, 'volt': 0.8594, 'depth': 0.928, 'time': 13, 'pitch': -14.33, 'roll': -3.47, 'pres': 176}
{'lipoC2': 7.27, 'lipoC3S1': 4.16, 'temp': 27.25, 'lipoC3S3': 12.55, 'lipoC3S2': 8.3, 'rot1': 0, 'rot0': 0, 'rot3': 0, 'rot2': 0, 'state': 'normal', 'yaw': 130.04, 'datetime': '2018-10-03 17:37:23.946814', 'mgs': 1, 'volt': 0.8594, 'depth': 0.928, 'time': 13, 'pitch': -14.37, 'roll': -3.64, 'pres': 176}
{'lipoC2': 7.27, 'lipoC3S1': 4.16, 'temp': 27.19, 'lipoC3S3': 12.55, 'lipoC3S2': 8.3, 'rot1': 0, 'rot0': 0, 'rot3': 0, 'rot2': 0, 'state': 'normal', 'yaw': 130.31, 'datetime': '2018-10-03 17:37:29.978400', 'mgs': 1, 'volt': 0.8594, 'depth': 0.928, 'time': 13, 'pitch': -14.5, 'roll': -3.94, 'pres': 176}
{'lipoC2': 7.27, 'lipoC3S1': 4.16, 'temp': 27.19, 'lipoC3S3': 12.55, 'lipoC3S2': 8.3, 'rot1': 0, 'rot0': 0, 'rot3': 0, 'rot2': 0, 'state': 'normal', 'yaw': 130.79, 'datetime': '2018-10-03 17:37:30.001387', 'mgs': 0, 'volt': 0.8594, 'depth': 0.928, 'time': 13, 'pitch': -14.38, 'roll': -4.28, 'pres': 176}
{'lipoC2': 7.27, 'lipoC3S1': 4.16, 'temp': 27.19, 'lipoC3S3': 12.55, 'lipoC3S2': 8.3, 'rot1': 0, 'rot0': 0, 'rot3': 0, 'rot2': 0, 'state': 'normal', 'yaw': 131.24, 'datetime': '2018-10-03 17:37:30.024426', 'mgs': 0, 'volt': 0.8643, 'depth': 1.004, 'time': 13, 'pitch': -14.2, 'roll': -4.51, 'pres': 177}
{'lipoC2': 7.27, 'lipoC3S1': 4.16, 'temp': 27.19, 'lipoC3S3': 12.54, 'lipoC3S2': 8.3, 'rot1': 0, 'rot0': 0, 'rot3': 0, 'rot2': 0, 'state': 'normal', 'yaw': 131.58, 'datetime': '2018-10-03 17:37:30.040599', 'mgs': 0, 'volt': 0.8643, 'depth': 1.004, 'time': 13, 'pitch': -14.14, 'roll': -4.39, 'pres': 177}
{'lipoC2': 7.27, 'lipoC3S1': 4.16, 'temp': 27.19, 'lipoC3S3': 12.55, 'lipoC3S2': 8.3, 'rot1': 0, 'rot0': 0, 'rot3': 0, 'rot2': 0, 'state': 'normal', 'yaw': 131.79, 'datetime': '2018-10-03 17:37:30.059297', 'mgs': 0, 'volt': 0.8643, 'depth': 1.004, 'time': 13, 'pitch': -14.19, 'roll': -3.9, 'pres': 177}
{'lipoC2': 7.27, 'lipoC3S1': 4.16, 'temp': 27.19, 'lipoC3S3': 12.55, 'lipoC3S2': 8.3, 'rot1': 0, 'rot0': 0, 'rot3': 0, 'rot2': 0, 'state': 'normal', 'yaw': 131.95, 'datetime': '2018-10-03 17:37:30.069328', 'mgs': 0, 'volt': 0.8643, 'depth': 1.004, 'time': 14, 'pitch': -14.31, 'roll': -3.11, 'pres': 177}
{'lipoC2': 7.27, 'lipoC3S1': 4.16, 'temp': 27.19, 'lipoC3S3': 12.54, 'lipoC3S2': 8.3, 'rot1': 0, 'rot0': 0, 'rot3': 0, 'rot2': 0, 'state': 'normal', 'yaw': 132.12, 'datetime': '2018-10-03 17:37:30.085143', 'mgs': 0, 'volt': 0.8643, 'depth': 1.004, 'time': 14, 'pitch': -14.42, 'roll': -2.05, 'pres': 177}
{'lipoC2': 7.27, 'lipoC3S1': 4.16, 'temp': 27.25, 'lipoC3S3': 12.55, 'lipoC3S2': 8.3, 'rot1': 0, 'rot0': 0, 'rot3': 0, 'rot2': 0, 'state': 'normal', 'yaw': 132.31, 'datetime': '2018-10-03 17:37:30.103885', 'mgs': 0, 'volt': 0.8643, 'depth': 1.004, 'time': 14, 'pitch': -14.53, 'roll': -1.03, 'pres': 177}
{'lipoC2': 7.27, 'lipoC3S1': 4.16, 'temp': 27.25, 'lipoC3S3': 12.55, 'lipoC3S2': 8.3, 'rot1': 0, 'rot0': 0, 'rot3': 0, 'rot2': 0, 'state': 'normal', 'yaw': 132.58, 'datetime': '2018-10-03 17:37:30.113923', 'mgs': 0, 'volt': 0.8643, 'depth': 1.004, 'time': 14, 'pitch': -14.58, 'roll': -0.03, 'pres': 177}
{'lipoC2': 7.27, 'lipoC3S1': 4.16, 'temp': 27.25, 'lipoC3S3': 12.55, 'lipoC3S2': 8.3, 'rot1': 0, 'rot0': 0, 'rot3': 0, 'rot2': 0, 'state': 'normal', 'yaw': 132.99, 'datetime': '2018-10-03 17:37:30.129736', 'mgs': 0, 'volt': 0.8691, 'depth': 1.08, 'time': 14, 'pitch': -14.6, 'roll': 0.86, 'pres': 178}
{'lipoC2': 7.27, 'lipoC3S1': 4.16, 'temp': 27.19, 'lipoC3S3': 12.55, 'lipoC3S2': 8.3, 'rot1': 0, 'rot0': 0, 'rot3': 0, 'rot2': 0, 'state': 'normal', 'yaw': 133.54, 'datetime': '2018-10-03 17:37:30.148397', 'mgs': 0, 'volt': 0.8643, 'depth': 1.004, 'time': 14, 'pitch': -14.56, 'roll': 1.66, 'pres': 177}
{'lipoC2': 7.27, 'lipoC3S1': 4.16, 'temp': 27.19, 'lipoC3S3': 12.54, 'lipoC3S2': 8.31, 'rot1': 0, 'rot0': 0, 'rot3': 0, 'rot2': 0, 'state': 'normal', 'yaw': 134.13, 'datetime': '2018-10-03 17:37:30.158446', 'mgs': 0, 'volt': 0.8643, 'depth': 1.004, 'time': 14, 'pitch': -14.51, 'roll': 2.2, 'pres': 177}
{'lipoC2': 7.27, 'lipoC3S1': 4.16, 'temp': 27.25, 'lipoC3S3': 12.55, 'lipoC3S2': 8.31, 'rot1': 0, 'rot0': 0, 'rot3': 0, 'rot2': 0, 'state': 'normal', 'yaw': 134.73, 'datetime': '2018-10-03 17:37:30.174307', 'mgs': 0, 'volt': 0.8643, 'depth': 1.004, 'time': 14, 'pitch': -14.4, 'roll': 2.58, 'pres': 177}
{'lipoC2': 7.27, 'lipoC3S1': 4.16, 'temp': 27.25, 'lipoC3S3': 12.55, 'lipoC3S2': 8.3, 'rot1': 0, 'rot0': 0, 'rot3': 0, 'rot2': 0, 'state': 'normal', 'yaw': 135.38, 'datetime': '2018-10-03 17:37:30.193009', 'mgs': 0, 'volt': 0.8643, 'depth': 1.004, 'time': 14, 'pitch': -14.18, 'roll': 2.85, 'pres': 177}
{'lipoC2': 7.27, 'lipoC3S1': 4.16, 'temp': 27.19, 'lipoC3S3': 12.55, 'lipoC3S2': 8.31, 'rot1': 0, 'rot0': 0, 'rot3': 0, 'rot2': 0, 'state': 'normal', 'yaw': 135.89, 'datetime': '2018-10-03 17:37:30.203092', 'mgs': 0, 'volt': 0.8643, 'depth': 1.004, 'time': 15, 'pitch': -13.88, 'roll': 2.98, 'pres': 177}
{'lipoC2': 7.27, 'lipoC3S1': 4.16, 'temp': 27.19, 'lipoC3S3': 12.55, 'lipoC3S2': 8.3, 'rot1': 0, 'rot0': 0, 'rot3': 0, 'rot2': 0, 'state': 'normal', 'yaw': 136.3, 'datetime': '2018-10-03 17:37:30.218909', 'mgs': 0, 'volt': 0.8643, 'depth': 1.004, 'time': 15, 'pitch': -13.5, 'roll': 3.05, 'pres': 177}
{'lipoC2': 7.27, 'lipoC3S1': 4.16, 'temp': 27.19, 'lipoC3S3': 12.55, 'lipoC3S2': 8.3, 'rot1': 0, 'rot0': 0, 'rot3': 0, 'rot2': 0, 'state': 'normal', 'yaw': 136.69, 'datetime': '2018-10-03 17:37:30.237488', 'mgs': 0, 'volt': 0.8643, 'depth': 1.004, 'time': 15, 'pitch': -13.1, 'roll': 3.0, 'pres': 177}
{'lipoC2': 7.27, 'lipoC3S1': 4.16, 'temp': 27.25, 'lipoC3S3': 12.55, 'lipoC3S2': 8.3, 'rot1': 0, 'rot0': 0, 'rot3': 0, 'rot2': 0, 'state': 'normal', 'yaw': 136.93, 'datetime': '2018-10-03 17:37:30.247521', 'mgs': 0, 'volt': 0.8643, 'depth': 1.004, 'time': 15, 'pitch': -12.92, 'roll': 2.84, 'pres': 177}
{'lipoC2': 7.27, 'lipoC3S1': 4.16, 'temp': 27.25, 'lipoC3S3': 12.54, 'lipoC3S2': 8.3, 'rot1': 0, 'rot0': 0, 'rot3': 0, 'rot2': 0, 'state': 'normal', 'yaw': 136.97, 'datetime': '2018-10-03 17:37:30.263441', 'mgs': 1, 'volt': 0.8643, 'depth': 1.004, 'time': 15, 'pitch': -12.7, 'roll': 2.5, 'pres': 177}
{'lipoC2': 7.27, 'lipoC3S1': 4.16, 'temp': 27.19, 'lipoC3S3': 12.55, 'lipoC3S2': 8.31, 'rot1': 0, 'rot0': 0, 'rot3': 0, 'rot2': 0, 'state': 'normal', 'yaw': 136.76, 'datetime': '2018-10-03 17:37:30.282043', 'mgs': 0, 'volt': 0.8643, 'depth': 1.004, 'time': 15, 'pitch': -12.4, 'roll': 2.02, 'pres': 177}
{'lipoC2': 7.27, 'lipoC3S1': 4.16, 'temp': 27.19, 'lipoC3S3': 12.54, 'lipoC3S2': 8.3, 'rot1': 0, 'rot0': 0, 'rot3': 0, 'rot2': 0, 'state': 'normal', 'yaw': 136.38, 'datetime': '2018-10-03 17:37:30.292189', 'mgs': 0, 'volt': 0.8594, 'depth': 0.928, 'time': 15, 'pitch': -12.03, 'roll': 1.25, 'pres': 176}
{'lipoC2': 7.27, 'lipoC3S1': 4.16, 'temp': 27.25, 'lipoC3S3': 12.55, 'lipoC3S2': 8.31, 'rot1': 0, 'rot0': 0, 'rot3': 0, 'rot2': 0, 'state': 'normal', 'yaw': 135.75, 'datetime': '2018-10-03 17:37:30.308032', 'mgs': 0, 'volt': 0.8594, 'depth': 0.928, 'time': 15, 'pitch': -11.63, 'roll': 0.3, 'pres': 176}
{'lipoC2': 7.27, 'lipoC3S1': 4.16, 'temp': 27.25, 'lipoC3S3': 12.54, 'lipoC3S2': 8.3, 'rot1': 0, 'rot0': 0, 'rot3': 0, 'rot2': 0, 'state': 'normal', 'yaw': 135.04, 'datetime': '2018-10-03 17:37:30.326651', 'mgs': 0, 'volt': 0.8594, 'depth': 0.928, 'time': 15, 'pitch': -11.28, 'roll': -0.49, 'pres': 176}
{'lipoC2': 7.27, 'lipoC3S1': 4.16, 'temp': 27.25, 'lipoC3S3': 12.55, 'lipoC3S2': 8.3, 'rot1': 0, 'rot0': 0, 'rot3': 0, 'rot2': 0, 'state': 'normal', 'yaw': 134.29, 'datetime': '2018-10-03 17:37:30.336813', 'mgs': 0, 'volt': 0.8594, 'depth': 0.928, 'time': 15, 'pitch': -11.07, 'roll': -1.2, 'pres': 176}
{'lipoC2': 7.27, 'lipoC3S1': 4.16, 'temp': 27.19, 'lipoC3S3': 12.55, 'lipoC3S2': 8.31, 'rot1': 0, 'rot0': 0, 'rot3': 0, 'rot2': 0, 'state': 'normal', 'yaw': 133.65, 'datetime': '2018-10-03 17:37:30.352932', 'mgs': 0, 'volt': 0.8545, 'depth': 0.851, 'time': 16, 'pitch': -11.06, 'roll': -1.84, 'pres': 175}
{'lipoC2': 7.27, 'lipoC3S1': 4.16, 'temp': 27.19, 'lipoC3S3': 12.55, 'lipoC3S2': 8.3, 'rot1': 0, 'rot0': 0, 'rot3': 0, 'rot2': 0, 'state': 'normal', 'yaw': 133.18, 'datetime': '2018-10-03 17:37:30.371604', 'mgs': 0, 'volt': 0.8545, 'depth': 0.851, 'time': 16, 'pitch': -11.15, 'roll': -2.42, 'pres': 175}
{'lipoC2': 7.27, 'lipoC3S1': 4.16, 'temp': 27.25, 'lipoC3S3': 12.55, 'lipoC3S2': 8.3, 'rot1': 0, 'rot0': 0, 'rot3': 0, 'rot2': 0, 'state': 'normal', 'yaw': 133.04, 'datetime': '2018-10-03 17:37:30.381650', 'mgs': 0, 'volt': 0.8545, 'depth': 0.851, 'time': 16, 'pitch': -11.23, 'roll': -2.91, 'pres': 175}
{'lipoC2': 7.27, 'lipoC3S1': 4.16, 'temp': 27.25, 'lipoC3S3': 12.55, 'lipoC3S2': 8.3, 'rot1': 0, 'rot0': 0, 'rot3': 0, 'rot2': 0, 'state': 'normal', 'yaw': 133.13, 'datetime': '2018-10-03 17:37:30.397452', 'mgs': 0, 'volt': 0.8545, 'depth': 0.851, 'time': 16, 'pitch': -11.3, 'roll': -3.35, 'pres': 175}
{'lipoC2': 7.27, 'lipoC3S1': 4.16, 'temp': 27.19, 'lipoC3S3': 12.54, 'lipoC3S2': 8.3, 'rot1': 0, 'rot0': 0, 'rot3': 0, 'rot2': 0, 'state': 'normal', 'yaw': 133.41, 'datetime': '2018-10-03 17:37:30.416128', 'mgs': 0, 'volt': 0.8496, 'depth': 0.775, 'time': 16, 'pitch': -11.4, 'roll': -3.69, 'pres': 174}
{'lipoC2': 7.27, 'lipoC3S1': 4.16, 'temp': 27.19, 'lipoC3S3': 12.55, 'lipoC3S2': 8.3, 'rot1': 0, 'rot0': 0, 'rot3': 0, 'rot2': 0, 'state': 'normal', 'yaw': 133.72, 'datetime': '2018-10-03 17:37:30.426169', 'mgs': 1, 'volt': 0.8545, 'depth': 0.851, 'time': 16, 'pitch': -11.55, 'roll': -3.76, 'pres': 175}
{'lipoC2': 7.27, 'lipoC3S1': 4.16, 'temp': 27.19, 'lipoC3S3': 12.54, 'lipoC3S2': 8.31, 'rot1': 0, 'rot0': 0, 'rot3': 0, 'rot2': 0, 'state': 'normal', 'yaw': 134.02, 'datetime': '2018-10-03 17:37:30.442019', 'mgs': 1, 'volt': 0.8496, 'depth': 0.775, 'time': 16, 'pitch': -11.75, 'roll': -3.57, 'pres': 174}
{'lipoC2': 7.27, 'lipoC3S1': 4.16, 'temp': 27.25, 'lipoC3S3': 12.55, 'lipoC3S2': 8.3, 'rot1': 0, 'rot0': 0, 'rot3': 0, 'rot2': 0, 'state': 'normal', 'yaw': 134.36, 'datetime': '2018-10-03 17:37:30.460647', 'mgs': 1, 'volt': 0.8496, 'depth': 0.775, 'time': 16, 'pitch': -12.0, 'roll': -3.09, 'pres': 174}
{'lipoC2': 7.27, 'lipoC3S1': 4.16, 'temp': 27.25, 'lipoC3S3': 12.55, 'lipoC3S2': 8.3, 'rot1': 0, 'rot0': 0, 'rot3': 0, 'rot2': 0, 'state': 'normal', 'yaw': 134.72, 'datetime': '2018-10-03 17:37:30.470703', 'mgs': 1, 'volt': 0.8496, 'depth': 0.775, 'time': 16, 'pitch': -12.15, 'roll': -2.56, 'pres': 174}
{'lipoC2': 7.27, 'lipoC3S1': 4.16, 'temp': 27.19, 'lipoC3S3': 12.55, 'lipoC3S2': 8.3, 'rot1': 0, 'rot0': 0, 'rot3': 0, 'rot2': 0, 'state': 'normal', 'yaw': 135.17, 'datetime': '2018-10-03 17:37:30.486550', 'mgs': 0, 'volt': 0.8496, 'depth': 0.775, 'time': 16, 'pitch': -12.18, 'roll': -2.07, 'pres': 174}
{'lipoC2': 7.27, 'lipoC3S1': 4.16, 'temp': 27.19, 'lipoC3S3': 12.55, 'lipoC3S2': 8.3, 'rot1': 0, 'rot0': 0, 'rot3': 0, 'rot2': 0, 'state': 'normal', 'yaw': 135.64, 'datetime': '2018-10-03 17:37:30.505422', 'mgs': 0, 'volt': 0.8496, 'depth': 0.775, 'time': 17, 'pitch': -11.96, 'roll': -1.66, 'pres': 174}
{'lipoC2': 7.27, 'lipoC3S1': 4.16, 'temp': 27.19, 'lipoC3S3': 12.55, 'lipoC3S2': 8.3, 'rot1': 0, 'rot0': 0, 'rot3': 0, 'rot2': 0, 'state': 'normal', 'yaw': 135.96, 'datetime': '2018-10-03 17:37:30.515579', 'mgs': 1, 'volt': 0.8545, 'depth': 0.851, 'time': 17, 'pitch': -11.67, 'roll': -1.29, 'pres': 175}
{'lipoC2': 7.27, 'lipoC3S1': 4.16, 'temp': 27.19, 'lipoC3S3': 12.55, 'lipoC3S2': 8.3, 'rot1': 0, 'rot0': 0, 'rot3': 0, 'rot2': 0, 'state': 'normal', 'yaw': 136.17, 'datetime': '2018-10-03 17:37:30.531998', 'mgs': 1, 'volt': 0.8496, 'depth': 0.775, 'time': 17, 'pitch': -11.33, 'roll': -0.9, 'pres': 174}
{'lipoC2': 7.27, 'lipoC3S1': 4.16, 'temp': 27.19, 'lipoC3S3': 12.55, 'lipoC3S2': 8.3, 'rot1': 0, 'rot0': 0, 'rot3': 0, 'rot2': 0, 'state': 'normal', 'yaw': 136.28, 'datetime': '2018-10-03 17:37:30.551010', 'mgs': 1, 'volt': 0.8545, 'depth': 0.851, 'time': 17, 'pitch': -11.0, 'roll': -0.46, 'pres': 175}
{'lipoC2': 7.27, 'lipoC3S1': 4.16, 'temp': 27.19, 'lipoC3S3': 12.55, 'lipoC3S2': 8.3, 'rot1': 0, 'rot0': 0, 'rot3': 0, 'rot2': 0, 'state': 'normal', 'yaw': 136.32, 'datetime': '2018-10-03 17:37:30.561103', 'mgs': 1, 'volt': 0.8545, 'depth': 0.851, 'time': 17, 'pitch': -10.86, 'roll': -0.08, 'pres': 175}
{'lipoC2': 7.27, 'lipoC3S1': 4.16, 'temp': 27.19, 'lipoC3S3': 12.54, 'lipoC3S2': 8.31, 'rot1': 0, 'rot0': 0, 'rot3': 0, 'rot2': 0, 'state': 'normal', 'yaw': 136.39, 'datetime': '2018-10-03 17:37:30.576976', 'mgs': 1, 'volt': 0.8545, 'depth': 0.851, 'time': 17, 'pitch': -10.87, 'roll': 0.16, 'pres': 175}
{'lipoC2': 7.27, 'lipoC3S1': 4.16, 'temp': 27.25, 'lipoC3S3': 12.55, 'lipoC3S2': 8.3, 'rot1': 0, 'rot0': 0, 'rot3': 0, 'rot2': 0, 'state': 'normal', 'yaw': 136.51, 'datetime': '2018-10-03 17:37:30.595635', 'mgs': 1, 'volt': 0.8545, 'depth': 0.851, 'time': 17, 'pitch': -10.99, 'roll': 0.2, 'pres': 175}
{'lipoC2': 7.27, 'lipoC3S1': 4.16, 'temp': 27.25, 'lipoC3S3': 12.55, 'lipoC3S2': 8.3, 'rot1': 0, 'rot0': 0, 'rot3': 0, 'rot2': 0, 'state': 'normal', 'yaw': 136.62, 'datetime': '2018-10-03 17:37:30.605686', 'mgs': 1, 'volt': 0.8496, 'depth': 0.775, 'time': 17, 'pitch': -11.29, 'roll': 0.1, 'pres': 174}
{'lipoC2': 7.27, 'lipoC3S1': 4.16, 'temp': 27.13, 'lipoC3S3': 12.55, 'lipoC3S2': 8.3, 'rot1': 0, 'rot0': 0, 'rot3': 0, 'rot2': 0, 'state': 'normal', 'yaw': 136.73, 'datetime': '2018-10-03 17:37:30.621548', 'mgs': 1, 'volt': 0.8496, 'depth': 0.775, 'time': 17, 'pitch': -11.63, 'roll': -0.13, 'pres': 174}
{'lipoC2': 7.27, 'lipoC3S1': 4.16, 'temp': 27.13, 'lipoC3S3': 12.54, 'lipoC3S2': 8.3, 'rot1': 0, 'rot0': 0, 'rot3': 0, 'rot2': 0, 'state': 'normal', 'yaw': 136.81, 'datetime': '2018-10-03 17:37:30.640179', 'mgs': 1, 'volt': 0.8496, 'depth': 0.775, 'time': 18, 'pitch': -11.91, 'roll': -0.38, 'pres': 174}
{'lipoC2': 7.27, 'lipoC3S1': 4.16, 'temp': 27.13, 'lipoC3S3': 12.55, 'lipoC3S2': 8.3, 'rot1': 0, 'rot0': 0, 'rot3': 0, 'rot2': 0, 'state': 'normal', 'yaw': 136.92, 'datetime': '2018-10-03 17:37:30.650259', 'mgs': 1, 'volt': 0.8496, 'depth': 0.775, 'time': 18, 'pitch': -12.08, 'roll': -0.7, 'pres': 174}
{'lipoC2': 7.27, 'lipoC3S1': 4.16, 'temp': 27.19, 'lipoC3S3': 12.55, 'lipoC3S2': 8.3, 'rot1': 0, 'rot0': 0, 'rot3': 0, 'rot2': 0, 'state': 'normal', 'yaw': 137.06, 'datetime': '2018-10-03 17:37:30.666149', 'mgs': 1, 'volt': 0.8496, 'depth': 0.775, 'time': 18, 'pitch': -12.15, 'roll': -1.02, 'pres': 174}
{'lipoC2': 7.27, 'lipoC3S1': 4.16, 'temp': 27.19, 'lipoC3S3': 12.55, 'lipoC3S2': 8.3, 'rot1': 0, 'rot0': 0, 'rot3': 0, 'rot2': 0, 'state': 'normal', 'yaw': 137.16, 'datetime': '2018-10-03 17:37:30.684670', 'mgs': 1, 'volt': 0.8496, 'depth': 0.775, 'time': 18, 'pitch': -12.09, 'roll': -1.31, 'pres': 174}
{'lipoC2': 7.27, 'lipoC3S1': 4.16, 'temp': 27.19, 'lipoC3S3': 12.55, 'lipoC3S2': 8.3, 'rot1': 0, 'rot0': 0, 'rot3': 0, 'rot2': 0, 'state': 'normal', 'yaw': 137.17, 'datetime': '2018-10-03 17:37:30.694875', 'mgs': 1, 'volt': 0.8496, 'depth': 0.775, 'time': 18, 'pitch': -11.97, 'roll': -1.55, 'pres': 174}
{'lipoC2': 7.27, 'lipoC3S1': 4.16, 'temp': 27.19, 'lipoC3S3': 12.55, 'lipoC3S2': 8.31, 'rot1': 0, 'rot0': 0, 'rot3': 0, 'rot2': 0, 'state': 'normal', 'yaw': 137.15, 'datetime': '2018-10-03 17:37:30.710704', 'mgs': 1, 'volt': 0.8496, 'depth': 0.775, 'time': 18, 'pitch': -11.81, 'roll': -1.71, 'pres': 174}
{'lipoC2': 7.27, 'lipoC3S1': 4.16, 'temp': 27.19, 'lipoC3S3': 12.55, 'lipoC3S2': 8.31, 'rot1': 0, 'rot0': 0, 'rot3': 0, 'rot2': 0, 'state': 'normal', 'yaw': 137.06, 'datetime': '2018-10-03 17:37:30.729322', 'mgs': 0, 'volt': 0.8496, 'depth': 0.775, 'time': 18, 'pitch': -11.7, 'roll': -1.81, 'pres': 174}
{'lipoC2': 7.27, 'lipoC3S1': 4.16, 'temp': 27.19, 'lipoC3S3': 12.55, 'lipoC3S2': 8.3, 'rot1': 0, 'rot0': 0, 'rot3': 0, 'rot2': 0, 'state': 'normal', 'yaw': 136.95, 'datetime': '2018-10-03 17:37:30.739367', 'mgs': 0, 'volt': 0.8496, 'depth': 0.775, 'time': 18, 'pitch': -11.69, 'roll': -1.81, 'pres': 174}
{'lipoC2': 7.27, 'lipoC3S1': 4.16, 'temp': 27.19, 'lipoC3S3': 12.55, 'lipoC3S2': 8.31, 'rot1': 0, 'rot0': 0, 'rot3': 0, 'rot2': 0, 'state': 'normal', 'yaw': 136.93, 'datetime': '2018-10-03 17:37:30.755229', 'mgs': 0, 'volt': 0.8496, 'depth': 0.775, 'time': 18, 'pitch': -11.99, 'roll': -1.82, 'pres': 174}
{'lipoC2': 7.27, 'lipoC3S1': 4.16, 'temp': 27.19, 'lipoC3S3': 12.55, 'lipoC3S2': 8.3, 'rot1': 0, 'rot0': 0, 'rot3': 0, 'rot2': 0, 'state': 'normal', 'yaw': 136.95, 'datetime': '2018-10-03 17:37:30.773903', 'mgs': 1, 'volt': 0.8447, 'depth': 0.699, 'time': 18, 'pitch': -12.47, 'roll': -1.82, 'pres': 173}
{'lipoC2': 7.27, 'lipoC3S1': 4.16, 'temp': 27.19, 'lipoC3S3': 12.55, 'lipoC3S2': 8.3, 'rot1': 0, 'rot0': 0, 'rot3': 0, 'rot2': 0, 'state': 'normal', 'yaw': 136.95, 'datetime': '2018-10-03 17:37:30.783974', 'mgs': 0, 'volt': 0.8447, 'depth': 0.699, 'time': 19, 'pitch': -12.87, 'roll': -1.75, 'pres': 173}
{'lipoC2': 7.27, 'lipoC3S1': 4.16, 'temp': 27.25, 'lipoC3S3': 12.55, 'lipoC3S2': 8.3, 'rot1': 0, 'rot0': 0, 'rot3': 0, 'rot2': 0, 'state': 'normal', 'yaw': 136.97, 'datetime': '2018-10-03 17:37:30.799737', 'mgs': 0, 'volt': 0.8496, 'depth': 0.775, 'time': 19, 'pitch': -13.19, 'roll': -1.69, 'pres': 174}
{'lipoC2': 7.27, 'lipoC3S1': 4.16, 'temp': 27.25, 'lipoC3S3': 12.55, 'lipoC3S2': 8.31, 'rot1': 0, 'rot0': 0, 'rot3': 0, 'rot2': 0, 'state': 'normal', 'yaw': 136.98, 'datetime': '2018-10-03 17:37:30.818430', 'mgs': 0, 'volt': 0.8496, 'depth': 0.775, 'time': 19, 'pitch': -13.34, 'roll': -1.63, 'pres': 174}
{'lipoC2': 7.27, 'lipoC3S1': 4.16, 'temp': 27.19, 'lipoC3S3': 12.55, 'lipoC3S2': 8.31, 'rot1': 0, 'rot0': 0, 'rot3': 0, 'rot2': 0, 'state': 'normal', 'yaw': 136.95, 'datetime': '2018-10-03 17:37:30.828452', 'mgs': 1, 'volt': 0.8496, 'depth': 0.775, 'time': 19, 'pitch': -13.3, 'roll': -1.49, 'pres': 174}
{'lipoC2': 7.27, 'lipoC3S1': 4.16, 'temp': 27.19, 'lipoC3S3': 12.55, 'lipoC3S2': 8.31, 'rot1': 0, 'rot0': 0, 'rot3': 0, 'rot2': 0, 'state': 'normal', 'yaw': 136.88, 'datetime': '2018-10-03 17:37:30.844304', 'mgs': 0, 'volt': 0.8496, 'depth': 0.775, 'time': 19, 'pitch': -13.16, 'roll': -1.28, 'pres': 174}
{'lipoC2': 7.27, 'lipoC3S1': 4.16, 'temp': 27.19, 'lipoC3S3': 12.55, 'lipoC3S2': 8.3, 'rot1': 0, 'rot0': 0, 'rot3': 0, 'rot2': 0, 'state': 'normal', 'yaw': 136.89, 'datetime': '2018-10-03 17:37:30.862994', 'mgs': 1, 'volt': 0.8496, 'depth': 0.775, 'time': 19, 'pitch': -12.87, 'roll': -1.13, 'pres': 174}
{'lipoC2': 7.27, 'lipoC3S1': 4.16, 'temp': 27.19, 'lipoC3S3': 12.55, 'lipoC3S2': 8.31, 'rot1': 0, 'rot0': 0, 'rot3': 0, 'rot2': 0, 'state': 'normal', 'yaw': 136.88, 'datetime': '2018-10-03 17:37:30.872927', 'mgs': 1, 'volt': 0.8545, 'depth': 0.851, 'time': 19, 'pitch': -12.52, 'roll': -1.13, 'pres': 175}
{'lipoC2': 7.27, 'lipoC3S1': 4.16, 'temp': 27.19, 'lipoC3S3': 12.55, 'lipoC3S2': 8.31, 'rot1': 0, 'rot0': 0, 'rot3': 0, 'rot2': 0, 'state': 'normal', 'yaw': 136.82, 'datetime': '2018-10-03 17:37:30.888894', 'mgs': 0, 'volt': 0.8545, 'depth': 0.851, 'time': 19, 'pitch': -12.33, 'roll': -1.11, 'pres': 175}
{'lipoC2': 7.27, 'lipoC3S1': 4.16, 'temp': 27.19, 'lipoC3S3': 12.55, 'lipoC3S2': 8.3, 'rot1': 0, 'rot0': 0, 'rot3': 0, 'rot2': 0, 'state': 'normal', 'yaw': 136.67, 'datetime': '2018-10-03 17:37:30.907527', 'mgs': 1, 'volt': 0.8496, 'depth': 0.775, 'time': 19, 'pitch': -12.33, 'roll': -0.99, 'pres': 174}
{'lipoC2': 7.27, 'lipoC3S1': 4.16, 'temp': 27.19, 'lipoC3S3': 12.55, 'lipoC3S2': 8.3, 'rot1': 0, 'rot0': 0, 'rot3': 0, 'rot2': 0, 'state': 'normal', 'yaw': 136.5, 'datetime': '2018-10-03 17:37:30.917671', 'mgs': 1, 'volt': 0.8545, 'depth': 0.851, 'time': 19, 'pitch': -12.46, 'roll': -0.93, 'pres': 175}
{'lipoC2': 7.27, 'lipoC3S1': 4.16, 'temp': 27.25, 'lipoC3S3': 12.54, 'lipoC3S2': 8.31, 'rot1': 0, 'rot0': 0, 'rot3': 0, 'rot2': 0, 'state': 'normal', 'yaw': 136.36, 'datetime': '2018-10-03 17:37:30.933722', 'mgs': 1, 'volt': 0.8545, 'depth': 0.851, 'time': 20, 'pitch': -12.75, 'roll': -0.91, 'pres': 175}
{'lipoC2': 7.27, 'lipoC3S1': 4.16, 'temp': 27.25, 'lipoC3S3': 12.55, 'lipoC3S2': 8.31, 'rot1': 0, 'rot0': 0, 'rot3': 0, 'rot2': 0, 'state': 'normal', 'yaw': 136.22, 'datetime': '2018-10-03 17:37:30.952309', 'mgs': 1, 'volt': 0.8545, 'depth': 0.851, 'time': 20, 'pitch': -13.1, 'roll': -0.96, 'pres': 175}
{'lipoC2': 7.27, 'lipoC3S1': 4.16, 'temp': 27.25, 'lipoC3S3': 12.55, 'lipoC3S2': 8.3, 'rot1': 0, 'rot0': 0, 'rot3': 0, 'rot2': 0, 'state': 'normal', 'yaw': 136.13, 'datetime': '2018-10-03 17:37:30.962131', 'mgs': 1, 'volt': 0.8545, 'depth': 0.851, 'time': 20, 'pitch': -13.49, 'roll': -1.04, 'pres': 175}
{'lipoC2': 7.27, 'lipoC3S1': 4.16, 'temp': 27.19, 'lipoC3S3': 12.55, 'lipoC3S2': 8.31, 'rot1': 0, 'rot0': 0, 'rot3': 0, 'rot2': 0, 'state': 'normal', 'yaw': 136.08, 'datetime': '2018-10-03 17:37:30.977991', 'mgs': 1, 'volt': 0.8545, 'depth': 0.851, 'time': 20, 'pitch': -13.64, 'roll': -1.22, 'pres': 175}
{'lipoC2': 7.27, 'lipoC3S1': 4.16, 'temp': 27.19, 'lipoC3S3': 12.54, 'lipoC3S2': 8.3, 'rot1': 0, 'rot0': 0, 'rot3': 0, 'rot2': 0, 'state': 'normal', 'yaw': 136.02, 'datetime': '2018-10-03 17:37:30.996339', 'mgs': 0, 'volt': 0.8545, 'depth': 0.851, 'time': 20, 'pitch': -13.76, 'roll': -1.38, 'pres': 175}
