{'lipoC2': 7.29, 'lipoC3S1': 3.83, 'temp': 30.13, 'lipoC3S3': 11.58, 'lipoC3S2': 7.67, 'rot1': 0, 'rot0': 0, 'rot3': 0, 'rot2': 0, 'state': 'normal', 'yaw': 0.35, 'datetime': '2018-10-09 23:42:05.246867', 'mgs': 0, 'volt': 0.8398, 'depth': 0.623, 'time': 1, 'pitch': -5.32, 'roll': 2.04, 'pres': 172}
{'lipoC2': 7.3, 'lipoC3S1': 3.83, 'temp': 30.06, 'lipoC3S3': 11.56, 'lipoC3S2': 7.67, 'rot1': 0, 'rot0': 0, 'rot3': 0, 'rot2': 0, 'state': 'normal', 'yaw': 0.45, 'datetime': '2018-10-09 23:42:09.776152', 'mgs': 0, 'volt': 0.8398, 'depth': 0.623, 'time': 1, 'pitch': -5.66, 'roll': 2.14, 'pres': 172}
{'lipoC2': 7.3, 'lipoC3S1': 3.83, 'temp': 30.06, 'lipoC3S3': 11.58, 'lipoC3S2': 7.67, 'rot1': 0, 'rot0': 0, 'rot3': 0, 'rot2': 0, 'state': 'normal', 'yaw': 0.41, 'datetime': '2018-10-09 23:42:12.826956', 'mgs': 0, 'volt': 0.8398, 'depth': 0.623, 'time': 1, 'pitch': -5.53, 'roll': 2.2, 'pres': 172}
{'lipoC2': 7.3, 'lipoC3S1': 3.83, 'temp': 30.06, 'lipoC3S3': 11.58, 'lipoC3S2': 7.67, 'rot1': 0, 'rot0': 0, 'rot3': 0, 'rot2': 0, 'state': 'normal', 'yaw': 0.41, 'datetime': '2018-10-09 23:42:12.856078', 'mgs': 0, 'volt': 0.835, 'depth': 0.546, 'time': 1, 'pitch': -5.11, 'roll': 2.11, 'pres': 171}
{'lipoC2': 7.29, 'lipoC3S1': 3.83, 'temp': 30.06, 'lipoC3S3': 11.58, 'lipoC3S2': 7.67, 'rot1': 0, 'rot0': 0, 'rot3': 0, 'rot2': 0, 'state': 'normal', 'yaw': 0.5, 'datetime': '2018-10-09 23:42:12.879075', 'mgs': 0, 'volt': 0.835, 'depth': 0.546, 'time': 1, 'pitch': -4.78, 'roll': 1.85, 'pres': 171}
{'lipoC2': 7.3, 'lipoC3S1': 3.83, 'temp': 30.06, 'lipoC3S3': 11.56, 'lipoC3S2': 7.67, 'rot1': 0, 'rot0': 0, 'rot3': 0, 'rot2': 0, 'state': 'normal', 'yaw': 0.75, 'datetime': '2018-10-09 23:42:12.909277', 'mgs': 0, 'volt': 0.835, 'depth': 0.546, 'time': 1, 'pitch': -4.7, 'roll': 1.43, 'pres': 171}
{'lipoC2': 7.3, 'lipoC3S1': 3.83, 'temp': 30.06, 'lipoC3S3': 11.58, 'lipoC3S2': 7.67, 'rot1': 0, 'rot0': 0, 'rot3': 0, 'rot2': 0, 'state': 'normal', 'yaw': 1.25, 'datetime': '2018-10-09 23:42:12.926999', 'mgs': 0, 'volt': 0.835, 'depth': 0.546, 'time': 1, 'pitch': -4.77, 'roll': 0.9, 'pres': 171}
{'lipoC2': 7.29, 'lipoC3S1': 3.83, 'temp': 30.06, 'lipoC3S3': 11.58, 'lipoC3S2': 7.67, 'rot1': 0, 'rot0': 0, 'rot3': 0, 'rot2': 0, 'state': 'normal', 'yaw': 1.93, 'datetime': '2018-10-09 23:42:12.936989', 'mgs': 0, 'volt': 0.835, 'depth': 0.546, 'time': 2, 'pitch': -4.88, 'roll': 0.3, 'pres': 171}
{'lipoC2': 7.3, 'lipoC3S1': 3.83, 'temp': 30.06, 'lipoC3S3': 11.58, 'lipoC3S2': 7.67, 'rot1': 0, 'rot0': 0, 'rot3': 0, 'rot2': 0, 'state': 'normal', 'yaw': 2.65, 'datetime': '2018-10-09 23:42:12.952867', 'mgs': 0, 'volt': 0.835, 'depth': 0.546, 'time': 2, 'pitch': -4.88, 'roll': -0.27, 'pres': 171}
{'lipoC2': 7.3, 'lipoC3S1': 3.83, 'temp': 30.06, 'lipoC3S3': 11.58, 'lipoC3S2': 7.67, 'rot1': 0, 'rot0': 0, 'rot3': 0, 'rot2': 0, 'state': 'normal', 'yaw': 3.03, 'datetime': '2018-10-09 23:42:12.968784', 'mgs': 0, 'volt': 0.8301, 'depth': 0.47, 'time': 2, 'pitch': -4.97, 'roll': -0.41, 'pres': 170}
{'lipoC2': 7.3, 'lipoC3S1': 3.83, 'temp': 30.06, 'lipoC3S3': 11.58, 'lipoC3S2': 7.67, 'rot1': 0, 'rot0': 0, 'rot3': 0, 'rot2': 0, 'state': 'normal', 'yaw': 0.0, 'datetime': '2018-10-09 23:42:12.978808', 'mgs': 0, 'volt': 0.8301, 'depth': 0.47, 'time': 1, 'pitch': -1.97, 'roll': 2.86, 'pres': 170}
{'lipoC2': 7.3, 'lipoC3S1': 3.83, 'temp': 30.06, 'lipoC3S3': 11.58, 'lipoC3S2': 7.67, 'rot1': 0, 'rot0': 0, 'rot3': 0, 'rot2': 0, 'state': 'normal', 'yaw': 0.77, 'datetime': '2018-10-09 23:42:12.994745', 'mgs': 0, 'volt': 0.8252, 'depth': 0.394, 'time': 1, 'pitch': -2.45, 'roll': 2.24, 'pres': 169}
{'lipoC2': 7.3, 'lipoC3S1': 3.83, 'temp': 30.06, 'lipoC3S3': 11.58, 'lipoC3S2': 7.67, 'rot1': 0, 'rot0': 0, 'rot3': 0, 'rot2': 0, 'state': 'normal', 'yaw': 1.31, 'datetime': '2018-10-09 23:42:13.010658', 'mgs': 0, 'volt': 0.8252, 'depth': 0.394, 'time': 1, 'pitch': -3.63, 'roll': 1.84, 'pres': 169}
{'lipoC2': 7.3, 'lipoC3S1': 3.83, 'temp': 30.06, 'lipoC3S3': 11.58, 'lipoC3S2': 7.67, 'rot1': 0, 'rot0': 0, 'rot3': 0, 'rot2': 0, 'state': 'normal', 'yaw': 1.41, 'datetime': '2018-10-09 23:42:13.020663', 'mgs': 0, 'volt': 0.8252, 'depth': 0.394, 'time': 1, 'pitch': -4.47, 'roll': 1.87, 'pres': 169}
{'lipoC2': 7.29, 'lipoC3S1': 3.83, 'temp': 30.06, 'lipoC3S3': 11.58, 'lipoC3S2': 7.67, 'rot1': 0, 'rot0': 0, 'rot3': 0, 'rot2': 0, 'state': 'normal', 'yaw': 1.28, 'datetime': '2018-10-09 23:42:13.036729', 'mgs': 0, 'volt': 0.8252, 'depth': 0.394, 'time': 1, 'pitch': -4.86, 'roll': 2.41, 'pres': 169}
{'lipoC2': 7.3, 'lipoC3S1': 3.83, 'temp': 30.06, 'lipoC3S3': 11.58, 'lipoC3S2': 7.67, 'rot1': 0, 'rot0': 0, 'rot3': 0, 'rot2': 0, 'state': 'normal', 'yaw': 1.04, 'datetime': '2018-10-09 23:42:13.052645', 'mgs': 0, 'volt': 0.8252, 'depth': 0.394, 'time': 1, 'pitch': -5.15, 'roll': 3.25, 'pres': 169}
{'lipoC2': 7.3, 'lipoC3S1': 3.83, 'temp': 30.06, 'lipoC3S3': 11.58, 'lipoC3S2': 7.67, 'rot1': 0, 'rot0': 0, 'rot3': 0, 'rot2': 0, 'state': 'normal', 'yaw': 0.82, 'datetime': '2018-10-09 23:42:13.062694', 'mgs': 0, 'volt': 0.8301, 'depth': 0.47, 'time': 1, 'pitch': -5.43, 'roll': 3.8, 'pres': 170}
{'lipoC2': 7.29, 'lipoC3S1': 3.83, 'temp': 30.06, 'lipoC3S3': 11.56, 'lipoC3S2': 7.67, 'rot1': 0, 'rot0': 0, 'rot3': 0, 'rot2': 0, 'state': 'normal', 'yaw': 0.87, 'datetime': '2018-10-09 23:42:13.078592', 'mgs': 0, 'volt': 0.8252, 'depth': 0.394, 'time': 1, 'pitch': -5.39, 'roll': 3.85, 'pres': 169}
{'lipoC2': 7.3, 'lipoC3S1': 3.83, 'temp': 30.06, 'lipoC3S3': 11.58, 'lipoC3S2': 7.67, 'rot1': 0, 'rot0': 0, 'rot3': 0, 'rot2': 0, 'state': 'normal', 'yaw': 1.24, 'datetime': '2018-10-09 23:42:13.094514', 'mgs': 0, 'volt': 0.8203, 'depth': 0.317, 'time': 2, 'pitch': -4.94, 'roll': 3.47, 'pres': 168}
{'lipoC2': 7.3, 'lipoC3S1': 3.83, 'temp': 30.06, 'lipoC3S3': 11.58, 'lipoC3S2': 7.67, 'rot1': 0, 'rot0': 0, 'rot3': 0, 'rot2': 0, 'state': 'normal', 'yaw': 1.67, 'datetime': '2018-10-09 23:42:13.104572', 'mgs': 0, 'volt': 0.8203, 'depth': 0.317, 'time': 2, 'pitch': -4.55, 'roll': 2.79, 'pres': 168}
{'lipoC2': 7.3, 'lipoC3S1': 3.83, 'temp': 30.06, 'lipoC3S3': 11.58, 'lipoC3S2': 7.67, 'rot1': 0, 'rot0': 0, 'rot3': 0, 'rot2': 0, 'state': 'normal', 'yaw': 1.86, 'datetime': '2018-10-09 23:42:13.120495', 'mgs': 0, 'volt': 0.8203, 'depth': 0.317, 'time': 2, 'pitch': -4.67, 'roll': 1.88, 'pres': 168}
{'lipoC2': 7.3, 'lipoC3S1': 3.83, 'temp': 30.06, 'lipoC3S3': 11.58, 'lipoC3S2': 7.67, 'rot1': 0, 'rot0': 0, 'rot3': 0, 'rot2': 0, 'state': 'normal', 'yaw': 1.88, 'datetime': '2018-10-09 23:42:13.136339', 'mgs': 0, 'volt': 0.8252, 'depth': 0.394, 'time': 2, 'pitch': -5.55, 'roll': 1.12, 'pres': 169}
{'lipoC2': 7.3, 'lipoC3S1': 3.83, 'temp': 30.06, 'lipoC3S3': 11.58, 'lipoC3S2': 7.67, 'rot1': 0, 'rot0': 0, 'rot3': 0, 'rot2': 0, 'state': 'normal', 'yaw': 1.98, 'datetime': '2018-10-09 23:42:13.146346', 'mgs': 0, 'volt': 0.8252, 'depth': 0.394, 'time': 2, 'pitch': -6.5, 'roll': 0.54, 'pres': 169}
{'lipoC2': 7.3, 'lipoC3S1': 3.83, 'temp': 30.06, 'lipoC3S3': 11.58, 'lipoC3S2': 7.67, 'rot1': 0, 'rot0': 0, 'rot3': 0, 'rot2': 0, 'state': 'normal', 'yaw': 2.25, 'datetime': '2018-10-09 23:42:13.162234', 'mgs': 0, 'volt': 0.8252, 'depth': 0.394, 'time': 2, 'pitch': -7.0, 'roll': 0.09, 'pres': 169}
{'lipoC2': 7.3, 'lipoC3S1': 3.83, 'temp': 30.06, 'lipoC3S3': 11.58, 'lipoC3S2': 7.67, 'rot1': 0, 'rot0': 0, 'rot3': 0, 'rot2': 0, 'state': 'normal', 'yaw': 2.73, 'datetime': '2018-10-09 23:42:13.178111', 'mgs': 0, 'volt': 0.8252, 'depth': 0.394, 'time': 2, 'pitch': -6.93, 'roll': -0.48, 'pres': 169}
{'lipoC2': 7.3, 'lipoC3S1': 3.83, 'temp': 30.06, 'lipoC3S3': 11.58, 'lipoC3S2': 7.67, 'rot1': 0, 'rot0': 0, 'rot3': 0, 'rot2': 0, 'state': 'normal', 'yaw': 3.08, 'datetime': '2018-10-09 23:42:13.188126', 'mgs': 0, 'volt': 0.8203, 'depth': 0.317, 'time': 2, 'pitch': -6.48, 'roll': -0.81, 'pres': 168}
{'lipoC2': 7.29, 'lipoC3S1': 3.83, 'temp': 30.13, 'lipoC3S3': 11.58, 'lipoC3S2': 7.67, 'rot1': 0, 'rot0': 0, 'rot3': 0, 'rot2': 0, 'state': 'normal', 'yaw': 3.2, 'datetime': '2018-10-09 23:42:13.203996', 'mgs': 0, 'volt': 0.8154, 'depth': 0.241, 'time': 2, 'pitch': -6.05, 'roll': -0.96, 'pres': 167}
{'lipoC2': 7.3, 'lipoC3S1': 3.83, 'temp': 30.13, 'lipoC3S3': 11.58, 'lipoC3S2': 7.67, 'rot1': 0, 'rot0': 0, 'rot3': 0, 'rot2': 0, 'state': 'normal', 'yaw': 3.05, 'datetime': '2018-10-09 23:42:13.219899', 'mgs': 0, 'volt': 0.8154, 'depth': 0.241, 'time': 3, 'pitch': -6.44, 'roll': -1.09, 'pres': 167}
{'lipoC2': 7.3, 'lipoC3S1': 3.83, 'temp': 30.13, 'lipoC3S3': 11.58, 'lipoC3S2': 7.67, 'rot1': 0, 'rot0': 0, 'rot3': 0, 'rot2': 0, 'state': 'normal', 'yaw': 2.59, 'datetime': '2018-10-09 23:42:13.230072', 'mgs': 0, 'volt': 0.8154, 'depth': 0.241, 'time': 3, 'pitch': -7.56, 'roll': -1.06, 'pres': 167}
{'lipoC2': 7.3, 'lipoC3S1': 3.83, 'temp': 30.06, 'lipoC3S3': 11.58, 'lipoC3S2': 7.67, 'rot1': 0, 'rot0': 0, 'rot3': 0, 'rot2': 0, 'state': 'normal', 'yaw': 1.95, 'datetime': '2018-10-09 23:42:13.245997', 'mgs': 0, 'volt': 0.8203, 'depth': 0.317, 'time': 3, 'pitch': -8.75, 'roll': -0.79, 'pres': 168}
{'lipoC2': 7.29, 'lipoC3S1': 3.83, 'temp': 30.06, 'lipoC3S3': 11.58, 'lipoC3S2': 7.67, 'rot1': 0, 'rot0': 0, 'rot3': 0, 'rot2': 0, 'state': 'normal', 'yaw': 1.0, 'datetime': '2018-10-09 23:42:13.261950', 'mgs': 0, 'volt': 0.8252, 'depth': 0.394, 'time': 3, 'pitch': -8.96, 'roll': -0.08, 'pres': 169}
{'lipoC2': 7.3, 'lipoC3S1': 3.83, 'temp': 30.13, 'lipoC3S3': 11.58, 'lipoC3S2': 7.67, 'rot1': 0, 'rot0': 0, 'rot3': 0, 'rot2': 0, 'state': 'normal', 'yaw': 0.08, 'datetime': '2018-10-09 23:42:13.271965', 'mgs': 0, 'volt': 0.8252, 'depth': 0.394, 'time': 3, 'pitch': -7.81, 'roll': 0.74, 'pres': 169}
{'lipoC2': 7.29, 'lipoC3S1': 3.83, 'temp': 30.13, 'lipoC3S3': 11.56, 'lipoC3S2': 7.67, 'rot1': 0, 'rot0': 0, 'rot3': 0, 'rot2': 0, 'state': 'normal', 'yaw': -0.49, 'datetime': '2018-10-09 23:42:13.287846', 'mgs': 0, 'volt': 0.8301, 'depth': 0.47, 'time': 3, 'pitch': -5.94, 'roll': 1.27, 'pres': 170}
{'lipoC2': 7.29, 'lipoC3S1': 3.83, 'temp': 30.13, 'lipoC3S3': 11.58, 'lipoC3S2': 7.67, 'rot1': 0, 'rot0': 0, 'rot3': 0, 'rot2': 0, 'state': 'normal', 'yaw': -0.77, 'datetime': '2018-10-09 23:42:13.303746', 'mgs': 0, 'volt': 0.8301, 'depth': 0.47, 'time': 3, 'pitch': -3.97, 'roll': 1.36, 'pres': 170}
{'lipoC2': 7.3, 'lipoC3S1': 3.83, 'temp': 30.06, 'lipoC3S3': 11.58, 'lipoC3S2': 7.67, 'rot1': 0, 'rot0': 0, 'rot3': 0, 'rot2': 0, 'state': 'normal', 'yaw': -1.06, 'datetime': '2018-10-09 23:42:13.313880', 'mgs': 0, 'volt': 0.8301, 'depth': 0.47, 'time': 3, 'pitch': -2.71, 'roll': 1.41, 'pres': 170}
{'lipoC2': 7.3, 'lipoC3S1': 3.83, 'temp': 30.06, 'lipoC3S3': 11.56, 'lipoC3S2': 7.67, 'rot1': 0, 'rot0': 0, 'rot3': 0, 'rot2': 0, 'state': 'normal', 'yaw': -1.59, 'datetime': '2018-10-09 23:42:13.329800', 'mgs': 0, 'volt': 0.8301, 'depth': 0.47, 'time': 3, 'pitch': -2.94, 'roll': 1.65, 'pres': 170}
{'lipoC2': 7.29, 'lipoC3S1': 3.83, 'temp': 30.06, 'lipoC3S3': 11.58, 'lipoC3S2': 7.67, 'rot1': 0, 'rot0': 0, 'rot3': 0, 'rot2': 0, 'state': 'normal', 'yaw': -2.66, 'datetime': '2018-10-09 23:42:13.345647', 'mgs': 0, 'volt': 0.8252, 'depth': 0.394, 'time': 3, 'pitch': -3.87, 'roll': 2.1, 'pres': 169}
{'lipoC2': 7.3, 'lipoC3S1': 3.83, 'temp': 30.06, 'lipoC3S3': 11.58, 'lipoC3S2': 7.67, 'rot1': 0, 'rot0': 0, 'rot3': 0, 'rot2': 0, 'state': 'normal', 'yaw': -4.02, 'datetime': '2018-10-09 23:42:13.355627', 'mgs': 0, 'volt': 0.8301, 'depth': 0.47, 'time': 4, 'pitch': -5.19, 'roll': 2.95, 'pres': 170}
{'lipoC2': 7.3, 'lipoC3S1': 3.83, 'temp': 30.13, 'lipoC3S3': 11.58, 'lipoC3S2': 7.67, 'rot1': 0, 'rot0': 0, 'rot3': 0, 'rot2': 0, 'state': 'normal', 'yaw': -5.48, 'datetime': '2018-10-09 23:42:13.371511', 'mgs': 0, 'volt': 0.8301, 'depth': 0.47, 'time': 4, 'pitch': -6.48, 'roll': 4.05, 'pres': 170}
{'lipoC2': 7.3, 'lipoC3S1': 3.83, 'temp': 30.13, 'lipoC3S3': 11.58, 'lipoC3S2': 7.67, 'rot1': 0, 'rot0': 0, 'rot3': 0, 'rot2': 0, 'state': 'normal', 'yaw': -6.44, 'datetime': '2018-10-09 23:42:13.387394', 'mgs': 0, 'volt': 0.835, 'depth': 0.546, 'time': 4, 'pitch': -6.73, 'roll': 4.76, 'pres': 171}
{'lipoC2': 7.3, 'lipoC3S1': 3.83, 'temp': 30.13, 'lipoC3S3': 11.58, 'lipoC3S2': 7.67, 'rot1': 0, 'rot0': 0, 'rot3': 0, 'rot2': 0, 'state': 'normal', 'yaw': -6.84, 'datetime': '2018-10-09 23:42:13.397411', 'mgs': 0, 'volt': 0.835, 'depth': 0.546, 'time': 4, 'pitch': -5.76, 'roll': 4.91, 'pres': 171}
{'lipoC2': 7.3, 'lipoC3S1': 3.83, 'temp': 30.06, 'lipoC3S3': 11.58, 'lipoC3S2': 7.67, 'rot1': 0, 'rot0': 0, 'rot3': 0, 'rot2': 0, 'state': 'normal', 'yaw': -6.65, 'datetime': '2018-10-09 23:42:13.413485', 'mgs': 0, 'volt': 0.835, 'depth': 0.546, 'time': 4, 'pitch': -4.13, 'roll': 4.57, 'pres': 171}
{'lipoC2': 7.29, 'lipoC3S1': 3.77, 'temp': 30.06, 'lipoC3S3': 11.46, 'lipoC3S2': 7.58, 'rot1': 0, 'rot0': 0, 'rot3': 0, 'rot2': 0, 'state': 'normal', 'yaw': -6.06, 'datetime': '2018-10-09 23:42:13.429411', 'mgs': 0, 'volt': 0.8398, 'depth': 0.623, 'time': 4, 'pitch': -2.82, 'roll': 4.09, 'pres': 172}
{'lipoC2': 7.29, 'lipoC3S1': 3.79, 'temp': 30.06, 'lipoC3S3': 11.51, 'lipoC3S2': 7.61, 'rot1': 0, 'rot0': 0, 'rot3': 0, 'rot2': 0, 'state': 'normal', 'yaw': -5.5, 'datetime': '2018-10-09 23:42:13.439434', 'mgs': 0, 'volt': 0.8398, 'depth': 0.623, 'time': 4, 'pitch': -1.96, 'roll': 3.72, 'pres': 172}
{'lipoC2': 7.29, 'lipoC3S1': 3.81, 'temp': 30.06, 'lipoC3S3': 11.54, 'lipoC3S2': 7.64, 'rot1': 0, 'rot0': 0, 'rot3': 1, 'rot2': 1, 'state': 'normal', 'yaw': -5.21, 'datetime': '2018-10-09 23:42:13.455282', 'mgs': 0, 'volt': 0.8545, 'depth': 0.851, 'time': 4, 'pitch': -1.31, 'roll': 3.71, 'pres': 175}
{'lipoC2': 7.29, 'lipoC3S1': 3.79, 'temp': 30.06, 'lipoC3S3': 11.51, 'lipoC3S2': 7.61, 'rot1': 0, 'rot0': 0, 'rot3': 2, 'rot2': 2, 'state': 'normal', 'yaw': -5.12, 'datetime': '2018-10-09 23:42:13.471208', 'mgs': 0, 'volt': 0.8398, 'depth': 0.623, 'time': 4, 'pitch': -0.67, 'roll': 4.05, 'pres': 172}
{'lipoC2': 7.29, 'lipoC3S1': 3.81, 'temp': 30.06, 'lipoC3S3': 11.54, 'lipoC3S2': 7.65, 'rot1': 0, 'rot0': 0, 'rot3': 3, 'rot2': 2, 'state': 'normal', 'yaw': -5.17, 'datetime': '2018-10-09 23:42:13.481253', 'mgs': 0, 'volt': 0.8545, 'depth': 0.851, 'time': 4, 'pitch': 0.07, 'roll': 4.45, 'pres': 175}
{'lipoC2': 7.29, 'lipoC3S1': 3.81, 'temp': 30.06, 'lipoC3S3': 11.5, 'lipoC3S2': 7.65, 'rot1': 0, 'rot0': 0, 'rot3': 5, 'rot2': 3, 'state': 'normal', 'yaw': -5.08, 'datetime': '2018-10-09 23:42:13.497155', 'mgs': 0, 'volt': 0.8545, 'depth': 0.851, 'time': 5, 'pitch': 1.09, 'roll': 4.95, 'pres': 175}
{'lipoC2': 7.29, 'lipoC3S1': 3.79, 'temp': 30.13, 'lipoC3S3': 11.52, 'lipoC3S2': 7.62, 'rot1': 0, 'rot0': 0, 'rot3': 6, 'rot2': 4, 'state': 'normal', 'yaw': -4.67, 'datetime': '2018-10-09 23:42:13.513030', 'mgs': 0, 'volt': 0.8398, 'depth': 0.623, 'time': 5, 'pitch': 2.25, 'roll': 5.78, 'pres': 172}
{'lipoC2': 7.29, 'lipoC3S1': 3.81, 'temp': 30.13, 'lipoC3S3': 11.52, 'lipoC3S2': 7.65, 'rot1': 0, 'rot0': 0, 'rot3': 7, 'rot2': 4, 'state': 'normal', 'yaw': -4.17, 'datetime': '2018-10-09 23:42:13.523052', 'mgs': 0, 'volt': 0.8447, 'depth': 0.699, 'time': 5, 'pitch': 3.14, 'roll': 6.5, 'pres': 173}
{'lipoC2': 7.29, 'lipoC3S1': 3.8, 'temp': 30.13, 'lipoC3S3': 11.54, 'lipoC3S2': 7.63, 'rot1': 0, 'rot0': 0, 'rot3': 8, 'rot2': 5, 'state': 'normal', 'yaw': -3.85, 'datetime': '2018-10-09 23:42:13.539012', 'mgs': 0, 'volt': 0.8301, 'depth': 0.47, 'time': 5, 'pitch': 3.08, 'roll': 6.9, 'pres': 170}
{'lipoC2': 7.3, 'lipoC3S1': 3.8, 'temp': 30.13, 'lipoC3S3': 11.54, 'lipoC3S2': 7.63, 'rot1': 0, 'rot0': 0, 'rot3': 9, 'rot2': 6, 'state': 'normal', 'yaw': -3.86, 'datetime': '2018-10-09 23:42:13.554868', 'mgs': 0, 'volt': 0.8545, 'depth': 0.851, 'time': 5, 'pitch': 1.71, 'roll': 6.51, 'pres': 175}
{'lipoC2': 7.29, 'lipoC3S1': 3.82, 'temp': 30.06, 'lipoC3S3': 11.5, 'lipoC3S2': 7.65, 'rot1': 0, 'rot0': 0, 'rot3': 10, 'rot2': 6, 'state': 'normal', 'yaw': -4.25, 'datetime': '2018-10-09 23:42:13.564910', 'mgs': 0, 'volt': 0.8447, 'depth': 0.699, 'time': 5, 'pitch': -0.42, 'roll': 5.35, 'pres': 173}
{'lipoC2': 7.29, 'lipoC3S1': 3.79, 'temp': 30.06, 'lipoC3S3': 11.51, 'lipoC3S2': 7.62, 'rot1': 0, 'rot0': 0, 'rot3': 11, 'rot2': 7, 'state': 'normal', 'yaw': -4.86, 'datetime': '2018-10-09 23:42:13.580799', 'mgs': 0, 'volt': 0.8252, 'depth': 0.394, 'time': 5, 'pitch': -2.41, 'roll': 4.27, 'pres': 169}
{'lipoC2': 7.29, 'lipoC3S1': 3.8, 'temp': 30.06, 'lipoC3S3': 11.56, 'lipoC3S2': 7.63, 'rot1': 0, 'rot0': 0, 'rot3': 12, 'rot2': 8, 'state': 'normal', 'yaw': -5.51, 'datetime': '2018-10-09 23:42:13.596736', 'mgs': 0, 'volt': 0.8398, 'depth': 0.623, 'time': 5, 'pitch': -4.45, 'roll': 3.64, 'pres': 172}
{'lipoC2': 7.29, 'lipoC3S1': 3.81, 'temp': 30.13, 'lipoC3S3': 11.48, 'lipoC3S2': 7.65, 'rot1': 0, 'rot0': 0, 'rot3': 14, 'rot2': 9, 'state': 'normal', 'yaw': -6.1, 'datetime': '2018-10-09 23:42:13.606929', 'mgs': 0, 'volt': 0.8398, 'depth': 0.623, 'time': 5, 'pitch': -5.53, 'roll': 3.81, 'pres': 172}
{'lipoC2': 7.29, 'lipoC3S1': 3.82, 'temp': 30.13, 'lipoC3S3': 11.52, 'lipoC3S2': 7.63, 'rot1': 0, 'rot0': 0, 'rot3': 15, 'rot2': 9, 'state': 'normal', 'yaw': -6.34, 'datetime': '2018-10-09 23:42:13.622828', 'mgs': 0, 'volt': 0.8252, 'depth': 0.394, 'time': 5, 'pitch': -4.9, 'roll': 4.48, 'pres': 169}
{'lipoC2': 7.29, 'lipoC3S1': 3.8, 'temp': 30.06, 'lipoC3S3': 11.54, 'lipoC3S2': 7.63, 'rot1': 0, 'rot0': 0, 'rot3': 16, 'rot2': 10, 'state': 'normal', 'yaw': -6.4, 'datetime': '2018-10-09 23:42:13.638787', 'mgs': 0, 'volt': 0.8398, 'depth': 0.623, 'time': 6, 'pitch': -3.38, 'roll': 5.23, 'pres': 172}
{'lipoC2': 7.29, 'lipoC3S1': 3.82, 'temp': 30.06, 'lipoC3S3': 11.52, 'lipoC3S2': 7.65, 'rot1': 0, 'rot0': 0, 'rot3': 17, 'rot2': 11, 'state': 'normal', 'yaw': -6.53, 'datetime': '2018-10-09 23:42:13.648884', 'mgs': 0, 'volt': 0.8301, 'depth': 0.47, 'time': 6, 'pitch': -1.72, 'roll': 5.7, 'pres': 170}
{'lipoC2': 7.29, 'lipoC3S1': 3.82, 'temp': 30.06, 'lipoC3S3': 11.52, 'lipoC3S2': 7.65, 'rot1': 0, 'rot0': 0, 'rot3': 18, 'rot2': 11, 'state': 'normal', 'yaw': -6.88, 'datetime': '2018-10-09 23:42:13.664818', 'mgs': 0, 'volt': 0.8301, 'depth': 0.47, 'time': 6, 'pitch': -0.5, 'roll': 5.97, 'pres': 170}
{'lipoC2': 7.29, 'lipoC3S1': 3.81, 'temp': 30.06, 'lipoC3S3': 11.55, 'lipoC3S2': 7.64, 'rot1': 0, 'rot0': 0, 'rot3': 19, 'rot2': 12, 'state': 'normal', 'yaw': -7.4, 'datetime': '2018-10-09 23:42:13.680759', 'mgs': 0, 'volt': 0.8398, 'depth': 0.623, 'time': 6, 'pitch': -0.4, 'roll': 6.28, 'pres': 172}
{'lipoC2': 7.29, 'lipoC3S1': 3.82, 'temp': 30.06, 'lipoC3S3': 11.52, 'lipoC3S2': 7.62, 'rot1': 0, 'rot0': 0, 'rot3': 21, 'rot2': 13, 'state': 'normal', 'yaw': -7.94, 'datetime': '2018-10-09 23:42:13.690824', 'mgs': 0, 'volt': 0.8252, 'depth': 0.394, 'time': 6, 'pitch': -1.13, 'roll': 6.46, 'pres': 169}
{'lipoC2': 7.29, 'lipoC3S1': 3.8, 'temp': 30.13, 'lipoC3S3': 11.51, 'lipoC3S2': 7.62, 'rot1': 0, 'rot0': 0, 'rot3': 22, 'rot2': 14, 'state': 'normal', 'yaw': -8.56, 'datetime': '2018-10-09 23:42:13.706800', 'mgs': 0, 'volt': 0.8301, 'depth': 0.47, 'time': 6, 'pitch': -2.39, 'roll': 6.52, 'pres': 170}
{'lipoC2': 7.29, 'lipoC3S1': 3.82, 'temp': 30.13, 'lipoC3S3': 11.51, 'lipoC3S2': 7.62, 'rot1': 0, 'rot0': 0, 'rot3': 23, 'rot2': 15, 'state': 'normal', 'yaw': -9.02, 'datetime': '2018-10-09 23:42:13.722743', 'mgs': 0, 'volt': 0.8252, 'depth': 0.394, 'time': 6, 'pitch': -3.31, 'roll': 6.26, 'pres': 169}
{'lipoC2': 7.29, 'lipoC3S1': 3.82, 'temp': 30.06, 'lipoC3S3': 11.5, 'lipoC3S2': 7.65, 'rot1': 0, 'rot0': 0, 'rot3': 24, 'rot2': 15, 'state': 'normal', 'yaw': -9.48, 'datetime': '2018-10-09 23:42:13.732295', 'mgs': 0, 'volt': 0.835, 'depth': 0.546, 'time': 6, 'pitch': -3.39, 'roll': 6.01, 'pres': 171}
{'lipoC2': 7.29, 'lipoC3S1': 3.82, 'temp': 30.06, 'lipoC3S3': 11.51, 'lipoC3S2': 7.63, 'rot1': 0, 'rot0': 0, 'rot3': 25, 'rot2': 16, 'state': 'normal', 'yaw': -9.81, 'datetime': '2018-10-09 23:42:13.747709', 'mgs': 0, 'volt': 0.8301, 'depth': 0.47, 'time': 6, 'pitch': -2.21, 'roll': 5.99, 'pres': 170}
{'lipoC2': 7.29, 'lipoC3S1': 3.82, 'temp': 30.06, 'lipoC3S3': 11.51, 'lipoC3S2': 7.63, 'rot1': 0, 'rot0': 0, 'rot3': 27, 'rot2': 17, 'state': 'normal', 'yaw': -10.04, 'datetime': '2018-10-09 23:42:13.763088', 'mgs': 0, 'volt': 0.8252, 'depth': 0.394, 'time': 7, 'pitch': -0.16, 'roll': 6.09, 'pres': 169}
{'lipoC2': 7.29, 'lipoC3S1': 3.83, 'temp': 30.06, 'lipoC3S3': 11.51, 'lipoC3S2': 7.65, 'rot1': 0, 'rot0': 0, 'rot3': 28, 'rot2': 18, 'state': 'normal', 'yaw': -10.17, 'datetime': '2018-10-09 23:42:13.772623', 'mgs': 0, 'volt': 0.835, 'depth': 0.546, 'time': 7, 'pitch': 1.96, 'roll': 6.03, 'pres': 171}
{'lipoC2': 7.29, 'lipoC3S1': 3.82, 'temp': 30.06, 'lipoC3S3': 11.5, 'lipoC3S2': 7.62, 'rot1': 0, 'rot0': 0, 'rot3': 29, 'rot2': 18, 'state': 'normal', 'yaw': -10.37, 'datetime': '2018-10-09 23:42:13.787990', 'mgs': 0, 'volt': 0.8301, 'depth': 0.47, 'time': 7, 'pitch': 3.53, 'roll': 5.45, 'pres': 170}
{'lipoC2': 7.29, 'lipoC3S1': 3.82, 'temp': 30.06, 'lipoC3S3': 11.52, 'lipoC3S2': 7.63, 'rot1': 0, 'rot0': 0, 'rot3': 30, 'rot2': 19, 'state': 'normal', 'yaw': -10.66, 'datetime': '2018-10-09 23:42:13.803491', 'mgs': 0, 'volt': 0.8252, 'depth': 0.394, 'time': 7, 'pitch': 3.5, 'roll': 4.26, 'pres': 169}
{'lipoC2': 7.29, 'lipoC3S1': 3.81, 'temp': 30.06, 'lipoC3S3': 11.54, 'lipoC3S2': 7.63, 'rot1': 0, 'rot0': 0, 'rot3': 31, 'rot2': 20, 'state': 'normal', 'yaw': -11.05, 'datetime': '2018-10-09 23:42:13.813061', 'mgs': 0, 'volt': 0.8252, 'depth': 0.394, 'time': 7, 'pitch': 1.93, 'roll': 2.86, 'pres': 169}
{'lipoC2': 7.29, 'lipoC3S1': 3.83, 'temp': 30.06, 'lipoC3S3': 11.56, 'lipoC3S2': 7.66, 'rot1': 0, 'rot0': 0, 'rot3': 33, 'rot2': 21, 'state': 'normal', 'yaw': -11.5, 'datetime': '2018-10-09 23:42:13.828629', 'mgs': 0, 'volt': 0.8252, 'depth': 0.394, 'time': 7, 'pitch': -0.93, 'roll': 1.39, 'pres': 169}
{'lipoC2': 7.3, 'lipoC3S1': 3.82, 'temp': 30.06, 'lipoC3S3': 11.38, 'lipoC3S2': 7.64, 'rot1': 0, 'rot0': 0, 'rot3': 33, 'rot2': 21, 'state': 'normal', 'yaw': -11.91, 'datetime': '2018-10-09 23:42:13.844126', 'mgs': 0, 'volt': 0.8252, 'depth': 0.394, 'time': 7, 'pitch': -3.13, 'roll': 0.6, 'pres': 169}
{'lipoC2': 7.29, 'lipoC3S1': 3.82, 'temp': 30.06, 'lipoC3S3': 11.52, 'lipoC3S2': 7.55, 'rot1': 0, 'rot0': 0, 'rot3': 33, 'rot2': 21, 'state': 'normal', 'yaw': -12.33, 'datetime': '2018-10-09 23:42:13.853735', 'mgs': 0, 'volt': 0.8203, 'depth': 0.317, 'time': 7, 'pitch': -3.64, 'roll': 0.59, 'pres': 168}
{'lipoC2': 7.29, 'lipoC3S1': 3.82, 'temp': 30.06, 'lipoC3S3': 11.52, 'lipoC3S2': 7.53, 'rot1': 2, 'rot0': 2, 'rot3': 33, 'rot2': 21, 'state': 'normal', 'yaw': -12.88, 'datetime': '2018-10-09 23:42:13.869282', 'mgs': 0, 'volt': 0.8203, 'depth': 0.317, 'time': 7, 'pitch': -1.71, 'roll': 1.15, 'pres': 168}
{'lipoC2': 7.29, 'lipoC3S1': 3.74, 'temp': 30.06, 'lipoC3S3': 11.55, 'lipoC3S2': 7.61, 'rot1': 3, 'rot0': 3, 'rot3': 33, 'rot2': 21, 'state': 'normal', 'yaw': -13.37, 'datetime': '2018-10-09 23:42:13.884808', 'mgs': 0, 'volt': 0.8252, 'depth': 0.394, 'time': 7, 'pitch': 1.28, 'roll': 1.87, 'pres': 169}
{'lipoC2': 7.29, 'lipoC3S1': 3.82, 'temp': 30.0, 'lipoC3S3': 11.47, 'lipoC3S2': 7.67, 'rot1': 4, 'rot0': 4, 'rot3': 33, 'rot2': 21, 'state': 'normal', 'yaw': -13.86, 'datetime': '2018-10-09 23:42:13.894411', 'mgs': 0, 'volt': 0.8203, 'depth': 0.317, 'time': 8, 'pitch': 4.0, 'roll': 2.59, 'pres': 168}
{'lipoC2': 7.29, 'lipoC3S1': 3.82, 'temp': 30.0, 'lipoC3S3': 11.55, 'lipoC3S2': 7.56, 'rot1': 5, 'rot0': 5, 'rot3': 33, 'rot2': 21, 'state': 'normal', 'yaw': -14.49, 'datetime': '2018-10-09 23:42:13.909921', 'mgs': 0, 'volt': 0.8252, 'depth': 0.394, 'time': 8, 'pitch': 5.47, 'roll': 3.22, 'pres': 169}
{'lipoC2': 7.29, 'lipoC3S1': 3.78, 'temp': 30.0, 'lipoC3S3': 11.55, 'lipoC3S2': 7.61, 'rot1': 6, 'rot0': 6, 'rot3': 33, 'rot2': 21, 'state': 'normal', 'yaw': -14.99, 'datetime': '2018-10-09 23:42:13.925386', 'mgs': 0, 'volt': 0.8301, 'depth': 0.47, 'time': 8, 'pitch': 4.93, 'roll': 3.5, 'pres': 170}
{'lipoC2': 7.29, 'lipoC3S1': 3.82, 'temp': 30.0, 'lipoC3S3': 11.46, 'lipoC3S2': 7.64, 'rot1': 7, 'rot0': 7, 'rot3': 33, 'rot2': 21, 'state': 'normal', 'yaw': -15.37, 'datetime': '2018-10-09 23:42:13.934999', 'mgs': 0, 'volt': 0.835, 'depth': 0.546, 'time': 8, 'pitch': 3.11, 'roll': 3.44, 'pres': 171}
{'lipoC2': 7.29, 'lipoC3S1': 3.82, 'temp': 30.0, 'lipoC3S3': 11.52, 'lipoC3S2': 7.58, 'rot1': 8, 'rot0': 8, 'rot3': 33, 'rot2': 21, 'state': 'normal', 'yaw': -15.63, 'datetime': '2018-10-09 23:42:13.950511', 'mgs': 0, 'volt': 0.8398, 'depth': 0.623, 'time': 8, 'pitch': 0.76, 'roll': 3.09, 'pres': 172}
{'lipoC2': 7.29, 'lipoC3S1': 3.82, 'temp': 30.0, 'lipoC3S3': 11.55, 'lipoC3S2': 7.57, 'rot1': 9, 'rot0': 9, 'rot3': 33, 'rot2': 21, 'state': 'normal', 'yaw': -15.56, 'datetime': '2018-10-09 23:42:13.966024', 'mgs': 0, 'volt': 0.8398, 'depth': 0.623, 'time': 8, 'pitch': -0.39, 'roll': 2.6, 'pres': 172}
{'lipoC2': 7.29, 'lipoC3S1': 3.84, 'temp': 30.0, 'lipoC3S3': 11.55, 'lipoC3S2': 7.61, 'rot1': 10, 'rot0': 9, 'rot3': 33, 'rot2': 21, 'state': 'normal', 'yaw': -15.15, 'datetime': '2018-10-09 23:42:13.978124', 'mgs': 0, 'volt': 0.8398, 'depth': 0.623, 'time': 8, 'pitch': -0.24, 'roll': 2.23, 'pres': 172}
{'lipoC2': 7.3, 'lipoC3S1': 3.82, 'temp': 30.0, 'lipoC3S3': 11.51, 'lipoC3S2': 7.65, 'rot1': 11, 'rot0': 10, 'rot3': 33, 'rot2': 21, 'state': 'normal', 'yaw': -14.5, 'datetime': '2018-10-09 23:42:14.081906', 'mgs': 0, 'volt': 0.8398, 'depth': 0.623, 'time': 8, 'pitch': 1.0, 'roll': 2.18, 'pres': 172}
{'lipoC2': 7.3, 'lipoC3S1': 3.82, 'temp': 30.0, 'lipoC3S3': 11.54, 'lipoC3S2': 7.65, 'rot1': 13, 'rot0': 11, 'rot3': 33, 'rot2': 21, 'state': 'normal', 'yaw': -13.51, 'datetime': '2018-10-09 23:42:14.185477', 'mgs': 0, 'volt': 0.8594, 'depth': 0.928, 'time': 8, 'pitch': 2.8, 'roll': 2.15, 'pres': 176}
{'lipoC2': 7.3, 'lipoC3S1': 3.79, 'temp': 30.0, 'lipoC3S3': 11.55, 'lipoC3S2': 7.65, 'rot1': 14, 'rot0': 12, 'rot3': 33, 'rot2': 21, 'state': 'normal', 'yaw': -12.55, 'datetime': '2018-10-09 23:42:14.289377', 'mgs': 0, 'volt': 0.8447, 'depth': 0.699, 'time': 8, 'pitch': 4.06, 'roll': 2.13, 'pres': 173}
{'lipoC2': 7.29, 'lipoC3S1': 3.82, 'temp': 30.0, 'lipoC3S3': 11.42, 'lipoC3S2': 7.65, 'rot1': 15, 'rot0': 13, 'rot3': 33, 'rot2': 21, 'state': 'normal', 'yaw': -11.58, 'datetime': '2018-10-09 23:42:14.393442', 'mgs': 0, 'volt': 0.8398, 'depth': 0.623, 'time': 9, 'pitch': 4.55, 'roll': 2.11, 'pres': 172}
{'lipoC2': 7.29, 'lipoC3S1': 3.82, 'temp': 30.06, 'lipoC3S3': 11.54, 'lipoC3S2': 7.65, 'rot1': 16, 'rot0': 13, 'rot3': 33, 'rot2': 21, 'state': 'normal', 'yaw': -10.5, 'datetime': '2018-10-09 23:42:14.496943', 'mgs': 0, 'volt': 0.874, 'depth': 1.157, 'time': 9, 'pitch': 4.1, 'roll': 2.1, 'pres': 179}
{'lipoC2': 7.29, 'lipoC3S1': 3.78, 'temp': 30.06, 'lipoC3S3': 11.55, 'lipoC3S2': 7.65, 'rot1': 17, 'rot0': 14, 'rot3': 33, 'rot2': 21, 'state': 'normal', 'yaw': -9.51, 'datetime': '2018-10-09 23:42:14.600486', 'mgs': 0, 'volt': 0.8496, 'depth': 0.775, 'time': 9, 'pitch': 2.98, 'roll': 2.05, 'pres': 174}
{'lipoC2': 7.29, 'lipoC3S1': 3.82, 'temp': 30.06, 'lipoC3S3': 11.54, 'lipoC3S2': 7.65, 'rot1': 18, 'rot0': 15, 'rot3': 33, 'rot2': 21, 'state': 'normal', 'yaw': -8.38, 'datetime': '2018-10-09 23:42:14.704369', 'mgs': 0, 'volt': 0.8496, 'depth': 0.775, 'time': 9, 'pitch': 1.55, 'roll': 1.78, 'pres': 174}
{'lipoC2': 7.29, 'lipoC3S1': 3.82, 'temp': 30.06, 'lipoC3S3': 11.54, 'lipoC3S2': 7.65, 'rot1': 19, 'rot0': 16, 'rot3': 33, 'rot2': 21, 'state': 'normal', 'yaw': -7.29, 'datetime': '2018-10-09 23:42:14.807812', 'mgs': 0, 'volt': 0.9082, 'depth': 1.691, 'time': 9, 'pitch': 0.83, 'roll': 1.35, 'pres': 186}
{'lipoC2': 7.3, 'lipoC3S1': 3.82, 'temp': 30.06, 'lipoC3S3': 11.43, 'lipoC3S2': 7.64, 'rot1': 20, 'rot0': 17, 'rot3': 33, 'rot2': 21, 'state': 'normal', 'yaw': -6.12, 'datetime': '2018-10-09 23:42:14.912655', 'mgs': 0, 'volt': 0.8496, 'depth': 0.775, 'time': 9, 'pitch': 1.13, 'roll': 0.85, 'pres': 174}
{'lipoC2': 7.29, 'lipoC3S1': 3.82, 'temp': 30.06, 'lipoC3S3': 11.54, 'lipoC3S2': 7.65, 'rot1': 22, 'rot0': 17, 'rot3': 33, 'rot2': 21, 'state': 'normal', 'yaw': -4.7, 'datetime': '2018-10-09 23:42:15.016197', 'mgs': 0, 'volt': 0.8691, 'depth': 1.08, 'time': 9, 'pitch': 2.55, 'roll': 0.4, 'pres': 178}
{'lipoC2': 7.29, 'lipoC3S1': 3.8, 'temp': 30.06, 'lipoC3S3': 11.55, 'lipoC3S2': 7.65, 'rot1': 23, 'rot0': 18, 'rot3': 33, 'rot2': 21, 'state': 'normal', 'yaw': -3.29, 'datetime': '2018-10-09 23:42:15.119758', 'mgs': 0, 'volt': 0.8447, 'depth': 0.699, 'time': 9, 'pitch': 4.06, 'roll': 0.18, 'pres': 173}
{'lipoC2': 7.29, 'lipoC3S1': 3.82, 'temp': 30.06, 'lipoC3S3': 11.54, 'lipoC3S2': 7.65, 'rot1': 24, 'rot0': 19, 'rot3': 33, 'rot2': 21, 'state': 'normal', 'yaw': -1.93, 'datetime': '2018-10-09 23:42:15.224810', 'mgs': 0, 'volt': 0.9033, 'depth': 1.614, 'time': 9, 'pitch': 4.92, 'roll': 0.09, 'pres': 185}
{'lipoC2': 7.3, 'lipoC3S1': 3.74, 'temp': 30.06, 'lipoC3S3': 11.54, 'lipoC3S2': 7.66, 'rot1': 25, 'rot0': 20, 'rot3': 33, 'rot2': 21, 'state': 'normal', 'yaw': -0.68, 'datetime': '2018-10-09 23:42:15.328567', 'mgs': 0, 'volt': 0.835, 'depth': 0.546, 'time': 10, 'pitch': 4.62, 'roll': -0.02, 'pres': 171}
{'lipoC2': 7.29, 'lipoC3S1': 3.82, 'temp': 30.06, 'lipoC3S3': 11.34, 'lipoC3S2': 7.58, 'rot1': 26, 'rot0': 21, 'rot3': 34, 'rot2': 22, 'state': 'normal', 'yaw': 0.16, 'datetime': '2018-10-09 23:42:15.432302', 'mgs': 0, 'volt': 0.8496, 'depth': 0.775, 'time': 10, 'pitch': 3.68, 'roll': -0.18, 'pres': 174}
{'lipoC2': 7.29, 'lipoC3S1': 3.75, 'temp': 30.13, 'lipoC3S3': 11.54, 'lipoC3S2': 7.58, 'rot1': 27, 'rot0': 22, 'rot3': 34, 'rot2': 22, 'state': 'normal', 'yaw': 0.66, 'datetime': '2018-10-09 23:42:15.536203', 'mgs': 0, 'volt': 0.8594, 'depth': 0.928, 'time': 10, 'pitch': 2.85, 'roll': -0.4, 'pres': 176}
{'lipoC2': 7.28, 'lipoC3S1': 3.82, 'temp': 30.13, 'lipoC3S3': 11.51, 'lipoC3S2': 7.64, 'rot1': 28, 'rot0': 24, 'rot3': 34, 'rot2': 23, 'state': 'normal', 'yaw': 1.03, 'datetime': '2018-10-09 23:42:15.639917', 'mgs': 0, 'volt': 0.8594, 'depth': 0.928, 'time': 10, 'pitch': 2.74, 'roll': -0.59, 'pres': 176}
{'lipoC2': 7.29, 'lipoC3S1': 3.76, 'temp': 30.06, 'lipoC3S3': 11.54, 'lipoC3S2': 7.65, 'rot1': 29, 'rot0': 25, 'rot3': 34, 'rot2': 23, 'state': 'normal', 'yaw': 1.41, 'datetime': '2018-10-09 23:42:15.743655', 'mgs': 0, 'volt': 0.8594, 'depth': 0.928, 'time': 10, 'pitch': 3.45, 'roll': -0.76, 'pres': 176}
{'lipoC2': 7.29, 'lipoC3S1': 3.82, 'temp': 30.06, 'lipoC3S3': 11.42, 'lipoC3S2': 7.64, 'rot1': 30, 'rot0': 26, 'rot3': 34, 'rot2': 23, 'state': 'normal', 'yaw': 1.92, 'datetime': '2018-10-09 23:42:15.847295', 'mgs': 0, 'volt': 0.8545, 'depth': 0.851, 'time': 10, 'pitch': 4.65, 'roll': -0.85, 'pres': 175}
{'lipoC2': 7.3, 'lipoC3S1': 3.8, 'temp': 30.06, 'lipoC3S3': 11.54, 'lipoC3S2': 7.65, 'rot1': 31, 'rot0': 27, 'rot3': 34, 'rot2': 23, 'state': 'normal', 'yaw': 2.48, 'datetime': '2018-10-09 23:42:15.951018', 'mgs': 0, 'volt': 0.9229, 'depth': 1.92, 'time': 10, 'pitch': 5.91, 'roll': -0.86, 'pres': 189}
{'lipoC2': 7.29, 'lipoC3S1': 3.82, 'temp': 30.06, 'lipoC3S3': 11.48, 'lipoC3S2': 7.52, 'rot1': 32, 'rot0': 28, 'rot3': 34, 'rot2': 23, 'state': 'normal', 'yaw': 2.91, 'datetime': '2018-10-09 23:42:16.054809', 'mgs': 0, 'volt': 0.8545, 'depth': 0.851, 'time': 10, 'pitch': 6.54, 'roll': -0.8, 'pres': 175}
{'lipoC2': 7.29, 'lipoC3S1': 3.82, 'temp': 30.06, 'lipoC3S3': 11.54, 'lipoC3S2': 7.65, 'rot1': 34, 'rot0': 29, 'rot3': 34, 'rot2': 23, 'state': 'normal', 'yaw': 3.2, 'datetime': '2018-10-09 23:42:16.158481', 'mgs': 0, 'volt': 0.9131, 'depth': 1.767, 'time': 10, 'pitch': 6.2, 'roll': -0.7, 'pres': 187}
{'lipoC2': 7.3, 'lipoC3S1': 3.77, 'temp': 30.06, 'lipoC3S3': 11.54, 'lipoC3S2': 7.5, 'rot1': 35, 'rot0': 31, 'rot3': 35, 'rot2': 23, 'state': 'normal', 'yaw': 3.33, 'datetime': '2018-10-09 23:42:16.262197', 'mgs': 0, 'volt': 0.8545, 'depth': 0.851, 'time': 10, 'pitch': 5.18, 'roll': -0.44, 'pres': 175}
{'lipoC2': 7.29, 'lipoC3S1': 3.73, 'temp': 30.06, 'lipoC3S3': 11.52, 'lipoC3S2': 7.65, 'rot1': 36, 'rot0': 32, 'rot3': 35, 'rot2': 23, 'state': 'normal', 'yaw': 3.38, 'datetime': '2018-10-09 23:42:16.367269', 'mgs': 0, 'volt': 0.8447, 'depth': 0.699, 'time': 11, 'pitch': 3.97, 'roll': -0.03, 'pres': 173}
{'lipoC2': 7.29, 'lipoC3S1': 3.81, 'temp': 30.06, 'lipoC3S3': 11.32, 'lipoC3S2': 7.64, 'rot1': 37, 'rot0': 33, 'rot3': 36, 'rot2': 24, 'state': 'normal', 'yaw': 3.55, 'datetime': '2018-10-09 23:42:16.470926', 'mgs': 0, 'volt': 0.8545, 'depth': 0.851, 'time': 11, 'pitch': 3.03, 'roll': 0.49, 'pres': 175}
{'lipoC2': 7.29, 'lipoC3S1': 3.82, 'temp': 30.06, 'lipoC3S3': 11.47, 'lipoC3S2': 7.5, 'rot1': 38, 'rot0': 34, 'rot3': 36, 'rot2': 24, 'state': 'normal', 'yaw': 3.9, 'datetime': '2018-10-09 23:42:16.575980', 'mgs': 0, 'volt': 0.8545, 'depth': 0.851, 'time': 11, 'pitch': 3.1, 'roll': 0.79, 'pres': 175}
{'lipoC2': 7.29, 'lipoC3S1': 3.82, 'temp': 30.06, 'lipoC3S3': 11.54, 'lipoC3S2': 7.65, 'rot1': 39, 'rot0': 35, 'rot3': 36, 'rot2': 24, 'state': 'normal', 'yaw': 4.5, 'datetime': '2018-10-09 23:42:16.679693', 'mgs': 0, 'volt': 0.9082, 'depth': 1.691, 'time': 11, 'pitch': 4.18, 'roll': 0.92, 'pres': 186}
{'lipoC2': 7.3, 'lipoC3S1': 3.81, 'temp': 30.06, 'lipoC3S3': 11.54, 'lipoC3S2': 7.54, 'rot1': 40, 'rot0': 36, 'rot3': 36, 'rot2': 24, 'state': 'normal', 'yaw': 5.13, 'datetime': '2018-10-09 23:42:16.783343', 'mgs': 0, 'volt': 0.8496, 'depth': 0.775, 'time': 11, 'pitch': 5.44, 'roll': 1.01, 'pres': 174}
{'lipoC2': 7.29, 'lipoC3S1': 3.82, 'temp': 30.06, 'lipoC3S3': 11.52, 'lipoC3S2': 7.64, 'rot1': 41, 'rot0': 37, 'rot3': 36, 'rot2': 24, 'state': 'normal', 'yaw': 5.71, 'datetime': '2018-10-09 23:42:16.887055', 'mgs': 0, 'volt': 0.874, 'depth': 1.157, 'time': 11, 'pitch': 6.34, 'roll': 1.14, 'pres': 179}
{'lipoC2': 7.29, 'lipoC3S1': 3.79, 'temp': 30.06, 'lipoC3S3': 11.54, 'lipoC3S2': 7.62, 'rot1': 42, 'rot0': 38, 'rot3': 36, 'rot2': 24, 'state': 'normal', 'yaw': 6.19, 'datetime': '2018-10-09 23:42:16.990770', 'mgs': 0, 'volt': 0.8545, 'depth': 0.851, 'time': 11, 'pitch': 6.37, 'roll': 1.33, 'pres': 175}
{'lipoC2': 7.29, 'lipoC3S1': 3.82, 'temp': 30.06, 'lipoC3S3': 11.44, 'lipoC3S2': 7.64, 'rot1': 43, 'rot0': 40, 'rot3': 36, 'rot2': 24, 'state': 'normal', 'yaw': 6.38, 'datetime': '2018-10-09 23:42:17.094469', 'mgs': 0, 'volt': 0.8496, 'depth': 0.775, 'time': 11, 'pitch': 5.51, 'roll': 1.53, 'pres': 174}
{'lipoC2': 7.29, 'lipoC3S1': 3.77, 'temp': 30.06, 'lipoC3S3': 11.54, 'lipoC3S2': 7.65, 'rot1': 44, 'rot0': 41, 'rot3': 36, 'rot2': 24, 'state': 'normal', 'yaw': 6.35, 'datetime': '2018-10-09 23:42:17.198256', 'mgs': 0, 'volt': 0.8545, 'depth': 0.851, 'time': 11, 'pitch': 4.13, 'roll': 1.67, 'pres': 175}
{'lipoC2': 7.29, 'lipoC3S1': 3.82, 'temp': 30.06, 'lipoC3S3': 11.42, 'lipoC3S2': 7.64, 'rot1': 45, 'rot0': 42, 'rot3': 36, 'rot2': 24, 'state': 'normal', 'yaw': 6.13, 'datetime': '2018-10-09 23:42:17.301953', 'mgs': 0, 'volt': 0.8496, 'depth': 0.775, 'time': 11, 'pitch': 2.49, 'roll': 1.86, 'pres': 174}
{'lipoC2': 7.29, 'lipoC3S1': 3.83, 'temp': 30.13, 'lipoC3S3': 11.54, 'lipoC3S2': 7.65, 'rot1': 46, 'rot0': 43, 'rot3': 36, 'rot2': 24, 'state': 'normal', 'yaw': 5.88, 'datetime': '2018-10-09 23:42:17.405621', 'mgs': 0, 'volt': 0.8643, 'depth': 1.004, 'time': 12, 'pitch': 1.34, 'roll': 2.08, 'pres': 177}
{'lipoC2': 7.29, 'lipoC3S1': 3.82, 'temp': 30.13, 'lipoC3S3': 11.54, 'lipoC3S2': 7.65, 'rot1': 47, 'rot0': 44, 'rot3': 36, 'rot2': 24, 'state': 'normal', 'yaw': 5.67, 'datetime': '2018-10-09 23:42:17.509871', 'mgs': 0, 'volt': 0.918, 'depth': 1.843, 'time': 12, 'pitch': 0.75, 'roll': 2.24, 'pres': 188}
{'lipoC2': 7.29, 'lipoC3S1': 3.82, 'temp': 30.13, 'lipoC3S3': 11.5, 'lipoC3S2': 7.6, 'rot1': 48, 'rot0': 45, 'rot3': 36, 'rot2': 24, 'state': 'normal', 'yaw': 5.51, 'datetime': '2018-10-09 23:42:17.613653', 'mgs': 0, 'volt': 0.8496, 'depth': 0.775, 'time': 12, 'pitch': 0.73, 'roll': 2.29, 'pres': 174}
{'lipoC2': 7.29, 'lipoC3S1': 3.82, 'temp': 30.06, 'lipoC3S3': 11.52, 'lipoC3S2': 7.65, 'rot1': 49, 'rot0': 46, 'rot3': 36, 'rot2': 24, 'state': 'normal', 'yaw': 5.49, 'datetime': '2018-10-09 23:42:17.718241', 'mgs': 0, 'volt': 0.8887, 'depth': 1.385, 'time': 12, 'pitch': 1.17, 'roll': 2.28, 'pres': 182}
{'lipoC2': 7.3, 'lipoC3S1': 3.78, 'temp': 30.06, 'lipoC3S3': 11.54, 'lipoC3S2': 7.54, 'rot1': 50, 'rot0': 47, 'rot3': 36, 'rot2': 24, 'state': 'normal', 'yaw': 5.52, 'datetime': '2018-10-09 23:42:17.821990', 'mgs': 0, 'volt': 0.8545, 'depth': 0.851, 'time': 12, 'pitch': 2.06, 'roll': 2.28, 'pres': 175}
{'lipoC2': 7.28, 'lipoC3S1': 3.82, 'temp': 30.13, 'lipoC3S3': 11.46, 'lipoC3S2': 7.63, 'rot1': 51, 'rot0': 49, 'rot3': 37, 'rot2': 25, 'state': 'normal', 'yaw': 5.47, 'datetime': '2018-10-09 23:42:17.925729', 'mgs': 0, 'volt': 0.8545, 'depth': 0.851, 'time': 12, 'pitch': 2.89, 'roll': 2.36, 'pres': 175}
{'lipoC2': 7.29, 'lipoC3S1': 3.82, 'temp': 30.13, 'lipoC3S3': 11.34, 'lipoC3S2': 7.64, 'rot1': 52, 'rot0': 50, 'rot3': 38, 'rot2': 25, 'state': 'normal', 'yaw': 5.27, 'datetime': '2018-10-09 23:42:18.030765', 'mgs': 0, 'volt': 0.8545, 'depth': 0.851, 'time': 12, 'pitch': 3.46, 'roll': 2.64, 'pres': 175}
{'lipoC2': 7.3, 'lipoC3S1': 3.8, 'temp': 30.13, 'lipoC3S3': 11.54, 'lipoC3S2': 7.65, 'rot1': 53, 'rot0': 51, 'rot3': 38, 'rot2': 26, 'state': 'normal', 'yaw': 4.84, 'datetime': '2018-10-09 23:42:18.134538', 'mgs': 0, 'volt': 0.8496, 'depth': 0.775, 'time': 12, 'pitch': 3.54, 'roll': 3.13, 'pres': 174}
{'lipoC2': 7.3, 'lipoC3S1': 3.82, 'temp': 30.13, 'lipoC3S3': 11.46, 'lipoC3S2': 7.63, 'rot1': 54, 'rot0': 52, 'rot3': 38, 'rot2': 26, 'state': 'normal', 'yaw': 4.34, 'datetime': '2018-10-09 23:42:18.238222', 'mgs': 0, 'volt': 0.8594, 'depth': 0.928, 'time': 12, 'pitch': 3.18, 'roll': 3.54, 'pres': 176}
{'lipoC2': 7.3, 'lipoC3S1': 3.76, 'temp': 30.13, 'lipoC3S3': 11.54, 'lipoC3S2': 7.65, 'rot1': 54, 'rot0': 53, 'rot3': 38, 'rot2': 26, 'state': 'normal', 'yaw': 3.84, 'datetime': '2018-10-09 23:42:18.342117', 'mgs': 0, 'volt': 0.8643, 'depth': 1.004, 'time': 13, 'pitch': 2.71, 'roll': 3.81, 'pres': 177}
{'lipoC2': 7.29, 'lipoC3S1': 3.82, 'temp': 30.06, 'lipoC3S3': 11.39, 'lipoC3S2': 7.64, 'rot1': 55, 'rot0': 54, 'rot3': 38, 'rot2': 26, 'state': 'normal', 'yaw': 3.4, 'datetime': '2018-10-09 23:42:18.445819', 'mgs': 0, 'volt': 0.8643, 'depth': 1.004, 'time': 13, 'pitch': 2.47, 'roll': 3.85, 'pres': 177}
{'lipoC2': 7.3, 'lipoC3S1': 3.79, 'temp': 30.06, 'lipoC3S3': 11.54, 'lipoC3S2': 7.65, 'rot1': 56, 'rot0': 55, 'rot3': 38, 'rot2': 26, 'state': 'normal', 'yaw': 3.14, 'datetime': '2018-10-09 23:42:18.549546', 'mgs': 0, 'volt': 0.8643, 'depth': 1.004, 'time': 13, 'pitch': 2.58, 'roll': 3.65, 'pres': 177}
{'lipoC2': 7.28, 'lipoC3S1': 3.82, 'temp': 30.06, 'lipoC3S3': 11.52, 'lipoC3S2': 7.64, 'rot1': 58, 'rot0': 56, 'rot3': 38, 'rot2': 26, 'state': 'normal', 'yaw': 3.09, 'datetime': '2018-10-09 23:42:18.653643', 'mgs': 0, 'volt': 0.8887, 'depth': 1.385, 'time': 13, 'pitch': 2.96, 'roll': 3.27, 'pres': 182}
{'lipoC2': 7.29, 'lipoC3S1': 3.7, 'temp': 30.06, 'lipoC3S3': 11.52, 'lipoC3S2': 7.58, 'rot1': 59, 'rot0': 58, 'rot3': 38, 'rot2': 26, 'state': 'normal', 'yaw': 3.13, 'datetime': '2018-10-09 23:42:18.757251', 'mgs': 0, 'volt': 0.8691, 'depth': 1.08, 'time': 13, 'pitch': 3.48, 'roll': 2.79, 'pres': 178}
{'lipoC2': 7.28, 'lipoC3S1': 3.82, 'temp': 30.06, 'lipoC3S3': 11.44, 'lipoC3S2': 7.63, 'rot1': 60, 'rot0': 59, 'rot3': 39, 'rot2': 26, 'state': 'normal', 'yaw': 3.16, 'datetime': '2018-10-09 23:42:18.860938', 'mgs': 0, 'volt': 0.8691, 'depth': 1.08, 'time': 13, 'pitch': 3.98, 'roll': 2.44, 'pres': 178}
{'lipoC2': 7.3, 'lipoC3S1': 3.73, 'temp': 30.06, 'lipoC3S3': 11.52, 'lipoC3S2': 7.64, 'rot1': 61, 'rot0': 60, 'rot3': 39, 'rot2': 27, 'state': 'normal', 'yaw': 3.08, 'datetime': '2018-10-09 23:42:18.964673', 'mgs': 0, 'volt': 0.8545, 'depth': 0.851, 'time': 13, 'pitch': 4.58, 'roll': 2.27, 'pres': 175}
{'lipoC2': 7.29, 'lipoC3S1': 3.82, 'temp': 30.06, 'lipoC3S3': 11.4, 'lipoC3S2': 7.63, 'rot1': 62, 'rot0': 61, 'rot3': 39, 'rot2': 27, 'state': 'normal', 'yaw': 2.86, 'datetime': '2018-10-09 23:42:19.068358', 'mgs': 0, 'volt': 0.8691, 'depth': 1.08, 'time': 13, 'pitch': 5.21, 'roll': 2.33, 'pres': 178}
{'lipoC2': 7.29, 'lipoC3S1': 3.81, 'temp': 30.13, 'lipoC3S3': 11.54, 'lipoC3S2': 7.54, 'rot1': 63, 'rot0': 62, 'rot3': 39, 'rot2': 27, 'state': 'normal', 'yaw': 2.65, 'datetime': '2018-10-09 23:42:19.173332', 'mgs': 0, 'volt': 0.8691, 'depth': 1.08, 'time': 13, 'pitch': 5.77, 'roll': 2.46, 'pres': 178}
{'lipoC2': 7.28, 'lipoC3S1': 3.82, 'temp': 30.13, 'lipoC3S3': 11.52, 'lipoC3S2': 7.64, 'rot1': 64, 'rot0': 63, 'rot3': 39, 'rot2': 27, 'state': 'normal', 'yaw': 2.53, 'datetime': '2018-10-09 23:42:19.277038', 'mgs': 0, 'volt': 0.8936, 'depth': 1.462, 'time': 13, 'pitch': 6.18, 'roll': 2.65, 'pres': 183}
{'lipoC2': 7.27, 'lipoC3S1': 3.81, 'temp': 30.06, 'lipoC3S3': 11.43, 'lipoC3S2': 7.63, 'rot1': 65, 'rot0': 64, 'rot3': 40, 'rot2': 27, 'state': 'normal', 'yaw': 2.55, 'datetime': '2018-10-09 23:42:19.381307', 'mgs': 0, 'volt': 0.8936, 'depth': 1.462, 'time': 14, 'pitch': 6.48, 'roll': 2.75, 'pres': 183}
{'lipoC2': 7.29, 'lipoC3S1': 3.78, 'temp': 30.06, 'lipoC3S3': 11.52, 'lipoC3S2': 7.64, 'rot1': 66, 'rot0': 65, 'rot3': 40, 'rot2': 28, 'state': 'normal', 'yaw': 2.72, 'datetime': '2018-10-09 23:42:19.485777', 'mgs': 0, 'volt': 0.8984, 'depth': 1.538, 'time': 14, 'pitch': 6.84, 'roll': 2.8, 'pres': 184}
{'lipoC2': 7.29, 'lipoC3S1': 3.81, 'temp': 30.06, 'lipoC3S3': 11.38, 'lipoC3S2': 7.58, 'rot1': 68, 'rot0': 67, 'rot3': 41, 'rot2': 28, 'state': 'normal', 'yaw': 2.95, 'datetime': '2018-10-09 23:42:19.589501', 'mgs': 0, 'volt': 0.874, 'depth': 1.157, 'time': 14, 'pitch': 7.28, 'roll': 2.64, 'pres': 179}
{'lipoC2': 7.29, 'lipoC3S1': 3.81, 'temp': 30.06, 'lipoC3S3': 11.52, 'lipoC3S2': 7.64, 'rot1': 69, 'rot0': 68, 'rot3': 41, 'rot2': 29, 'state': 'normal', 'yaw': 3.01, 'datetime': '2018-10-09 23:42:19.693244', 'mgs': 0, 'volt': 0.9424, 'depth': 2.225, 'time': 14, 'pitch': 7.59, 'roll': 2.22, 'pres': 193}
{'lipoC2': 7.29, 'lipoC3S1': 3.82, 'temp': 30.06, 'lipoC3S3': 11.47, 'lipoC3S2': 7.52, 'rot1': 70, 'rot0': 69, 'rot3': 41, 'rot2': 29, 'state': 'normal', 'yaw': 2.86, 'datetime': '2018-10-09 23:42:19.796947', 'mgs': 0, 'volt': 0.874, 'depth': 1.157, 'time': 14, 'pitch': 7.51, 'roll': 1.6, 'pres': 179}
{'lipoC2': 7.29, 'lipoC3S1': 3.82, 'temp': 30.13, 'lipoC3S3': 11.52, 'lipoC3S2': 7.64, 'rot1': 71, 'rot0': 70, 'rot3': 41, 'rot2': 29, 'state': 'normal', 'yaw': 2.57, 'datetime': '2018-10-09 23:42:19.900672', 'mgs': 0, 'volt': 0.9326, 'depth': 2.072, 'time': 14, 'pitch': 7.02, 'roll': 1.18, 'pres': 191}
{'lipoC2': 7.29, 'lipoC3S1': 3.77, 'temp': 30.13, 'lipoC3S3': 11.52, 'lipoC3S2': 7.51, 'rot1': 72, 'rot0': 71, 'rot3': 41, 'rot2': 29, 'state': 'normal', 'yaw': 2.23, 'datetime': '2018-10-09 23:42:20.004406', 'mgs': 0, 'volt': 0.874, 'depth': 1.157, 'time': 14, 'pitch': 6.38, 'roll': 1.09, 'pres': 179}
{'lipoC2': 7.27, 'lipoC3S1': 3.81, 'temp': 30.13, 'lipoC3S3': 11.44, 'lipoC3S2': 7.63, 'rot1': 73, 'rot0': 72, 'rot3': 42, 'rot2': 30, 'state': 'normal', 'yaw': 1.99, 'datetime': '2018-10-09 23:42:20.108042', 'mgs': 0, 'volt': 0.9033, 'depth': 1.614, 'time': 14, 'pitch': 6.12, 'roll': 1.4, 'pres': 185}
{'lipoC2': 7.29, 'lipoC3S1': 3.72, 'temp': 30.13, 'lipoC3S3': 11.52, 'lipoC3S2': 7.62, 'rot1': 74, 'rot0': 73, 'rot3': 43, 'rot2': 30, 'state': 'normal', 'yaw': 1.98, 'datetime': '2018-10-09 23:42:20.211759', 'mgs': 0, 'volt': 0.8691, 'depth': 1.08, 'time': 14, 'pitch': 6.61, 'roll': 1.84, 'pres': 178}
{'lipoC2': 7.29, 'lipoC3S1': 3.82, 'temp': 30.06, 'lipoC3S3': 11.52, 'lipoC3S2': 7.64, 'rot1': 75, 'rot0': 74, 'rot3': 43, 'rot2': 30, 'state': 'normal', 'yaw': 2.18, 'datetime': '2018-10-09 23:42:20.316694', 'mgs': 0, 'volt': 0.9229, 'depth': 1.92, 'time': 15, 'pitch': 7.73, 'roll': 2.28, 'pres': 189}
{'lipoC2': 7.3, 'lipoC3S1': 3.81, 'temp': 30.06, 'lipoC3S3': 11.54, 'lipoC3S2': 7.54, 'rot1': 76, 'rot0': 76, 'rot3': 43, 'rot2': 30, 'state': 'normal', 'yaw': 2.47, 'datetime': '2018-10-09 23:42:20.420375', 'mgs': 0, 'volt': 0.874, 'depth': 1.157, 'time': 15, 'pitch': 9.1, 'roll': 2.46, 'pres': 179}
{'lipoC2': 7.29, 'lipoC3S1': 3.76, 'temp': 30.06, 'lipoC3S3': 11.54, 'lipoC3S2': 7.64, 'rot1': 77, 'rot0': 77, 'rot3': 43, 'rot2': 30, 'state': 'normal', 'yaw': 2.65, 'datetime': '2018-10-09 23:42:20.525367', 'mgs': 0, 'volt': 0.874, 'depth': 1.157, 'time': 15, 'pitch': 9.93, 'roll': 2.38, 'pres': 179}
{'lipoC2': 7.29, 'lipoC3S1': 3.82, 'temp': 30.13, 'lipoC3S3': 11.38, 'lipoC3S2': 7.63, 'rot1': 78, 'rot0': 78, 'rot3': 43, 'rot2': 30, 'state': 'normal', 'yaw': 2.66, 'datetime': '2018-10-09 23:42:20.629071', 'mgs': 0, 'volt': 0.8691, 'depth': 1.08, 'time': 15, 'pitch': 9.89, 'roll': 2.2, 'pres': 178}
{'lipoC2': 7.3, 'lipoC3S1': 3.79, 'temp': 30.13, 'lipoC3S3': 11.52, 'lipoC3S2': 7.64, 'rot1': 79, 'rot0': 79, 'rot3': 43, 'rot2': 30, 'state': 'normal', 'yaw': 2.47, 'datetime': '2018-10-09 23:42:20.732799', 'mgs': 0, 'volt': 0.8496, 'depth': 0.775, 'time': 15, 'pitch': 9.03, 'roll': 2.13, 'pres': 174}
{'lipoC2': 7.29, 'lipoC3S1': 3.77, 'temp': 30.13, 'lipoC3S3': 11.52, 'lipoC3S2': 7.64, 'rot1': 81, 'rot0': 80, 'rot3': 43, 'rot2': 30, 'state': 'normal', 'yaw': 2.06, 'datetime': '2018-10-09 23:42:20.838042', 'mgs': 0, 'volt': 0.8691, 'depth': 1.08, 'time': 15, 'pitch': 7.79, 'roll': 2.28, 'pres': 178}
{'lipoC2': 7.29, 'lipoC3S1': 3.82, 'temp': 30.13, 'lipoC3S3': 11.4, 'lipoC3S2': 7.63, 'rot1': 82, 'rot0': 81, 'rot3': 43, 'rot2': 30, 'state': 'normal', 'yaw': 1.43, 'datetime': '2018-10-09 23:42:20.941773', 'mgs': 0, 'volt': 0.8643, 'depth': 1.004, 'time': 15, 'pitch': 6.52, 'roll': 2.7, 'pres': 177}
{'lipoC2': 7.29, 'lipoC3S1': 3.82, 'temp': 30.19, 'lipoC3S3': 11.52, 'lipoC3S2': 7.64, 'rot1': 83, 'rot0': 82, 'rot3': 43, 'rot2': 30, 'state': 'normal', 'yaw': 0.86, 'datetime': '2018-10-09 23:42:21.045442', 'mgs': 0, 'volt': 0.9277, 'depth': 1.996, 'time': 15, 'pitch': 5.67, 'roll': 3.19, 'pres': 190}
{'lipoC2': 7.29, 'lipoC3S1': 3.82, 'temp': 30.19, 'lipoC3S3': 11.39, 'lipoC3S2': 7.63, 'rot1': 84, 'rot0': 83, 'rot3': 43, 'rot2': 30, 'state': 'normal', 'yaw': 0.43, 'datetime': '2018-10-09 23:42:21.149328', 'mgs': 0, 'volt': 0.8691, 'depth': 1.08, 'time': 15, 'pitch': 4.9, 'roll': 3.47, 'pres': 178}
{'lipoC2': 7.29, 'lipoC3S1': 3.79, 'temp': 30.19, 'lipoC3S3': 11.54, 'lipoC3S2': 7.64, 'rot1': 85, 'rot0': 84, 'rot3': 43, 'rot2': 30, 'state': 'normal', 'yaw': 0.28, 'datetime': '2018-10-09 23:42:21.253033', 'mgs': 0, 'volt': 0.874, 'depth': 1.157, 'time': 15, 'pitch': 4.35, 'roll': 3.23, 'pres': 179}
{'lipoC2': 7.29, 'lipoC3S1': 3.82, 'temp': 30.13, 'lipoC3S3': 11.44, 'lipoC3S2': 7.62, 'rot1': 86, 'rot0': 85, 'rot3': 43, 'rot2': 30, 'state': 'normal', 'yaw': 0.35, 'datetime': '2018-10-09 23:42:21.358402', 'mgs': 0, 'volt': 0.8691, 'depth': 1.08, 'time': 16, 'pitch': 4.23, 'roll': 2.64, 'pres': 178}
{'lipoC2': 7.29, 'lipoC3S1': 3.82, 'temp': 30.13, 'lipoC3S3': 11.52, 'lipoC3S2': 7.64, 'rot1': 87, 'rot0': 87, 'rot3': 43, 'rot2': 30, 'state': 'normal', 'yaw': 0.58, 'datetime': '2018-10-09 23:42:21.460434', 'mgs': 0, 'volt': 0.9277, 'depth': 1.996, 'time': 16, 'pitch': 4.71, 'roll': 2.0, 'pres': 190}
{'lipoC2': 7.29, 'lipoC3S1': 3.77, 'temp': 30.19, 'lipoC3S3': 11.48, 'lipoC3S2': 7.54, 'rot1': 88, 'rot0': 88, 'rot3': 43, 'rot2': 31, 'state': 'normal', 'yaw': 0.78, 'datetime': '2018-10-09 23:42:21.564127', 'mgs': 0, 'volt': 0.8643, 'depth': 1.004, 'time': 16, 'pitch': 5.42, 'roll': 1.63, 'pres': 177}
{'lipoC2': 7.3, 'lipoC3S1': 3.82, 'temp': 30.19, 'lipoC3S3': 11.5, 'lipoC3S2': 7.63, 'rot1': 89, 'rot0': 89, 'rot3': 44, 'rot2': 31, 'state': 'normal', 'yaw': 0.84, 'datetime': '2018-10-09 23:42:21.667849', 'mgs': 0, 'volt': 0.9082, 'depth': 1.691, 'time': 16, 'pitch': 6.17, 'roll': 1.53, 'pres': 186}
{'lipoC2': 7.3, 'lipoC3S1': 3.78, 'temp': 30.13, 'lipoC3S3': 11.52, 'lipoC3S2': 7.54, 'rot1': 90, 'rot0': 90, 'rot3': 44, 'rot2': 32, 'state': 'normal', 'yaw': 0.68, 'datetime': '2018-10-09 23:42:21.771485', 'mgs': 0, 'volt': 0.8643, 'depth': 1.004, 'time': 16, 'pitch': 6.5, 'roll': 1.95, 'pres': 177}
{'lipoC2': 7.28, 'lipoC3S1': 3.82, 'temp': 30.13, 'lipoC3S3': 11.51, 'lipoC3S2': 7.64, 'rot1': 91, 'rot0': 91, 'rot3': 45, 'rot2': 32, 'state': 'normal', 'yaw': 0.31, 'datetime': '2018-10-09 23:42:21.875131', 'mgs': 0, 'volt': 0.8643, 'depth': 1.004, 'time': 16, 'pitch': 6.17, 'roll': 2.51, 'pres': 177}
{'lipoC2': 7.3, 'lipoC3S1': 3.82, 'temp': 30.13, 'lipoC3S3': 11.44, 'lipoC3S2': 7.62, 'rot1': 92, 'rot0': 92, 'rot3': 45, 'rot2': 32, 'state': 'normal', 'yaw': -0.21, 'datetime': '2018-10-09 23:42:21.980099', 'mgs': 0, 'volt': 0.8643, 'depth': 1.004, 'time': 16, 'pitch': 5.18, 'roll': 2.98, 'pres': 177}
{'lipoC2': 7.29, 'lipoC3S1': 3.82, 'temp': 30.13, 'lipoC3S3': 11.52, 'lipoC3S2': 7.64, 'rot1': 93, 'rot0': 93, 'rot3': 45, 'rot2': 32, 'state': 'normal', 'yaw': -0.82, 'datetime': '2018-10-09 23:42:22.083832', 'mgs': 0, 'volt': 0.918, 'depth': 1.843, 'time': 16, 'pitch': 3.71, 'roll': 3.33, 'pres': 188}
{'lipoC2': 7.29, 'lipoC3S1': 3.81, 'temp': 30.13, 'lipoC3S3': 11.39, 'lipoC3S2': 7.57, 'rot1': 95, 'rot0': 95, 'rot3': 45, 'rot2': 32, 'state': 'normal', 'yaw': -1.28, 'datetime': '2018-10-09 23:42:22.188690', 'mgs': 0, 'volt': 0.8643, 'depth': 1.004, 'time': 16, 'pitch': 2.79, 'roll': 3.51, 'pres': 177}
{'lipoC2': 7.29, 'lipoC3S1': 3.82, 'temp': 30.13, 'lipoC3S3': 11.51, 'lipoC3S2': 7.63, 'rot1': 96, 'rot0': 96, 'rot3': 46, 'rot2': 33, 'state': 'normal', 'yaw': -1.6, 'datetime': '2018-10-09 23:42:22.292328', 'mgs': 0, 'volt': 0.9424, 'depth': 2.225, 'time': 16, 'pitch': 2.83, 'roll': 3.66, 'pres': 193}
{'lipoC2': 7.29, 'lipoC3S1': 3.78, 'temp': 30.13, 'lipoC3S3': 11.48, 'lipoC3S2': 7.47, 'rot1': 97, 'rot0': 97, 'rot3': 46, 'rot2': 33, 'state': 'normal', 'yaw': -1.65, 'datetime': '2018-10-09 23:42:22.396029', 'mgs': 0, 'volt': 0.8691, 'depth': 1.08, 'time': 17, 'pitch': 3.92, 'roll': 3.68, 'pres': 178}
{'lipoC2': 7.29, 'lipoC3S1': 3.81, 'temp': 30.13, 'lipoC3S3': 11.54, 'lipoC3S2': 7.56, 'rot1': 98, 'rot0': 98, 'rot3': 47, 'rot2': 34, 'state': 'normal', 'yaw': -1.52, 'datetime': '2018-10-09 23:42:22.500169', 'mgs': 0, 'volt': 0.8643, 'depth': 1.004, 'time': 17, 'pitch': 5.55, 'roll': 3.58, 'pres': 177}
{'lipoC2': 7.28, 'lipoC3S1': 3.82, 'temp': 30.13, 'lipoC3S3': 11.51, 'lipoC3S2': 7.64, 'rot1': 99, 'rot0': 99, 'rot3': 47, 'rot2': 34, 'state': 'normal', 'yaw': -1.37, 'datetime': '2018-10-09 23:42:22.603878', 'mgs': 0, 'volt': 0.8691, 'depth': 1.08, 'time': 17, 'pitch': 6.96, 'roll': 3.3, 'pres': 178}
{'lipoC2': 7.29, 'lipoC3S1': 3.74, 'temp': 30.13, 'lipoC3S3': 11.52, 'lipoC3S2': 7.62, 'rot1': 100, 'rot0': 100, 'rot3': 47, 'rot2': 34, 'state': 'normal', 'yaw': -1.35, 'datetime': '2018-10-09 23:42:22.707721', 'mgs': 0, 'volt': 0.8691, 'depth': 1.08, 'time': 17, 'pitch': 7.31, 'roll': 3.02, 'pres': 178}
{'lipoC2': 7.28, 'lipoC3S1': 3.82, 'temp': 30.13, 'lipoC3S3': 11.52, 'lipoC3S2': 7.64, 'rot1': 101, 'rot0': 101, 'rot3': 47, 'rot2': 34, 'state': 'normal', 'yaw': -1.53, 'datetime': '2018-10-09 23:42:22.811604', 'mgs': 0, 'volt': 0.8984, 'depth': 1.538, 'time': 17, 'pitch': 6.66, 'roll': 2.73, 'pres': 184}
{'lipoC2': 7.3, 'lipoC3S1': 3.81, 'temp': 30.13, 'lipoC3S3': 11.44, 'lipoC3S2': 7.63, 'rot1': 103, 'rot0': 102, 'rot3': 47, 'rot2': 34, 'state': 'normal', 'yaw': -2.0, 'datetime': '2018-10-09 23:42:22.915547', 'mgs': 0, 'volt': 0.8643, 'depth': 1.004, 'time': 17, 'pitch': 5.24, 'roll': 2.48, 'pres': 177}
{'lipoC2': 7.29, 'lipoC3S1': 3.76, 'temp': 30.13, 'lipoC3S3': 11.52, 'lipoC3S2': 7.64, 'rot1': 104, 'rot0': 104, 'rot3': 47, 'rot2': 34, 'state': 'normal', 'yaw': -2.65, 'datetime': '2018-10-09 23:42:23.019455', 'mgs': 0, 'volt': 0.8691, 'depth': 1.08, 'time': 17, 'pitch': 3.95, 'roll': 2.46, 'pres': 178}
{'lipoC2': 7.29, 'lipoC3S1': 3.81, 'temp': 30.13, 'lipoC3S3': 11.54, 'lipoC3S2': 7.55, 'rot1': 105, 'rot0': 105, 'rot3': 47, 'rot2': 34, 'state': 'normal', 'yaw': -3.44, 'datetime': '2018-10-09 23:42:23.128330', 'mgs': 0, 'volt': 0.8643, 'depth': 1.004, 'time': 17, 'pitch': 3.16, 'roll': 2.7, 'pres': 177}
{'lipoC2': 7.29, 'lipoC3S1': 3.8, 'temp': 30.13, 'lipoC3S3': 11.52, 'lipoC3S2': 7.64, 'rot1': 106, 'rot0': 106, 'rot3': 47, 'rot2': 34, 'state': 'normal', 'yaw': -4.23, 'datetime': '2018-10-09 23:42:23.227831', 'mgs': 0, 'volt': 0.9375, 'depth': 2.148, 'time': 17, 'pitch': 3.05, 'roll': 3.06, 'pres': 192}
{'lipoC2': 7.29, 'lipoC3S1': 3.81, 'temp': 30.13, 'lipoC3S3': 11.52, 'lipoC3S2': 7.64, 'rot1': 107, 'rot0': 107, 'rot3': 47, 'rot2': 34, 'state': 'normal', 'yaw': -4.72, 'datetime': '2018-10-09 23:42:23.333021', 'mgs': 0, 'volt': 0.9424, 'depth': 2.225, 'time': 18, 'pitch': 3.36, 'roll': 3.27, 'pres': 193}
{'lipoC2': 7.29, 'lipoC3S1': 3.81, 'temp': 30.13, 'lipoC3S3': 11.29, 'lipoC3S2': 7.57, 'rot1': 108, 'rot0': 108, 'rot3': 47, 'rot2': 34, 'state': 'normal', 'yaw': -4.95, 'datetime': '2018-10-09 23:42:23.436952', 'mgs': 0, 'volt': 0.8691, 'depth': 1.08, 'time': 18, 'pitch': 3.89, 'roll': 3.22, 'pres': 178}
{'lipoC2': 7.29, 'lipoC3S1': 3.78, 'temp': 30.06, 'lipoC3S3': 11.55, 'lipoC3S2': 7.52, 'rot1': 109, 'rot0': 109, 'rot3': 47, 'rot2': 34, 'state': 'normal', 'yaw': -5.04, 'datetime': '2018-10-09 23:42:23.541856', 'mgs': 0, 'volt': 0.8691, 'depth': 1.08, 'time': 18, 'pitch': 4.51, 'roll': 2.88, 'pres': 178}
{'lipoC2': 7.29, 'lipoC3S1': 3.79, 'temp': 30.06, 'lipoC3S3': 11.51, 'lipoC3S2': 7.63, 'rot1': 110, 'rot0': 110, 'rot3': 48, 'rot2': 35, 'state': 'normal', 'yaw': -5.12, 'datetime': '2018-10-09 23:42:23.645736', 'mgs': 0, 'volt': 0.9326, 'depth': 2.072, 'time': 18, 'pitch': 5.27, 'roll': 2.39, 'pres': 191}
{'lipoC2': 7.28, 'lipoC3S1': 3.81, 'temp': 30.13, 'lipoC3S3': 11.44, 'lipoC3S2': 7.62, 'rot1': 111, 'rot0': 111, 'rot3': 49, 'rot2': 35, 'state': 'normal', 'yaw': -5.14, 'datetime': '2018-10-09 23:42:23.749650', 'mgs': 0, 'volt': 0.8691, 'depth': 1.08, 'time': 18, 'pitch': 5.91, 'roll': 2.14, 'pres': 178}
{'lipoC2': 7.29, 'lipoC3S1': 3.78, 'temp': 30.13, 'lipoC3S3': 11.52, 'lipoC3S2': 7.54, 'rot1': 112, 'rot0': 112, 'rot3': 49, 'rot2': 36, 'state': 'normal', 'yaw': -5.1, 'datetime': '2018-10-09 23:42:23.853623', 'mgs': 0, 'volt': 0.8691, 'depth': 1.08, 'time': 18, 'pitch': 6.36, 'roll': 2.29, 'pres': 178}
{'lipoC2': 7.29, 'lipoC3S1': 3.8, 'temp': 30.13, 'lipoC3S3': 11.51, 'lipoC3S2': 7.64, 'rot1': 113, 'rot0': 113, 'rot3': 50, 'rot2': 37, 'state': 'normal', 'yaw': -4.94, 'datetime': '2018-10-09 23:42:23.957470', 'mgs': 0, 'volt': 0.9229, 'depth': 1.92, 'time': 18, 'pitch': 6.41, 'roll': 2.91, 'pres': 189}
{'lipoC2': 7.28, 'lipoC3S1': 3.81, 'temp': 30.13, 'lipoC3S3': 11.46, 'lipoC3S2': 7.63, 'rot1': 115, 'rot0': 114, 'rot3': 51, 'rot2': 37, 'state': 'normal', 'yaw': -4.73, 'datetime': '2018-10-09 23:42:24.061369', 'mgs': 0, 'volt': 0.8691, 'depth': 1.08, 'time': 18, 'pitch': 6.15, 'roll': 3.53, 'pres': 178}
{'lipoC2': 7.29, 'lipoC3S1': 3.81, 'temp': 30.13, 'lipoC3S3': 11.4, 'lipoC3S2': 7.58, 'rot1': 116, 'rot0': 115, 'rot3': 51, 'rot2': 38, 'state': 'normal', 'yaw': -4.45, 'datetime': '2018-10-09 23:42:24.165427', 'mgs': 0, 'volt': 0.8691, 'depth': 1.08, 'time': 18, 'pitch': 5.82, 'roll': 3.84, 'pres': 178}
{'lipoC2': 7.29, 'lipoC3S1': 3.74, 'temp': 30.19, 'lipoC3S3': 11.52, 'lipoC3S2': 7.64, 'rot1': 117, 'rot0': 116, 'rot3': 52, 'rot2': 38, 'state': 'normal', 'yaw': -4.07, 'datetime': '2018-10-09 23:42:24.269362', 'mgs': 0, 'volt': 0.8984, 'depth': 1.538, 'time': 18, 'pitch': 5.53, 'roll': 3.66, 'pres': 184}
{'lipoC2': 7.28, 'lipoC3S1': 3.81, 'temp': 30.19, 'lipoC3S3': 11.51, 'lipoC3S2': 7.63, 'rot1': 118, 'rot0': 117, 'rot3': 52, 'rot2': 39, 'state': 'normal', 'yaw': -3.66, 'datetime': '2018-10-09 23:42:24.373233', 'mgs': 0, 'volt': 0.8984, 'depth': 1.538, 'time': 19, 'pitch': 5.37, 'roll': 3.23, 'pres': 184}
{'lipoC2': 7.3, 'lipoC3S1': 3.81, 'temp': 30.13, 'lipoC3S3': 11.42, 'lipoC3S2': 7.59, 'rot1': 119, 'rot0': 118, 'rot3': 53, 'rot2': 39, 'state': 'normal', 'yaw': -3.18, 'datetime': '2018-10-09 23:42:24.477200', 'mgs': 0, 'volt': 0.8643, 'depth': 1.004, 'time': 19, 'pitch': 5.38, 'roll': 2.82, 'pres': 177}
{'lipoC2': 7.29, 'lipoC3S1': 3.73, 'temp': 30.13, 'lipoC3S3': 11.51, 'lipoC3S2': 7.64, 'rot1': 120, 'rot0': 119, 'rot3': 54, 'rot2': 40, 'state': 'normal', 'yaw': -2.86, 'datetime': '2018-10-09 23:42:24.581077', 'mgs': 0, 'volt': 0.8984, 'depth': 1.538, 'time': 19, 'pitch': 5.77, 'roll': 2.69, 'pres': 184}
{'lipoC2': 7.29, 'lipoC3S1': 3.72, 'temp': 30.13, 'lipoC3S3': 11.52, 'lipoC3S2': 7.65, 'rot1': 121, 'rot0': 120, 'rot3': 54, 'rot2': 40, 'state': 'normal', 'yaw': -2.64, 'datetime': '2018-10-09 23:42:24.686318', 'mgs': 0, 'volt': 0.8643, 'depth': 1.004, 'time': 19, 'pitch': 6.56, 'roll': 2.79, 'pres': 177}
{'lipoC2': 7.29, 'lipoC3S1': 3.81, 'temp': 30.13, 'lipoC3S3': 11.5, 'lipoC3S2': 7.63, 'rot1': 122, 'rot0': 122, 'rot3': 55, 'rot2': 41, 'state': 'normal', 'yaw': -2.5, 'datetime': '2018-10-09 23:42:24.790206', 'mgs': 0, 'volt': 0.9131, 'depth': 1.767, 'time': 19, 'pitch': 7.81, 'roll': 3.02, 'pres': 187}
{'lipoC2': 7.27, 'lipoC3S1': 3.81, 'temp': 30.13, 'lipoC3S3': 11.5, 'lipoC3S2': 7.63, 'rot1': 123, 'rot0': 123, 'rot3': 55, 'rot2': 41, 'state': 'normal', 'yaw': -2.43, 'datetime': '2018-10-09 23:42:24.895490', 'mgs': 0, 'volt': 0.8984, 'depth': 1.538, 'time': 19, 'pitch': 9.08, 'roll': 3.1, 'pres': 184}
{'lipoC2': 7.29, 'lipoC3S1': 3.81, 'temp': 30.13, 'lipoC3S3': 11.38, 'lipoC3S2': 7.58, 'rot1': 124, 'rot0': 124, 'rot3': 56, 'rot2': 42, 'state': 'normal', 'yaw': -2.38, 'datetime': '2018-10-09 23:42:24.999306', 'mgs': 0, 'volt': 0.8594, 'depth': 0.928, 'time': 19, 'pitch': 10.04, 'roll': 2.81, 'pres': 176}
{'lipoC2': 7.29, 'lipoC3S1': 3.71, 'temp': 30.13, 'lipoC3S3': 11.52, 'lipoC3S2': 7.62, 'rot1': 125, 'rot0': 125, 'rot3': 56, 'rot2': 43, 'state': 'normal', 'yaw': -2.37, 'datetime': '2018-10-09 23:42:25.103197', 'mgs': 0, 'volt': 0.8594, 'depth': 0.928, 'time': 19, 'pitch': 10.17, 'roll': 2.3, 'pres': 176}
{'lipoC2': 7.27, 'lipoC3S1': 3.81, 'temp': 30.19, 'lipoC3S3': 11.5, 'lipoC3S2': 7.63, 'rot1': 126, 'rot0': 126, 'rot3': 57, 'rot2': 43, 'state': 'normal', 'yaw': -2.37, 'datetime': '2018-10-09 23:42:25.207100', 'mgs': 0, 'volt': 0.9082, 'depth': 1.691, 'time': 19, 'pitch': 9.57, 'roll': 1.78, 'pres': 186}
{'lipoC2': 7.3, 'lipoC3S1': 3.81, 'temp': 30.19, 'lipoC3S3': 11.38, 'lipoC3S2': 7.57, 'rot1': 127, 'rot0': 127, 'rot3': 58, 'rot2': 44, 'state': 'normal', 'yaw': -2.46, 'datetime': '2018-10-09 23:42:25.311004', 'mgs': 0, 'volt': 0.8594, 'depth': 0.928, 'time': 19, 'pitch': 8.26, 'roll': 1.44, 'pres': 176}
{'lipoC2': 7.29, 'lipoC3S1': 3.72, 'temp': 30.19, 'lipoC3S3': 11.51, 'lipoC3S2': 7.64, 'rot1': 128, 'rot0': 128, 'rot3': 58, 'rot2': 44, 'state': 'normal', 'yaw': -2.62, 'datetime': '2018-10-09 23:42:25.414977', 'mgs': 0, 'volt': 0.8447, 'depth': 0.699, 'time': 20, 'pitch': 6.93, 'roll': 1.51, 'pres': 173}
{'lipoC2': 7.3, 'lipoC3S1': 3.8, 'temp': 30.19, 'lipoC3S3': 11.51, 'lipoC3S2': 7.63, 'rot1': 130, 'rot0': 129, 'rot3': 59, 'rot2': 45, 'state': 'normal', 'yaw': -2.79, 'datetime': '2018-10-09 23:42:25.519034', 'mgs': 0, 'volt': 0.9619, 'depth': 2.53, 'time': 20, 'pitch': 5.96, 'roll': 1.83, 'pres': 197}
{'lipoC2': 7.28, 'lipoC3S1': 3.81, 'temp': 30.19, 'lipoC3S3': 11.43, 'lipoC3S2': 7.62, 'rot1': 131, 'rot0': 130, 'rot3': 59, 'rot2': 45, 'state': 'normal', 'yaw': -3.0, 'datetime': '2018-10-09 23:42:25.622938', 'mgs': 0, 'volt': 0.8545, 'depth': 0.851, 'time': 20, 'pitch': 5.63, 'roll': 2.18, 'pres': 175}
{'lipoC2': 7.29, 'lipoC3S1': 3.81, 'temp': 30.19, 'lipoC3S3': 11.38, 'lipoC3S2': 7.58, 'rot1': 132, 'rot0': 131, 'rot3': 60, 'rot2': 46, 'state': 'normal', 'yaw': -3.24, 'datetime': '2018-10-09 23:42:25.727100', 'mgs': 0, 'volt': 0.8545, 'depth': 0.851, 'time': 20, 'pitch': 6.01, 'roll': 2.29, 'pres': 175}
{'lipoC2': 7.29, 'lipoC3S1': 3.79, 'temp': 30.19, 'lipoC3S3': 11.51, 'lipoC3S2': 7.56, 'rot1': 133, 'rot0': 132, 'rot3': 61, 'rot2': 46, 'state': 'normal', 'yaw': -3.56, 'datetime': '2018-10-09 23:42:25.831036', 'mgs': 0, 'volt': 0.8545, 'depth': 0.851, 'time': 20, 'pitch': 6.91, 'roll': 2.08, 'pres': 175}
