{'lipoC2': 7.26, 'lipoC3S1': 4.13, 'temp': 27.94, 'lipoC3S3': 12.46, 'lipoC3S2': 8.24, 'rot1': 121, 'rot0': 127, 'rot3': 95, 'rot2': 88, 'state': 'normal', 'yaw': 130.59, 'datetime': '2018-10-03 17:41:50.529200', 'mgs': 0, 'volt': 0.9619, 'depth': 2.53, 'time': 48, 'pitch': -7.52, 'roll': -0.32, 'pres': 197}
{'lipoC2': 7.26, 'lipoC3S1': 4.13, 'temp': 27.88, 'lipoC3S3': 12.46, 'lipoC3S2': 8.24, 'rot1': 121, 'rot0': 127, 'rot3': 95, 'rot2': 88, 'state': 'normal', 'yaw': 130.59, 'datetime': '2018-10-03 17:41:50.551755', 'mgs': 0, 'volt': 0.9619, 'depth': 2.53, 'time': 48, 'pitch': -7.52, 'roll': -0.32, 'pres': 197}
{'lipoC2': 7.26, 'lipoC3S1': 4.13, 'temp': 27.88, 'lipoC3S3': 12.46, 'lipoC3S2': 8.24, 'rot1': 121, 'rot0': 127, 'rot3': 95, 'rot2': 88, 'state': 'normal', 'yaw': 130.59, 'datetime': '2018-10-03 17:41:50.573967', 'mgs': 0, 'volt': 0.9619, 'depth': 2.53, 'time': 48, 'pitch': -7.52, 'roll': -0.32, 'pres': 197}
{'lipoC2': 7.26, 'lipoC3S1': 4.13, 'temp': 27.94, 'lipoC3S3': 12.46, 'lipoC3S2': 8.24, 'rot1': 121, 'rot0': 127, 'rot3': 95, 'rot2': 88, 'state': 'normal', 'yaw': 130.59, 'datetime': '2018-10-03 17:41:50.596304', 'mgs': 0, 'volt': 0.9619, 'depth': 2.53, 'time': 48, 'pitch': -7.52, 'roll': -0.32, 'pres': 197}
{'lipoC2': 7.26, 'lipoC3S1': 4.13, 'temp': 27.94, 'lipoC3S3': 12.46, 'lipoC3S2': 8.24, 'rot1': 121, 'rot0': 127, 'rot3': 95, 'rot2': 88, 'state': 'normal', 'yaw': 130.59, 'datetime': '2018-10-03 17:41:50.618620', 'mgs': 0, 'volt': 0.9619, 'depth': 2.53, 'time': 48, 'pitch': -7.52, 'roll': -0.32, 'pres': 197}
{'lipoC2': 7.26, 'lipoC3S1': 4.13, 'temp': 27.94, 'lipoC3S3': 12.46, 'lipoC3S2': 8.24, 'rot1': 121, 'rot0': 127, 'rot3': 95, 'rot2': 88, 'state': 'normal', 'yaw': 130.59, 'datetime': '2018-10-03 17:41:50.640816', 'mgs': 0, 'volt': 0.9619, 'depth': 2.53, 'time': 49, 'pitch': -7.52, 'roll': -0.32, 'pres': 197}
{'lipoC2': 7.26, 'lipoC3S1': 4.13, 'temp': 27.88, 'lipoC3S3': 12.46, 'lipoC3S2': 8.24, 'rot1': 121, 'rot0': 127, 'rot3': 95, 'rot2': 88, 'state': 'normal', 'yaw': 130.59, 'datetime': '2018-10-03 17:41:50.651841', 'mgs': 0, 'volt': 0.9619, 'depth': 2.53, 'time': 49, 'pitch': -7.52, 'roll': -0.32, 'pres': 197}
{'lipoC2': 7.26, 'lipoC3S1': 4.13, 'temp': 27.88, 'lipoC3S3': 12.46, 'lipoC3S2': 8.24, 'rot1': 121, 'rot0': 127, 'rot3': 95, 'rot2': 88, 'state': 'normal', 'yaw': 130.59, 'datetime': '2018-10-03 17:41:50.661479', 'mgs': 0, 'volt': 0.9619, 'depth': 2.53, 'time': 49, 'pitch': -7.52, 'roll': -0.32, 'pres': 197}
{'lipoC2': 7.26, 'lipoC3S1': 4.13, 'temp': 27.88, 'lipoC3S3': 12.46, 'lipoC3S2': 8.24, 'rot1': 121, 'rot0': 127, 'rot3': 95, 'rot2': 88, 'state': 'normal', 'yaw': 130.59, 'datetime': '2018-10-03 17:41:50.671041', 'mgs': 0, 'volt': 0.9619, 'depth': 2.53, 'time': 49, 'pitch': -7.52, 'roll': -0.32, 'pres': 197}
{'lipoC2': 7.26, 'lipoC3S1': 4.13, 'temp': 27.88, 'lipoC3S3': 12.46, 'lipoC3S2': 8.24, 'rot1': 121, 'rot0': 127, 'rot3': 95, 'rot2': 88, 'state': 'normal', 'yaw': 130.59, 'datetime': '2018-10-03 17:41:50.680631', 'mgs': 0, 'volt': 0.9619, 'depth': 2.53, 'time': 49, 'pitch': -7.52, 'roll': -0.32, 'pres': 197}
{'lipoC2': 7.26, 'lipoC3S1': 4.12, 'temp': 27.88, 'lipoC3S3': 12.45, 'lipoC3S2': 8.24, 'rot1': 0, 'rot0': 0, 'rot3': 0, 'rot2': 0, 'state': 'normal', 'yaw': 0.0, 'datetime': '2018-10-03 17:41:51.037114', 'mgs': 0, 'volt': 0.9619, 'depth': 2.53, 'time': 1, 'pitch': -7.32, 'roll': -0.49, 'pres': 197}
{'lipoC2': 7.26, 'lipoC3S1': 4.12, 'temp': 27.88, 'lipoC3S3': 12.46, 'lipoC3S2': 8.24, 'rot1': 0, 'rot0': 0, 'rot3': 0, 'rot2': 0, 'state': 'normal', 'yaw': -0.0, 'datetime': '2018-10-03 17:41:51.140308', 'mgs': 0, 'volt': 0.957, 'depth': 2.454, 'time': 1, 'pitch': -7.35, 'roll': -0.51, 'pres': 196}
{'lipoC2': 7.26, 'lipoC3S1': 4.12, 'temp': 27.88, 'lipoC3S3': 12.46, 'lipoC3S2': 8.24, 'rot1': 0, 'rot0': 0, 'rot3': 0, 'rot2': 0, 'state': 'normal', 'yaw': 0.01, 'datetime': '2018-10-03 17:41:51.243524', 'mgs': 0, 'volt': 0.9619, 'depth': 2.53, 'time': 1, 'pitch': -7.39, 'roll': -0.53, 'pres': 197}
{'lipoC2': 7.26, 'lipoC3S1': 4.12, 'temp': 27.88, 'lipoC3S3': 12.45, 'lipoC3S2': 8.24, 'rot1': 0, 'rot0': 0, 'rot3': 0, 'rot2': 0, 'state': 'normal', 'yaw': 0.01, 'datetime': '2018-10-03 17:41:51.346735', 'mgs': 0, 'volt': 0.957, 'depth': 2.454, 'time': 1, 'pitch': -7.42, 'roll': -0.55, 'pres': 196}
{'lipoC2': 7.26, 'lipoC3S1': 4.12, 'temp': 27.88, 'lipoC3S3': 12.45, 'lipoC3S2': 8.24, 'rot1': 0, 'rot0': 0, 'rot3': 0, 'rot2': 0, 'state': 'normal', 'yaw': 0.01, 'datetime': '2018-10-03 17:41:51.450721', 'mgs': 0, 'volt': 0.957, 'depth': 2.454, 'time': 1, 'pitch': -7.46, 'roll': -0.57, 'pres': 196}
{'lipoC2': 7.26, 'lipoC3S1': 4.12, 'temp': 27.88, 'lipoC3S3': 12.45, 'lipoC3S2': 8.24, 'rot1': 0, 'rot0': 0, 'rot3': 0, 'rot2': 0, 'state': 'normal', 'yaw': 0.01, 'datetime': '2018-10-03 17:41:51.553926', 'mgs': 0, 'volt': 0.9619, 'depth': 2.53, 'time': 1, 'pitch': -7.49, 'roll': -0.59, 'pres': 197}
{'lipoC2': 7.26, 'lipoC3S1': 4.12, 'temp': 27.88, 'lipoC3S3': 12.45, 'lipoC3S2': 8.24, 'rot1': 0, 'rot0': 0, 'rot3': 0, 'rot2': 0, 'state': 'normal', 'yaw': 0.01, 'datetime': '2018-10-03 17:41:51.663071', 'mgs': 0, 'volt': 0.9619, 'depth': 2.53, 'time': 1, 'pitch': -7.52, 'roll': -0.6, 'pres': 197}
{'lipoC2': 7.26, 'lipoC3S1': 4.12, 'temp': 27.88, 'lipoC3S3': 12.45, 'lipoC3S2': 8.24, 'rot1': 0, 'rot0': 0, 'rot3': 0, 'rot2': 0, 'state': 'normal', 'yaw': 0.01, 'datetime': '2018-10-03 17:41:51.767396', 'mgs': 0, 'volt': 0.957, 'depth': 2.454, 'time': 1, 'pitch': -7.52, 'roll': -0.6, 'pres': 196}
{'lipoC2': 7.26, 'lipoC3S1': 4.12, 'temp': 27.88, 'lipoC3S3': 12.46, 'lipoC3S2': 8.24, 'rot1': 0, 'rot0': 0, 'rot3': 0, 'rot2': 0, 'state': 'normal', 'yaw': 0.01, 'datetime': '2018-10-03 17:41:51.870590', 'mgs': 0, 'volt': 0.957, 'depth': 2.454, 'time': 2, 'pitch': -7.52, 'roll': -0.73, 'pres': 196}
{'lipoC2': 7.26, 'lipoC3S1': 4.12, 'temp': 27.88, 'lipoC3S3': 12.45, 'lipoC3S2': 8.24, 'rot1': 0, 'rot0': 0, 'rot3': 0, 'rot2': 0, 'state': 'normal', 'yaw': 0.01, 'datetime': '2018-10-03 17:41:51.969406', 'mgs': 0, 'volt': 0.9619, 'depth': 2.53, 'time': 2, 'pitch': -7.48, 'roll': -0.76, 'pres': 197}
{'lipoC2': 7.26, 'lipoC3S1': 4.12, 'temp': 27.88, 'lipoC3S3': 12.45, 'lipoC3S2': 8.24, 'rot1': 0, 'rot0': 0, 'rot3': 0, 'rot2': 0, 'state': 'normal', 'yaw': 0.01, 'datetime': '2018-10-03 17:41:52.072609', 'mgs': 0, 'volt': 0.9619, 'depth': 2.53, 'time': 2, 'pitch': -7.38, 'roll': -0.76, 'pres': 197}
{'lipoC2': 7.26, 'lipoC3S1': 4.12, 'temp': 27.88, 'lipoC3S3': 12.46, 'lipoC3S2': 8.24, 'rot1': 0, 'rot0': 0, 'rot3': 0, 'rot2': 0, 'state': 'normal', 'yaw': 0.02, 'datetime': '2018-10-03 17:41:52.175850', 'mgs': 0, 'volt': 0.957, 'depth': 2.454, 'time': 2, 'pitch': -7.32, 'roll': -0.76, 'pres': 196}
{'lipoC2': 7.26, 'lipoC3S1': 4.12, 'temp': 27.88, 'lipoC3S3': 12.45, 'lipoC3S2': 8.24, 'rot1': 0, 'rot0': 0, 'rot3': 0, 'rot2': 0, 'state': 'normal', 'yaw': 0.02, 'datetime': '2018-10-03 17:41:52.280330', 'mgs': 0, 'volt': 0.957, 'depth': 2.454, 'time': 2, 'pitch': -7.32, 'roll': -0.76, 'pres': 196}
{'lipoC2': 7.26, 'lipoC3S1': 4.12, 'temp': 27.88, 'lipoC3S3': 12.45, 'lipoC3S2': 8.24, 'rot1': 0, 'rot0': 0, 'rot3': 0, 'rot2': 0, 'state': 'normal', 'yaw': 0.01, 'datetime': '2018-10-03 17:41:52.383514', 'mgs': 0, 'volt': 0.957, 'depth': 2.454, 'time': 2, 'pitch': -7.32, 'roll': -0.77, 'pres': 196}
{'lipoC2': 7.26, 'lipoC3S1': 4.12, 'temp': 27.88, 'lipoC3S3': 12.45, 'lipoC3S2': 8.24, 'rot1': 0, 'rot0': 0, 'rot3': 0, 'rot2': 0, 'state': 'normal', 'yaw': 0.01, 'datetime': '2018-10-03 17:41:52.486770', 'mgs': 0, 'volt': 0.957, 'depth': 2.454, 'time': 2, 'pitch': -7.32, 'roll': -0.77, 'pres': 196}
{'lipoC2': 7.26, 'lipoC3S1': 4.12, 'temp': 27.88, 'lipoC3S3': 12.46, 'lipoC3S2': 8.24, 'rot1': 0, 'rot0': 0, 'rot3': 0, 'rot2': 0, 'state': 'normal', 'yaw': 0.01, 'datetime': '2018-10-03 17:41:52.591265', 'mgs': 0, 'volt': 0.957, 'depth': 2.454, 'time': 2, 'pitch': -7.32, 'roll': -0.77, 'pres': 196}
{'lipoC2': 7.26, 'lipoC3S1': 4.12, 'temp': 27.94, 'lipoC3S3': 12.45, 'lipoC3S2': 8.24, 'rot1': 0, 'rot0': 0, 'rot3': 0, 'rot2': 0, 'state': 'normal', 'yaw': 0.01, 'datetime': '2018-10-03 17:41:52.694558', 'mgs': 0, 'volt': 0.957, 'depth': 2.454, 'time': 2, 'pitch': -7.32, 'roll': -0.77, 'pres': 196}
{'lipoC2': 7.26, 'lipoC3S1': 4.12, 'temp': 27.94, 'lipoC3S3': 12.45, 'lipoC3S2': 8.24, 'rot1': 0, 'rot0': 0, 'rot3': 0, 'rot2': 0, 'state': 'normal', 'yaw': 0.01, 'datetime': '2018-10-03 17:41:52.797795', 'mgs': 0, 'volt': 0.957, 'depth': 2.454, 'time': 3, 'pitch': -7.32, 'roll': -0.77, 'pres': 196}
{'lipoC2': 7.26, 'lipoC3S1': 4.12, 'temp': 27.94, 'lipoC3S3': 12.45, 'lipoC3S2': 8.24, 'rot1': 0, 'rot0': 0, 'rot3': 0, 'rot2': 0, 'state': 'normal', 'yaw': 0.02, 'datetime': '2018-10-03 17:41:52.900943', 'mgs': 0, 'volt': 0.9619, 'depth': 2.53, 'time': 3, 'pitch': -7.35, 'roll': -0.79, 'pres': 197}
{'lipoC2': 7.26, 'lipoC3S1': 4.12, 'temp': 27.94, 'lipoC3S3': 12.45, 'lipoC3S2': 8.24, 'rot1': 0, 'rot0': 0, 'rot3': 0, 'rot2': 0, 'state': 'normal', 'yaw': 0.03, 'datetime': '2018-10-03 17:41:53.004796', 'mgs': 0, 'volt': 0.957, 'depth': 2.454, 'time': 3, 'pitch': -7.49, 'roll': -0.84, 'pres': 196}
{'lipoC2': 7.26, 'lipoC3S1': 4.12, 'temp': 27.94, 'lipoC3S3': 12.45, 'lipoC3S2': 8.24, 'rot1': 0, 'rot0': 0, 'rot3': 0, 'rot2': 0, 'state': 'normal', 'yaw': 0.04, 'datetime': '2018-10-03 17:41:53.107997', 'mgs': 0, 'volt': 0.957, 'depth': 2.454, 'time': 3, 'pitch': -7.59, 'roll': -0.84, 'pres': 196}
{'lipoC2': 7.26, 'lipoC3S1': 4.12, 'temp': 27.88, 'lipoC3S3': 12.45, 'lipoC3S2': 8.24, 'rot1': 0, 'rot0': 0, 'rot3': 0, 'rot2': 0, 'state': 'normal', 'yaw': 0.04, 'datetime': '2018-10-03 17:41:53.212515', 'mgs': 0, 'volt': 0.957, 'depth': 2.454, 'time': 3, 'pitch': -7.67, 'roll': -0.84, 'pres': 196}
{'lipoC2': 7.26, 'lipoC3S1': 4.12, 'temp': 27.88, 'lipoC3S3': 12.45, 'lipoC3S2': 8.24, 'rot1': 0, 'rot0': 0, 'rot3': 0, 'rot2': 0, 'state': 'normal', 'yaw': 0.04, 'datetime': '2018-10-03 17:41:53.316023', 'mgs': 0, 'volt': 0.957, 'depth': 2.454, 'time': 3, 'pitch': -7.69, 'roll': -0.84, 'pres': 196}
{'lipoC2': 7.26, 'lipoC3S1': 4.12, 'temp': 27.94, 'lipoC3S3': 12.45, 'lipoC3S2': 8.24, 'rot1': 0, 'rot0': 0, 'rot3': 0, 'rot2': 0, 'state': 'normal', 'yaw': 0.04, 'datetime': '2018-10-03 17:41:53.419218', 'mgs': 0, 'volt': 0.957, 'depth': 2.454, 'time': 3, 'pitch': -7.69, 'roll': -0.84, 'pres': 196}
{'lipoC2': 7.26, 'lipoC3S1': 4.12, 'temp': 27.94, 'lipoC3S3': 12.45, 'lipoC3S2': 8.24, 'rot1': 0, 'rot0': 0, 'rot3': 0, 'rot2': 0, 'state': 'normal', 'yaw': 0.04, 'datetime': '2018-10-03 17:41:53.523718', 'mgs': 0, 'volt': 0.957, 'depth': 2.454, 'time': 3, 'pitch': -7.68, 'roll': -0.84, 'pres': 196}
{'lipoC2': 7.26, 'lipoC3S1': 4.12, 'temp': 27.94, 'lipoC3S3': 12.45, 'lipoC3S2': 8.24, 'rot1': 0, 'rot0': 0, 'rot3': 0, 'rot2': 0, 'state': 'normal', 'yaw': 0.03, 'datetime': '2018-10-03 17:41:53.626965', 'mgs': 0, 'volt': 0.957, 'depth': 2.454, 'time': 3, 'pitch': -7.57, 'roll': -0.78, 'pres': 196}
{'lipoC2': 7.26, 'lipoC3S1': 4.12, 'temp': 27.94, 'lipoC3S3': 12.45, 'lipoC3S2': 8.24, 'rot1': 0, 'rot0': 0, 'rot3': 0, 'rot2': 0, 'state': 'normal', 'yaw': 0.03, 'datetime': '2018-10-03 17:41:53.730178', 'mgs': 0, 'volt': 0.957, 'depth': 2.454, 'time': 3, 'pitch': -7.48, 'roll': -0.78, 'pres': 196}
{'lipoC2': 7.26, 'lipoC3S1': 4.12, 'temp': 27.94, 'lipoC3S3': 12.46, 'lipoC3S2': 8.24, 'rot1': 0, 'rot0': 0, 'rot3': 0, 'rot2': 0, 'state': 'normal', 'yaw': 0.04, 'datetime': '2018-10-03 17:41:53.834683', 'mgs': 0, 'volt': 0.957, 'depth': 2.454, 'time': 4, 'pitch': -7.41, 'roll': -0.78, 'pres': 196}
{'lipoC2': 7.26, 'lipoC3S1': 4.12, 'temp': 27.88, 'lipoC3S3': 12.46, 'lipoC3S2': 8.24, 'rot1': 0, 'rot0': 0, 'rot3': 0, 'rot2': 0, 'state': 'normal', 'yaw': 0.03, 'datetime': '2018-10-03 17:41:53.937969', 'mgs': 0, 'volt': 0.957, 'depth': 2.454, 'time': 4, 'pitch': -7.33, 'roll': -0.78, 'pres': 196}
{'lipoC2': 7.26, 'lipoC3S1': 4.13, 'temp': 27.88, 'lipoC3S3': 12.45, 'lipoC3S2': 8.24, 'rot1': 0, 'rot0': 0, 'rot3': 0, 'rot2': 0, 'state': 'normal', 'yaw': 0.03, 'datetime': '2018-10-03 17:41:54.041161', 'mgs': 0, 'volt': 0.957, 'depth': 2.454, 'time': 4, 'pitch': -7.33, 'roll': -0.78, 'pres': 196}
{'lipoC2': 7.26, 'lipoC3S1': 4.12, 'temp': 27.94, 'lipoC3S3': 12.46, 'lipoC3S2': 8.24, 'rot1': 0, 'rot0': 0, 'rot3': 0, 'rot2': 0, 'state': 'normal', 'yaw': 0.06, 'datetime': '2018-10-03 17:41:54.145660', 'mgs': 0, 'volt': 0.957, 'depth': 2.454, 'time': 4, 'pitch': -7.34, 'roll': -0.78, 'pres': 196}
{'lipoC2': 7.26, 'lipoC3S1': 4.12, 'temp': 27.94, 'lipoC3S3': 12.45, 'lipoC3S2': 8.24, 'rot1': 0, 'rot0': 0, 'rot3': 0, 'rot2': 0, 'state': 'normal', 'yaw': 0.09, 'datetime': '2018-10-03 17:41:54.249095', 'mgs': 0, 'volt': 0.957, 'depth': 2.454, 'time': 4, 'pitch': -7.3, 'roll': -0.79, 'pres': 196}
{'lipoC2': 7.26, 'lipoC3S1': 4.12, 'temp': 27.94, 'lipoC3S3': 12.45, 'lipoC3S2': 8.24, 'rot1': 0, 'rot0': 0, 'rot3': 0, 'rot2': 0, 'state': 'normal', 'yaw': 0.09, 'datetime': '2018-10-03 17:41:54.352272', 'mgs': 0, 'volt': 0.9619, 'depth': 2.53, 'time': 4, 'pitch': -7.3, 'roll': -0.79, 'pres': 197}
{'lipoC2': 7.26, 'lipoC3S1': 4.12, 'temp': 27.88, 'lipoC3S3': 12.46, 'lipoC3S2': 8.24, 'rot1': 0, 'rot0': 0, 'rot3': 0, 'rot2': 0, 'state': 'normal', 'yaw': 0.09, 'datetime': '2018-10-03 17:41:54.455452', 'mgs': 0, 'volt': 0.957, 'depth': 2.454, 'time': 4, 'pitch': -7.3, 'roll': -0.79, 'pres': 196}
{'lipoC2': 7.26, 'lipoC3S1': 4.12, 'temp': 27.88, 'lipoC3S3': 12.45, 'lipoC3S2': 8.24, 'rot1': 0, 'rot0': 0, 'rot3': 0, 'rot2': 0, 'state': 'normal', 'yaw': 0.09, 'datetime': '2018-10-03 17:41:54.559312', 'mgs': 0, 'volt': 0.957, 'depth': 2.454, 'time': 4, 'pitch': -7.3, 'roll': -0.79, 'pres': 196}
{'lipoC2': 7.26, 'lipoC3S1': 4.12, 'temp': 27.88, 'lipoC3S3': 12.45, 'lipoC3S2': 8.24, 'rot1': 0, 'rot0': 0, 'rot3': 0, 'rot2': 0, 'state': 'normal', 'yaw': 0.09, 'datetime': '2018-10-03 17:41:54.662503', 'mgs': 0, 'volt': 0.957, 'depth': 2.454, 'time': 4, 'pitch': -7.3, 'roll': -0.79, 'pres': 196}
{'lipoC2': 7.26, 'lipoC3S1': 4.12, 'temp': 27.88, 'lipoC3S3': 12.45, 'lipoC3S2': 8.24, 'rot1': 0, 'rot0': 0, 'rot3': 0, 'rot2': 0, 'state': 'normal', 'yaw': 0.09, 'datetime': '2018-10-03 17:41:54.766466', 'mgs': 0, 'volt': 0.957, 'depth': 2.454, 'time': 4, 'pitch': -7.35, 'roll': -0.78, 'pres': 196}
{'lipoC2': 7.26, 'lipoC3S1': 4.12, 'temp': 28.0, 'lipoC3S3': 12.45, 'lipoC3S2': 8.24, 'rot1': 0, 'rot0': 0, 'rot3': 0, 'rot2': 0, 'state': 'normal', 'yaw': 0.09, 'datetime': '2018-10-03 17:41:54.870303', 'mgs': 0, 'volt': 0.9619, 'depth': 2.53, 'time': 5, 'pitch': -7.35, 'roll': -0.79, 'pres': 197}
{'lipoC2': 7.26, 'lipoC3S1': 4.13, 'temp': 28.0, 'lipoC3S3': 12.45, 'lipoC3S2': 8.24, 'rot1': 0, 'rot0': 0, 'rot3': 0, 'rot2': 0, 'state': 'normal', 'yaw': 0.09, 'datetime': '2018-10-03 17:41:54.973492', 'mgs': 0, 'volt': 0.957, 'depth': 2.454, 'time': 5, 'pitch': -7.32, 'roll': -0.79, 'pres': 196}
{'lipoC2': 7.26, 'lipoC3S1': 4.12, 'temp': 28.0, 'lipoC3S3': 12.45, 'lipoC3S2': 8.24, 'rot1': 0, 'rot0': 0, 'rot3': 0, 'rot2': 0, 'state': 'normal', 'yaw': 0.09, 'datetime': '2018-10-03 17:41:55.077450', 'mgs': 0, 'volt': 0.957, 'depth': 2.454, 'time': 5, 'pitch': -7.27, 'roll': -0.8, 'pres': 196}
{'lipoC2': 7.26, 'lipoC3S1': 4.12, 'temp': 27.94, 'lipoC3S3': 12.45, 'lipoC3S2': 8.24, 'rot1': 0, 'rot0': 0, 'rot3': 0, 'rot2': 0, 'state': 'normal', 'yaw': 0.09, 'datetime': '2018-10-03 17:41:55.181275', 'mgs': 0, 'volt': 0.957, 'depth': 2.454, 'time': 5, 'pitch': -7.22, 'roll': -0.81, 'pres': 196}
{'lipoC2': 7.26, 'lipoC3S1': 4.12, 'temp': 27.94, 'lipoC3S3': 12.45, 'lipoC3S2': 8.24, 'rot1': 0, 'rot0': 0, 'rot3': 0, 'rot2': 0, 'state': 'normal', 'yaw': 0.09, 'datetime': '2018-10-03 17:41:55.284499', 'mgs': 0, 'volt': 0.9619, 'depth': 2.53, 'time': 5, 'pitch': -7.19, 'roll': -0.81, 'pres': 197}
{'lipoC2': 7.26, 'lipoC3S1': 4.13, 'temp': 27.94, 'lipoC3S3': 12.45, 'lipoC3S2': 8.24, 'rot1': 0, 'rot0': 0, 'rot3': 0, 'rot2': 0, 'state': 'normal', 'yaw': 0.09, 'datetime': '2018-10-03 17:41:55.388040', 'mgs': 0, 'volt': 0.957, 'depth': 2.454, 'time': 5, 'pitch': -7.22, 'roll': -0.81, 'pres': 196}
{'lipoC2': 7.26, 'lipoC3S1': 4.12, 'temp': 27.94, 'lipoC3S3': 12.46, 'lipoC3S2': 8.24, 'rot1': 0, 'rot0': 0, 'rot3': 0, 'rot2': 0, 'state': 'normal', 'yaw': 0.09, 'datetime': '2018-10-03 17:41:55.492031', 'mgs': 0, 'volt': 0.957, 'depth': 2.454, 'time': 5, 'pitch': -7.25, 'roll': -0.82, 'pres': 196}
{'lipoC2': 7.26, 'lipoC3S1': 4.13, 'temp': 27.94, 'lipoC3S3': 12.45, 'lipoC3S2': 8.24, 'rot1': 0, 'rot0': 0, 'rot3': 0, 'rot2': 0, 'state': 'normal', 'yaw': 0.09, 'datetime': '2018-10-03 17:41:55.595299', 'mgs': 0, 'volt': 0.957, 'depth': 2.454, 'time': 5, 'pitch': -7.36, 'roll': -0.83, 'pres': 196}
{'lipoC2': 7.26, 'lipoC3S1': 4.12, 'temp': 27.94, 'lipoC3S3': 12.45, 'lipoC3S2': 8.24, 'rot1': 0, 'rot0': 0, 'rot3': 0, 'rot2': 0, 'state': 'normal', 'yaw': 0.09, 'datetime': '2018-10-03 17:41:55.699230', 'mgs': 0, 'volt': 0.957, 'depth': 2.454, 'time': 5, 'pitch': -7.47, 'roll': -0.83, 'pres': 196}
{'lipoC2': 7.26, 'lipoC3S1': 4.13, 'temp': 27.94, 'lipoC3S3': 12.45, 'lipoC3S2': 8.24, 'rot1': 0, 'rot0': 0, 'rot3': 0, 'rot2': 0, 'state': 'normal', 'yaw': 0.1, 'datetime': '2018-10-03 17:41:55.803280', 'mgs': 0, 'volt': 0.957, 'depth': 2.454, 'time': 6, 'pitch': -7.54, 'roll': -0.83, 'pres': 196}
{'lipoC2': 7.26, 'lipoC3S1': 4.12, 'temp': 27.94, 'lipoC3S3': 12.45, 'lipoC3S2': 8.24, 'rot1': 0, 'rot0': 0, 'rot3': 0, 'rot2': 0, 'state': 'normal', 'yaw': 0.1, 'datetime': '2018-10-03 17:41:55.906445', 'mgs': 0, 'volt': 0.957, 'depth': 2.454, 'time': 6, 'pitch': -7.62, 'roll': -0.83, 'pres': 196}
{'lipoC2': 7.26, 'lipoC3S1': 4.12, 'temp': 27.94, 'lipoC3S3': 12.46, 'lipoC3S2': 8.24, 'rot1': 0, 'rot0': 0, 'rot3': 0, 'rot2': 0, 'state': 'normal', 'yaw': 0.1, 'datetime': '2018-10-03 17:41:56.009697', 'mgs': 0, 'volt': 0.9619, 'depth': 2.53, 'time': 6, 'pitch': -7.67, 'roll': -0.83, 'pres': 197}
{'lipoC2': 7.26, 'lipoC3S1': 4.12, 'temp': 27.94, 'lipoC3S3': 12.46, 'lipoC3S2': 8.24, 'rot1': 0, 'rot0': 0, 'rot3': 0, 'rot2': 0, 'state': 'normal', 'yaw': 0.1, 'datetime': '2018-10-03 17:41:56.113813', 'mgs': 0, 'volt': 0.957, 'depth': 2.454, 'time': 6, 'pitch': -7.68, 'roll': -0.83, 'pres': 196}
{'lipoC2': 7.26, 'lipoC3S1': 4.12, 'temp': 27.94, 'lipoC3S3': 12.45, 'lipoC3S2': 8.24, 'rot1': 0, 'rot0': 0, 'rot3': 0, 'rot2': 0, 'state': 'normal', 'yaw': 0.1, 'datetime': '2018-10-03 17:41:56.217022', 'mgs': 0, 'volt': 0.957, 'depth': 2.454, 'time': 6, 'pitch': -7.68, 'roll': -0.83, 'pres': 196}
{'lipoC2': 7.26, 'lipoC3S1': 4.12, 'temp': 27.88, 'lipoC3S3': 12.45, 'lipoC3S2': 8.24, 'rot1': 0, 'rot0': 0, 'rot3': 0, 'rot2': 0, 'state': 'normal', 'yaw': 0.1, 'datetime': '2018-10-03 17:41:56.321333', 'mgs': 0, 'volt': 0.957, 'depth': 2.454, 'time': 6, 'pitch': -7.68, 'roll': -0.83, 'pres': 196}
{'lipoC2': 7.26, 'lipoC3S1': 4.13, 'temp': 27.88, 'lipoC3S3': 12.45, 'lipoC3S2': 8.24, 'rot1': 0, 'rot0': 0, 'rot3': 0, 'rot2': 0, 'state': 'normal', 'yaw': 0.1, 'datetime': '2018-10-03 17:41:56.425173', 'mgs': 0, 'volt': 0.957, 'depth': 2.454, 'time': 6, 'pitch': -7.68, 'roll': -0.83, 'pres': 196}
{'lipoC2': 7.26, 'lipoC3S1': 4.12, 'temp': 27.88, 'lipoC3S3': 12.46, 'lipoC3S2': 8.24, 'rot1': 0, 'rot0': 0, 'rot3': 0, 'rot2': 0, 'state': 'normal', 'yaw': 0.1, 'datetime': '2018-10-03 17:41:56.528431', 'mgs': 0, 'volt': 0.957, 'depth': 2.454, 'time': 6, 'pitch': -7.68, 'roll': -0.83, 'pres': 196}
{'lipoC2': 7.26, 'lipoC3S1': 4.12, 'temp': 27.94, 'lipoC3S3': 12.46, 'lipoC3S2': 8.24, 'rot1': 0, 'rot0': 0, 'rot3': 0, 'rot2': 0, 'state': 'normal', 'yaw': 0.1, 'datetime': '2018-10-03 17:41:56.632897', 'mgs': 0, 'volt': 0.957, 'depth': 2.454, 'time': 6, 'pitch': -7.68, 'roll': -0.83, 'pres': 196}
{'lipoC2': 7.26, 'lipoC3S1': 4.12, 'temp': 27.94, 'lipoC3S3': 12.46, 'lipoC3S2': 8.24, 'rot1': 0, 'rot0': 0, 'rot3': 0, 'rot2': 0, 'state': 'normal', 'yaw': 0.1, 'datetime': '2018-10-03 17:41:56.736312', 'mgs': 0, 'volt': 0.957, 'depth': 2.454, 'time': 6, 'pitch': -7.66, 'roll': -0.83, 'pres': 196}
{'lipoC2': 7.26, 'lipoC3S1': 4.12, 'temp': 27.88, 'lipoC3S3': 12.45, 'lipoC3S2': 8.24, 'rot1': 0, 'rot0': 0, 'rot3': 0, 'rot2': 0, 'state': 'normal', 'yaw': 0.1, 'datetime': '2018-10-03 17:41:56.839531', 'mgs': 0, 'volt': 0.957, 'depth': 2.454, 'time': 7, 'pitch': -7.62, 'roll': -0.83, 'pres': 196}
{'lipoC2': 7.26, 'lipoC3S1': 4.12, 'temp': 27.88, 'lipoC3S3': 12.46, 'lipoC3S2': 8.24, 'rot1': 0, 'rot0': 0, 'rot3': 0, 'rot2': 0, 'state': 'normal', 'yaw': 0.1, 'datetime': '2018-10-03 17:41:56.944167', 'mgs': 0, 'volt': 0.957, 'depth': 2.454, 'time': 7, 'pitch': -7.62, 'roll': -0.83, 'pres': 196}
{'lipoC2': 7.26, 'lipoC3S1': 4.12, 'temp': 27.94, 'lipoC3S3': 12.46, 'lipoC3S2': 8.24, 'rot1': 0, 'rot0': 0, 'rot3': 0, 'rot2': 0, 'state': 'normal', 'yaw': 0.1, 'datetime': '2018-10-03 17:41:57.047229', 'mgs': 0, 'volt': 0.957, 'depth': 2.454, 'time': 7, 'pitch': -7.62, 'roll': -0.83, 'pres': 196}
{'lipoC2': 7.26, 'lipoC3S1': 4.13, 'temp': 27.94, 'lipoC3S3': 12.45, 'lipoC3S2': 8.24, 'rot1': 0, 'rot0': 0, 'rot3': 0, 'rot2': 0, 'state': 'normal', 'yaw': 0.1, 'datetime': '2018-10-03 17:41:57.150421', 'mgs': 0, 'volt': 0.957, 'depth': 2.454, 'time': 7, 'pitch': -7.62, 'roll': -0.83, 'pres': 196}
{'lipoC2': 7.26, 'lipoC3S1': 4.12, 'temp': 27.94, 'lipoC3S3': 12.46, 'lipoC3S2': 8.24, 'rot1': 0, 'rot0': 0, 'rot3': 0, 'rot2': 0, 'state': 'normal', 'yaw': 0.1, 'datetime': '2018-10-03 17:41:57.254918', 'mgs': 0, 'volt': 0.957, 'depth': 2.454, 'time': 7, 'pitch': -7.62, 'roll': -0.83, 'pres': 196}
{'lipoC2': 7.26, 'lipoC3S1': 4.12, 'temp': 27.88, 'lipoC3S3': 12.45, 'lipoC3S2': 8.24, 'rot1': 0, 'rot0': 0, 'rot3': 0, 'rot2': 0, 'state': 'normal', 'yaw': 0.1, 'datetime': '2018-10-03 17:41:57.358300', 'mgs': 0, 'volt': 0.957, 'depth': 2.454, 'time': 7, 'pitch': -7.62, 'roll': -0.83, 'pres': 196}
{'lipoC2': 7.26, 'lipoC3S1': 4.12, 'temp': 27.88, 'lipoC3S3': 12.45, 'lipoC3S2': 8.24, 'rot1': 0, 'rot0': 0, 'rot3': 0, 'rot2': 0, 'state': 'normal', 'yaw': 0.1, 'datetime': '2018-10-03 17:41:57.461421', 'mgs': 0, 'volt': 0.957, 'depth': 2.454, 'time': 7, 'pitch': -7.62, 'roll': -0.83, 'pres': 196}
{'lipoC2': 7.26, 'lipoC3S1': 4.13, 'temp': 27.88, 'lipoC3S3': 12.46, 'lipoC3S2': 8.24, 'rot1': 0, 'rot0': 0, 'rot3': 0, 'rot2': 0, 'state': 'normal', 'yaw': 0.1, 'datetime': '2018-10-03 17:41:57.564659', 'mgs': 0, 'volt': 0.957, 'depth': 2.454, 'time': 7, 'pitch': -7.62, 'roll': -0.83, 'pres': 196}
{'lipoC2': 7.26, 'lipoC3S1': 4.12, 'temp': 27.88, 'lipoC3S3': 12.45, 'lipoC3S2': 8.24, 'rot1': 0, 'rot0': 0, 'rot3': 0, 'rot2': 0, 'state': 'normal', 'yaw': 0.1, 'datetime': '2018-10-03 17:41:57.668605', 'mgs': 0, 'volt': 0.957, 'depth': 2.454, 'time': 7, 'pitch': -7.62, 'roll': -0.83, 'pres': 196}
{'lipoC2': 7.26, 'lipoC3S1': 4.13, 'temp': 27.88, 'lipoC3S3': 12.45, 'lipoC3S2': 8.24, 'rot1': 0, 'rot0': 0, 'rot3': 0, 'rot2': 0, 'state': 'normal', 'yaw': 0.1, 'datetime': '2018-10-03 17:41:57.771769', 'mgs': 0, 'volt': 0.957, 'depth': 2.454, 'time': 7, 'pitch': -7.54, 'roll': -0.83, 'pres': 196}
{'lipoC2': 7.26, 'lipoC3S1': 4.12, 'temp': 27.88, 'lipoC3S3': 12.45, 'lipoC3S2': 8.24, 'rot1': 0, 'rot0': 0, 'rot3': 0, 'rot2': 0, 'state': 'normal', 'yaw': 0.09, 'datetime': '2018-10-03 17:41:57.876291', 'mgs': 0, 'volt': 0.957, 'depth': 2.454, 'time': 8, 'pitch': -7.46, 'roll': -0.83, 'pres': 196}
{'lipoC2': 7.26, 'lipoC3S1': 4.13, 'temp': 27.88, 'lipoC3S3': 12.46, 'lipoC3S2': 8.24, 'rot1': 0, 'rot0': 0, 'rot3': 0, 'rot2': 0, 'state': 'normal', 'yaw': 0.09, 'datetime': '2018-10-03 17:41:57.979837', 'mgs': 0, 'volt': 0.957, 'depth': 2.454, 'time': 8, 'pitch': -7.37, 'roll': -0.83, 'pres': 196}
{'lipoC2': 7.26, 'lipoC3S1': 4.12, 'temp': 27.88, 'lipoC3S3': 12.45, 'lipoC3S2': 8.24, 'rot1': 0, 'rot0': 0, 'rot3': 0, 'rot2': 0, 'state': 'normal', 'yaw': 0.09, 'datetime': '2018-10-03 17:41:58.083063', 'mgs': 0, 'volt': 0.957, 'depth': 2.454, 'time': 8, 'pitch': -7.33, 'roll': -0.83, 'pres': 196}
{'lipoC2': 7.26, 'lipoC3S1': 4.12, 'temp': 27.88, 'lipoC3S3': 12.45, 'lipoC3S2': 8.24, 'rot1': 0, 'rot0': 0, 'rot3': 0, 'rot2': 0, 'state': 'normal', 'yaw': 0.09, 'datetime': '2018-10-03 17:41:58.187598', 'mgs': 0, 'volt': 0.957, 'depth': 2.454, 'time': 8, 'pitch': -7.33, 'roll': -0.83, 'pres': 196}
{'lipoC2': 7.26, 'lipoC3S1': 4.12, 'temp': 27.94, 'lipoC3S3': 12.45, 'lipoC3S2': 8.24, 'rot1': 0, 'rot0': 0, 'rot3': 0, 'rot2': 0, 'state': 'normal', 'yaw': 0.09, 'datetime': '2018-10-03 17:41:58.290979', 'mgs': 0, 'volt': 0.957, 'depth': 2.454, 'time': 8, 'pitch': -7.33, 'roll': -0.83, 'pres': 196}
{'lipoC2': 7.26, 'lipoC3S1': 4.13, 'temp': 27.94, 'lipoC3S3': 12.45, 'lipoC3S2': 8.24, 'rot1': 0, 'rot0': 0, 'rot3': 0, 'rot2': 0, 'state': 'normal', 'yaw': 0.09, 'datetime': '2018-10-03 17:41:58.394214', 'mgs': 0, 'volt': 0.957, 'depth': 2.454, 'time': 8, 'pitch': -7.33, 'roll': -0.83, 'pres': 196}
{'lipoC2': 7.26, 'lipoC3S1': 4.12, 'temp': 27.88, 'lipoC3S3': 12.45, 'lipoC3S2': 8.24, 'rot1': 0, 'rot0': 0, 'rot3': 0, 'rot2': 0, 'state': 'normal', 'yaw': 0.09, 'datetime': '2018-10-03 17:41:58.498772', 'mgs': 0, 'volt': 0.957, 'depth': 2.454, 'time': 8, 'pitch': -7.33, 'roll': -0.83, 'pres': 196}
{'lipoC2': 7.26, 'lipoC3S1': 4.12, 'temp': 27.88, 'lipoC3S3': 12.46, 'lipoC3S2': 8.24, 'rot1': 0, 'rot0': 0, 'rot3': 0, 'rot2': 0, 'state': 'normal', 'yaw': 0.09, 'datetime': '2018-10-03 17:41:58.601944', 'mgs': 0, 'volt': 0.957, 'depth': 2.454, 'time': 8, 'pitch': -7.33, 'roll': -0.83, 'pres': 196}
{'lipoC2': 7.26, 'lipoC3S1': 4.13, 'temp': 27.88, 'lipoC3S3': 12.45, 'lipoC3S2': 8.24, 'rot1': 0, 'rot0': 0, 'rot3': 0, 'rot2': 0, 'state': 'normal', 'yaw': 0.09, 'datetime': '2018-10-03 17:41:58.705169', 'mgs': 0, 'volt': 0.957, 'depth': 2.454, 'time': 8, 'pitch': -7.36, 'roll': -0.83, 'pres': 196}
{'lipoC2': 7.26, 'lipoC3S1': 4.12, 'temp': 27.88, 'lipoC3S3': 12.46, 'lipoC3S2': 8.24, 'rot1': 0, 'rot0': 0, 'rot3': 0, 'rot2': 0, 'state': 'normal', 'yaw': 0.08, 'datetime': '2018-10-03 17:41:58.809681', 'mgs': 0, 'volt': 0.957, 'depth': 2.454, 'time': 9, 'pitch': -7.43, 'roll': -0.8, 'pres': 196}
{'lipoC2': 7.26, 'lipoC3S1': 4.12, 'temp': 27.88, 'lipoC3S3': 12.45, 'lipoC3S2': 8.24, 'rot1': 0, 'rot0': 0, 'rot3': 0, 'rot2': 0, 'state': 'normal', 'yaw': 0.02, 'datetime': '2018-10-03 17:41:58.913053', 'mgs': 0, 'volt': 0.957, 'depth': 2.454, 'time': 9, 'pitch': -7.51, 'roll': -0.71, 'pres': 196}
{'lipoC2': 7.26, 'lipoC3S1': 4.12, 'temp': 27.88, 'lipoC3S3': 12.45, 'lipoC3S2': 8.24, 'rot1': 0, 'rot0': 0, 'rot3': 0, 'rot2': 0, 'state': 'normal', 'yaw': -0.06, 'datetime': '2018-10-03 17:41:59.016270', 'mgs': 0, 'volt': 0.957, 'depth': 2.454, 'time': 9, 'pitch': -7.58, 'roll': -0.59, 'pres': 196}
{'lipoC2': 7.26, 'lipoC3S1': 4.12, 'temp': 27.88, 'lipoC3S3': 12.45, 'lipoC3S2': 8.24, 'rot1': 0, 'rot0': 0, 'rot3': 0, 'rot2': 0, 'state': 'normal', 'yaw': -0.09, 'datetime': '2018-10-03 17:41:59.119470', 'mgs': 0, 'volt': 0.957, 'depth': 2.454, 'time': 9, 'pitch': -7.58, 'roll': -0.51, 'pres': 196}
{'lipoC2': 7.26, 'lipoC3S1': 4.12, 'temp': 27.88, 'lipoC3S3': 12.45, 'lipoC3S2': 8.24, 'rot1': 0, 'rot0': 0, 'rot3': 0, 'rot2': 0, 'state': 'normal', 'yaw': -0.09, 'datetime': '2018-10-03 17:41:59.223270', 'mgs': 0, 'volt': 0.957, 'depth': 2.454, 'time': 9, 'pitch': -7.58, 'roll': -0.46, 'pres': 196}
{'lipoC2': 7.26, 'lipoC3S1': 4.12, 'temp': 27.88, 'lipoC3S3': 12.46, 'lipoC3S2': 8.24, 'rot1': 0, 'rot0': 0, 'rot3': 0, 'rot2': 0, 'state': 'normal', 'yaw': -0.09, 'datetime': '2018-10-03 17:41:59.326480', 'mgs': 0, 'volt': 0.957, 'depth': 2.454, 'time': 9, 'pitch': -7.58, 'roll': -0.46, 'pres': 196}
{'lipoC2': 7.26, 'lipoC3S1': 4.12, 'temp': 27.88, 'lipoC3S3': 12.46, 'lipoC3S2': 8.24, 'rot1': 0, 'rot0': 0, 'rot3': 0, 'rot2': 0, 'state': 'normal', 'yaw': -0.09, 'datetime': '2018-10-03 17:41:59.431028', 'mgs': 0, 'volt': 0.957, 'depth': 2.454, 'time': 9, 'pitch': -7.58, 'roll': -0.46, 'pres': 196}
{'lipoC2': 7.26, 'lipoC3S1': 4.12, 'temp': 27.88, 'lipoC3S3': 12.46, 'lipoC3S2': 8.24, 'rot1': 0, 'rot0': 0, 'rot3': 0, 'rot2': 0, 'state': 'normal', 'yaw': -0.09, 'datetime': '2018-10-03 17:41:59.534521', 'mgs': 0, 'volt': 0.957, 'depth': 2.454, 'time': 9, 'pitch': -7.58, 'roll': -0.46, 'pres': 196}
{'lipoC2': 7.26, 'lipoC3S1': 4.12, 'temp': 27.88, 'lipoC3S3': 12.45, 'lipoC3S2': 8.24, 'rot1': 0, 'rot0': 0, 'rot3': 0, 'rot2': 0, 'state': 'normal', 'yaw': -0.09, 'datetime': '2018-10-03 17:41:59.637851', 'mgs': 0, 'volt': 0.957, 'depth': 2.454, 'time': 9, 'pitch': -7.58, 'roll': -0.46, 'pres': 196}
{'lipoC2': 7.26, 'lipoC3S1': 4.12, 'temp': 27.88, 'lipoC3S3': 12.45, 'lipoC3S2': 8.24, 'rot1': 0, 'rot0': 0, 'rot3': 0, 'rot2': 0, 'state': 'normal', 'yaw': -0.09, 'datetime': '2018-10-03 17:41:59.746518', 'mgs': 0, 'volt': 0.957, 'depth': 2.454, 'time': 9, 'pitch': -7.58, 'roll': -0.46, 'pres': 196}
{'lipoC2': 7.26, 'lipoC3S1': 4.12, 'temp': 27.88, 'lipoC3S3': 12.46, 'lipoC3S2': 8.24, 'rot1': 0, 'rot0': 0, 'rot3': 0, 'rot2': 0, 'state': 'normal', 'yaw': -0.09, 'datetime': '2018-10-03 17:41:59.851396', 'mgs': 0, 'volt': 0.957, 'depth': 2.454, 'time': 10, 'pitch': -7.58, 'roll': -0.46, 'pres': 196}
{'lipoC2': 7.26, 'lipoC3S1': 4.13, 'temp': 27.88, 'lipoC3S3': 12.46, 'lipoC3S2': 8.24, 'rot1': 0, 'rot0': 0, 'rot3': 0, 'rot2': 0, 'state': 'normal', 'yaw': -0.08, 'datetime': '2018-10-03 17:41:59.954672', 'mgs': 0, 'volt': 0.957, 'depth': 2.454, 'time': 10, 'pitch': -7.59, 'roll': -0.46, 'pres': 196}
{'lipoC2': 7.26, 'lipoC3S1': 4.12, 'temp': 27.81, 'lipoC3S3': 12.46, 'lipoC3S2': 8.24, 'rot1': 0, 'rot0': 0, 'rot3': 0, 'rot2': 0, 'state': 'normal', 'yaw': -0.08, 'datetime': '2018-10-03 17:42:00.059270', 'mgs': 0, 'volt': 0.957, 'depth': 2.454, 'time': 10, 'pitch': -7.68, 'roll': -0.46, 'pres': 196}
{'lipoC2': 7.26, 'lipoC3S1': 4.12, 'temp': 27.81, 'lipoC3S3': 12.46, 'lipoC3S2': 8.24, 'rot1': 0, 'rot0': 0, 'rot3': 0, 'rot2': 0, 'state': 'normal', 'yaw': -0.09, 'datetime': '2018-10-03 17:42:00.162603', 'mgs': 0, 'volt': 0.957, 'depth': 2.454, 'time': 10, 'pitch': -7.81, 'roll': -0.46, 'pres': 196}
{'lipoC2': 7.26, 'lipoC3S1': 4.12, 'temp': 27.88, 'lipoC3S3': 12.45, 'lipoC3S2': 8.24, 'rot1': 0, 'rot0': 0, 'rot3': 0, 'rot2': 0, 'state': 'normal', 'yaw': -0.12, 'datetime': '2018-10-03 17:42:00.265937', 'mgs': 0, 'volt': 0.957, 'depth': 2.454, 'time': 10, 'pitch': -7.93, 'roll': -0.45, 'pres': 196}
{'lipoC2': 7.26, 'lipoC3S1': 4.12, 'temp': 27.88, 'lipoC3S3': 12.45, 'lipoC3S2': 8.24, 'rot1': 0, 'rot0': 0, 'rot3': 0, 'rot2': 0, 'state': 'normal', 'yaw': -0.11, 'datetime': '2018-10-03 17:42:00.370551', 'mgs': 0, 'volt': 0.957, 'depth': 2.454, 'time': 10, 'pitch': -8.02, 'roll': -0.45, 'pres': 196}
{'lipoC2': 7.26, 'lipoC3S1': 4.12, 'temp': 27.88, 'lipoC3S3': 12.45, 'lipoC3S2': 8.24, 'rot1': 0, 'rot0': 0, 'rot3': 0, 'rot2': 0, 'state': 'normal', 'yaw': -0.11, 'datetime': '2018-10-03 17:42:00.473930', 'mgs': 0, 'volt': 0.957, 'depth': 2.454, 'time': 10, 'pitch': -8.04, 'roll': -0.45, 'pres': 196}
{'lipoC2': 7.26, 'lipoC3S1': 4.12, 'temp': 27.88, 'lipoC3S3': 12.46, 'lipoC3S2': 8.24, 'rot1': 0, 'rot0': 0, 'rot3': 0, 'rot2': 0, 'state': 'normal', 'yaw': -0.11, 'datetime': '2018-10-03 17:42:00.577154', 'mgs': 0, 'volt': 0.957, 'depth': 2.454, 'time': 10, 'pitch': -8.04, 'roll': -0.45, 'pres': 196}
{'lipoC2': 7.26, 'lipoC3S1': 4.13, 'temp': 27.88, 'lipoC3S3': 12.46, 'lipoC3S2': 8.24, 'rot1': 0, 'rot0': 0, 'rot3': 0, 'rot2': 0, 'state': 'normal', 'yaw': -0.12, 'datetime': '2018-10-03 17:42:00.680569', 'mgs': 0, 'volt': 0.957, 'depth': 2.454, 'time': 10, 'pitch': -7.96, 'roll': -0.45, 'pres': 196}
{'lipoC2': 7.26, 'lipoC3S1': 4.12, 'temp': 27.88, 'lipoC3S3': 12.45, 'lipoC3S2': 8.24, 'rot1': 0, 'rot0': 0, 'rot3': 0, 'rot2': 0, 'state': 'normal', 'yaw': -0.12, 'datetime': '2018-10-03 17:42:00.784210', 'mgs': 0, 'volt': 0.957, 'depth': 2.454, 'time': 10, 'pitch': -7.85, 'roll': -0.45, 'pres': 196}
{'lipoC2': 7.25, 'lipoC3S1': 4.12, 'temp': 27.88, 'lipoC3S3': 12.45, 'lipoC3S2': 8.24, 'rot1': 0, 'rot0': 0, 'rot3': 0, 'rot2': 0, 'state': 'normal', 'yaw': -0.12, 'datetime': '2018-10-03 17:42:00.887263', 'mgs': 0, 'volt': 0.957, 'depth': 2.454, 'time': 11, 'pitch': -7.73, 'roll': -0.45, 'pres': 196}
{'lipoC2': 7.25, 'lipoC3S1': 4.12, 'temp': 27.81, 'lipoC3S3': 12.45, 'lipoC3S2': 8.24, 'rot1': 0, 'rot0': 0, 'rot3': 0, 'rot2': 0, 'state': 'normal', 'yaw': -0.12, 'datetime': '2018-10-03 17:42:00.991926', 'mgs': 0, 'volt': 0.957, 'depth': 2.454, 'time': 11, 'pitch': -7.65, 'roll': -0.45, 'pres': 196}
{'lipoC2': 7.26, 'lipoC3S1': 4.13, 'temp': 27.81, 'lipoC3S3': 12.46, 'lipoC3S2': 8.24, 'rot1': 0, 'rot0': 0, 'rot3': 0, 'rot2': 0, 'state': 'normal', 'yaw': -0.12, 'datetime': '2018-10-03 17:42:01.095355', 'mgs': 0, 'volt': 0.957, 'depth': 2.454, 'time': 11, 'pitch': -7.63, 'roll': -0.44, 'pres': 196}
{'lipoC2': 7.26, 'lipoC3S1': 4.12, 'temp': 27.94, 'lipoC3S3': 12.46, 'lipoC3S2': 8.24, 'rot1': 0, 'rot0': 0, 'rot3': 0, 'rot2': 0, 'state': 'normal', 'yaw': -0.12, 'datetime': '2018-10-03 17:42:01.197206', 'mgs': 0, 'volt': 0.957, 'depth': 2.454, 'time': 11, 'pitch': -7.63, 'roll': -0.44, 'pres': 196}
{'lipoC2': 7.26, 'lipoC3S1': 4.12, 'temp': 27.94, 'lipoC3S3': 12.46, 'lipoC3S2': 8.24, 'rot1': 0, 'rot0': 0, 'rot3': 0, 'rot2': 0, 'state': 'normal', 'yaw': -0.12, 'datetime': '2018-10-03 17:42:01.297432', 'mgs': 0, 'volt': 0.957, 'depth': 2.454, 'time': 11, 'pitch': -7.64, 'roll': -0.45, 'pres': 196}
{'lipoC2': 7.26, 'lipoC3S1': 4.12, 'temp': 27.94, 'lipoC3S3': 12.46, 'lipoC3S2': 8.24, 'rot1': 0, 'rot0': 0, 'rot3': 0, 'rot2': 0, 'state': 'normal', 'yaw': -0.12, 'datetime': '2018-10-03 17:42:01.400767', 'mgs': 0, 'volt': 0.957, 'depth': 2.454, 'time': 11, 'pitch': -7.64, 'roll': -0.45, 'pres': 196}
{'lipoC2': 7.26, 'lipoC3S1': 4.13, 'temp': 27.88, 'lipoC3S3': 12.45, 'lipoC3S2': 8.24, 'rot1': 0, 'rot0': 0, 'rot3': 0, 'rot2': 0, 'state': 'normal', 'yaw': -0.12, 'datetime': '2018-10-03 17:42:01.504055', 'mgs': 0, 'volt': 0.957, 'depth': 2.454, 'time': 11, 'pitch': -7.64, 'roll': -0.45, 'pres': 196}
{'lipoC2': 7.25, 'lipoC3S1': 4.12, 'temp': 27.88, 'lipoC3S3': 12.45, 'lipoC3S2': 8.24, 'rot1': 0, 'rot0': 0, 'rot3': 0, 'rot2': 0, 'state': 'normal', 'yaw': -0.12, 'datetime': '2018-10-03 17:42:01.608717', 'mgs': 0, 'volt': 0.957, 'depth': 2.454, 'time': 11, 'pitch': -7.64, 'roll': -0.45, 'pres': 196}
{'lipoC2': 7.25, 'lipoC3S1': 4.12, 'temp': 27.94, 'lipoC3S3': 12.45, 'lipoC3S2': 8.24, 'rot1': 0, 'rot0': 0, 'rot3': 0, 'rot2': 0, 'state': 'normal', 'yaw': -0.12, 'datetime': '2018-10-03 17:42:01.712012', 'mgs': 0, 'volt': 0.957, 'depth': 2.454, 'time': 11, 'pitch': -7.64, 'roll': -0.45, 'pres': 196}
{'lipoC2': 7.26, 'lipoC3S1': 4.12, 'temp': 27.94, 'lipoC3S3': 12.45, 'lipoC3S2': 8.24, 'rot1': 0, 'rot0': 0, 'rot3': 0, 'rot2': 0, 'state': 'normal', 'yaw': -0.12, 'datetime': '2018-10-03 17:42:01.815322', 'mgs': 0, 'volt': 0.957, 'depth': 2.454, 'time': 12, 'pitch': -7.6, 'roll': -0.44, 'pres': 196}
{'lipoC2': 7.26, 'lipoC3S1': 4.13, 'temp': 27.88, 'lipoC3S3': 12.46, 'lipoC3S2': 8.24, 'rot1': 0, 'rot0': 0, 'rot3': 0, 'rot2': 0, 'state': 'normal', 'yaw': -0.12, 'datetime': '2018-10-03 17:42:01.919976', 'mgs': 0, 'volt': 0.957, 'depth': 2.454, 'time': 12, 'pitch': -7.51, 'roll': -0.44, 'pres': 196}
{'lipoC2': 7.26, 'lipoC3S1': 4.12, 'temp': 27.88, 'lipoC3S3': 12.46, 'lipoC3S2': 8.24, 'rot1': 0, 'rot0': 0, 'rot3': 0, 'rot2': 0, 'state': 'normal', 'yaw': -0.12, 'datetime': '2018-10-03 17:42:02.023301', 'mgs': 0, 'volt': 0.957, 'depth': 2.454, 'time': 12, 'pitch': -7.39, 'roll': -0.45, 'pres': 196}
{'lipoC2': 7.26, 'lipoC3S1': 4.12, 'temp': 27.88, 'lipoC3S3': 12.46, 'lipoC3S2': 8.24, 'rot1': 0, 'rot0': 0, 'rot3': 0, 'rot2': 0, 'state': 'normal', 'yaw': -0.12, 'datetime': '2018-10-03 17:42:02.126588', 'mgs': 0, 'volt': 0.957, 'depth': 2.454, 'time': 12, 'pitch': -7.3, 'roll': -0.44, 'pres': 196}
{'lipoC2': 7.26, 'lipoC3S1': 4.12, 'temp': 27.94, 'lipoC3S3': 12.45, 'lipoC3S2': 8.24, 'rot1': 0, 'rot0': 0, 'rot3': 0, 'rot2': 0, 'state': 'normal', 'yaw': -0.12, 'datetime': '2018-10-03 17:42:02.229875', 'mgs': 0, 'volt': 0.957, 'depth': 2.454, 'time': 12, 'pitch': -7.22, 'roll': -0.45, 'pres': 196}
{'lipoC2': 7.26, 'lipoC3S1': 4.13, 'temp': 27.94, 'lipoC3S3': 12.46, 'lipoC3S2': 8.24, 'rot1': 0, 'rot0': 0, 'rot3': 0, 'rot2': 0, 'state': 'normal', 'yaw': -0.12, 'datetime': '2018-10-03 17:42:02.333211', 'mgs': 0, 'volt': 0.957, 'depth': 2.454, 'time': 12, 'pitch': -7.21, 'roll': -0.44, 'pres': 196}
{'lipoC2': 7.26, 'lipoC3S1': 4.12, 'temp': 27.88, 'lipoC3S3': 12.45, 'lipoC3S2': 8.24, 'rot1': 0, 'rot0': 0, 'rot3': 0, 'rot2': 0, 'state': 'normal', 'yaw': -0.12, 'datetime': '2018-10-03 17:42:02.436546', 'mgs': 0, 'volt': 0.957, 'depth': 2.454, 'time': 12, 'pitch': -7.21, 'roll': -0.44, 'pres': 196}
{'lipoC2': 7.26, 'lipoC3S1': 4.12, 'temp': 27.88, 'lipoC3S3': 12.46, 'lipoC3S2': 8.24, 'rot1': 0, 'rot0': 0, 'rot3': 0, 'rot2': 0, 'state': 'normal', 'yaw': -0.15, 'datetime': '2018-10-03 17:42:02.541152', 'mgs': 0, 'volt': 0.957, 'depth': 2.454, 'time': 12, 'pitch': -7.23, 'roll': -0.44, 'pres': 196}
{'lipoC2': 7.26, 'lipoC3S1': 4.12, 'temp': 27.88, 'lipoC3S3': 12.46, 'lipoC3S2': 8.24, 'rot1': 0, 'rot0': 0, 'rot3': 0, 'rot2': 0, 'state': 'normal', 'yaw': -0.24, 'datetime': '2018-10-03 17:42:02.644472', 'mgs': 0, 'volt': 0.957, 'depth': 2.454, 'time': 12, 'pitch': -7.33, 'roll': -0.43, 'pres': 196}
{'lipoC2': 7.25, 'lipoC3S1': 4.12, 'temp': 27.88, 'lipoC3S3': 12.45, 'lipoC3S2': 8.24, 'rot1': 0, 'rot0': 0, 'rot3': 0, 'rot2': 0, 'state': 'normal', 'yaw': -0.33, 'datetime': '2018-10-03 17:42:02.747848', 'mgs': 0, 'volt': 0.957, 'depth': 2.454, 'time': 12, 'pitch': -7.42, 'roll': -0.42, 'pres': 196}
{'lipoC2': 7.26, 'lipoC3S1': 4.12, 'temp': 27.88, 'lipoC3S3': 12.45, 'lipoC3S2': 8.24, 'rot1': 0, 'rot0': 0, 'rot3': 0, 'rot2': 0, 'state': 'normal', 'yaw': -0.36, 'datetime': '2018-10-03 17:42:02.852409', 'mgs': 0, 'volt': 0.957, 'depth': 2.454, 'time': 13, 'pitch': -7.48, 'roll': -0.41, 'pres': 196}
{'lipoC2': 7.26, 'lipoC3S1': 4.13, 'temp': 27.81, 'lipoC3S3': 12.45, 'lipoC3S2': 8.24, 'rot1': 0, 'rot0': 0, 'rot3': 0, 'rot2': 0, 'state': 'normal', 'yaw': -0.35, 'datetime': '2018-10-03 17:42:02.955696', 'mgs': 0, 'volt': 0.957, 'depth': 2.454, 'time': 13, 'pitch': -7.5, 'roll': -0.33, 'pres': 196}
{'lipoC2': 7.26, 'lipoC3S1': 4.13, 'temp': 27.81, 'lipoC3S3': 12.46, 'lipoC3S2': 8.24, 'rot1': 0, 'rot0': 0, 'rot3': 0, 'rot2': 0, 'state': 'normal', 'yaw': -0.36, 'datetime': '2018-10-03 17:42:03.059038', 'mgs': 0, 'volt': 0.957, 'depth': 2.454, 'time': 13, 'pitch': -7.5, 'roll': -0.21, 'pres': 196}
{'lipoC2': 7.26, 'lipoC3S1': 4.13, 'temp': 27.88, 'lipoC3S3': 12.46, 'lipoC3S2': 8.24, 'rot1': 0, 'rot0': 0, 'rot3': 0, 'rot2': 0, 'state': 'normal', 'yaw': -0.36, 'datetime': '2018-10-03 17:42:03.163624', 'mgs': 0, 'volt': 0.957, 'depth': 2.454, 'time': 13, 'pitch': -7.5, 'roll': -0.12, 'pres': 196}
{'lipoC2': 7.26, 'lipoC3S1': 4.13, 'temp': 27.88, 'lipoC3S3': 12.45, 'lipoC3S2': 8.24, 'rot1': 0, 'rot0': 0, 'rot3': 0, 'rot2': 0, 'state': 'normal', 'yaw': -0.36, 'datetime': '2018-10-03 17:42:03.266935', 'mgs': 0, 'volt': 0.957, 'depth': 2.454, 'time': 13, 'pitch': -7.5, 'roll': -0.12, 'pres': 196}
{'lipoC2': 7.26, 'lipoC3S1': 4.13, 'temp': 27.88, 'lipoC3S3': 12.46, 'lipoC3S2': 8.24, 'rot1': 0, 'rot0': 0, 'rot3': 0, 'rot2': 0, 'state': 'normal', 'yaw': -0.36, 'datetime': '2018-10-03 17:42:03.375558', 'mgs': 0, 'volt': 0.957, 'depth': 2.454, 'time': 13, 'pitch': -7.5, 'roll': -0.12, 'pres': 196}
{'lipoC2': 7.26, 'lipoC3S1': 4.12, 'temp': 27.88, 'lipoC3S3': 12.46, 'lipoC3S2': 8.24, 'rot1': 0, 'rot0': 0, 'rot3': 0, 'rot2': 0, 'state': 'normal', 'yaw': -0.36, 'datetime': '2018-10-03 17:42:03.480732', 'mgs': 0, 'volt': 0.957, 'depth': 2.454, 'time': 13, 'pitch': -7.5, 'roll': -0.11, 'pres': 196}
{'lipoC2': 7.26, 'lipoC3S1': 4.12, 'temp': 27.88, 'lipoC3S3': 12.45, 'lipoC3S2': 8.24, 'rot1': 0, 'rot0': 0, 'rot3': 0, 'rot2': 0, 'state': 'normal', 'yaw': -0.39, 'datetime': '2018-10-03 17:42:03.583935', 'mgs': 0, 'volt': 0.957, 'depth': 2.454, 'time': 13, 'pitch': -7.54, 'roll': -0.09, 'pres': 196}
{'lipoC2': 7.26, 'lipoC3S1': 4.12, 'temp': 27.88, 'lipoC3S3': 12.45, 'lipoC3S2': 8.24, 'rot1': 0, 'rot0': 0, 'rot3': 0, 'rot2': 0, 'state': 'normal', 'yaw': -0.38, 'datetime': '2018-10-03 17:42:03.687283', 'mgs': 0, 'volt': 0.957, 'depth': 2.454, 'time': 13, 'pitch': -7.64, 'roll': -0.09, 'pres': 196}
{'lipoC2': 7.26, 'lipoC3S1': 4.12, 'temp': 27.88, 'lipoC3S3': 12.45, 'lipoC3S2': 8.24, 'rot1': 0, 'rot0': 0, 'rot3': 0, 'rot2': 0, 'state': 'normal', 'yaw': -0.39, 'datetime': '2018-10-03 17:42:03.791279', 'mgs': 0, 'volt': 0.957, 'depth': 2.454, 'time': 13, 'pitch': -7.74, 'roll': -0.08, 'pres': 196}
{'lipoC2': 7.26, 'lipoC3S1': 4.12, 'temp': 27.88, 'lipoC3S3': 12.45, 'lipoC3S2': 8.24, 'rot1': 0, 'rot0': 0, 'rot3': 0, 'rot2': 0, 'state': 'normal', 'yaw': -0.39, 'datetime': '2018-10-03 17:42:03.894548', 'mgs': 0, 'volt': 0.957, 'depth': 2.454, 'time': 14, 'pitch': -7.78, 'roll': -0.08, 'pres': 196}
{'lipoC2': 7.26, 'lipoC3S1': 4.12, 'temp': 27.88, 'lipoC3S3': 12.45, 'lipoC3S2': 8.24, 'rot1': 0, 'rot0': 0, 'rot3': 0, 'rot2': 0, 'state': 'normal', 'yaw': -0.39, 'datetime': '2018-10-03 17:42:03.998624', 'mgs': 0, 'volt': 0.957, 'depth': 2.454, 'time': 14, 'pitch': -7.78, 'roll': -0.08, 'pres': 196}
{'lipoC2': 7.26, 'lipoC3S1': 4.12, 'temp': 27.88, 'lipoC3S3': 12.45, 'lipoC3S2': 8.24, 'rot1': 0, 'rot0': 0, 'rot3': 0, 'rot2': 0, 'state': 'normal', 'yaw': -0.39, 'datetime': '2018-10-03 17:42:04.105353', 'mgs': 0, 'volt': 0.957, 'depth': 2.454, 'time': 14, 'pitch': -7.78, 'roll': -0.07, 'pres': 196}
{'lipoC2': 7.25, 'lipoC3S1': 4.13, 'temp': 27.88, 'lipoC3S3': 12.46, 'lipoC3S2': 8.24, 'rot1': 0, 'rot0': 0, 'rot3': 0, 'rot2': 0, 'state': 'normal', 'yaw': -0.38, 'datetime': '2018-10-03 17:42:04.206319', 'mgs': 0, 'volt': 0.957, 'depth': 2.454, 'time': 14, 'pitch': -7.77, 'roll': -0.03, 'pres': 196}
{'lipoC2': 7.26, 'lipoC3S1': 4.13, 'temp': 27.88, 'lipoC3S3': 12.46, 'lipoC3S2': 8.24, 'rot1': 0, 'rot0': 0, 'rot3': 0, 'rot2': 0, 'state': 'normal', 'yaw': -0.38, 'datetime': '2018-10-03 17:42:04.310679', 'mgs': 0, 'volt': 0.957, 'depth': 2.454, 'time': 14, 'pitch': -7.72, 'roll': -0.02, 'pres': 196}
{'lipoC2': 7.26, 'lipoC3S1': 4.12, 'temp': 27.81, 'lipoC3S3': 12.45, 'lipoC3S2': 8.24, 'rot1': 0, 'rot0': 0, 'rot3': 0, 'rot2': 0, 'state': 'normal', 'yaw': -0.39, 'datetime': '2018-10-03 17:42:04.414398', 'mgs': 0, 'volt': 0.957, 'depth': 2.454, 'time': 14, 'pitch': -7.69, 'roll': -0.03, 'pres': 196}
{'lipoC2': 7.25, 'lipoC3S1': 4.12, 'temp': 27.81, 'lipoC3S3': 12.45, 'lipoC3S2': 8.24, 'rot1': 0, 'rot0': 0, 'rot3': 0, 'rot2': 0, 'state': 'normal', 'yaw': -0.39, 'datetime': '2018-10-03 17:42:04.517768', 'mgs': 0, 'volt': 0.957, 'depth': 2.454, 'time': 14, 'pitch': -7.69, 'roll': -0.01, 'pres': 196}
{'lipoC2': 7.26, 'lipoC3S1': 4.13, 'temp': 27.88, 'lipoC3S3': 12.46, 'lipoC3S2': 8.24, 'rot1': 0, 'rot0': 0, 'rot3': 0, 'rot2': 0, 'state': 'normal', 'yaw': -0.39, 'datetime': '2018-10-03 17:42:04.622134', 'mgs': 0, 'volt': 0.957, 'depth': 2.454, 'time': 14, 'pitch': -7.69, 'roll': -0.01, 'pres': 196}
{'lipoC2': 7.26, 'lipoC3S1': 4.12, 'temp': 27.88, 'lipoC3S3': 12.45, 'lipoC3S2': 8.24, 'rot1': 0, 'rot0': 0, 'rot3': 0, 'rot2': 0, 'state': 'normal', 'yaw': -0.39, 'datetime': '2018-10-03 17:42:04.725548', 'mgs': 0, 'volt': 0.9521, 'depth': 2.377, 'time': 14, 'pitch': -7.69, 'roll': -0.01, 'pres': 195}
{'lipoC2': 7.26, 'lipoC3S1': 4.13, 'temp': 27.88, 'lipoC3S3': 12.46, 'lipoC3S2': 8.24, 'rot1': 0, 'rot0': 0, 'rot3': 0, 'rot2': 0, 'state': 'normal', 'yaw': -0.39, 'datetime': '2018-10-03 17:42:04.828950', 'mgs': 0, 'volt': 0.957, 'depth': 2.454, 'time': 15, 'pitch': -7.69, 'roll': -0.01, 'pres': 196}
{'lipoC2': 7.26, 'lipoC3S1': 4.13, 'temp': 27.88, 'lipoC3S3': 12.46, 'lipoC3S2': 8.24, 'rot1': 0, 'rot0': 0, 'rot3': 0, 'rot2': 0, 'state': 'normal', 'yaw': -0.39, 'datetime': '2018-10-03 17:42:04.933571', 'mgs': 0, 'volt': 0.957, 'depth': 2.454, 'time': 15, 'pitch': -7.69, 'roll': -0.01, 'pres': 196}
{'lipoC2': 7.26, 'lipoC3S1': 4.12, 'temp': 27.88, 'lipoC3S3': 12.45, 'lipoC3S2': 8.24, 'rot1': 0, 'rot0': 0, 'rot3': 0, 'rot2': 0, 'state': 'normal', 'yaw': -0.42, 'datetime': '2018-10-03 17:42:05.036879', 'mgs': 0, 'volt': 0.957, 'depth': 2.454, 'time': 15, 'pitch': -7.69, 'roll': -0.01, 'pres': 196}
{'lipoC2': 7.26, 'lipoC3S1': 4.12, 'temp': 27.88, 'lipoC3S3': 12.46, 'lipoC3S2': 8.24, 'rot1': 0, 'rot0': 0, 'rot3': 0, 'rot2': 0, 'state': 'normal', 'yaw': -0.42, 'datetime': '2018-10-03 17:42:05.140161', 'mgs': 0, 'volt': 0.957, 'depth': 2.454, 'time': 15, 'pitch': -7.69, 'roll': 0.01, 'pres': 196}
{'lipoC2': 7.26, 'lipoC3S1': 4.12, 'temp': 27.88, 'lipoC3S3': 12.46, 'lipoC3S2': 8.24, 'rot1': 0, 'rot0': 0, 'rot3': 0, 'rot2': 0, 'state': 'normal', 'yaw': -0.41, 'datetime': '2018-10-03 17:42:05.243492', 'mgs': 0, 'volt': 0.9521, 'depth': 2.377, 'time': 15, 'pitch': -7.68, 'roll': 0.02, 'pres': 195}
{'lipoC2': 7.26, 'lipoC3S1': 4.13, 'temp': 27.88, 'lipoC3S3': 12.46, 'lipoC3S2': 8.24, 'rot1': 0, 'rot0': 0, 'rot3': 0, 'rot2': 0, 'state': 'normal', 'yaw': -0.38, 'datetime': '2018-10-03 17:42:05.347084', 'mgs': 0, 'volt': 0.957, 'depth': 2.454, 'time': 15, 'pitch': -7.61, 'roll': 0.01, 'pres': 196}
{'lipoC2': 7.26, 'lipoC3S1': 4.12, 'temp': 27.88, 'lipoC3S3': 12.46, 'lipoC3S2': 8.24, 'rot1': 0, 'rot0': 0, 'rot3': 0, 'rot2': 0, 'state': 'normal', 'yaw': -0.39, 'datetime': '2018-10-03 17:42:05.450559', 'mgs': 0, 'volt': 0.957, 'depth': 2.454, 'time': 15, 'pitch': -7.53, 'roll': 0.01, 'pres': 196}
{'lipoC2': 7.26, 'lipoC3S1': 4.12, 'temp': 27.81, 'lipoC3S3': 12.46, 'lipoC3S2': 8.24, 'rot1': 0, 'rot0': 0, 'rot3': 0, 'rot2': 0, 'state': 'normal', 'yaw': -0.34, 'datetime': '2018-10-03 17:42:05.555116', 'mgs': 0, 'volt': 0.957, 'depth': 2.454, 'time': 15, 'pitch': -7.48, 'roll': 0.01, 'pres': 196}
{'lipoC2': 7.26, 'lipoC3S1': 4.12, 'temp': 27.81, 'lipoC3S3': 12.46, 'lipoC3S2': 8.24, 'rot1': 0, 'rot0': 0, 'rot3': 0, 'rot2': 0, 'state': 'normal', 'yaw': -0.34, 'datetime': '2018-10-03 17:42:05.658503', 'mgs': 0, 'volt': 0.957, 'depth': 2.454, 'time': 15, 'pitch': -7.48, 'roll': 0.01, 'pres': 196}
{'lipoC2': 7.26, 'lipoC3S1': 4.12, 'temp': 27.81, 'lipoC3S3': 12.45, 'lipoC3S2': 8.24, 'rot1': 0, 'rot0': 0, 'rot3': 0, 'rot2': 0, 'state': 'normal', 'yaw': -0.34, 'datetime': '2018-10-03 17:42:05.761763', 'mgs': 0, 'volt': 0.957, 'depth': 2.454, 'time': 15, 'pitch': -7.48, 'roll': 0.01, 'pres': 196}
{'lipoC2': 7.26, 'lipoC3S1': 4.12, 'temp': 27.88, 'lipoC3S3': 12.45, 'lipoC3S2': 8.24, 'rot1': 0, 'rot0': 0, 'rot3': 0, 'rot2': 0, 'state': 'normal', 'yaw': -0.34, 'datetime': '2018-10-03 17:42:05.866259', 'mgs': 0, 'volt': 0.9521, 'depth': 2.377, 'time': 16, 'pitch': -7.5, 'roll': 0.01, 'pres': 195}
{'lipoC2': 7.26, 'lipoC3S1': 4.13, 'temp': 27.88, 'lipoC3S3': 12.46, 'lipoC3S2': 8.24, 'rot1': 0, 'rot0': 0, 'rot3': 0, 'rot2': 0, 'state': 'normal', 'yaw': -0.34, 'datetime': '2018-10-03 17:42:05.969764', 'mgs': 0, 'volt': 0.9521, 'depth': 2.377, 'time': 16, 'pitch': -7.6, 'roll': -0.0, 'pres': 195}
{'lipoC2': 7.26, 'lipoC3S1': 4.13, 'temp': 27.81, 'lipoC3S3': 12.46, 'lipoC3S2': 8.24, 'rot1': 0, 'rot0': 0, 'rot3': 0, 'rot2': 0, 'state': 'normal', 'yaw': -0.38, 'datetime': '2018-10-03 17:42:06.073005', 'mgs': 0, 'volt': 0.9521, 'depth': 2.377, 'time': 16, 'pitch': -7.75, 'roll': -0.0, 'pres': 195}
{'lipoC2': 7.26, 'lipoC3S1': 4.12, 'temp': 27.81, 'lipoC3S3': 12.45, 'lipoC3S2': 8.24, 'rot1': 0, 'rot0': 0, 'rot3': 0, 'rot2': 0, 'state': 'normal', 'yaw': -0.48, 'datetime': '2018-10-03 17:42:06.177586', 'mgs': 0, 'volt': 0.957, 'depth': 2.454, 'time': 16, 'pitch': -7.92, 'roll': 0.02, 'pres': 196}
{'lipoC2': 7.26, 'lipoC3S1': 4.12, 'temp': 27.88, 'lipoC3S3': 12.46, 'lipoC3S2': 8.24, 'rot1': 0, 'rot0': 0, 'rot3': 0, 'rot2': 0, 'state': 'normal', 'yaw': -0.7, 'datetime': '2018-10-03 17:42:06.280975', 'mgs': 0, 'volt': 0.9521, 'depth': 2.377, 'time': 16, 'pitch': -8.04, 'roll': 0.02, 'pres': 195}
{'lipoC2': 7.26, 'lipoC3S1': 4.12, 'temp': 27.88, 'lipoC3S3': 12.46, 'lipoC3S2': 8.24, 'rot1': 0, 'rot0': 0, 'rot3': 0, 'rot2': 0, 'state': 'normal', 'yaw': -1.07, 'datetime': '2018-10-03 17:42:06.384314', 'mgs': 0, 'volt': 0.957, 'depth': 2.454, 'time': 16, 'pitch': -7.97, 'roll': 0.17, 'pres': 196}
{'lipoC2': 7.26, 'lipoC3S1': 4.13, 'temp': 27.88, 'lipoC3S3': 12.45, 'lipoC3S2': 8.24, 'rot1': 0, 'rot0': 0, 'rot3': 0, 'rot2': 0, 'state': 'normal', 'yaw': -1.56, 'datetime': '2018-10-03 17:42:06.488840', 'mgs': 0, 'volt': 0.9521, 'depth': 2.377, 'time': 16, 'pitch': -8.04, 'roll': 0.26, 'pres': 195}
{'lipoC2': 7.26, 'lipoC3S1': 4.13, 'temp': 27.88, 'lipoC3S3': 12.46, 'lipoC3S2': 8.24, 'rot1': 0, 'rot0': 0, 'rot3': 0, 'rot2': 0, 'state': 'normal', 'yaw': -2.38, 'datetime': '2018-10-03 17:42:06.592262', 'mgs': 0, 'volt': 0.9521, 'depth': 2.377, 'time': 16, 'pitch': -8.59, 'roll': 0.36, 'pres': 195}
{'lipoC2': 7.26, 'lipoC3S1': 4.12, 'temp': 27.88, 'lipoC3S3': 12.45, 'lipoC3S2': 8.24, 'rot1': 0, 'rot0': 0, 'rot3': 0, 'rot2': 0, 'state': 'normal', 'yaw': -3.27, 'datetime': '2018-10-03 17:42:06.695543', 'mgs': 0, 'volt': 0.9521, 'depth': 2.377, 'time': 16, 'pitch': -9.35, 'roll': 0.3, 'pres': 195}
{'lipoC2': 7.26, 'lipoC3S1': 4.13, 'temp': 27.81, 'lipoC3S3': 12.46, 'lipoC3S2': 8.24, 'rot1': 0, 'rot0': 0, 'rot3': 0, 'rot2': 0, 'state': 'normal', 'yaw': -4.16, 'datetime': '2018-10-03 17:42:06.798957', 'mgs': 0, 'volt': 0.9473, 'depth': 2.301, 'time': 16, 'pitch': -9.8, 'roll': 0.31, 'pres': 194}
{'lipoC2': 7.26, 'lipoC3S1': 4.13, 'temp': 27.81, 'lipoC3S3': 12.46, 'lipoC3S2': 8.24, 'rot1': 0, 'rot0': 0, 'rot3': 0, 'rot2': 0, 'state': 'normal', 'yaw': -5.44, 'datetime': '2018-10-03 17:42:06.902313', 'mgs': 0, 'volt': 0.9521, 'depth': 2.377, 'time': 17, 'pitch': -10.07, 'roll': 0.51, 'pres': 195}
{'lipoC2': 7.26, 'lipoC3S1': 4.13, 'temp': 27.88, 'lipoC3S3': 12.46, 'lipoC3S2': 8.24, 'rot1': 0, 'rot0': 0, 'rot3': 0, 'rot2': 0, 'state': 'normal', 'yaw': -6.76, 'datetime': '2018-10-03 17:42:07.005532', 'mgs': 0, 'volt': 0.9473, 'depth': 2.301, 'time': 17, 'pitch': -9.99, 'roll': 0.77, 'pres': 194}
{'lipoC2': 7.26, 'lipoC3S1': 4.12, 'temp': 27.88, 'lipoC3S3': 12.46, 'lipoC3S2': 8.24, 'rot1': 0, 'rot0': 0, 'rot3': 0, 'rot2': 0, 'state': 'normal', 'yaw': -8.02, 'datetime': '2018-10-03 17:42:07.110382', 'mgs': 0, 'volt': 0.9473, 'depth': 2.301, 'time': 17, 'pitch': -10.45, 'roll': 0.93, 'pres': 194}
{'lipoC2': 7.26, 'lipoC3S1': 4.12, 'temp': 27.88, 'lipoC3S3': 12.45, 'lipoC3S2': 8.24, 'rot1': 0, 'rot0': 0, 'rot3': 0, 'rot2': 0, 'state': 'normal', 'yaw': -9.5, 'datetime': '2018-10-03 17:42:07.212484', 'mgs': 0, 'volt': 0.9473, 'depth': 2.301, 'time': 17, 'pitch': -11.21, 'roll': 1.17, 'pres': 194}
{'lipoC2': 7.26, 'lipoC3S1': 4.12, 'temp': 27.88, 'lipoC3S3': 12.46, 'lipoC3S2': 8.24, 'rot1': 0, 'rot0': 0, 'rot3': 0, 'rot2': 0, 'state': 'normal', 'yaw': -11.1, 'datetime': '2018-10-03 17:42:07.315827', 'mgs': 0, 'volt': 0.9424, 'depth': 2.225, 'time': 17, 'pitch': -11.65, 'roll': 1.43, 'pres': 193}
{'lipoC2': 7.26, 'lipoC3S1': 4.12, 'temp': 27.88, 'lipoC3S3': 12.45, 'lipoC3S2': 8.24, 'rot1': 0, 'rot0': 0, 'rot3': 0, 'rot2': 0, 'state': 'normal', 'yaw': -12.28, 'datetime': '2018-10-03 17:42:07.419076', 'mgs': 0, 'volt': 0.9424, 'depth': 2.225, 'time': 17, 'pitch': -12.23, 'roll': 1.37, 'pres': 193}
{'lipoC2': 7.26, 'lipoC3S1': 4.12, 'temp': 27.88, 'lipoC3S3': 12.46, 'lipoC3S2': 8.24, 'rot1': 0, 'rot0': 0, 'rot3': 0, 'rot2': 0, 'state': 'normal', 'yaw': -13.42, 'datetime': '2018-10-03 17:42:07.523063', 'mgs': 0, 'volt': 0.9375, 'depth': 2.148, 'time': 17, 'pitch': -12.89, 'roll': 1.11, 'pres': 192}
{'lipoC2': 7.26, 'lipoC3S1': 4.12, 'temp': 27.88, 'lipoC3S3': 12.45, 'lipoC3S2': 8.24, 'rot1': 0, 'rot0': 0, 'rot3': 0, 'rot2': 0, 'state': 'normal', 'yaw': -14.62, 'datetime': '2018-10-03 17:42:07.626370', 'mgs': 0, 'volt': 0.9375, 'depth': 2.148, 'time': 17, 'pitch': -13.05, 'roll': 0.66, 'pres': 192}
{'lipoC2': 7.26, 'lipoC3S1': 4.12, 'temp': 27.88, 'lipoC3S3': 12.45, 'lipoC3S2': 8.24, 'rot1': 0, 'rot0': 0, 'rot3': 0, 'rot2': 0, 'state': 'normal', 'yaw': -15.55, 'datetime': '2018-10-03 17:42:07.729698', 'mgs': 0, 'volt': 0.9277, 'depth': 1.996, 'time': 17, 'pitch': -12.8, 'roll': 0.13, 'pres': 190}
{'lipoC2': 7.26, 'lipoC3S1': 4.12, 'temp': 27.88, 'lipoC3S3': 12.46, 'lipoC3S2': 8.24, 'rot1': 0, 'rot0': 0, 'rot3': 0, 'rot2': 0, 'state': 'normal', 'yaw': -16.19, 'datetime': '2018-10-03 17:42:07.833747', 'mgs': 0, 'volt': 0.9277, 'depth': 1.996, 'time': 18, 'pitch': -12.3, 'roll': -0.58, 'pres': 190}
{'lipoC2': 7.26, 'lipoC3S1': 4.12, 'temp': 27.88, 'lipoC3S3': 12.45, 'lipoC3S2': 8.24, 'rot1': 0, 'rot0': 0, 'rot3': 0, 'rot2': 0, 'state': 'normal', 'yaw': -16.42, 'datetime': '2018-10-03 17:42:07.937071', 'mgs': 0, 'volt': 0.9229, 'depth': 1.92, 'time': 18, 'pitch': -11.71, 'roll': -1.57, 'pres': 189}
{'lipoC2': 7.26, 'lipoC3S1': 4.12, 'temp': 27.88, 'lipoC3S3': 12.46, 'lipoC3S2': 8.24, 'rot1': 0, 'rot0': 0, 'rot3': 0, 'rot2': 0, 'state': 'normal', 'yaw': -16.23, 'datetime': '2018-10-03 17:42:08.041409', 'mgs': 0, 'volt': 0.918, 'depth': 1.843, 'time': 18, 'pitch': -11.21, 'roll': -2.6, 'pres': 188}
{'lipoC2': 7.26, 'lipoC3S1': 4.12, 'temp': 27.88, 'lipoC3S3': 12.46, 'lipoC3S2': 8.24, 'rot1': 0, 'rot0': 0, 'rot3': 0, 'rot2': 0, 'state': 'normal', 'yaw': -15.77, 'datetime': '2018-10-03 17:42:08.145196', 'mgs': 0, 'volt': 0.918, 'depth': 1.843, 'time': 18, 'pitch': -10.67, 'roll': -3.51, 'pres': 188}
{'lipoC2': 7.26, 'lipoC3S1': 4.13, 'temp': 27.88, 'lipoC3S3': 12.46, 'lipoC3S2': 8.24, 'rot1': 0, 'rot0': 0, 'rot3': 0, 'rot2': 0, 'state': 'normal', 'yaw': -14.66, 'datetime': '2018-10-03 17:42:08.248551', 'mgs': 0, 'volt': 0.9131, 'depth': 1.767, 'time': 18, 'pitch': -9.79, 'roll': -4.54, 'pres': 187}
{'lipoC2': 7.26, 'lipoC3S1': 4.12, 'temp': 27.88, 'lipoC3S3': 12.45, 'lipoC3S2': 8.24, 'rot1': 0, 'rot0': 0, 'rot3': 0, 'rot2': 0, 'state': 'normal', 'yaw': -12.79, 'datetime': '2018-10-03 17:42:08.351864', 'mgs': 0, 'volt': 0.9082, 'depth': 1.691, 'time': 18, 'pitch': -9.21, 'roll': -5.65, 'pres': 186}
{'lipoC2': 7.26, 'lipoC3S1': 4.12, 'temp': 27.81, 'lipoC3S3': 12.46, 'lipoC3S2': 8.24, 'rot1': 0, 'rot0': 0, 'rot3': 0, 'rot2': 0, 'state': 'normal', 'yaw': -9.83, 'datetime': '2018-10-03 17:42:08.455519', 'mgs': 0, 'volt': 0.9033, 'depth': 1.614, 'time': 18, 'pitch': -8.97, 'roll': -7.12, 'pres': 185}
{'lipoC2': 7.26, 'lipoC3S1': 4.12, 'temp': 27.81, 'lipoC3S3': 12.46, 'lipoC3S2': 8.24, 'rot1': 0, 'rot0': 0, 'rot3': 0, 'rot2': 0, 'state': 'normal', 'yaw': -5.66, 'datetime': '2018-10-03 17:42:08.558684', 'mgs': 0, 'volt': 0.9033, 'depth': 1.614, 'time': 18, 'pitch': -9.03, 'roll': -8.93, 'pres': 185}
{'lipoC2': 7.26, 'lipoC3S1': 4.13, 'temp': 27.81, 'lipoC3S3': 12.46, 'lipoC3S2': 8.24, 'rot1': 0, 'rot0': 0, 'rot3': 0, 'rot2': 0, 'state': 'normal', 'yaw': -1.63, 'datetime': '2018-10-03 17:42:08.662158', 'mgs': 0, 'volt': 0.8984, 'depth': 1.538, 'time': 18, 'pitch': -8.92, 'roll': -10.33, 'pres': 184}
{'lipoC2': 7.26, 'lipoC3S1': 4.12, 'temp': 27.81, 'lipoC3S3': 12.46, 'lipoC3S2': 8.24, 'rot1': 0, 'rot0': 0, 'rot3': 0, 'rot2': 0, 'state': 'normal', 'yaw': 1.8, 'datetime': '2018-10-03 17:42:08.765288', 'mgs': 0, 'volt': 0.8936, 'depth': 1.462, 'time': 18, 'pitch': -8.65, 'roll': -10.86, 'pres': 183}
{'lipoC2': 7.26, 'lipoC3S1': 4.13, 'temp': 27.81, 'lipoC3S3': 12.46, 'lipoC3S2': 8.24, 'rot1': 0, 'rot0': 0, 'rot3': 0, 'rot2': 0, 'state': 'normal', 'yaw': 4.91, 'datetime': '2018-10-03 17:42:08.868735', 'mgs': 0, 'volt': 0.8936, 'depth': 1.462, 'time': 19, 'pitch': -8.54, 'roll': -10.37, 'pres': 183}
{'lipoC2': 7.26, 'lipoC3S1': 4.12, 'temp': 27.88, 'lipoC3S3': 12.46, 'lipoC3S2': 8.24, 'rot1': 0, 'rot0': 0, 'rot3': 0, 'rot2': 0, 'state': 'normal', 'yaw': 7.07, 'datetime': '2018-10-03 17:42:08.971955', 'mgs': 0, 'volt': 0.8936, 'depth': 1.462, 'time': 19, 'pitch': -8.55, 'roll': -9.01, 'pres': 183}
{'lipoC2': 7.26, 'lipoC3S1': 4.13, 'temp': 27.88, 'lipoC3S3': 12.46, 'lipoC3S2': 8.24, 'rot1': 0, 'rot0': 0, 'rot3': 0, 'rot2': 0, 'state': 'normal', 'yaw': 9.03, 'datetime': '2018-10-03 17:42:09.075336', 'mgs': 0, 'volt': 0.8936, 'depth': 1.462, 'time': 19, 'pitch': -8.25, 'roll': -7.25, 'pres': 183}
{'lipoC2': 7.26, 'lipoC3S1': 4.12, 'temp': 27.88, 'lipoC3S3': 12.46, 'lipoC3S2': 8.24, 'rot1': 0, 'rot0': 0, 'rot3': 0, 'rot2': 0, 'state': 'normal', 'yaw': 10.79, 'datetime': '2018-10-03 17:42:09.178699', 'mgs': 0, 'volt': 0.8984, 'depth': 1.538, 'time': 19, 'pitch': -8.01, 'roll': -4.97, 'pres': 184}
{'lipoC2': 7.26, 'lipoC3S1': 4.12, 'temp': 27.88, 'lipoC3S3': 12.46, 'lipoC3S2': 8.24, 'rot1': 0, 'rot0': 0, 'rot3': 0, 'rot2': 0, 'state': 'normal', 'yaw': 12.12, 'datetime': '2018-10-03 17:42:09.282001', 'mgs': 0, 'volt': 0.8984, 'depth': 1.538, 'time': 19, 'pitch': -7.9, 'roll': -2.78, 'pres': 184}
{'lipoC2': 7.26, 'lipoC3S1': 4.13, 'temp': 27.88, 'lipoC3S3': 12.46, 'lipoC3S2': 8.24, 'rot1': 0, 'rot0': 0, 'rot3': 0, 'rot2': 0, 'state': 'normal', 'yaw': 13.46, 'datetime': '2018-10-03 17:42:09.386622', 'mgs': 0, 'volt': 0.9033, 'depth': 1.614, 'time': 19, 'pitch': -7.85, 'roll': -0.8, 'pres': 185}
{'lipoC2': 7.26, 'lipoC3S1': 4.12, 'temp': 27.88, 'lipoC3S3': 12.46, 'lipoC3S2': 8.24, 'rot1': 0, 'rot0': 0, 'rot3': 0, 'rot2': 0, 'state': 'normal', 'yaw': 15.11, 'datetime': '2018-10-03 17:42:09.489992', 'mgs': 0, 'volt': 0.9033, 'depth': 1.614, 'time': 19, 'pitch': -7.89, 'roll': 0.91, 'pres': 185}
{'lipoC2': 7.26, 'lipoC3S1': 4.12, 'temp': 27.88, 'lipoC3S3': 12.45, 'lipoC3S2': 8.24, 'rot1': 0, 'rot0': 0, 'rot3': 0, 'rot2': 0, 'state': 'normal', 'yaw': 16.72, 'datetime': '2018-10-03 17:42:09.593343', 'mgs': 0, 'volt': 0.9033, 'depth': 1.614, 'time': 19, 'pitch': -8.21, 'roll': 1.9, 'pres': 185}
{'lipoC2': 7.25, 'lipoC3S1': 4.13, 'temp': 27.88, 'lipoC3S3': 12.45, 'lipoC3S2': 8.24, 'rot1': 0, 'rot0': 0, 'rot3': 0, 'rot2': 0, 'state': 'normal', 'yaw': 18.19, 'datetime': '2018-10-03 17:42:09.697959', 'mgs': 0, 'volt': 0.9033, 'depth': 1.614, 'time': 19, 'pitch': -8.49, 'roll': 2.45, 'pres': 185}
{'lipoC2': 7.25, 'lipoC3S1': 4.12, 'temp': 27.88, 'lipoC3S3': 12.46, 'lipoC3S2': 8.24, 'rot1': 0, 'rot0': 0, 'rot3': 0, 'rot2': 0, 'state': 'normal', 'yaw': 19.55, 'datetime': '2018-10-03 17:42:09.801211', 'mgs': 0, 'volt': 0.9033, 'depth': 1.614, 'time': 19, 'pitch': -8.74, 'roll': 2.6, 'pres': 185}
{'lipoC2': 7.25, 'lipoC3S1': 4.12, 'temp': 27.88, 'lipoC3S3': 12.46, 'lipoC3S2': 8.24, 'rot1': 0, 'rot0': 0, 'rot3': 0, 'rot2': 0, 'state': 'normal', 'yaw': 20.52, 'datetime': '2018-10-03 17:42:09.904680', 'mgs': 0, 'volt': 0.9082, 'depth': 1.691, 'time': 20, 'pitch': -9.07, 'roll': 2.33, 'pres': 186}
{'lipoC2': 7.26, 'lipoC3S1': 4.13, 'temp': 27.88, 'lipoC3S3': 12.46, 'lipoC3S2': 8.24, 'rot1': 0, 'rot0': 0, 'rot3': 0, 'rot2': 0, 'state': 'normal', 'yaw': 21.25, 'datetime': '2018-10-03 17:42:10.007890', 'mgs': 0, 'volt': 0.9082, 'depth': 1.691, 'time': 20, 'pitch': -9.31, 'roll': 1.75, 'pres': 186}
{'lipoC2': 7.26, 'lipoC3S1': 4.13, 'temp': 27.88, 'lipoC3S3': 12.45, 'lipoC3S2': 8.24, 'rot1': 0, 'rot0': 0, 'rot3': 0, 'rot2': 0, 'state': 'normal', 'yaw': 21.79, 'datetime': '2018-10-03 17:42:10.111481', 'mgs': 0, 'volt': 0.9082, 'depth': 1.691, 'time': 20, 'pitch': -9.43, 'roll': 0.89, 'pres': 186}
{'lipoC2': 7.26, 'lipoC3S1': 4.13, 'temp': 27.94, 'lipoC3S3': 12.46, 'lipoC3S2': 8.24, 'rot1': 0, 'rot0': 0, 'rot3': 0, 'rot2': 0, 'state': 'normal', 'yaw': 22.2, 'datetime': '2018-10-03 17:42:10.214712', 'mgs': 0, 'volt': 0.9033, 'depth': 1.614, 'time': 20, 'pitch': -9.71, 'roll': -0.08, 'pres': 185}
{'lipoC2': 7.26, 'lipoC3S1': 4.13, 'temp': 27.94, 'lipoC3S3': 12.46, 'lipoC3S2': 8.24, 'rot1': 0, 'rot0': 0, 'rot3': 0, 'rot2': 0, 'state': 'normal', 'yaw': 22.4, 'datetime': '2018-10-03 17:42:10.317942', 'mgs': 0, 'volt': 0.9033, 'depth': 1.614, 'time': 20, 'pitch': -9.98, 'roll': -1.12, 'pres': 185}
{'lipoC2': 7.26, 'lipoC3S1': 4.12, 'temp': 27.81, 'lipoC3S3': 12.46, 'lipoC3S2': 8.24, 'rot1': 0, 'rot0': 0, 'rot3': 0, 'rot2': 0, 'state': 'normal', 'yaw': 22.28, 'datetime': '2018-10-03 17:42:10.421460', 'mgs': 0, 'volt': 0.9033, 'depth': 1.614, 'time': 20, 'pitch': -10.2, 'roll': -2.09, 'pres': 185}
