{'lipoC2': 7.23, 'lipoC3S1': 3.81, 'temp': 26.19, 'lipoC3S3': 11.52, 'lipoC3S2': 7.63, 'rot1': 102, 'rot0': 106, 'rot3': 42, 'rot2': 39, 'state': 'normal', 'yaw': -69.5, 'datetime': '2018-10-09 20:41:53.182132', 'mgs': 0, 'volt': 0.874, 'depth': 1.157, 'time': 36, 'pitch': -8.0, 'roll': 1.0, 'pres': 179}
{'lipoC2': 7.23, 'lipoC3S1': 3.81, 'temp': 26.19, 'lipoC3S3': 11.52, 'lipoC3S2': 7.63, 'rot1': 102, 'rot0': 106, 'rot3': 42, 'rot2': 39, 'state': 'normal', 'yaw': -69.38, 'datetime': '2018-10-09 20:41:56.211553', 'mgs': 0, 'volt': 0.874, 'depth': 1.157, 'time': 36, 'pitch': -8.19, 'roll': 1.5, 'pres': 179}
{'lipoC2': 7.23, 'lipoC3S1': 3.81, 'temp': 26.25, 'lipoC3S3': 11.52, 'lipoC3S2': 7.63, 'rot1': 102, 'rot0': 106, 'rot3': 42, 'rot2': 39, 'state': 'normal', 'yaw': -69.38, 'datetime': '2018-10-09 20:41:56.236589', 'mgs': 0, 'volt': 0.874, 'depth': 1.157, 'time': 36, 'pitch': -7.88, 'roll': 2.0, 'pres': 179}
{'lipoC2': 7.23, 'lipoC3S1': 3.81, 'temp': 26.25, 'lipoC3S3': 11.52, 'lipoC3S2': 7.63, 'rot1': 102, 'rot0': 106, 'rot3': 42, 'rot2': 39, 'state': 'normal', 'yaw': -69.56, 'datetime': '2018-10-09 20:41:56.261355', 'mgs': 0, 'volt': 0.874, 'depth': 1.157, 'time': 36, 'pitch': -7.13, 'roll': 2.38, 'pres': 179}
{'lipoC2': 7.23, 'lipoC3S1': 3.81, 'temp': 26.25, 'lipoC3S3': 11.52, 'lipoC3S2': 7.63, 'rot1': 102, 'rot0': 106, 'rot3': 42, 'rot2': 39, 'state': 'normal', 'yaw': -69.75, 'datetime': '2018-10-09 20:41:56.285952', 'mgs': 0, 'volt': 0.874, 'depth': 1.157, 'time': 36, 'pitch': -6.25, 'roll': 2.5, 'pres': 179}
{'lipoC2': 7.23, 'lipoC3S1': 3.81, 'temp': 26.19, 'lipoC3S3': 11.52, 'lipoC3S2': 7.63, 'rot1': 102, 'rot0': 106, 'rot3': 42, 'rot2': 39, 'state': 'normal', 'yaw': -69.94, 'datetime': '2018-10-09 20:41:56.299789', 'mgs': 0, 'volt': 0.874, 'depth': 1.157, 'time': 36, 'pitch': -5.63, 'roll': 2.44, 'pres': 179}
{'lipoC2': 7.23, 'lipoC3S1': 3.82, 'temp': 26.19, 'lipoC3S3': 11.52, 'lipoC3S2': 7.63, 'rot1': 102, 'rot0': 106, 'rot3': 42, 'rot2': 39, 'state': 'normal', 'yaw': -70.13, 'datetime': '2018-10-09 20:41:56.310164', 'mgs': 0, 'volt': 0.8789, 'depth': 1.233, 'time': 36, 'pitch': -5.5, 'roll': 2.06, 'pres': 180}
{'lipoC2': 7.23, 'lipoC3S1': 3.81, 'temp': 26.38, 'lipoC3S3': 11.52, 'lipoC3S2': 7.63, 'rot1': 102, 'rot0': 106, 'rot3': 42, 'rot2': 39, 'state': 'normal', 'yaw': -70.19, 'datetime': '2018-10-09 20:41:56.320253', 'mgs': 0, 'volt': 0.8789, 'depth': 1.233, 'time': 37, 'pitch': -5.5, 'roll': 1.44, 'pres': 180}
{'lipoC2': 7.23, 'lipoC3S1': 3.81, 'temp': 26.38, 'lipoC3S3': 11.52, 'lipoC3S2': 7.63, 'rot1': 102, 'rot0': 106, 'rot3': 42, 'rot2': 39, 'state': 'normal', 'yaw': -70.38, 'datetime': '2018-10-09 20:41:56.330014', 'mgs': 0, 'volt': 0.8789, 'depth': 1.233, 'time': 37, 'pitch': -5.38, 'roll': 0.63, 'pres': 180}
{'lipoC2': 7.23, 'lipoC3S1': 3.81, 'temp': 26.25, 'lipoC3S3': 11.52, 'lipoC3S2': 7.63, 'rot1': 102, 'rot0': 106, 'rot3': 42, 'rot2': 39, 'state': 'normal', 'yaw': -70.56, 'datetime': '2018-10-09 20:41:56.339764', 'mgs': 0, 'volt': 0.8838, 'depth': 1.309, 'time': 37, 'pitch': -5.38, 'roll': 0.0, 'pres': 181}
{'lipoC2': 7.23, 'lipoC3S1': 3.81, 'temp': 26.25, 'lipoC3S3': 11.52, 'lipoC3S2': 7.63, 'rot1': 102, 'rot0': 106, 'rot3': 42, 'rot2': 39, 'state': 'normal', 'yaw': -70.81, 'datetime': '2018-10-09 20:41:56.349505', 'mgs': 0, 'volt': 0.8838, 'depth': 1.309, 'time': 37, 'pitch': -5.44, 'roll': -0.63, 'pres': 181}
{'lipoC2': 7.23, 'lipoC3S1': 3.81, 'temp': 26.25, 'lipoC3S3': 11.52, 'lipoC3S2': 7.63, 'rot1': 102, 'rot0': 106, 'rot3': 42, 'rot2': 39, 'state': 'normal', 'yaw': -71.0, 'datetime': '2018-10-09 20:41:56.359230', 'mgs': 0, 'volt': 0.8838, 'depth': 1.309, 'time': 37, 'pitch': -5.56, 'roll': -1.31, 'pres': 181}
{'lipoC2': 7.23, 'lipoC3S1': 3.81, 'temp': 26.31, 'lipoC3S3': 11.52, 'lipoC3S2': 7.63, 'rot1': 102, 'rot0': 106, 'rot3': 42, 'rot2': 39, 'state': 'normal', 'yaw': -71.0, 'datetime': '2018-10-09 20:41:56.368936', 'mgs': 0, 'volt': 0.8838, 'depth': 1.309, 'time': 37, 'pitch': -5.75, 'roll': -1.88, 'pres': 181}
{'lipoC2': 7.23, 'lipoC3S1': 3.81, 'temp': 26.31, 'lipoC3S3': 11.52, 'lipoC3S2': 7.63, 'rot1': 102, 'rot0': 106, 'rot3': 42, 'rot2': 39, 'state': 'normal', 'yaw': -71.06, 'datetime': '2018-10-09 20:41:56.378649', 'mgs': 0, 'volt': 0.8838, 'depth': 1.309, 'time': 37, 'pitch': -5.81, 'roll': -2.38, 'pres': 181}
{'lipoC2': 7.23, 'lipoC3S1': 3.81, 'temp': 26.19, 'lipoC3S3': 11.52, 'lipoC3S2': 7.63, 'rot1': 102, 'rot0': 106, 'rot3': 42, 'rot2': 39, 'state': 'normal', 'yaw': -71.13, 'datetime': '2018-10-09 20:41:56.388568', 'mgs': 0, 'volt': 0.8838, 'depth': 1.309, 'time': 37, 'pitch': -5.75, 'roll': -2.56, 'pres': 181}
{'lipoC2': 7.23, 'lipoC3S1': 3.81, 'temp': 26.19, 'lipoC3S3': 11.52, 'lipoC3S2': 7.63, 'rot1': 102, 'rot0': 106, 'rot3': 42, 'rot2': 39, 'state': 'normal', 'yaw': -71.19, 'datetime': '2018-10-09 20:41:56.398327', 'mgs': 0, 'volt': 0.8838, 'depth': 1.309, 'time': 37, 'pitch': -5.56, 'roll': -2.56, 'pres': 181}
{'lipoC2': 7.23, 'lipoC3S1': 3.81, 'temp': 26.25, 'lipoC3S3': 11.52, 'lipoC3S2': 7.63, 'rot1': 102, 'rot0': 106, 'rot3': 42, 'rot2': 39, 'state': 'normal', 'yaw': -71.19, 'datetime': '2018-10-09 20:41:56.408025', 'mgs': 0, 'volt': 0.8838, 'depth': 1.309, 'time': 37, 'pitch': -5.5, 'roll': -2.44, 'pres': 181}
{'lipoC2': 7.22, 'lipoC3S1': 3.81, 'temp': 26.25, 'lipoC3S3': 11.52, 'lipoC3S2': 7.63, 'rot1': 102, 'rot0': 106, 'rot3': 42, 'rot2': 39, 'state': 'normal', 'yaw': -71.13, 'datetime': '2018-10-09 20:41:56.418047', 'mgs': 0, 'volt': 0.8838, 'depth': 1.309, 'time': 38, 'pitch': -5.63, 'roll': -2.06, 'pres': 181}
{'lipoC2': 7.22, 'lipoC3S1': 3.81, 'temp': 26.25, 'lipoC3S3': 11.52, 'lipoC3S2': 7.63, 'rot1': 102, 'rot0': 106, 'rot3': 42, 'rot2': 39, 'state': 'normal', 'yaw': -71.06, 'datetime': '2018-10-09 20:41:56.427806', 'mgs': 0, 'volt': 0.8887, 'depth': 1.385, 'time': 38, 'pitch': -5.56, 'roll': -1.5, 'pres': 182}
{'lipoC2': 7.23, 'lipoC3S1': 3.81, 'temp': 26.25, 'lipoC3S3': 11.52, 'lipoC3S2': 7.63, 'rot1': 102, 'rot0': 106, 'rot3': 42, 'rot2': 39, 'state': 'normal', 'yaw': -70.94, 'datetime': '2018-10-09 20:41:56.437639', 'mgs': 0, 'volt': 0.8838, 'depth': 1.309, 'time': 38, 'pitch': -5.25, 'roll': -0.88, 'pres': 181}
{'lipoC2': 7.23, 'lipoC3S1': 3.81, 'temp': 26.25, 'lipoC3S3': 11.52, 'lipoC3S2': 7.63, 'rot1': 102, 'rot0': 106, 'rot3': 42, 'rot2': 39, 'state': 'normal', 'yaw': -70.75, 'datetime': '2018-10-09 20:41:56.447385', 'mgs': 0, 'volt': 0.8838, 'depth': 1.309, 'time': 38, 'pitch': -5.13, 'roll': -0.19, 'pres': 181}
{'lipoC2': 7.23, 'lipoC3S1': 3.81, 'temp': 26.25, 'lipoC3S3': 11.52, 'lipoC3S2': 7.63, 'rot1': 102, 'rot0': 106, 'rot3': 42, 'rot2': 39, 'state': 'normal', 'yaw': -70.5, 'datetime': '2018-10-09 20:41:56.457609', 'mgs': 0, 'volt': 0.8887, 'depth': 1.385, 'time': 38, 'pitch': -5.25, 'roll': 0.5, 'pres': 182}
{'lipoC2': 7.23, 'lipoC3S1': 3.81, 'temp': 26.25, 'lipoC3S3': 11.52, 'lipoC3S2': 7.63, 'rot1': 102, 'rot0': 106, 'rot3': 42, 'rot2': 39, 'state': 'normal', 'yaw': -70.25, 'datetime': '2018-10-09 20:41:56.467473', 'mgs': 0, 'volt': 0.8838, 'depth': 1.309, 'time': 38, 'pitch': -5.5, 'roll': 1.19, 'pres': 181}
{'lipoC2': 7.23, 'lipoC3S1': 3.69, 'temp': 26.19, 'lipoC3S3': 11.48, 'lipoC3S2': 7.56, 'rot1': 25, 'rot0': 27, 'rot3': 0, 'rot2': 0, 'state': 'normal', 'yaw': 0.0, 'datetime': '2018-10-09 20:41:59.179318', 'mgs': 0, 'volt': 0.8887, 'depth': 1.385, 'time': 5, 'pitch': -0.06, 'roll': -0.06, 'pres': 182}
{'lipoC2': 7.23, 'lipoC3S1': 3.81, 'temp': 26.19, 'lipoC3S3': 11.51, 'lipoC3S2': 7.62, 'rot1': 26, 'rot0': 27, 'rot3': 0, 'rot2': 0, 'state': 'normal', 'yaw': 0.0, 'datetime': '2018-10-09 20:41:59.282272', 'mgs': 0, 'volt': 0.8887, 'depth': 1.385, 'time': 6, 'pitch': -0.06, 'roll': -0.06, 'pres': 182}
{'lipoC2': 7.22, 'lipoC3S1': 3.81, 'temp': 26.19, 'lipoC3S3': 11.51, 'lipoC3S2': 7.62, 'rot1': 26, 'rot0': 28, 'rot3': 0, 'rot2': 0, 'state': 'normal', 'yaw': 0.0, 'datetime': '2018-10-09 20:41:59.383887', 'mgs': 0, 'volt': 0.8887, 'depth': 1.385, 'time': 6, 'pitch': -0.06, 'roll': -0.06, 'pres': 182}
{'lipoC2': 7.23, 'lipoC3S1': 3.81, 'temp': 26.19, 'lipoC3S3': 11.51, 'lipoC3S2': 7.57, 'rot1': 26, 'rot0': 28, 'rot3': 0, 'rot2': 0, 'state': 'normal', 'yaw': 0.06, 'datetime': '2018-10-09 20:41:59.486694', 'mgs': 0, 'volt': 0.8838, 'depth': 1.309, 'time': 6, 'pitch': 0.0, 'roll': 0.0, 'pres': 181}
{'lipoC2': 7.22, 'lipoC3S1': 3.8, 'temp': 26.25, 'lipoC3S3': 11.47, 'lipoC3S2': 7.62, 'rot1': 27, 'rot0': 28, 'rot3': 0, 'rot2': 0, 'state': 'normal', 'yaw': 0.06, 'datetime': '2018-10-09 20:41:59.590082', 'mgs': 0, 'volt': 0.8838, 'depth': 1.309, 'time': 6, 'pitch': 0.0, 'roll': 0.0, 'pres': 181}
{'lipoC2': 7.22, 'lipoC3S1': 3.81, 'temp': 26.25, 'lipoC3S3': 11.51, 'lipoC3S2': 7.62, 'rot1': 27, 'rot0': 28, 'rot3': 0, 'rot2': 0, 'state': 'normal', 'yaw': 0.06, 'datetime': '2018-10-09 20:41:59.693684', 'mgs': 0, 'volt': 0.8887, 'depth': 1.385, 'time': 6, 'pitch': 0.0, 'roll': 0.0, 'pres': 182}
{'lipoC2': 7.23, 'lipoC3S1': 3.81, 'temp': 26.25, 'lipoC3S3': 11.51, 'lipoC3S2': 7.61, 'rot1': 27, 'rot0': 29, 'rot3': 0, 'rot2': 0, 'state': 'normal', 'yaw': 0.06, 'datetime': '2018-10-09 20:41:59.797409', 'mgs': 0, 'volt': 0.8887, 'depth': 1.385, 'time': 6, 'pitch': 0.0, 'roll': 0.0, 'pres': 182}
{'lipoC2': 7.22, 'lipoC3S1': 3.81, 'temp': 26.25, 'lipoC3S3': 11.51, 'lipoC3S2': 7.62, 'rot1': 28, 'rot0': 29, 'rot3': 0, 'rot2': 0, 'state': 'normal', 'yaw': 0.06, 'datetime': '2018-10-09 20:41:59.900954', 'mgs': 0, 'volt': 0.8887, 'depth': 1.385, 'time': 6, 'pitch': 0.0, 'roll': 0.0, 'pres': 182}
{'lipoC2': 7.22, 'lipoC3S1': 3.78, 'temp': 26.25, 'lipoC3S3': 11.51, 'lipoC3S2': 7.62, 'rot1': 28, 'rot0': 29, 'rot3': 0, 'rot2': 0, 'state': 'normal', 'yaw': 0.06, 'datetime': '2018-10-09 20:42:00.004494', 'mgs': 0, 'volt': 0.8887, 'depth': 1.385, 'time': 6, 'pitch': 0.0, 'roll': 0.0, 'pres': 182}
{'lipoC2': 7.23, 'lipoC3S1': 3.81, 'temp': 26.25, 'lipoC3S3': 11.51, 'lipoC3S2': 7.58, 'rot1': 28, 'rot0': 29, 'rot3': 0, 'rot2': 0, 'state': 'normal', 'yaw': 0.06, 'datetime': '2018-10-09 20:42:00.108123', 'mgs': 0, 'volt': 0.8887, 'depth': 1.385, 'time': 6, 'pitch': 0.0, 'roll': 0.0, 'pres': 182}
{'lipoC2': 7.23, 'lipoC3S1': 3.8, 'temp': 26.25, 'lipoC3S3': 11.48, 'lipoC3S2': 7.62, 'rot1': 28, 'rot0': 30, 'rot3': 0, 'rot2': 0, 'state': 'normal', 'yaw': 0.06, 'datetime': '2018-10-09 20:42:00.211752', 'mgs': 0, 'volt': 0.8887, 'depth': 1.385, 'time': 6, 'pitch': 0.0, 'roll': 0.0, 'pres': 182}
{'lipoC2': 7.22, 'lipoC3S1': 3.81, 'temp': 26.25, 'lipoC3S3': 11.51, 'lipoC3S2': 7.62, 'rot1': 29, 'rot0': 30, 'rot3': 0, 'rot2': 0, 'state': 'normal', 'yaw': 0.06, 'datetime': '2018-10-09 20:42:00.315280', 'mgs': 0, 'volt': 0.8887, 'depth': 1.385, 'time': 7, 'pitch': 0.0, 'roll': 0.0, 'pres': 182}
{'lipoC2': 7.22, 'lipoC3S1': 3.81, 'temp': 26.25, 'lipoC3S3': 11.51, 'lipoC3S2': 7.62, 'rot1': 29, 'rot0': 30, 'rot3': 0, 'rot2': 0, 'state': 'normal', 'yaw': 0.06, 'datetime': '2018-10-09 20:42:00.420187', 'mgs': 0, 'volt': 0.8887, 'depth': 1.385, 'time': 7, 'pitch': 0.0, 'roll': 0.0, 'pres': 182}
{'lipoC2': 7.22, 'lipoC3S1': 3.81, 'temp': 26.25, 'lipoC3S3': 11.51, 'lipoC3S2': 7.62, 'rot1': 29, 'rot0': 30, 'rot3': 0, 'rot2': 0, 'state': 'normal', 'yaw': 0.06, 'datetime': '2018-10-09 20:42:00.522670', 'mgs': 0, 'volt': 0.8936, 'depth': 1.462, 'time': 7, 'pitch': 0.0, 'roll': 0.0, 'pres': 183}
{'lipoC2': 7.22, 'lipoC3S1': 3.78, 'temp': 26.19, 'lipoC3S3': 11.51, 'lipoC3S2': 7.62, 'rot1': 29, 'rot0': 31, 'rot3': 0, 'rot2': 0, 'state': 'normal', 'yaw': 0.06, 'datetime': '2018-10-09 20:42:00.625982', 'mgs': 0, 'volt': 0.8936, 'depth': 1.462, 'time': 7, 'pitch': 0.0, 'roll': 0.0, 'pres': 183}
{'lipoC2': 7.23, 'lipoC3S1': 3.81, 'temp': 26.19, 'lipoC3S3': 11.51, 'lipoC3S2': 7.62, 'rot1': 30, 'rot0': 31, 'rot3': 0, 'rot2': 0, 'state': 'normal', 'yaw': 0.06, 'datetime': '2018-10-09 20:42:00.730680', 'mgs': 0, 'volt': 0.8936, 'depth': 1.462, 'time': 7, 'pitch': 0.0, 'roll': 0.0, 'pres': 183}
{'lipoC2': 7.22, 'lipoC3S1': 3.81, 'temp': 26.25, 'lipoC3S3': 11.51, 'lipoC3S2': 7.62, 'rot1': 30, 'rot0': 31, 'rot3': 0, 'rot2': 0, 'state': 'normal', 'yaw': 0.06, 'datetime': '2018-10-09 20:42:00.833843', 'mgs': 0, 'volt': 0.8936, 'depth': 1.462, 'time': 7, 'pitch': 0.0, 'roll': 0.0, 'pres': 183}
{'lipoC2': 7.22, 'lipoC3S1': 3.81, 'temp': 26.25, 'lipoC3S3': 11.51, 'lipoC3S2': 7.62, 'rot1': 30, 'rot0': 31, 'rot3': 0, 'rot2': 0, 'state': 'normal', 'yaw': 0.06, 'datetime': '2018-10-09 20:42:00.937279', 'mgs': 0, 'volt': 0.8936, 'depth': 1.462, 'time': 7, 'pitch': 0.0, 'roll': 0.0, 'pres': 183}
{'lipoC2': 7.22, 'lipoC3S1': 3.81, 'temp': 26.25, 'lipoC3S3': 11.51, 'lipoC3S2': 7.62, 'rot1': 30, 'rot0': 32, 'rot3': 0, 'rot2': 0, 'state': 'normal', 'yaw': 0.06, 'datetime': '2018-10-09 20:42:01.042004', 'mgs': 0, 'volt': 0.8936, 'depth': 1.462, 'time': 7, 'pitch': 0.0, 'roll': 0.0, 'pres': 183}
{'lipoC2': 7.23, 'lipoC3S1': 3.81, 'temp': 26.25, 'lipoC3S3': 11.51, 'lipoC3S2': 7.62, 'rot1': 31, 'rot0': 32, 'rot3': 0, 'rot2': 0, 'state': 'normal', 'yaw': 0.06, 'datetime': '2018-10-09 20:42:01.137778', 'mgs': 0, 'volt': 0.8936, 'depth': 1.462, 'time': 7, 'pitch': 0.0, 'roll': 0.0, 'pres': 183}
{'lipoC2': 7.22, 'lipoC3S1': 3.8, 'temp': 26.25, 'lipoC3S3': 11.51, 'lipoC3S2': 7.62, 'rot1': 31, 'rot0': 32, 'rot3': 0, 'rot2': 0, 'state': 'normal', 'yaw': 0.06, 'datetime': '2018-10-09 20:42:01.241576', 'mgs': 0, 'volt': 0.8984, 'depth': 1.538, 'time': 7, 'pitch': 0.0, 'roll': 0.0, 'pres': 184}
{'lipoC2': 7.22, 'lipoC3S1': 3.81, 'temp': 26.25, 'lipoC3S3': 11.51, 'lipoC3S2': 7.62, 'rot1': 31, 'rot0': 32, 'rot3': 0, 'rot2': 0, 'state': 'normal', 'yaw': 0.06, 'datetime': '2018-10-09 20:42:01.344922', 'mgs': 0, 'volt': 0.8984, 'depth': 1.538, 'time': 8, 'pitch': 0.0, 'roll': 0.0, 'pres': 184}
{'lipoC2': 7.23, 'lipoC3S1': 3.81, 'temp': 26.25, 'lipoC3S3': 11.51, 'lipoC3S2': 7.62, 'rot1': 31, 'rot0': 32, 'rot3': 0, 'rot2': 0, 'state': 'normal', 'yaw': 0.06, 'datetime': '2018-10-09 20:42:01.448450', 'mgs': 0, 'volt': 0.9033, 'depth': 1.614, 'time': 8, 'pitch': 0.0, 'roll': 0.0, 'pres': 185}
{'lipoC2': 7.22, 'lipoC3S1': 3.81, 'temp': 26.19, 'lipoC3S3': 11.51, 'lipoC3S2': 7.62, 'rot1': 32, 'rot0': 33, 'rot3': 0, 'rot2': 0, 'state': 'normal', 'yaw': 0.06, 'datetime': '2018-10-09 20:42:01.552120', 'mgs': 0, 'volt': 0.8984, 'depth': 1.538, 'time': 8, 'pitch': 0.0, 'roll': 0.0, 'pres': 184}
{'lipoC2': 7.23, 'lipoC3S1': 3.81, 'temp': 26.19, 'lipoC3S3': 11.51, 'lipoC3S2': 7.62, 'rot1': 32, 'rot0': 33, 'rot3': 0, 'rot2': 0, 'state': 'normal', 'yaw': 0.06, 'datetime': '2018-10-09 20:42:01.655484', 'mgs': 0, 'volt': 0.9033, 'depth': 1.614, 'time': 8, 'pitch': 0.0, 'roll': 0.0, 'pres': 185}
{'lipoC2': 7.22, 'lipoC3S1': 3.81, 'temp': 26.25, 'lipoC3S3': 11.51, 'lipoC3S2': 7.62, 'rot1': 32, 'rot0': 33, 'rot3': 0, 'rot2': 0, 'state': 'normal', 'yaw': 0.06, 'datetime': '2018-10-09 20:42:01.758844', 'mgs': 0, 'volt': 0.918, 'depth': 1.843, 'time': 8, 'pitch': 0.0, 'roll': 0.0, 'pres': 188}
{'lipoC2': 7.22, 'lipoC3S1': 3.81, 'temp': 26.25, 'lipoC3S3': 11.51, 'lipoC3S2': 7.62, 'rot1': 32, 'rot0': 33, 'rot3': 0, 'rot2': 0, 'state': 'normal', 'yaw': 0.06, 'datetime': '2018-10-09 20:42:01.862663', 'mgs': 0, 'volt': 0.9033, 'depth': 1.614, 'time': 8, 'pitch': 0.0, 'roll': 0.0, 'pres': 185}
{'lipoC2': 7.22, 'lipoC3S1': 3.8, 'temp': 26.25, 'lipoC3S3': 11.51, 'lipoC3S2': 7.62, 'rot1': 33, 'rot0': 34, 'rot3': 0, 'rot2': 0, 'state': 'normal', 'yaw': 0.06, 'datetime': '2018-10-09 20:42:01.966152', 'mgs': 0, 'volt': 0.9033, 'depth': 1.614, 'time': 8, 'pitch': 0.0, 'roll': 0.0, 'pres': 185}
{'lipoC2': 7.22, 'lipoC3S1': 3.81, 'temp': 26.25, 'lipoC3S3': 11.51, 'lipoC3S2': 7.63, 'rot1': 33, 'rot0': 34, 'rot3': 0, 'rot2': 0, 'state': 'normal', 'yaw': 0.06, 'datetime': '2018-10-09 20:42:02.069957', 'mgs': 0, 'volt': 0.9033, 'depth': 1.614, 'time': 8, 'pitch': 0.0, 'roll': 0.0, 'pres': 185}
{'lipoC2': 7.23, 'lipoC3S1': 3.81, 'temp': 26.25, 'lipoC3S3': 11.48, 'lipoC3S2': 7.62, 'rot1': 33, 'rot0': 34, 'rot3': 0, 'rot2': 0, 'state': 'normal', 'yaw': 0.06, 'datetime': '2018-10-09 20:42:02.173396', 'mgs': 0, 'volt': 0.9033, 'depth': 1.614, 'time': 8, 'pitch': 0.0, 'roll': 0.0, 'pres': 185}
{'lipoC2': 7.23, 'lipoC3S1': 3.81, 'temp': 26.25, 'lipoC3S3': 11.51, 'lipoC3S2': 7.62, 'rot1': 33, 'rot0': 34, 'rot3': 0, 'rot2': 0, 'state': 'normal', 'yaw': 0.06, 'datetime': '2018-10-09 20:42:02.276967', 'mgs': 0, 'volt': 0.9033, 'depth': 1.614, 'time': 9, 'pitch': 0.0, 'roll': 0.0, 'pres': 185}
{'lipoC2': 7.22, 'lipoC3S1': 3.81, 'temp': 26.25, 'lipoC3S3': 11.51, 'lipoC3S2': 7.62, 'rot1': 34, 'rot0': 35, 'rot3': 0, 'rot2': 0, 'state': 'normal', 'yaw': 0.06, 'datetime': '2018-10-09 20:42:02.380505', 'mgs': 0, 'volt': 0.9082, 'depth': 1.691, 'time': 9, 'pitch': 0.0, 'roll': 0.0, 'pres': 186}
{'lipoC2': 7.22, 'lipoC3S1': 3.81, 'temp': 26.25, 'lipoC3S3': 11.51, 'lipoC3S2': 7.62, 'rot1': 34, 'rot0': 35, 'rot3': 0, 'rot2': 0, 'state': 'normal', 'yaw': 0.06, 'datetime': '2018-10-09 20:42:02.484206', 'mgs': 0, 'volt': 0.9033, 'depth': 1.614, 'time': 9, 'pitch': 0.0, 'roll': 0.0, 'pres': 185}
{'lipoC2': 7.22, 'lipoC3S1': 3.81, 'temp': 26.25, 'lipoC3S3': 11.51, 'lipoC3S2': 7.62, 'rot1': 34, 'rot0': 35, 'rot3': 0, 'rot2': 0, 'state': 'normal', 'yaw': 0.06, 'datetime': '2018-10-09 20:42:02.587630', 'mgs': 0, 'volt': 0.9082, 'depth': 1.691, 'time': 9, 'pitch': 0.0, 'roll': 0.0, 'pres': 186}
{'lipoC2': 7.22, 'lipoC3S1': 3.81, 'temp': 26.25, 'lipoC3S3': 11.51, 'lipoC3S2': 7.62, 'rot1': 34, 'rot0': 35, 'rot3': 0, 'rot2': 0, 'state': 'normal', 'yaw': 0.06, 'datetime': '2018-10-09 20:42:02.691257', 'mgs': 0, 'volt': 0.9082, 'depth': 1.691, 'time': 9, 'pitch': 0.0, 'roll': 0.0, 'pres': 186}
{'lipoC2': 7.22, 'lipoC3S1': 3.81, 'temp': 26.19, 'lipoC3S3': 11.51, 'lipoC3S2': 7.62, 'rot1': 35, 'rot0': 36, 'rot3': 0, 'rot2': 0, 'state': 'normal', 'yaw': 0.06, 'datetime': '2018-10-09 20:42:02.794788', 'mgs': 0, 'volt': 0.9082, 'depth': 1.691, 'time': 9, 'pitch': 0.0, 'roll': 0.0, 'pres': 186}
{'lipoC2': 7.22, 'lipoC3S1': 3.81, 'temp': 26.19, 'lipoC3S3': 11.47, 'lipoC3S2': 7.62, 'rot1': 35, 'rot0': 36, 'rot3': 0, 'rot2': 0, 'state': 'normal', 'yaw': 0.06, 'datetime': '2018-10-09 20:42:02.898372', 'mgs': 0, 'volt': 0.9082, 'depth': 1.691, 'time': 9, 'pitch': 0.0, 'roll': 0.0, 'pres': 186}
{'lipoC2': 7.22, 'lipoC3S1': 3.81, 'temp': 26.19, 'lipoC3S3': 11.51, 'lipoC3S2': 7.62, 'rot1': 35, 'rot0': 36, 'rot3': 0, 'rot2': 0, 'state': 'normal', 'yaw': 0.06, 'datetime': '2018-10-09 20:42:03.001871', 'mgs': 0, 'volt': 0.9082, 'depth': 1.691, 'time': 9, 'pitch': 0.0, 'roll': 0.0, 'pres': 186}
{'lipoC2': 7.22, 'lipoC3S1': 3.81, 'temp': 26.19, 'lipoC3S3': 11.51, 'lipoC3S2': 7.62, 'rot1': 35, 'rot0': 36, 'rot3': 0, 'rot2': 0, 'state': 'normal', 'yaw': 0.06, 'datetime': '2018-10-09 20:42:03.105787', 'mgs': 0, 'volt': 0.9033, 'depth': 1.614, 'time': 9, 'pitch': 0.0, 'roll': 0.0, 'pres': 185}
{'lipoC2': 7.22, 'lipoC3S1': 3.81, 'temp': 26.19, 'lipoC3S3': 11.51, 'lipoC3S2': 7.62, 'rot1': 35, 'rot0': 37, 'rot3': 0, 'rot2': 0, 'state': 'normal', 'yaw': 0.06, 'datetime': '2018-10-09 20:42:03.209112', 'mgs': 0, 'volt': 0.9082, 'depth': 1.691, 'time': 9, 'pitch': 0.0, 'roll': 0.0, 'pres': 186}
{'lipoC2': 7.22, 'lipoC3S1': 3.79, 'temp': 26.19, 'lipoC3S3': 11.51, 'lipoC3S2': 7.62, 'rot1': 36, 'rot0': 37, 'rot3': 0, 'rot2': 0, 'state': 'normal', 'yaw': 0.06, 'datetime': '2018-10-09 20:42:03.312840', 'mgs': 0, 'volt': 0.9082, 'depth': 1.691, 'time': 10, 'pitch': 0.0, 'roll': 0.0, 'pres': 186}
{'lipoC2': 7.23, 'lipoC3S1': 3.81, 'temp': 26.19, 'lipoC3S3': 11.51, 'lipoC3S2': 7.62, 'rot1': 36, 'rot0': 37, 'rot3': 0, 'rot2': 0, 'state': 'normal', 'yaw': 0.06, 'datetime': '2018-10-09 20:42:03.416529', 'mgs': 0, 'volt': 0.9082, 'depth': 1.691, 'time': 10, 'pitch': 0.0, 'roll': 0.0, 'pres': 186}
{'lipoC2': 7.22, 'lipoC3S1': 3.81, 'temp': 26.19, 'lipoC3S3': 11.51, 'lipoC3S2': 7.62, 'rot1': 36, 'rot0': 37, 'rot3': 0, 'rot2': 0, 'state': 'normal', 'yaw': 0.06, 'datetime': '2018-10-09 20:42:03.520520', 'mgs': 0, 'volt': 0.9082, 'depth': 1.691, 'time': 10, 'pitch': 0.0, 'roll': 0.0, 'pres': 186}
{'lipoC2': 7.23, 'lipoC3S1': 3.81, 'temp': 26.19, 'lipoC3S3': 11.51, 'lipoC3S2': 7.62, 'rot1': 36, 'rot0': 38, 'rot3': 0, 'rot2': 0, 'state': 'normal', 'yaw': 0.06, 'datetime': '2018-10-09 20:42:03.623823', 'mgs': 0, 'volt': 0.9326, 'depth': 2.072, 'time': 10, 'pitch': 0.0, 'roll': 0.0, 'pres': 191}
{'lipoC2': 7.22, 'lipoC3S1': 3.81, 'temp': 26.25, 'lipoC3S3': 11.51, 'lipoC3S2': 7.62, 'rot1': 37, 'rot0': 38, 'rot3': 0, 'rot2': 0, 'state': 'normal', 'yaw': 0.06, 'datetime': '2018-10-09 20:42:03.727866', 'mgs': 0, 'volt': 0.9082, 'depth': 1.691, 'time': 10, 'pitch': 0.0, 'roll': 0.0, 'pres': 186}
{'lipoC2': 7.22, 'lipoC3S1': 3.81, 'temp': 26.25, 'lipoC3S3': 11.51, 'lipoC3S2': 7.62, 'rot1': 37, 'rot0': 38, 'rot3': 0, 'rot2': 0, 'state': 'normal', 'yaw': 0.06, 'datetime': '2018-10-09 20:42:03.830977', 'mgs': 0, 'volt': 0.9082, 'depth': 1.691, 'time': 10, 'pitch': 0.0, 'roll': 0.0, 'pres': 186}
{'lipoC2': 7.22, 'lipoC3S1': 3.81, 'temp': 26.19, 'lipoC3S3': 11.51, 'lipoC3S2': 7.62, 'rot1': 37, 'rot0': 38, 'rot3': 0, 'rot2': 0, 'state': 'normal', 'yaw': 0.06, 'datetime': '2018-10-09 20:42:03.936380', 'mgs': 0, 'volt': 0.9082, 'depth': 1.691, 'time': 10, 'pitch': 0.0, 'roll': 0.0, 'pres': 186}
{'lipoC2': 7.22, 'lipoC3S1': 3.81, 'temp': 26.19, 'lipoC3S3': 11.51, 'lipoC3S2': 7.62, 'rot1': 37, 'rot0': 39, 'rot3': 0, 'rot2': 0, 'state': 'normal', 'yaw': 0.06, 'datetime': '2018-10-09 20:42:04.042563', 'mgs': 0, 'volt': 0.9131, 'depth': 1.767, 'time': 10, 'pitch': 0.0, 'roll': 0.0, 'pres': 187}
{'lipoC2': 7.22, 'lipoC3S1': 3.81, 'temp': 26.19, 'lipoC3S3': 11.51, 'lipoC3S2': 7.62, 'rot1': 38, 'rot0': 39, 'rot3': 0, 'rot2': 0, 'state': 'normal', 'yaw': 0.06, 'datetime': '2018-10-09 20:42:04.145960', 'mgs': 0, 'volt': 0.9131, 'depth': 1.767, 'time': 10, 'pitch': 0.0, 'roll': 0.0, 'pres': 187}
{'lipoC2': 7.22, 'lipoC3S1': 3.81, 'temp': 26.19, 'lipoC3S3': 11.51, 'lipoC3S2': 7.62, 'rot1': 38, 'rot0': 39, 'rot3': 0, 'rot2': 0, 'state': 'normal', 'yaw': 0.06, 'datetime': '2018-10-09 20:42:04.249276', 'mgs': 0, 'volt': 0.9082, 'depth': 1.691, 'time': 10, 'pitch': 0.0, 'roll': 0.0, 'pres': 186}
{'lipoC2': 7.22, 'lipoC3S1': 3.81, 'temp': 26.19, 'lipoC3S3': 11.51, 'lipoC3S2': 7.62, 'rot1': 38, 'rot0': 39, 'rot3': 0, 'rot2': 0, 'state': 'normal', 'yaw': 0.06, 'datetime': '2018-10-09 20:42:04.352955', 'mgs': 0, 'volt': 0.9131, 'depth': 1.767, 'time': 11, 'pitch': 0.0, 'roll': 0.0, 'pres': 187}
{'lipoC2': 7.22, 'lipoC3S1': 3.77, 'temp': 26.25, 'lipoC3S3': 11.51, 'lipoC3S2': 7.62, 'rot1': 38, 'rot0': 40, 'rot3': 0, 'rot2': 0, 'state': 'normal', 'yaw': 0.06, 'datetime': '2018-10-09 20:42:04.456698', 'mgs': 0, 'volt': 0.9082, 'depth': 1.691, 'time': 11, 'pitch': 0.0, 'roll': 0.0, 'pres': 186}
{'lipoC2': 7.22, 'lipoC3S1': 3.81, 'temp': 26.25, 'lipoC3S3': 11.51, 'lipoC3S2': 7.62, 'rot1': 39, 'rot0': 40, 'rot3': 0, 'rot2': 0, 'state': 'normal', 'yaw': 0.06, 'datetime': '2018-10-09 20:42:04.560493', 'mgs': 0, 'volt': 0.9131, 'depth': 1.767, 'time': 11, 'pitch': 0.0, 'roll': 0.0, 'pres': 187}
{'lipoC2': 7.22, 'lipoC3S1': 3.81, 'temp': 26.19, 'lipoC3S3': 11.51, 'lipoC3S2': 7.62, 'rot1': 39, 'rot0': 40, 'rot3': 0, 'rot2': 0, 'state': 'normal', 'yaw': 0.06, 'datetime': '2018-10-09 20:42:04.664044', 'mgs': 0, 'volt': 0.9131, 'depth': 1.767, 'time': 11, 'pitch': 0.0, 'roll': 0.0, 'pres': 187}
{'lipoC2': 7.22, 'lipoC3S1': 3.81, 'temp': 26.19, 'lipoC3S3': 11.51, 'lipoC3S2': 7.62, 'rot1': 39, 'rot0': 40, 'rot3': 0, 'rot2': 0, 'state': 'normal', 'yaw': 0.06, 'datetime': '2018-10-09 20:42:04.767746', 'mgs': 0, 'volt': 0.9082, 'depth': 1.691, 'time': 11, 'pitch': 0.0, 'roll': 0.0, 'pres': 186}
{'lipoC2': 7.23, 'lipoC3S1': 3.81, 'temp': 26.19, 'lipoC3S3': 11.51, 'lipoC3S2': 7.62, 'rot1': 39, 'rot0': 41, 'rot3': 0, 'rot2': 0, 'state': 'normal', 'yaw': 0.06, 'datetime': '2018-10-09 20:42:04.871487', 'mgs': 0, 'volt': 0.9082, 'depth': 1.691, 'time': 11, 'pitch': 0.0, 'roll': 0.0, 'pres': 186}
{'lipoC2': 7.23, 'lipoC3S1': 3.81, 'temp': 26.25, 'lipoC3S3': 11.52, 'lipoC3S2': 7.62, 'rot1': 40, 'rot0': 41, 'rot3': 0, 'rot2': 0, 'state': 'normal', 'yaw': 0.06, 'datetime': '2018-10-09 20:42:04.979098', 'mgs': 0, 'volt': 0.9131, 'depth': 1.767, 'time': 11, 'pitch': 0.0, 'roll': 0.0, 'pres': 187}
{'lipoC2': 7.23, 'lipoC3S1': 3.81, 'temp': 26.25, 'lipoC3S3': 11.51, 'lipoC3S2': 7.62, 'rot1': 40, 'rot0': 41, 'rot3': 0, 'rot2': 0, 'state': 'normal', 'yaw': 0.06, 'datetime': '2018-10-09 20:42:05.078987', 'mgs': 0, 'volt': 0.9082, 'depth': 1.691, 'time': 11, 'pitch': 0.0, 'roll': 0.0, 'pres': 186}
{'lipoC2': 7.22, 'lipoC3S1': 3.8, 'temp': 26.25, 'lipoC3S3': 11.51, 'lipoC3S2': 7.62, 'rot1': 40, 'rot0': 41, 'rot3': 0, 'rot2': 0, 'state': 'normal', 'yaw': 0.06, 'datetime': '2018-10-09 20:42:05.179673', 'mgs': 0, 'volt': 0.9131, 'depth': 1.767, 'time': 11, 'pitch': 0.0, 'roll': 0.0, 'pres': 187}
{'lipoC2': 7.22, 'lipoC3S1': 3.81, 'temp': 26.25, 'lipoC3S3': 11.51, 'lipoC3S2': 7.62, 'rot1': 40, 'rot0': 42, 'rot3': 0, 'rot2': 0, 'state': 'normal', 'yaw': 0.06, 'datetime': '2018-10-09 20:42:05.286399', 'mgs': 0, 'volt': 0.9131, 'depth': 1.767, 'time': 12, 'pitch': 0.0, 'roll': 0.0, 'pres': 187}
{'lipoC2': 7.22, 'lipoC3S1': 3.81, 'temp': 26.25, 'lipoC3S3': 11.51, 'lipoC3S2': 7.62, 'rot1': 41, 'rot0': 42, 'rot3': 0, 'rot2': 0, 'state': 'normal', 'yaw': 0.06, 'datetime': '2018-10-09 20:42:05.390009', 'mgs': 0, 'volt': 0.9131, 'depth': 1.767, 'time': 12, 'pitch': 0.0, 'roll': 0.0, 'pres': 187}
{'lipoC2': 7.22, 'lipoC3S1': 3.81, 'temp': 26.25, 'lipoC3S3': 11.51, 'lipoC3S2': 7.62, 'rot1': 41, 'rot0': 42, 'rot3': 0, 'rot2': 0, 'state': 'normal', 'yaw': 0.06, 'datetime': '2018-10-09 20:42:05.493727', 'mgs': 0, 'volt': 0.9131, 'depth': 1.767, 'time': 12, 'pitch': 0.0, 'roll': 0.0, 'pres': 187}
{'lipoC2': 7.23, 'lipoC3S1': 3.78, 'temp': 26.25, 'lipoC3S3': 11.51, 'lipoC3S2': 7.62, 'rot1': 41, 'rot0': 42, 'rot3': 0, 'rot2': 0, 'state': 'normal', 'yaw': 0.06, 'datetime': '2018-10-09 20:42:05.597386', 'mgs': 0, 'volt': 0.9131, 'depth': 1.767, 'time': 12, 'pitch': 0.0, 'roll': 0.0, 'pres': 187}
{'lipoC2': 7.22, 'lipoC3S1': 3.81, 'temp': 26.19, 'lipoC3S3': 11.51, 'lipoC3S2': 7.62, 'rot1': 41, 'rot0': 43, 'rot3': 0, 'rot2': 0, 'state': 'normal', 'yaw': 0.06, 'datetime': '2018-10-09 20:42:05.701133', 'mgs': 0, 'volt': 0.9131, 'depth': 1.767, 'time': 12, 'pitch': 0.0, 'roll': 0.0, 'pres': 187}
{'lipoC2': 7.22, 'lipoC3S1': 3.81, 'temp': 26.19, 'lipoC3S3': 11.51, 'lipoC3S2': 7.62, 'rot1': 42, 'rot0': 43, 'rot3': 0, 'rot2': 0, 'state': 'normal', 'yaw': 0.06, 'datetime': '2018-10-09 20:42:05.805560', 'mgs': 0, 'volt': 0.9131, 'depth': 1.767, 'time': 12, 'pitch': 0.0, 'roll': 0.0, 'pres': 187}
{'lipoC2': 7.22, 'lipoC3S1': 3.81, 'temp': 26.25, 'lipoC3S3': 11.51, 'lipoC3S2': 7.62, 'rot1': 42, 'rot0': 43, 'rot3': 0, 'rot2': 0, 'state': 'normal', 'yaw': 0.06, 'datetime': '2018-10-09 20:42:05.908472', 'mgs': 0, 'volt': 0.9033, 'depth': 1.614, 'time': 12, 'pitch': 0.0, 'roll': 0.0, 'pres': 185}
{'lipoC2': 7.23, 'lipoC3S1': 3.81, 'temp': 26.25, 'lipoC3S3': 11.51, 'lipoC3S2': 7.62, 'rot1': 42, 'rot0': 43, 'rot3': 0, 'rot2': 0, 'state': 'normal', 'yaw': 0.06, 'datetime': '2018-10-09 20:42:06.012117', 'mgs': 0, 'volt': 0.9131, 'depth': 1.767, 'time': 12, 'pitch': 0.0, 'roll': 0.0, 'pres': 187}
{'lipoC2': 7.22, 'lipoC3S1': 3.81, 'temp': 26.25, 'lipoC3S3': 11.51, 'lipoC3S2': 7.62, 'rot1': 42, 'rot0': 44, 'rot3': 0, 'rot2': 0, 'state': 'normal', 'yaw': 0.06, 'datetime': '2018-10-09 20:42:06.117409', 'mgs': 0, 'volt': 0.9082, 'depth': 1.691, 'time': 12, 'pitch': 0.0, 'roll': 0.0, 'pres': 186}
{'lipoC2': 7.22, 'lipoC3S1': 3.81, 'temp': 26.25, 'lipoC3S3': 11.51, 'lipoC3S2': 7.62, 'rot1': 43, 'rot0': 44, 'rot3': 0, 'rot2': 0, 'state': 'normal', 'yaw': 0.06, 'datetime': '2018-10-09 20:42:06.219531', 'mgs': 0, 'volt': 0.9082, 'depth': 1.691, 'time': 12, 'pitch': 0.0, 'roll': 0.0, 'pres': 186}
{'lipoC2': 7.22, 'lipoC3S1': 3.81, 'temp': 26.25, 'lipoC3S3': 11.51, 'lipoC3S2': 7.62, 'rot1': 43, 'rot0': 44, 'rot3': 0, 'rot2': 0, 'state': 'normal', 'yaw': 0.06, 'datetime': '2018-10-09 20:42:06.323212', 'mgs': 0, 'volt': 0.9082, 'depth': 1.691, 'time': 13, 'pitch': 0.0, 'roll': 0.0, 'pres': 186}
{'lipoC2': 7.22, 'lipoC3S1': 3.81, 'temp': 26.19, 'lipoC3S3': 11.51, 'lipoC3S2': 7.62, 'rot1': 43, 'rot0': 44, 'rot3': 0, 'rot2': 0, 'state': 'normal', 'yaw': 0.06, 'datetime': '2018-10-09 20:42:06.426975', 'mgs': 0, 'volt': 0.9082, 'depth': 1.691, 'time': 13, 'pitch': 0.0, 'roll': 0.0, 'pres': 186}
{'lipoC2': 7.23, 'lipoC3S1': 3.81, 'temp': 26.19, 'lipoC3S3': 11.5, 'lipoC3S2': 7.62, 'rot1': 43, 'rot0': 45, 'rot3': 0, 'rot2': 0, 'state': 'normal', 'yaw': 0.06, 'datetime': '2018-10-09 20:42:06.530726', 'mgs': 0, 'volt': 0.9131, 'depth': 1.767, 'time': 13, 'pitch': 0.0, 'roll': 0.0, 'pres': 187}
{'lipoC2': 7.23, 'lipoC3S1': 3.81, 'temp': 26.19, 'lipoC3S3': 11.51, 'lipoC3S2': 7.62, 'rot1': 44, 'rot0': 45, 'rot3': 0, 'rot2': 0, 'state': 'normal', 'yaw': 0.06, 'datetime': '2018-10-09 20:42:06.634287', 'mgs': 0, 'volt': 0.9082, 'depth': 1.691, 'time': 13, 'pitch': 0.0, 'roll': 0.0, 'pres': 186}
{'lipoC2': 7.22, 'lipoC3S1': 3.81, 'temp': 26.19, 'lipoC3S3': 11.51, 'lipoC3S2': 7.62, 'rot1': 44, 'rot0': 45, 'rot3': 0, 'rot2': 0, 'state': 'normal', 'yaw': 0.06, 'datetime': '2018-10-09 20:42:06.738063', 'mgs': 0, 'volt': 0.9082, 'depth': 1.691, 'time': 13, 'pitch': 0.0, 'roll': 0.0, 'pres': 186}
{'lipoC2': 7.22, 'lipoC3S1': 3.81, 'temp': 26.19, 'lipoC3S3': 11.51, 'lipoC3S2': 7.62, 'rot1': 44, 'rot0': 45, 'rot3': 0, 'rot2': 0, 'state': 'normal', 'yaw': 0.06, 'datetime': '2018-10-09 20:42:06.841730', 'mgs': 0, 'volt': 0.9082, 'depth': 1.691, 'time': 13, 'pitch': 0.0, 'roll': 0.0, 'pres': 186}
{'lipoC2': 7.22, 'lipoC3S1': 3.81, 'temp': 26.19, 'lipoC3S3': 11.47, 'lipoC3S2': 7.62, 'rot1': 44, 'rot0': 46, 'rot3': 0, 'rot2': 0, 'state': 'normal', 'yaw': 0.06, 'datetime': '2018-10-09 20:42:06.945598', 'mgs': 0, 'volt': 0.9082, 'depth': 1.691, 'time': 13, 'pitch': 0.0, 'roll': 0.0, 'pres': 186}
{'lipoC2': 7.22, 'lipoC3S1': 3.81, 'temp': 26.19, 'lipoC3S3': 11.51, 'lipoC3S2': 7.62, 'rot1': 45, 'rot0': 46, 'rot3': 0, 'rot2': 0, 'state': 'normal', 'yaw': 0.06, 'datetime': '2018-10-09 20:42:07.049079', 'mgs': 0, 'volt': 0.9082, 'depth': 1.691, 'time': 13, 'pitch': 0.0, 'roll': 0.0, 'pres': 186}
{'lipoC2': 7.22, 'lipoC3S1': 3.81, 'temp': 26.25, 'lipoC3S3': 11.51, 'lipoC3S2': 7.62, 'rot1': 45, 'rot0': 46, 'rot3': 0, 'rot2': 0, 'state': 'normal', 'yaw': 0.06, 'datetime': '2018-10-09 20:42:07.152818', 'mgs': 0, 'volt': 0.9082, 'depth': 1.691, 'time': 13, 'pitch': 0.0, 'roll': 0.0, 'pres': 186}
{'lipoC2': 7.22, 'lipoC3S1': 3.81, 'temp': 26.25, 'lipoC3S3': 11.51, 'lipoC3S2': 7.58, 'rot1': 45, 'rot0': 46, 'rot3': 0, 'rot2': 0, 'state': 'normal', 'yaw': 0.06, 'datetime': '2018-10-09 20:42:07.256487', 'mgs': 0, 'volt': 0.9082, 'depth': 1.691, 'time': 13, 'pitch': 0.0, 'roll': 0.0, 'pres': 186}
{'lipoC2': 7.22, 'lipoC3S1': 3.81, 'temp': 26.19, 'lipoC3S3': 11.51, 'lipoC3S2': 7.62, 'rot1': 45, 'rot0': 47, 'rot3': 0, 'rot2': 0, 'state': 'normal', 'yaw': 0.06, 'datetime': '2018-10-09 20:42:07.360175', 'mgs': 0, 'volt': 0.9082, 'depth': 1.691, 'time': 14, 'pitch': 0.0, 'roll': 0.0, 'pres': 186}
{'lipoC2': 7.22, 'lipoC3S1': 3.81, 'temp': 26.19, 'lipoC3S3': 11.51, 'lipoC3S2': 7.62, 'rot1': 46, 'rot0': 47, 'rot3': 0, 'rot2': 0, 'state': 'normal', 'yaw': 0.06, 'datetime': '2018-10-09 20:42:07.463893', 'mgs': 0, 'volt': 0.9131, 'depth': 1.767, 'time': 14, 'pitch': 0.0, 'roll': 0.0, 'pres': 187}
{'lipoC2': 7.22, 'lipoC3S1': 3.78, 'temp': 26.25, 'lipoC3S3': 11.51, 'lipoC3S2': 7.62, 'rot1': 46, 'rot0': 47, 'rot3': 0, 'rot2': 0, 'state': 'normal', 'yaw': 0.06, 'datetime': '2018-10-09 20:42:07.567757', 'mgs': 0, 'volt': 0.9082, 'depth': 1.691, 'time': 14, 'pitch': 0.0, 'roll': 0.0, 'pres': 186}
{'lipoC2': 7.22, 'lipoC3S1': 3.81, 'temp': 26.25, 'lipoC3S3': 11.51, 'lipoC3S2': 7.62, 'rot1': 46, 'rot0': 47, 'rot3': 0, 'rot2': 0, 'state': 'normal', 'yaw': 0.06, 'datetime': '2018-10-09 20:42:07.671359', 'mgs': 0, 'volt': 0.9082, 'depth': 1.691, 'time': 14, 'pitch': 0.0, 'roll': 0.0, 'pres': 186}
{'lipoC2': 7.22, 'lipoC3S1': 3.81, 'temp': 26.25, 'lipoC3S3': 11.51, 'lipoC3S2': 7.62, 'rot1': 46, 'rot0': 48, 'rot3': 0, 'rot2': 0, 'state': 'normal', 'yaw': 0.06, 'datetime': '2018-10-09 20:42:07.779168', 'mgs': 0, 'volt': 0.9082, 'depth': 1.691, 'time': 14, 'pitch': 0.0, 'roll': 0.0, 'pres': 186}
{'lipoC2': 7.22, 'lipoC3S1': 3.81, 'temp': 26.19, 'lipoC3S3': 11.51, 'lipoC3S2': 7.62, 'rot1': 47, 'rot0': 48, 'rot3': 0, 'rot2': 0, 'state': 'normal', 'yaw': 0.06, 'datetime': '2018-10-09 20:42:07.882354', 'mgs': 0, 'volt': 0.9033, 'depth': 1.614, 'time': 14, 'pitch': 0.0, 'roll': 0.0, 'pres': 185}
{'lipoC2': 7.22, 'lipoC3S1': 3.81, 'temp': 26.19, 'lipoC3S3': 11.51, 'lipoC3S2': 7.62, 'rot1': 47, 'rot0': 48, 'rot3': 0, 'rot2': 0, 'state': 'normal', 'yaw': 0.06, 'datetime': '2018-10-09 20:42:07.987988', 'mgs': 0, 'volt': 0.9082, 'depth': 1.691, 'time': 14, 'pitch': 0.0, 'roll': 0.0, 'pres': 186}
{'lipoC2': 7.22, 'lipoC3S1': 3.81, 'temp': 26.25, 'lipoC3S3': 11.47, 'lipoC3S2': 7.62, 'rot1': 47, 'rot0': 48, 'rot3': 0, 'rot2': 0, 'state': 'normal', 'yaw': 0.06, 'datetime': '2018-10-09 20:42:08.079760', 'mgs': 0, 'volt': 0.9033, 'depth': 1.614, 'time': 14, 'pitch': 0.0, 'roll': 0.0, 'pres': 185}
{'lipoC2': 7.23, 'lipoC3S1': 3.81, 'temp': 26.25, 'lipoC3S3': 11.51, 'lipoC3S2': 7.62, 'rot1': 47, 'rot0': 49, 'rot3': 0, 'rot2': 0, 'state': 'normal', 'yaw': 0.06, 'datetime': '2018-10-09 20:42:08.183422', 'mgs': 0, 'volt': 0.9082, 'depth': 1.691, 'time': 14, 'pitch': 0.0, 'roll': 0.0, 'pres': 186}
{'lipoC2': 7.22, 'lipoC3S1': 3.81, 'temp': 26.19, 'lipoC3S3': 11.51, 'lipoC3S2': 7.62, 'rot1': 48, 'rot0': 49, 'rot3': 0, 'rot2': 0, 'state': 'normal', 'yaw': 0.06, 'datetime': '2018-10-09 20:42:08.287097', 'mgs': 0, 'volt': 0.9033, 'depth': 1.614, 'time': 15, 'pitch': 0.0, 'roll': 0.0, 'pres': 185}
{'lipoC2': 7.23, 'lipoC3S1': 3.81, 'temp': 26.19, 'lipoC3S3': 11.51, 'lipoC3S2': 7.62, 'rot1': 48, 'rot0': 49, 'rot3': 0, 'rot2': 0, 'state': 'normal', 'yaw': 0.06, 'datetime': '2018-10-09 20:42:08.390849', 'mgs': 0, 'volt': 0.9082, 'depth': 1.691, 'time': 15, 'pitch': 0.0, 'roll': 0.0, 'pres': 186}
{'lipoC2': 7.23, 'lipoC3S1': 3.81, 'temp': 26.19, 'lipoC3S3': 11.52, 'lipoC3S2': 7.62, 'rot1': 48, 'rot0': 49, 'rot3': 0, 'rot2': 0, 'state': 'normal', 'yaw': 0.06, 'datetime': '2018-10-09 20:42:08.494552', 'mgs': 0, 'volt': 0.9033, 'depth': 1.614, 'time': 15, 'pitch': 0.0, 'roll': 0.0, 'pres': 185}
{'lipoC2': 7.23, 'lipoC3S1': 3.81, 'temp': 26.25, 'lipoC3S3': 11.51, 'lipoC3S2': 7.62, 'rot1': 48, 'rot0': 50, 'rot3': 0, 'rot2': 0, 'state': 'normal', 'yaw': 0.06, 'datetime': '2018-10-09 20:42:08.598209', 'mgs': 0, 'volt': 0.9033, 'depth': 1.614, 'time': 15, 'pitch': 0.0, 'roll': 0.0, 'pres': 185}
{'lipoC2': 7.23, 'lipoC3S1': 3.81, 'temp': 26.25, 'lipoC3S3': 11.51, 'lipoC3S2': 7.62, 'rot1': 49, 'rot0': 50, 'rot3': 0, 'rot2': 0, 'state': 'normal', 'yaw': 0.06, 'datetime': '2018-10-09 20:42:08.701886', 'mgs': 0, 'volt': 0.9082, 'depth': 1.691, 'time': 15, 'pitch': 0.0, 'roll': 0.0, 'pres': 186}
{'lipoC2': 7.23, 'lipoC3S1': 3.81, 'temp': 26.25, 'lipoC3S3': 11.51, 'lipoC3S2': 7.63, 'rot1': 49, 'rot0': 50, 'rot3': 0, 'rot2': 0, 'state': 'normal', 'yaw': 0.06, 'datetime': '2018-10-09 20:42:08.805655', 'mgs': 0, 'volt': 0.9033, 'depth': 1.614, 'time': 15, 'pitch': 0.0, 'roll': 0.0, 'pres': 185}
{'lipoC2': 7.22, 'lipoC3S1': 3.81, 'temp': 26.25, 'lipoC3S3': 11.51, 'lipoC3S2': 7.62, 'rot1': 49, 'rot0': 50, 'rot3': 0, 'rot2': 0, 'state': 'normal', 'yaw': 0.06, 'datetime': '2018-10-09 20:42:08.909321', 'mgs': 0, 'volt': 0.9033, 'depth': 1.614, 'time': 15, 'pitch': 0.0, 'roll': 0.0, 'pres': 185}
{'lipoC2': 7.23, 'lipoC3S1': 3.81, 'temp': 26.25, 'lipoC3S3': 11.51, 'lipoC3S2': 7.62, 'rot1': 49, 'rot0': 51, 'rot3': 0, 'rot2': 0, 'state': 'normal', 'yaw': 0.06, 'datetime': '2018-10-09 20:42:09.013037', 'mgs': 0, 'volt': 0.918, 'depth': 1.843, 'time': 15, 'pitch': 0.0, 'roll': 0.0, 'pres': 188}
{'lipoC2': 7.22, 'lipoC3S1': 3.81, 'temp': 26.25, 'lipoC3S3': 11.51, 'lipoC3S2': 7.62, 'rot1': 50, 'rot0': 51, 'rot3': 0, 'rot2': 0, 'state': 'normal', 'yaw': 0.06, 'datetime': '2018-10-09 20:42:09.116716', 'mgs': 0, 'volt': 0.9033, 'depth': 1.614, 'time': 15, 'pitch': 0.0, 'roll': 0.0, 'pres': 185}
{'lipoC2': 7.22, 'lipoC3S1': 3.81, 'temp': 26.25, 'lipoC3S3': 11.51, 'lipoC3S2': 7.62, 'rot1': 50, 'rot0': 51, 'rot3': 0, 'rot2': 0, 'state': 'normal', 'yaw': 0.06, 'datetime': '2018-10-09 20:42:09.220500', 'mgs': 0, 'volt': 0.9082, 'depth': 1.691, 'time': 15, 'pitch': 0.0, 'roll': 0.0, 'pres': 186}
{'lipoC2': 7.23, 'lipoC3S1': 3.81, 'temp': 26.25, 'lipoC3S3': 11.51, 'lipoC3S2': 7.62, 'rot1': 50, 'rot0': 51, 'rot3': 0, 'rot2': 0, 'state': 'normal', 'yaw': 0.06, 'datetime': '2018-10-09 20:42:09.324166', 'mgs': 0, 'volt': 0.9033, 'depth': 1.614, 'time': 16, 'pitch': 0.0, 'roll': 0.0, 'pres': 185}
{'lipoC2': 7.23, 'lipoC3S1': 3.81, 'temp': 26.25, 'lipoC3S3': 11.51, 'lipoC3S2': 7.62, 'rot1': 50, 'rot0': 52, 'rot3': 0, 'rot2': 0, 'state': 'normal', 'yaw': 0.06, 'datetime': '2018-10-09 20:42:09.427878', 'mgs': 0, 'volt': 0.9033, 'depth': 1.614, 'time': 16, 'pitch': 0.0, 'roll': 0.0, 'pres': 185}
{'lipoC2': 7.22, 'lipoC3S1': 3.81, 'temp': 26.25, 'lipoC3S3': 11.51, 'lipoC3S2': 7.62, 'rot1': 51, 'rot0': 52, 'rot3': 0, 'rot2': 0, 'state': 'normal', 'yaw': 0.06, 'datetime': '2018-10-09 20:42:09.531582', 'mgs': 0, 'volt': 0.9033, 'depth': 1.614, 'time': 16, 'pitch': 0.0, 'roll': 0.0, 'pres': 185}
{'lipoC2': 7.22, 'lipoC3S1': 3.81, 'temp': 26.25, 'lipoC3S3': 11.46, 'lipoC3S2': 7.62, 'rot1': 51, 'rot0': 52, 'rot3': 0, 'rot2': 0, 'state': 'normal', 'yaw': 0.06, 'datetime': '2018-10-09 20:42:09.635203', 'mgs': 0, 'volt': 0.9033, 'depth': 1.614, 'time': 16, 'pitch': 0.0, 'roll': 0.0, 'pres': 185}
{'lipoC2': 7.23, 'lipoC3S1': 3.81, 'temp': 26.25, 'lipoC3S3': 11.51, 'lipoC3S2': 7.62, 'rot1': 51, 'rot0': 52, 'rot3': 0, 'rot2': 0, 'state': 'normal', 'yaw': 0.06, 'datetime': '2018-10-09 20:42:09.738920', 'mgs': 0, 'volt': 0.9033, 'depth': 1.614, 'time': 16, 'pitch': 0.0, 'roll': 0.0, 'pres': 185}
{'lipoC2': 7.22, 'lipoC3S1': 3.81, 'temp': 26.25, 'lipoC3S3': 11.51, 'lipoC3S2': 7.62, 'rot1': 51, 'rot0': 53, 'rot3': 0, 'rot2': 0, 'state': 'normal', 'yaw': 0.06, 'datetime': '2018-10-09 20:42:09.842655', 'mgs': 0, 'volt': 0.8984, 'depth': 1.538, 'time': 16, 'pitch': 0.0, 'roll': 0.0, 'pres': 184}
{'lipoC2': 7.23, 'lipoC3S1': 3.81, 'temp': 26.25, 'lipoC3S3': 11.51, 'lipoC3S2': 7.6, 'rot1': 52, 'rot0': 53, 'rot3': 0, 'rot2': 0, 'state': 'normal', 'yaw': 0.06, 'datetime': '2018-10-09 20:42:09.946333', 'mgs': 0, 'volt': 0.9033, 'depth': 1.614, 'time': 16, 'pitch': 0.0, 'roll': 0.0, 'pres': 185}
{'lipoC2': 7.22, 'lipoC3S1': 3.81, 'temp': 26.19, 'lipoC3S3': 11.51, 'lipoC3S2': 7.62, 'rot1': 52, 'rot0': 53, 'rot3': 0, 'rot2': 0, 'state': 'normal', 'yaw': 0.06, 'datetime': '2018-10-09 20:42:10.049987', 'mgs': 0, 'volt': 0.9033, 'depth': 1.614, 'time': 16, 'pitch': 0.0, 'roll': 0.0, 'pres': 185}
{'lipoC2': 7.22, 'lipoC3S1': 3.81, 'temp': 26.19, 'lipoC3S3': 11.51, 'lipoC3S2': 7.62, 'rot1': 52, 'rot0': 53, 'rot3': 0, 'rot2': 0, 'state': 'normal', 'yaw': 0.06, 'datetime': '2018-10-09 20:42:10.153701', 'mgs': 0, 'volt': 0.8984, 'depth': 1.538, 'time': 16, 'pitch': 0.0, 'roll': 0.0, 'pres': 184}
{'lipoC2': 7.22, 'lipoC3S1': 3.78, 'temp': 26.19, 'lipoC3S3': 11.51, 'lipoC3S2': 7.62, 'rot1': 52, 'rot0': 54, 'rot3': 0, 'rot2': 0, 'state': 'normal', 'yaw': 0.06, 'datetime': '2018-10-09 20:42:10.257416', 'mgs': 0, 'volt': 0.8984, 'depth': 1.538, 'time': 16, 'pitch': 0.0, 'roll': 0.0, 'pres': 184}
{'lipoC2': 7.22, 'lipoC3S1': 3.81, 'temp': 26.19, 'lipoC3S3': 11.51, 'lipoC3S2': 7.62, 'rot1': 53, 'rot0': 54, 'rot3': 0, 'rot2': 0, 'state': 'normal', 'yaw': 0.06, 'datetime': '2018-10-09 20:42:10.361128', 'mgs': 0, 'volt': 0.8984, 'depth': 1.538, 'time': 17, 'pitch': 0.0, 'roll': 0.0, 'pres': 184}
{'lipoC2': 7.22, 'lipoC3S1': 3.81, 'temp': 26.31, 'lipoC3S3': 11.51, 'lipoC3S2': 7.62, 'rot1': 53, 'rot0': 54, 'rot3': 0, 'rot2': 0, 'state': 'normal', 'yaw': 0.06, 'datetime': '2018-10-09 20:42:10.464863', 'mgs': 0, 'volt': 0.8984, 'depth': 1.538, 'time': 17, 'pitch': 0.0, 'roll': 0.0, 'pres': 184}
{'lipoC2': 7.22, 'lipoC3S1': 3.81, 'temp': 26.31, 'lipoC3S3': 11.51, 'lipoC3S2': 7.62, 'rot1': 53, 'rot0': 54, 'rot3': 0, 'rot2': 0, 'state': 'normal', 'yaw': 0.06, 'datetime': '2018-10-09 20:42:10.568528', 'mgs': 0, 'volt': 0.8984, 'depth': 1.538, 'time': 17, 'pitch': 0.0, 'roll': 0.0, 'pres': 184}
{'lipoC2': 7.22, 'lipoC3S1': 3.81, 'temp': 26.31, 'lipoC3S3': 11.51, 'lipoC3S2': 7.62, 'rot1': 53, 'rot0': 55, 'rot3': 0, 'rot2': 0, 'state': 'normal', 'yaw': 0.06, 'datetime': '2018-10-09 20:42:10.672216', 'mgs': 0, 'volt': 0.8984, 'depth': 1.538, 'time': 17, 'pitch': 0.0, 'roll': 0.0, 'pres': 184}
{'lipoC2': 7.22, 'lipoC3S1': 3.81, 'temp': 26.25, 'lipoC3S3': 11.52, 'lipoC3S2': 7.62, 'rot1': 54, 'rot0': 55, 'rot3': 0, 'rot2': 0, 'state': 'normal', 'yaw': 0.06, 'datetime': '2018-10-09 20:42:10.775890', 'mgs': 0, 'volt': 0.8984, 'depth': 1.538, 'time': 17, 'pitch': 0.0, 'roll': 0.0, 'pres': 184}
{'lipoC2': 7.23, 'lipoC3S1': 3.81, 'temp': 26.25, 'lipoC3S3': 11.51, 'lipoC3S2': 7.62, 'rot1': 54, 'rot0': 55, 'rot3': 0, 'rot2': 0, 'state': 'normal', 'yaw': 0.06, 'datetime': '2018-10-09 20:42:10.879638', 'mgs': 0, 'volt': 0.8984, 'depth': 1.538, 'time': 17, 'pitch': 0.0, 'roll': 0.0, 'pres': 184}
{'lipoC2': 7.23, 'lipoC3S1': 3.81, 'temp': 26.25, 'lipoC3S3': 11.51, 'lipoC3S2': 7.62, 'rot1': 54, 'rot0': 55, 'rot3': 0, 'rot2': 0, 'state': 'normal', 'yaw': 0.06, 'datetime': '2018-10-09 20:42:10.987286', 'mgs': 0, 'volt': 0.8984, 'depth': 1.538, 'time': 17, 'pitch': 0.0, 'roll': 0.0, 'pres': 184}
{'lipoC2': 7.22, 'lipoC3S1': 3.81, 'temp': 26.25, 'lipoC3S3': 11.51, 'lipoC3S2': 7.62, 'rot1': 54, 'rot0': 56, 'rot3': 0, 'rot2': 0, 'state': 'normal', 'yaw': 0.06, 'datetime': '2018-10-09 20:42:11.087049', 'mgs': 0, 'volt': 0.8984, 'depth': 1.538, 'time': 17, 'pitch': 0.0, 'roll': 0.0, 'pres': 184}
{'lipoC2': 7.22, 'lipoC3S1': 3.81, 'temp': 26.25, 'lipoC3S3': 11.51, 'lipoC3S2': 7.62, 'rot1': 55, 'rot0': 56, 'rot3': 0, 'rot2': 0, 'state': 'normal', 'yaw': 0.06, 'datetime': '2018-10-09 20:42:11.190764', 'mgs': 0, 'volt': 0.8984, 'depth': 1.538, 'time': 17, 'pitch': 0.0, 'roll': 0.0, 'pres': 184}
{'lipoC2': 7.22, 'lipoC3S1': 3.81, 'temp': 26.25, 'lipoC3S3': 11.51, 'lipoC3S2': 7.62, 'rot1': 55, 'rot0': 56, 'rot3': 0, 'rot2': 0, 'state': 'normal', 'yaw': 0.06, 'datetime': '2018-10-09 20:42:11.294455', 'mgs': 0, 'volt': 0.8984, 'depth': 1.538, 'time': 18, 'pitch': 0.0, 'roll': 0.0, 'pres': 184}
{'lipoC2': 7.23, 'lipoC3S1': 3.81, 'temp': 26.25, 'lipoC3S3': 11.51, 'lipoC3S2': 7.62, 'rot1': 55, 'rot0': 56, 'rot3': 0, 'rot2': 0, 'state': 'normal', 'yaw': 0.06, 'datetime': '2018-10-09 20:42:11.398160', 'mgs': 0, 'volt': 0.8984, 'depth': 1.538, 'time': 18, 'pitch': 0.0, 'roll': 0.0, 'pres': 184}
{'lipoC2': 7.23, 'lipoC3S1': 3.81, 'temp': 26.25, 'lipoC3S3': 11.51, 'lipoC3S2': 7.64, 'rot1': 55, 'rot0': 56, 'rot3': 0, 'rot2': 0, 'state': 'normal', 'yaw': 0.06, 'datetime': '2018-10-09 20:42:11.501816', 'mgs': 0, 'volt': 0.8984, 'depth': 1.538, 'time': 18, 'pitch': 0.0, 'roll': 0.0, 'pres': 184}
{'lipoC2': 7.22, 'lipoC3S1': 3.81, 'temp': 26.25, 'lipoC3S3': 11.51, 'lipoC3S2': 7.62, 'rot1': 56, 'rot0': 57, 'rot3': 0, 'rot2': 0, 'state': 'normal', 'yaw': 0.06, 'datetime': '2018-10-09 20:42:11.605520', 'mgs': 0, 'volt': 0.8984, 'depth': 1.538, 'time': 18, 'pitch': 0.0, 'roll': 0.0, 'pres': 184}
{'lipoC2': 7.22, 'lipoC3S1': 3.81, 'temp': 26.25, 'lipoC3S3': 11.51, 'lipoC3S2': 7.62, 'rot1': 56, 'rot0': 57, 'rot3': 0, 'rot2': 0, 'state': 'normal', 'yaw': 0.06, 'datetime': '2018-10-09 20:42:11.709244', 'mgs': 0, 'volt': 0.8838, 'depth': 1.309, 'time': 18, 'pitch': 0.0, 'roll': 0.0, 'pres': 181}
{'lipoC2': 7.23, 'lipoC3S1': 3.81, 'temp': 26.25, 'lipoC3S3': 11.51, 'lipoC3S2': 7.62, 'rot1': 56, 'rot0': 57, 'rot3': 0, 'rot2': 0, 'state': 'normal', 'yaw': 0.06, 'datetime': '2018-10-09 20:42:11.812908', 'mgs': 0, 'volt': 0.8936, 'depth': 1.462, 'time': 18, 'pitch': 0.0, 'roll': 0.0, 'pres': 183}
{'lipoC2': 7.23, 'lipoC3S1': 3.81, 'temp': 26.25, 'lipoC3S3': 11.51, 'lipoC3S2': 7.62, 'rot1': 56, 'rot0': 57, 'rot3': 0, 'rot2': 0, 'state': 'normal', 'yaw': 0.06, 'datetime': '2018-10-09 20:42:11.916625', 'mgs': 0, 'volt': 0.8936, 'depth': 1.462, 'time': 18, 'pitch': 0.0, 'roll': 0.0, 'pres': 183}
{'lipoC2': 7.22, 'lipoC3S1': 3.81, 'temp': 26.25, 'lipoC3S3': 11.51, 'lipoC3S2': 7.62, 'rot1': 57, 'rot0': 58, 'rot3': 0, 'rot2': 0, 'state': 'normal', 'yaw': 0.06, 'datetime': '2018-10-09 20:42:12.020310', 'mgs': 0, 'volt': 0.8936, 'depth': 1.462, 'time': 18, 'pitch': 0.0, 'roll': 0.0, 'pres': 183}
{'lipoC2': 7.23, 'lipoC3S1': 3.81, 'temp': 26.25, 'lipoC3S3': 11.51, 'lipoC3S2': 7.62, 'rot1': 57, 'rot0': 58, 'rot3': 0, 'rot2': 0, 'state': 'normal', 'yaw': 0.06, 'datetime': '2018-10-09 20:42:12.123989', 'mgs': 0, 'volt': 0.918, 'depth': 1.843, 'time': 18, 'pitch': 0.0, 'roll': 0.0, 'pres': 188}
{'lipoC2': 7.22, 'lipoC3S1': 3.81, 'temp': 26.25, 'lipoC3S3': 11.51, 'lipoC3S2': 7.62, 'rot1': 57, 'rot0': 58, 'rot3': 0, 'rot2': 0, 'state': 'normal', 'yaw': 0.06, 'datetime': '2018-10-09 20:42:12.227710', 'mgs': 0, 'volt': 0.8984, 'depth': 1.538, 'time': 18, 'pitch': 0.0, 'roll': 0.0, 'pres': 184}
{'lipoC2': 7.23, 'lipoC3S1': 3.81, 'temp': 26.25, 'lipoC3S3': 11.48, 'lipoC3S2': 7.62, 'rot1': 57, 'rot0': 58, 'rot3': 0, 'rot2': 0, 'state': 'normal', 'yaw': 0.06, 'datetime': '2018-10-09 20:42:12.331522', 'mgs': 0, 'volt': 0.8936, 'depth': 1.462, 'time': 19, 'pitch': 0.0, 'roll': 0.0, 'pres': 183}
{'lipoC2': 7.22, 'lipoC3S1': 3.81, 'temp': 26.25, 'lipoC3S3': 11.51, 'lipoC3S2': 7.62, 'rot1': 58, 'rot0': 59, 'rot3': 0, 'rot2': 0, 'state': 'normal', 'yaw': 0.06, 'datetime': '2018-10-09 20:42:12.435091', 'mgs': 0, 'volt': 0.8984, 'depth': 1.538, 'time': 19, 'pitch': 0.0, 'roll': 0.0, 'pres': 184}
{'lipoC2': 7.23, 'lipoC3S1': 3.81, 'temp': 26.25, 'lipoC3S3': 11.51, 'lipoC3S2': 7.62, 'rot1': 58, 'rot0': 59, 'rot3': 0, 'rot2': 0, 'state': 'normal', 'yaw': 0.06, 'datetime': '2018-10-09 20:42:12.538827', 'mgs': 0, 'volt': 0.8936, 'depth': 1.462, 'time': 19, 'pitch': 0.0, 'roll': 0.0, 'pres': 183}
{'lipoC2': 7.22, 'lipoC3S1': 3.81, 'temp': 26.31, 'lipoC3S3': 11.51, 'lipoC3S2': 7.58, 'rot1': 58, 'rot0': 59, 'rot3': 0, 'rot2': 0, 'state': 'normal', 'yaw': 0.06, 'datetime': '2018-10-09 20:42:12.642514', 'mgs': 0, 'volt': 0.8936, 'depth': 1.462, 'time': 19, 'pitch': 0.0, 'roll': 0.0, 'pres': 183}
{'lipoC2': 7.22, 'lipoC3S1': 3.81, 'temp': 26.31, 'lipoC3S3': 11.51, 'lipoC3S2': 7.62, 'rot1': 58, 'rot0': 59, 'rot3': 0, 'rot2': 0, 'state': 'normal', 'yaw': 0.06, 'datetime': '2018-10-09 20:42:12.746216', 'mgs': 0, 'volt': 0.8936, 'depth': 1.462, 'time': 19, 'pitch': 0.0, 'roll': 0.0, 'pres': 183}
{'lipoC2': 7.22, 'lipoC3S1': 3.81, 'temp': 26.31, 'lipoC3S3': 11.51, 'lipoC3S2': 7.62, 'rot1': 59, 'rot0': 60, 'rot3': 0, 'rot2': 0, 'state': 'normal', 'yaw': 0.06, 'datetime': '2018-10-09 20:42:12.849868', 'mgs': 0, 'volt': 0.9131, 'depth': 1.767, 'time': 19, 'pitch': 0.0, 'roll': 0.0, 'pres': 187}
{'lipoC2': 7.22, 'lipoC3S1': 3.83, 'temp': 26.25, 'lipoC3S3': 11.51, 'lipoC3S2': 7.62, 'rot1': 59, 'rot0': 60, 'rot3': 0, 'rot2': 0, 'state': 'normal', 'yaw': 0.06, 'datetime': '2018-10-09 20:42:12.953602', 'mgs': 0, 'volt': 0.8936, 'depth': 1.462, 'time': 19, 'pitch': 0.0, 'roll': 0.0, 'pres': 183}
{'lipoC2': 7.23, 'lipoC3S1': 3.81, 'temp': 26.25, 'lipoC3S3': 11.51, 'lipoC3S2': 7.62, 'rot1': 59, 'rot0': 60, 'rot3': 0, 'rot2': 0, 'state': 'normal', 'yaw': 0.06, 'datetime': '2018-10-09 20:42:13.057279', 'mgs': 0, 'volt': 0.8936, 'depth': 1.462, 'time': 19, 'pitch': 0.0, 'roll': 0.0, 'pres': 183}
{'lipoC2': 7.23, 'lipoC3S1': 3.81, 'temp': 26.25, 'lipoC3S3': 11.51, 'lipoC3S2': 7.62, 'rot1': 59, 'rot0': 60, 'rot3': 0, 'rot2': 0, 'state': 'normal', 'yaw': 0.06, 'datetime': '2018-10-09 20:42:13.161072', 'mgs': 0, 'volt': 0.8936, 'depth': 1.462, 'time': 19, 'pitch': 0.0, 'roll': 0.0, 'pres': 183}
{'lipoC2': 7.22, 'lipoC3S1': 3.81, 'temp': 26.25, 'lipoC3S3': 11.51, 'lipoC3S2': 7.62, 'rot1': 60, 'rot0': 61, 'rot3': 0, 'rot2': 0, 'state': 'normal', 'yaw': 0.06, 'datetime': '2018-10-09 20:42:13.264800', 'mgs': 0, 'volt': 0.8936, 'depth': 1.462, 'time': 19, 'pitch': 0.0, 'roll': 0.0, 'pres': 183}
{'lipoC2': 7.22, 'lipoC3S1': 3.81, 'temp': 26.25, 'lipoC3S3': 11.51, 'lipoC3S2': 7.59, 'rot1': 60, 'rot0': 61, 'rot3': 0, 'rot2': 0, 'state': 'normal', 'yaw': 0.06, 'datetime': '2018-10-09 20:42:13.368454', 'mgs': 0, 'volt': 0.8936, 'depth': 1.462, 'time': 20, 'pitch': 0.0, 'roll': 0.0, 'pres': 183}
{'lipoC2': 7.22, 'lipoC3S1': 3.81, 'temp': 26.25, 'lipoC3S3': 11.51, 'lipoC3S2': 7.62, 'rot1': 60, 'rot0': 61, 'rot3': 0, 'rot2': 0, 'state': 'normal', 'yaw': 0.06, 'datetime': '2018-10-09 20:42:13.472244', 'mgs': 0, 'volt': 0.8936, 'depth': 1.462, 'time': 20, 'pitch': 0.0, 'roll': 0.0, 'pres': 183}
{'lipoC2': 7.22, 'lipoC3S1': 3.81, 'temp': 26.25, 'lipoC3S3': 11.51, 'lipoC3S2': 7.62, 'rot1': 60, 'rot0': 61, 'rot3': 0, 'rot2': 0, 'state': 'normal', 'yaw': 0.06, 'datetime': '2018-10-09 20:42:13.575904', 'mgs': 0, 'volt': 0.9082, 'depth': 1.691, 'time': 20, 'pitch': 0.0, 'roll': 0.0, 'pres': 186}
{'lipoC2': 7.22, 'lipoC3S1': 3.81, 'temp': 26.25, 'lipoC3S3': 11.51, 'lipoC3S2': 7.62, 'rot1': 61, 'rot0': 62, 'rot3': 0, 'rot2': 0, 'state': 'normal', 'yaw': 0.06, 'datetime': '2018-10-09 20:42:13.679609', 'mgs': 0, 'volt': 0.8887, 'depth': 1.385, 'time': 20, 'pitch': 0.0, 'roll': 0.0, 'pres': 182}
{'lipoC2': 7.22, 'lipoC3S1': 3.81, 'temp': 26.25, 'lipoC3S3': 11.48, 'lipoC3S2': 7.62, 'rot1': 61, 'rot0': 62, 'rot3': 0, 'rot2': 0, 'state': 'normal', 'yaw': 0.06, 'datetime': '2018-10-09 20:42:13.783320', 'mgs': 0, 'volt': 0.8887, 'depth': 1.385, 'time': 20, 'pitch': 0.0, 'roll': 0.0, 'pres': 182}
{'lipoC2': 7.22, 'lipoC3S1': 3.81, 'temp': 26.25, 'lipoC3S3': 11.51, 'lipoC3S2': 7.62, 'rot1': 61, 'rot0': 62, 'rot3': 0, 'rot2': 0, 'state': 'normal', 'yaw': 0.06, 'datetime': '2018-10-09 20:42:13.887025', 'mgs': 0, 'volt': 0.8887, 'depth': 1.385, 'time': 20, 'pitch': 0.0, 'roll': 0.0, 'pres': 182}
{'lipoC2': 7.22, 'lipoC3S1': 3.81, 'temp': 26.25, 'lipoC3S3': 11.51, 'lipoC3S2': 7.62, 'rot1': 61, 'rot0': 62, 'rot3': 0, 'rot2': 0, 'state': 'normal', 'yaw': 0.06, 'datetime': '2018-10-09 20:42:13.993001', 'mgs': 0, 'volt': 0.8887, 'depth': 1.385, 'time': 20, 'pitch': 0.0, 'roll': 0.0, 'pres': 182}
{'lipoC2': 7.22, 'lipoC3S1': 3.81, 'temp': 26.19, 'lipoC3S3': 11.51, 'lipoC3S2': 7.63, 'rot1': 62, 'rot0': 63, 'rot3': 0, 'rot2': 0, 'state': 'normal', 'yaw': 0.06, 'datetime': '2018-10-09 20:42:14.094409', 'mgs': 0, 'volt': 0.8887, 'depth': 1.385, 'time': 20, 'pitch': 0.0, 'roll': 0.0, 'pres': 182}
{'lipoC2': 7.22, 'lipoC3S1': 3.81, 'temp': 26.19, 'lipoC3S3': 11.51, 'lipoC3S2': 7.62, 'rot1': 62, 'rot0': 63, 'rot3': 0, 'rot2': 0, 'state': 'normal', 'yaw': 0.06, 'datetime': '2018-10-09 20:42:14.198125', 'mgs': 0, 'volt': 0.8887, 'depth': 1.385, 'time': 20, 'pitch': 0.0, 'roll': 0.0, 'pres': 182}
{'lipoC2': 7.22, 'lipoC3S1': 3.81, 'temp': 26.19, 'lipoC3S3': 11.51, 'lipoC3S2': 7.62, 'rot1': 62, 'rot0': 63, 'rot3': 0, 'rot2': 0, 'state': 'normal', 'yaw': 0.06, 'datetime': '2018-10-09 20:42:14.301818', 'mgs': 0, 'volt': 0.8936, 'depth': 1.462, 'time': 21, 'pitch': 0.0, 'roll': 0.0, 'pres': 183}
{'lipoC2': 7.22, 'lipoC3S1': 3.81, 'temp': 26.19, 'lipoC3S3': 11.51, 'lipoC3S2': 7.62, 'rot1': 62, 'rot0': 63, 'rot3': 0, 'rot2': 0, 'state': 'normal', 'yaw': 0.06, 'datetime': '2018-10-09 20:42:14.405549', 'mgs': 0, 'volt': 0.8887, 'depth': 1.385, 'time': 21, 'pitch': 0.0, 'roll': 0.0, 'pres': 182}
{'lipoC2': 7.22, 'lipoC3S1': 3.81, 'temp': 26.19, 'lipoC3S3': 11.52, 'lipoC3S2': 7.62, 'rot1': 63, 'rot0': 64, 'rot3': 0, 'rot2': 0, 'state': 'normal', 'yaw': 0.06, 'datetime': '2018-10-09 20:42:14.509223', 'mgs': 0, 'volt': 0.8887, 'depth': 1.385, 'time': 21, 'pitch': 0.0, 'roll': 0.0, 'pres': 182}
{'lipoC2': 7.22, 'lipoC3S1': 3.81, 'temp': 26.19, 'lipoC3S3': 11.51, 'lipoC3S2': 7.62, 'rot1': 63, 'rot0': 64, 'rot3': 0, 'rot2': 0, 'state': 'normal', 'yaw': 0.06, 'datetime': '2018-10-09 20:42:14.612952', 'mgs': 0, 'volt': 0.8936, 'depth': 1.462, 'time': 21, 'pitch': 0.0, 'roll': 0.0, 'pres': 183}
{'lipoC2': 7.22, 'lipoC3S1': 3.77, 'temp': 26.19, 'lipoC3S3': 11.51, 'lipoC3S2': 7.62, 'rot1': 63, 'rot0': 64, 'rot3': 0, 'rot2': 0, 'state': 'normal', 'yaw': 0.06, 'datetime': '2018-10-09 20:42:14.716660', 'mgs': 0, 'volt': 0.8887, 'depth': 1.385, 'time': 21, 'pitch': 0.0, 'roll': 0.0, 'pres': 182}
{'lipoC2': 7.22, 'lipoC3S1': 3.81, 'temp': 26.19, 'lipoC3S3': 11.51, 'lipoC3S2': 7.62, 'rot1': 63, 'rot0': 64, 'rot3': 0, 'rot2': 0, 'state': 'normal', 'yaw': 0.06, 'datetime': '2018-10-09 20:42:14.820423', 'mgs': 0, 'volt': 0.8936, 'depth': 1.462, 'time': 21, 'pitch': 0.0, 'roll': 0.0, 'pres': 183}
{'lipoC2': 7.22, 'lipoC3S1': 3.81, 'temp': 26.19, 'lipoC3S3': 11.51, 'lipoC3S2': 7.62, 'rot1': 64, 'rot0': 65, 'rot3': 0, 'rot2': 0, 'state': 'normal', 'yaw': 0.06, 'datetime': '2018-10-09 20:42:14.923942', 'mgs': 0, 'volt': 0.8887, 'depth': 1.385, 'time': 21, 'pitch': 0.0, 'roll': 0.0, 'pres': 182}
{'lipoC2': 7.22, 'lipoC3S1': 3.81, 'temp': 26.19, 'lipoC3S3': 11.51, 'lipoC3S2': 7.62, 'rot1': 64, 'rot0': 65, 'rot3': 0, 'rot2': 0, 'state': 'normal', 'yaw': 0.06, 'datetime': '2018-10-09 20:42:15.027644', 'mgs': 0, 'volt': 0.8887, 'depth': 1.385, 'time': 21, 'pitch': 0.0, 'roll': 0.0, 'pres': 182}
{'lipoC2': 7.22, 'lipoC3S1': 3.81, 'temp': 26.19, 'lipoC3S3': 11.51, 'lipoC3S2': 7.6, 'rot1': 64, 'rot0': 65, 'rot3': 0, 'rot2': 0, 'state': 'normal', 'yaw': 0.06, 'datetime': '2018-10-09 20:42:15.131481', 'mgs': 0, 'volt': 0.8887, 'depth': 1.385, 'time': 21, 'pitch': 0.0, 'roll': 0.0, 'pres': 182}
{'lipoC2': 7.22, 'lipoC3S1': 3.81, 'temp': 26.19, 'lipoC3S3': 11.51, 'lipoC3S2': 7.62, 'rot1': 64, 'rot0': 65, 'rot3': 0, 'rot2': 0, 'state': 'normal', 'yaw': 0.06, 'datetime': '2018-10-09 20:42:15.235044', 'mgs': 0, 'volt': 0.8887, 'depth': 1.385, 'time': 21, 'pitch': 0.0, 'roll': 0.0, 'pres': 182}
{'lipoC2': 7.22, 'lipoC3S1': 3.81, 'temp': 26.19, 'lipoC3S3': 11.51, 'lipoC3S2': 7.62, 'rot1': 65, 'rot0': 66, 'rot3': 0, 'rot2': 0, 'state': 'normal', 'yaw': 0.06, 'datetime': '2018-10-09 20:42:15.338747', 'mgs': 0, 'volt': 0.8887, 'depth': 1.385, 'time': 22, 'pitch': 0.0, 'roll': 0.0, 'pres': 182}
{'lipoC2': 7.22, 'lipoC3S1': 3.78, 'temp': 26.19, 'lipoC3S3': 11.51, 'lipoC3S2': 7.62, 'rot1': 65, 'rot0': 66, 'rot3': 0, 'rot2': 0, 'state': 'normal', 'yaw': 0.06, 'datetime': '2018-10-09 20:42:15.442465', 'mgs': 0, 'volt': 0.8887, 'depth': 1.385, 'time': 22, 'pitch': 0.0, 'roll': 0.0, 'pres': 182}
{'lipoC2': 7.22, 'lipoC3S1': 3.81, 'temp': 26.25, 'lipoC3S3': 11.51, 'lipoC3S2': 7.62, 'rot1': 65, 'rot0': 66, 'rot3': 0, 'rot2': 0, 'state': 'normal', 'yaw': 0.06, 'datetime': '2018-10-09 20:42:15.546184', 'mgs': 0, 'volt': 0.8887, 'depth': 1.385, 'time': 22, 'pitch': 0.0, 'roll': 0.0, 'pres': 182}
{'lipoC2': 7.22, 'lipoC3S1': 3.81, 'temp': 26.25, 'lipoC3S3': 11.51, 'lipoC3S2': 7.62, 'rot1': 65, 'rot0': 66, 'rot3': 0, 'rot2': 0, 'state': 'normal', 'yaw': 0.06, 'datetime': '2018-10-09 20:42:15.649871', 'mgs': 0, 'volt': 0.8887, 'depth': 1.385, 'time': 22, 'pitch': 0.0, 'roll': 0.0, 'pres': 182}
{'lipoC2': 7.22, 'lipoC3S1': 3.81, 'temp': 26.25, 'lipoC3S3': 11.51, 'lipoC3S2': 7.62, 'rot1': 66, 'rot0': 67, 'rot3': 0, 'rot2': 0, 'state': 'normal', 'yaw': 0.06, 'datetime': '2018-10-09 20:42:15.753592', 'mgs': 0, 'volt': 0.8887, 'depth': 1.385, 'time': 22, 'pitch': 0.0, 'roll': 0.0, 'pres': 182}
{'lipoC2': 7.22, 'lipoC3S1': 3.81, 'temp': 26.19, 'lipoC3S3': 11.51, 'lipoC3S2': 7.6, 'rot1': 66, 'rot0': 67, 'rot3': 0, 'rot2': 0, 'state': 'normal', 'yaw': 0.06, 'datetime': '2018-10-09 20:42:15.857265', 'mgs': 0, 'volt': 0.8936, 'depth': 1.462, 'time': 22, 'pitch': 0.0, 'roll': 0.0, 'pres': 183}
{'lipoC2': 7.22, 'lipoC3S1': 3.81, 'temp': 26.19, 'lipoC3S3': 11.51, 'lipoC3S2': 7.62, 'rot1': 66, 'rot0': 67, 'rot3': 0, 'rot2': 0, 'state': 'normal', 'yaw': 0.06, 'datetime': '2018-10-09 20:42:15.961032', 'mgs': 0, 'volt': 0.8936, 'depth': 1.462, 'time': 22, 'pitch': 0.0, 'roll': 0.0, 'pres': 183}
{'lipoC2': 7.22, 'lipoC3S1': 3.81, 'temp': 26.25, 'lipoC3S3': 11.51, 'lipoC3S2': 7.62, 'rot1': 66, 'rot0': 67, 'rot3': 0, 'rot2': 0, 'state': 'normal', 'yaw': 0.06, 'datetime': '2018-10-09 20:42:16.064707', 'mgs': 0, 'volt': 0.8887, 'depth': 1.385, 'time': 22, 'pitch': 0.0, 'roll': 0.0, 'pres': 182}
{'lipoC2': 7.23, 'lipoC3S1': 3.81, 'temp': 26.25, 'lipoC3S3': 11.51, 'lipoC3S2': 7.62, 'rot1': 67, 'rot0': 68, 'rot3': 0, 'rot2': 0, 'state': 'normal', 'yaw': 0.06, 'datetime': '2018-10-09 20:42:16.168407', 'mgs': 0, 'volt': 0.8887, 'depth': 1.385, 'time': 22, 'pitch': 0.0, 'roll': 0.0, 'pres': 182}
{'lipoC2': 7.22, 'lipoC3S1': 3.81, 'temp': 26.25, 'lipoC3S3': 11.46, 'lipoC3S2': 7.62, 'rot1': 67, 'rot0': 68, 'rot3': 0, 'rot2': 0, 'state': 'normal', 'yaw': 0.06, 'datetime': '2018-10-09 20:42:16.272129', 'mgs': 0, 'volt': 0.8887, 'depth': 1.385, 'time': 22, 'pitch': 0.0, 'roll': 0.0, 'pres': 182}
{'lipoC2': 7.22, 'lipoC3S1': 3.81, 'temp': 26.25, 'lipoC3S3': 11.51, 'lipoC3S2': 7.62, 'rot1': 67, 'rot0': 68, 'rot3': 0, 'rot2': 0, 'state': 'normal', 'yaw': 0.06, 'datetime': '2018-10-09 20:42:16.375833', 'mgs': 0, 'volt': 0.8887, 'depth': 1.385, 'time': 23, 'pitch': 0.0, 'roll': 0.0, 'pres': 182}
{'lipoC2': 7.22, 'lipoC3S1': 3.8, 'temp': 26.25, 'lipoC3S3': 11.51, 'lipoC3S2': 7.62, 'rot1': 67, 'rot0': 68, 'rot3': 0, 'rot2': 0, 'state': 'normal', 'yaw': 0.06, 'datetime': '2018-10-09 20:42:16.479586', 'mgs': 0, 'volt': 0.8887, 'depth': 1.385, 'time': 23, 'pitch': 0.0, 'roll': 0.0, 'pres': 182}
{'lipoC2': 7.22, 'lipoC3S1': 3.81, 'temp': 26.25, 'lipoC3S3': 11.51, 'lipoC3S2': 7.62, 'rot1': 68, 'rot0': 69, 'rot3': 0, 'rot2': 0, 'state': 'normal', 'yaw': 0.06, 'datetime': '2018-10-09 20:42:16.583253', 'mgs': 0, 'volt': 0.8887, 'depth': 1.385, 'time': 23, 'pitch': 0.0, 'roll': 0.0, 'pres': 182}
{'lipoC2': 7.22, 'lipoC3S1': 3.81, 'temp': 26.25, 'lipoC3S3': 11.51, 'lipoC3S2': 7.62, 'rot1': 68, 'rot0': 69, 'rot3': 0, 'rot2': 0, 'state': 'normal', 'yaw': 0.06, 'datetime': '2018-10-09 20:42:16.686982', 'mgs': 0, 'volt': 0.8887, 'depth': 1.385, 'time': 23, 'pitch': 0.0, 'roll': 0.0, 'pres': 182}
{'lipoC2': 7.23, 'lipoC3S1': 3.81, 'temp': 26.25, 'lipoC3S3': 11.51, 'lipoC3S2': 7.62, 'rot1': 68, 'rot0': 69, 'rot3': 0, 'rot2': 0, 'state': 'normal', 'yaw': 0.06, 'datetime': '2018-10-09 20:42:16.790731', 'mgs': 0, 'volt': 0.8887, 'depth': 1.385, 'time': 23, 'pitch': 0.0, 'roll': 0.0, 'pres': 182}
{'lipoC2': 7.23, 'lipoC3S1': 3.81, 'temp': 26.25, 'lipoC3S3': 11.51, 'lipoC3S2': 7.62, 'rot1': 68, 'rot0': 69, 'rot3': 0, 'rot2': 0, 'state': 'normal', 'yaw': 0.06, 'datetime': '2018-10-09 20:42:16.894419', 'mgs': 0, 'volt': 0.8936, 'depth': 1.462, 'time': 23, 'pitch': 0.0, 'roll': 0.0, 'pres': 183}
{'lipoC2': 7.22, 'lipoC3S1': 3.81, 'temp': 26.25, 'lipoC3S3': 11.51, 'lipoC3S2': 7.62, 'rot1': 69, 'rot0': 70, 'rot3': 0, 'rot2': 0, 'state': 'normal', 'yaw': 0.06, 'datetime': '2018-10-09 20:42:17.001448', 'mgs': 0, 'volt': 0.8887, 'depth': 1.385, 'time': 23, 'pitch': 0.0, 'roll': 0.0, 'pres': 182}
{'lipoC2': 7.22, 'lipoC3S1': 3.81, 'temp': 26.25, 'lipoC3S3': 11.51, 'lipoC3S2': 7.62, 'rot1': 69, 'rot0': 70, 'rot3': 0, 'rot2': 0, 'state': 'normal', 'yaw': 0.06, 'datetime': '2018-10-09 20:42:17.101842', 'mgs': 0, 'volt': 0.8887, 'depth': 1.385, 'time': 23, 'pitch': 0.0, 'roll': 0.0, 'pres': 182}
{'lipoC2': 7.22, 'lipoC3S1': 3.78, 'temp': 26.25, 'lipoC3S3': 11.51, 'lipoC3S2': 7.62, 'rot1': 69, 'rot0': 70, 'rot3': 0, 'rot2': 0, 'state': 'normal', 'yaw': 0.06, 'datetime': '2018-10-09 20:42:17.205496', 'mgs': 0, 'volt': 0.8887, 'depth': 1.385, 'time': 23, 'pitch': 0.0, 'roll': 0.0, 'pres': 182}
