{'lipoC2': 7.48, 'lipoC3S1': 3.85, 'temp': 30.5, 'lipoC3S3': 11.64, 'lipoC3S2': 7.71, 'rot1': 0, 'rot0': 0, 'rot3': 0, 'rot2': 0, 'state': 'normal', 'yaw': 0.66, 'datetime': '2018-10-10 01:06:50.381755', 'mgs': 0, 'volt': 0.8252, 'depth': 0.394, 'time': 1, 'pitch': 2.21, 'roll': -3.82, 'pres': 169}
{'lipoC2': 7.47, 'lipoC3S1': 3.85, 'temp': 30.56, 'lipoC3S3': 11.64, 'lipoC3S2': 7.71, 'rot1': 0, 'rot0': 0, 'rot3': 0, 'rot2': 0, 'state': 'normal', 'yaw': 0.87, 'datetime': '2018-10-10 01:06:50.405293', 'mgs': 0, 'volt': 0.8252, 'depth': 0.394, 'time': 1, 'pitch': 1.7, 'roll': -4.21, 'pres': 169}
{'lipoC2': 7.48, 'lipoC3S1': 3.85, 'temp': 30.56, 'lipoC3S3': 11.64, 'lipoC3S2': 7.71, 'rot1': 0, 'rot0': 0, 'rot3': 0, 'rot2': 0, 'state': 'normal', 'yaw': 0.94, 'datetime': '2018-10-10 01:06:50.428846', 'mgs': 0, 'volt': 0.8252, 'depth': 0.394, 'time': 1, 'pitch': 1.46, 'roll': -4.5, 'pres': 169}
{'lipoC2': 7.48, 'lipoC3S1': 3.85, 'temp': 30.56, 'lipoC3S3': 11.64, 'lipoC3S2': 7.71, 'rot1': 0, 'rot0': 0, 'rot3': 0, 'rot2': 0, 'state': 'normal', 'yaw': 1.09, 'datetime': '2018-10-10 01:06:50.446308', 'mgs': 0, 'volt': 0.8252, 'depth': 0.394, 'time': 1, 'pitch': 1.57, 'roll': -4.62, 'pres': 169}
{'lipoC2': 7.47, 'lipoC3S1': 3.85, 'temp': 30.56, 'lipoC3S3': 11.64, 'lipoC3S2': 7.71, 'rot1': 0, 'rot0': 0, 'rot3': 0, 'rot2': 0, 'state': 'normal', 'yaw': 1.23, 'datetime': '2018-10-10 01:06:50.457141', 'mgs': 0, 'volt': 0.8203, 'depth': 0.317, 'time': 1, 'pitch': 1.99, 'roll': -4.39, 'pres': 168}
{'lipoC2': 7.47, 'lipoC3S1': 3.85, 'temp': 30.56, 'lipoC3S3': 11.64, 'lipoC3S2': 7.71, 'rot1': 0, 'rot0': 0, 'rot3': 0, 'rot2': 0, 'state': 'normal', 'yaw': 1.34, 'datetime': '2018-10-10 01:06:50.467319', 'mgs': 0, 'volt': 0.8203, 'depth': 0.317, 'time': 1, 'pitch': 2.19, 'roll': -4.01, 'pres': 168}
{'lipoC2': 7.48, 'lipoC3S1': 3.85, 'temp': 30.56, 'lipoC3S3': 11.64, 'lipoC3S2': 7.71, 'rot1': 0, 'rot0': 0, 'rot3': 0, 'rot2': 0, 'state': 'normal', 'yaw': 1.68, 'datetime': '2018-10-10 01:06:50.477054', 'mgs': 0, 'volt': 0.8252, 'depth': 0.394, 'time': 1, 'pitch': 2.12, 'roll': -3.76, 'pres': 169}
{'lipoC2': 7.47, 'lipoC3S1': 3.85, 'temp': 30.56, 'lipoC3S3': 11.64, 'lipoC3S2': 7.71, 'rot1': 0, 'rot0': 0, 'rot3': 0, 'rot2': 0, 'state': 'normal', 'yaw': 2.02, 'datetime': '2018-10-10 01:06:50.486970', 'mgs': 0, 'volt': 0.8203, 'depth': 0.317, 'time': 2, 'pitch': 1.94, 'roll': -3.67, 'pres': 168}
{'lipoC2': 7.47, 'lipoC3S1': 3.85, 'temp': 30.56, 'lipoC3S3': 11.64, 'lipoC3S2': 7.71, 'rot1': 0, 'rot0': 0, 'rot3': 0, 'rot2': 0, 'state': 'normal', 'yaw': 2.25, 'datetime': '2018-10-10 01:06:50.497029', 'mgs': 0, 'volt': 0.8252, 'depth': 0.394, 'time': 2, 'pitch': 1.96, 'roll': -3.65, 'pres': 169}
{'lipoC2': 7.47, 'lipoC3S1': 3.85, 'temp': 30.56, 'lipoC3S3': 11.64, 'lipoC3S2': 7.71, 'rot1': 0, 'rot0': 0, 'rot3': 0, 'rot2': 0, 'state': 'normal', 'yaw': 2.3, 'datetime': '2018-10-10 01:06:50.506922', 'mgs': 0, 'volt': 0.8252, 'depth': 0.394, 'time': 2, 'pitch': 2.21, 'roll': -3.8, 'pres': 169}
{'lipoC2': 7.47, 'lipoC3S1': 3.85, 'temp': 30.56, 'lipoC3S3': 11.64, 'lipoC3S2': 7.71, 'rot1': 0, 'rot0': 0, 'rot3': 0, 'rot2': 0, 'state': 'normal', 'yaw': 2.06, 'datetime': '2018-10-10 01:06:50.516694', 'mgs': 0, 'volt': 0.8252, 'depth': 0.394, 'time': 2, 'pitch': 2.58, 'roll': -3.93, 'pres': 169}
{'lipoC2': 7.48, 'lipoC3S1': 3.85, 'temp': 30.56, 'lipoC3S3': 11.64, 'lipoC3S2': 7.71, 'rot1': 0, 'rot0': 0, 'rot3': 0, 'rot2': 0, 'state': 'normal', 'yaw': 1.8, 'datetime': '2018-10-10 01:06:50.526550', 'mgs': 0, 'volt': 0.8252, 'depth': 0.394, 'time': 2, 'pitch': 2.92, 'roll': -3.77, 'pres': 169}
{'lipoC2': 7.47, 'lipoC3S1': 3.85, 'temp': 30.56, 'lipoC3S3': 11.64, 'lipoC3S2': 7.71, 'rot1': 0, 'rot0': 0, 'rot3': 0, 'rot2': 0, 'state': 'normal', 'yaw': 1.76, 'datetime': '2018-10-10 01:06:50.536296', 'mgs': 0, 'volt': 0.8252, 'depth': 0.394, 'time': 2, 'pitch': 3.12, 'roll': -3.2, 'pres': 169}
{'lipoC2': 7.47, 'lipoC3S1': 3.85, 'temp': 30.5, 'lipoC3S3': 11.64, 'lipoC3S2': 7.71, 'rot1': 0, 'rot0': 0, 'rot3': 0, 'rot2': 0, 'state': 'normal', 'yaw': 1.98, 'datetime': '2018-10-10 01:06:50.546502', 'mgs': 0, 'volt': 0.8252, 'depth': 0.394, 'time': 2, 'pitch': 3.08, 'roll': -2.44, 'pres': 169}
{'lipoC2': 7.47, 'lipoC3S1': 3.85, 'temp': 30.5, 'lipoC3S3': 11.64, 'lipoC3S2': 7.71, 'rot1': 0, 'rot0': 0, 'rot3': 0, 'rot2': 0, 'state': 'normal', 'yaw': 2.31, 'datetime': '2018-10-10 01:06:50.565663', 'mgs': 0, 'volt': 0.8252, 'depth': 0.394, 'time': 2, 'pitch': 3.06, 'roll': -1.82, 'pres': 169}
{'lipoC2': 7.47, 'lipoC3S1': 3.85, 'temp': 30.5, 'lipoC3S3': 11.64, 'lipoC3S2': 7.71, 'rot1': 0, 'rot0': 0, 'rot3': 0, 'rot2': 0, 'state': 'normal', 'yaw': 2.47, 'datetime': '2018-10-10 01:06:50.669302', 'mgs': 0, 'volt': 0.8252, 'depth': 0.394, 'time': 2, 'pitch': 3.16, 'roll': -1.57, 'pres': 169}
{'lipoC2': 7.47, 'lipoC3S1': 3.85, 'temp': 30.5, 'lipoC3S3': 11.64, 'lipoC3S2': 7.71, 'rot1': 0, 'rot0': 0, 'rot3': 0, 'rot2': 0, 'state': 'normal', 'yaw': 2.46, 'datetime': '2018-10-10 01:06:50.772538', 'mgs': 0, 'volt': 0.8252, 'depth': 0.394, 'time': 3, 'pitch': 3.06, 'roll': -1.76, 'pres': 169}
{'lipoC2': 7.47, 'lipoC3S1': 3.85, 'temp': 30.5, 'lipoC3S3': 11.64, 'lipoC3S2': 7.71, 'rot1': 0, 'rot0': 0, 'rot3': 0, 'rot2': 0, 'state': 'normal', 'yaw': 2.58, 'datetime': '2018-10-10 01:06:50.875773', 'mgs': 0, 'volt': 0.8252, 'depth': 0.394, 'time': 3, 'pitch': 2.72, 'roll': -2.5, 'pres': 169}
{'lipoC2': 7.47, 'lipoC3S1': 3.85, 'temp': 30.5, 'lipoC3S3': 11.64, 'lipoC3S2': 7.71, 'rot1': 0, 'rot0': 0, 'rot3': 0, 'rot2': 0, 'state': 'normal', 'yaw': 2.82, 'datetime': '2018-10-10 01:06:50.979175', 'mgs': 0, 'volt': 0.8252, 'depth': 0.394, 'time': 3, 'pitch': 2.47, 'roll': -3.57, 'pres': 169}
{'lipoC2': 7.47, 'lipoC3S1': 3.85, 'temp': 30.5, 'lipoC3S3': 11.64, 'lipoC3S2': 7.71, 'rot1': 0, 'rot0': 0, 'rot3': 0, 'rot2': 0, 'state': 'normal', 'yaw': 2.67, 'datetime': '2018-10-10 01:06:51.082413', 'mgs': 0, 'volt': 0.8252, 'depth': 0.394, 'time': 3, 'pitch': 2.5, 'roll': -4.27, 'pres': 169}
{'lipoC2': 7.47, 'lipoC3S1': 3.85, 'temp': 30.5, 'lipoC3S3': 11.64, 'lipoC3S2': 7.71, 'rot1': 0, 'rot0': 0, 'rot3': 0, 'rot2': 0, 'state': 'normal', 'yaw': 2.38, 'datetime': '2018-10-10 01:06:51.189340', 'mgs': 0, 'volt': 0.8252, 'depth': 0.394, 'time': 3, 'pitch': 2.63, 'roll': -4.17, 'pres': 169}
{'lipoC2': 7.47, 'lipoC3S1': 3.85, 'temp': 30.5, 'lipoC3S3': 11.64, 'lipoC3S2': 7.71, 'rot1': 0, 'rot0': 0, 'rot3': 0, 'rot2': 0, 'state': 'normal', 'yaw': 2.4, 'datetime': '2018-10-10 01:06:51.292953', 'mgs': 0, 'volt': 0.8252, 'depth': 0.394, 'time': 3, 'pitch': 2.5, 'roll': -3.92, 'pres': 169}
{'lipoC2': 7.47, 'lipoC3S1': 3.85, 'temp': 30.56, 'lipoC3S3': 11.64, 'lipoC3S2': 7.71, 'rot1': 0, 'rot0': 0, 'rot3': 0, 'rot2': 0, 'state': 'normal', 'yaw': 2.78, 'datetime': '2018-10-10 01:06:51.396430', 'mgs': 0, 'volt': 0.8203, 'depth': 0.317, 'time': 3, 'pitch': 2.12, 'roll': -4.12, 'pres': 168}
{'lipoC2': 7.47, 'lipoC3S1': 3.85, 'temp': 30.56, 'lipoC3S3': 11.64, 'lipoC3S2': 7.71, 'rot1': 0, 'rot0': 0, 'rot3': 0, 'rot2': 0, 'state': 'normal', 'yaw': 3.0, 'datetime': '2018-10-10 01:06:51.499818', 'mgs': 0, 'volt': 0.8203, 'depth': 0.317, 'time': 3, 'pitch': 1.84, 'roll': -4.56, 'pres': 168}
{'lipoC2': 7.47, 'lipoC3S1': 3.85, 'temp': 30.56, 'lipoC3S3': 11.64, 'lipoC3S2': 7.71, 'rot1': 0, 'rot0': 0, 'rot3': 0, 'rot2': 0, 'state': 'normal', 'yaw': 3.01, 'datetime': '2018-10-10 01:06:51.602933', 'mgs': 0, 'volt': 0.8203, 'depth': 0.317, 'time': 3, 'pitch': 1.58, 'roll': -4.99, 'pres': 168}
{'lipoC2': 7.47, 'lipoC3S1': 3.85, 'temp': 30.5, 'lipoC3S3': 11.64, 'lipoC3S2': 7.71, 'rot1': 0, 'rot0': 0, 'rot3': 0, 'rot2': 0, 'state': 'normal', 'yaw': 2.89, 'datetime': '2018-10-10 01:06:51.706230', 'mgs': 0, 'volt': 0.8203, 'depth': 0.317, 'time': 3, 'pitch': 1.3, 'roll': -5.43, 'pres': 168}
{'lipoC2': 7.47, 'lipoC3S1': 3.85, 'temp': 30.5, 'lipoC3S3': 11.64, 'lipoC3S2': 7.71, 'rot1': 0, 'rot0': 0, 'rot3': 0, 'rot2': 0, 'state': 'normal', 'yaw': 2.73, 'datetime': '2018-10-10 01:06:51.812343', 'mgs': 0, 'volt': 0.8252, 'depth': 0.394, 'time': 4, 'pitch': 1.06, 'roll': -5.53, 'pres': 169}
{'lipoC2': 7.47, 'lipoC3S1': 3.85, 'temp': 30.5, 'lipoC3S3': 11.64, 'lipoC3S2': 7.71, 'rot1': 0, 'rot0': 0, 'rot3': 0, 'rot2': 0, 'state': 'normal', 'yaw': 2.71, 'datetime': '2018-10-10 01:06:51.920306', 'mgs': 0, 'volt': 0.8252, 'depth': 0.394, 'time': 4, 'pitch': 1.01, 'roll': -5.27, 'pres': 169}
{'lipoC2': 7.47, 'lipoC3S1': 3.85, 'temp': 30.5, 'lipoC3S3': 11.64, 'lipoC3S2': 7.71, 'rot1': 0, 'rot0': 0, 'rot3': 0, 'rot2': 0, 'state': 'normal', 'yaw': 2.84, 'datetime': '2018-10-10 01:06:52.018467', 'mgs': 0, 'volt': 0.8301, 'depth': 0.47, 'time': 4, 'pitch': 0.83, 'roll': -4.88, 'pres': 170}
{'lipoC2': 7.47, 'lipoC3S1': 3.85, 'temp': 30.5, 'lipoC3S3': 11.64, 'lipoC3S2': 7.71, 'rot1': 0, 'rot0': 0, 'rot3': 0, 'rot2': 0, 'state': 'normal', 'yaw': 3.05, 'datetime': '2018-10-10 01:06:52.126609', 'mgs': 0, 'volt': 0.8301, 'depth': 0.47, 'time': 4, 'pitch': 0.83, 'roll': -4.72, 'pres': 170}
{'lipoC2': 7.47, 'lipoC3S1': 3.85, 'temp': 30.5, 'lipoC3S3': 11.64, 'lipoC3S2': 7.71, 'rot1': 0, 'rot0': 0, 'rot3': 0, 'rot2': 0, 'state': 'normal', 'yaw': 3.35, 'datetime': '2018-10-10 01:06:52.231032', 'mgs': 0, 'volt': 0.8301, 'depth': 0.47, 'time': 4, 'pitch': 0.97, 'roll': -4.78, 'pres': 170}
{'lipoC2': 7.47, 'lipoC3S1': 3.85, 'temp': 30.5, 'lipoC3S3': 11.64, 'lipoC3S2': 7.71, 'rot1': 0, 'rot0': 0, 'rot3': 0, 'rot2': 0, 'state': 'normal', 'yaw': 3.43, 'datetime': '2018-10-10 01:06:52.335123', 'mgs': 0, 'volt': 0.8301, 'depth': 0.47, 'time': 4, 'pitch': 1.41, 'roll': -5.04, 'pres': 170}
{'lipoC2': 7.47, 'lipoC3S1': 3.85, 'temp': 30.5, 'lipoC3S3': 11.64, 'lipoC3S2': 7.71, 'rot1': 0, 'rot0': 0, 'rot3': 0, 'rot2': 0, 'state': 'normal', 'yaw': 3.37, 'datetime': '2018-10-10 01:06:52.431165', 'mgs': 0, 'volt': 0.8301, 'depth': 0.47, 'time': 4, 'pitch': 2.15, 'roll': -5.35, 'pres': 170}
{'lipoC2': 7.47, 'lipoC3S1': 3.85, 'temp': 30.5, 'lipoC3S3': 11.64, 'lipoC3S2': 7.71, 'rot1': 0, 'rot0': 0, 'rot3': 0, 'rot2': 0, 'state': 'normal', 'yaw': 3.31, 'datetime': '2018-10-10 01:06:52.534219', 'mgs': 0, 'volt': 0.835, 'depth': 0.546, 'time': 4, 'pitch': 2.8, 'roll': -5.78, 'pres': 171}
{'lipoC2': 7.47, 'lipoC3S1': 3.85, 'temp': 30.5, 'lipoC3S3': 11.64, 'lipoC3S2': 7.71, 'rot1': 0, 'rot0': 0, 'rot3': 0, 'rot2': 0, 'state': 'normal', 'yaw': 3.18, 'datetime': '2018-10-10 01:06:52.637599', 'mgs': 0, 'volt': 0.835, 'depth': 0.546, 'time': 4, 'pitch': 3.21, 'roll': -6.28, 'pres': 171}
{'lipoC2': 7.47, 'lipoC3S1': 3.85, 'temp': 30.5, 'lipoC3S3': 11.64, 'lipoC3S2': 7.71, 'rot1': 0, 'rot0': 0, 'rot3': 0, 'rot2': 0, 'state': 'normal', 'yaw': 3.07, 'datetime': '2018-10-10 01:06:52.740895', 'mgs': 0, 'volt': 0.8398, 'depth': 0.623, 'time': 4, 'pitch': 3.53, 'roll': -6.69, 'pres': 172}
{'lipoC2': 7.47, 'lipoC3S1': 3.85, 'temp': 30.5, 'lipoC3S3': 11.64, 'lipoC3S2': 7.71, 'rot1': 0, 'rot0': 0, 'rot3': 0, 'rot2': 0, 'state': 'normal', 'yaw': 3.13, 'datetime': '2018-10-10 01:06:52.844233', 'mgs': 0, 'volt': 0.8398, 'depth': 0.623, 'time': 5, 'pitch': 3.77, 'roll': -6.88, 'pres': 172}
{'lipoC2': 7.47, 'lipoC3S1': 3.85, 'temp': 30.5, 'lipoC3S3': 11.64, 'lipoC3S2': 7.71, 'rot1': 0, 'rot0': 0, 'rot3': 0, 'rot2': 0, 'state': 'normal', 'yaw': 3.14, 'datetime': '2018-10-10 01:06:52.947326', 'mgs': 0, 'volt': 0.8447, 'depth': 0.699, 'time': 5, 'pitch': 3.9, 'roll': -6.7, 'pres': 173}
{'lipoC2': 7.47, 'lipoC3S1': 3.85, 'temp': 30.5, 'lipoC3S3': 11.64, 'lipoC3S2': 7.71, 'rot1': 0, 'rot0': 0, 'rot3': 0, 'rot2': 0, 'state': 'normal', 'yaw': 2.89, 'datetime': '2018-10-10 01:06:53.050508', 'mgs': 0, 'volt': 0.8447, 'depth': 0.699, 'time': 5, 'pitch': 4.27, 'roll': -5.96, 'pres': 173}
{'lipoC2': 7.47, 'lipoC3S1': 3.85, 'temp': 30.5, 'lipoC3S3': 11.64, 'lipoC3S2': 7.71, 'rot1': 0, 'rot0': 0, 'rot3': 0, 'rot2': 0, 'state': 'normal', 'yaw': 2.77, 'datetime': '2018-10-10 01:06:53.153772', 'mgs': 0, 'volt': 0.8447, 'depth': 0.699, 'time': 5, 'pitch': 4.79, 'roll': -5.01, 'pres': 173}
{'lipoC2': 7.47, 'lipoC3S1': 3.85, 'temp': 30.5, 'lipoC3S3': 11.64, 'lipoC3S2': 7.71, 'rot1': 0, 'rot0': 0, 'rot3': 0, 'rot2': 0, 'state': 'normal', 'yaw': 2.71, 'datetime': '2018-10-10 01:06:53.256912', 'mgs': 0, 'volt': 0.8447, 'depth': 0.699, 'time': 5, 'pitch': 5.35, 'roll': -3.94, 'pres': 173}
{'lipoC2': 7.47, 'lipoC3S1': 3.85, 'temp': 30.5, 'lipoC3S3': 11.64, 'lipoC3S2': 7.71, 'rot1': 0, 'rot0': 0, 'rot3': 0, 'rot2': 0, 'state': 'normal', 'yaw': 2.56, 'datetime': '2018-10-10 01:06:53.360433', 'mgs': 0, 'volt': 0.8496, 'depth': 0.775, 'time': 5, 'pitch': 5.92, 'roll': -2.54, 'pres': 174}
{'lipoC2': 7.47, 'lipoC3S1': 3.85, 'temp': 30.5, 'lipoC3S3': 11.64, 'lipoC3S2': 7.71, 'rot1': 0, 'rot0': 0, 'rot3': 0, 'rot2': 0, 'state': 'normal', 'yaw': 2.57, 'datetime': '2018-10-10 01:06:53.463561', 'mgs': 0, 'volt': 0.8496, 'depth': 0.775, 'time': 5, 'pitch': 6.28, 'roll': -1.35, 'pres': 174}
{'lipoC2': 7.47, 'lipoC3S1': 3.85, 'temp': 30.5, 'lipoC3S3': 11.64, 'lipoC3S2': 7.71, 'rot1': 0, 'rot0': 0, 'rot3': 0, 'rot2': 0, 'state': 'normal', 'yaw': 2.61, 'datetime': '2018-10-10 01:06:53.568038', 'mgs': 0, 'volt': 0.8496, 'depth': 0.775, 'time': 5, 'pitch': 6.41, 'roll': -0.42, 'pres': 174}
{'lipoC2': 7.47, 'lipoC3S1': 3.85, 'temp': 30.5, 'lipoC3S3': 11.64, 'lipoC3S2': 7.71, 'rot1': 0, 'rot0': 0, 'rot3': 0, 'rot2': 0, 'state': 'normal', 'yaw': 2.53, 'datetime': '2018-10-10 01:06:53.671201', 'mgs': 0, 'volt': 0.8496, 'depth': 0.775, 'time': 5, 'pitch': 6.41, 'roll': 0.48, 'pres': 174}
{'lipoC2': 7.47, 'lipoC3S1': 3.85, 'temp': 30.5, 'lipoC3S3': 11.64, 'lipoC3S2': 7.71, 'rot1': 0, 'rot0': 0, 'rot3': 0, 'rot2': 0, 'state': 'normal', 'yaw': 2.29, 'datetime': '2018-10-10 01:06:53.774568', 'mgs': 0, 'volt': 0.8496, 'depth': 0.775, 'time': 6, 'pitch': 6.65, 'roll': 1.17, 'pres': 174}
{'lipoC2': 7.47, 'lipoC3S1': 3.85, 'temp': 30.5, 'lipoC3S3': 11.64, 'lipoC3S2': 7.71, 'rot1': 0, 'rot0': 0, 'rot3': 0, 'rot2': 0, 'state': 'normal', 'yaw': 1.89, 'datetime': '2018-10-10 01:06:53.879005', 'mgs': 0, 'volt': 0.8545, 'depth': 0.851, 'time': 6, 'pitch': 7.16, 'roll': 1.7, 'pres': 175}
{'lipoC2': 7.47, 'lipoC3S1': 3.85, 'temp': 30.5, 'lipoC3S3': 11.64, 'lipoC3S2': 7.71, 'rot1': 0, 'rot0': 0, 'rot3': 0, 'rot2': 0, 'state': 'normal', 'yaw': 1.39, 'datetime': '2018-10-10 01:06:53.982440', 'mgs': 0, 'volt': 0.8545, 'depth': 0.851, 'time': 6, 'pitch': 7.8, 'roll': 2.17, 'pres': 175}
{'lipoC2': 7.47, 'lipoC3S1': 3.85, 'temp': 30.5, 'lipoC3S3': 11.64, 'lipoC3S2': 7.71, 'rot1': 0, 'rot0': 0, 'rot3': 0, 'rot2': 0, 'state': 'normal', 'yaw': 1.04, 'datetime': '2018-10-10 01:06:54.085454', 'mgs': 0, 'volt': 0.8545, 'depth': 0.851, 'time': 6, 'pitch': 8.08, 'roll': 2.39, 'pres': 175}
{'lipoC2': 7.47, 'lipoC3S1': 3.85, 'temp': 30.5, 'lipoC3S3': 11.64, 'lipoC3S2': 7.71, 'rot1': 0, 'rot0': 0, 'rot3': 0, 'rot2': 0, 'state': 'normal', 'yaw': 1.0, 'datetime': '2018-10-10 01:06:54.188673', 'mgs': 0, 'volt': 0.8545, 'depth': 0.851, 'time': 6, 'pitch': 8.15, 'roll': 2.27, 'pres': 175}
{'lipoC2': 7.47, 'lipoC3S1': 3.85, 'temp': 30.5, 'lipoC3S3': 11.64, 'lipoC3S2': 7.71, 'rot1': 0, 'rot0': 0, 'rot3': 0, 'rot2': 0, 'state': 'normal', 'yaw': 1.19, 'datetime': '2018-10-10 01:06:54.291954', 'mgs': 0, 'volt': 0.8496, 'depth': 0.775, 'time': 6, 'pitch': 7.89, 'roll': 1.64, 'pres': 174}
{'lipoC2': 7.47, 'lipoC3S1': 3.85, 'temp': 30.5, 'lipoC3S3': 11.64, 'lipoC3S2': 7.71, 'rot1': 0, 'rot0': 0, 'rot3': 0, 'rot2': 0, 'state': 'normal', 'yaw': 1.2, 'datetime': '2018-10-10 01:06:54.395352', 'mgs': 0, 'volt': 0.8496, 'depth': 0.775, 'time': 6, 'pitch': 7.63, 'roll': 0.76, 'pres': 174}
{'lipoC2': 7.47, 'lipoC3S1': 3.85, 'temp': 30.5, 'lipoC3S3': 11.64, 'lipoC3S2': 7.71, 'rot1': 0, 'rot0': 0, 'rot3': 0, 'rot2': 0, 'state': 'normal', 'yaw': 1.01, 'datetime': '2018-10-10 01:06:54.498888', 'mgs': 0, 'volt': 0.8496, 'depth': 0.775, 'time': 6, 'pitch': 7.66, 'roll': -0.12, 'pres': 174}
{'lipoC2': 7.47, 'lipoC3S1': 3.85, 'temp': 30.5, 'lipoC3S3': 11.64, 'lipoC3S2': 7.71, 'rot1': 0, 'rot0': 0, 'rot3': 0, 'rot2': 0, 'state': 'normal', 'yaw': 0.71, 'datetime': '2018-10-10 01:06:54.602381', 'mgs': 0, 'volt': 0.8496, 'depth': 0.775, 'time': 6, 'pitch': 7.72, 'roll': -0.69, 'pres': 174}
{'lipoC2': 7.47, 'lipoC3S1': 3.85, 'temp': 30.5, 'lipoC3S3': 11.64, 'lipoC3S2': 7.71, 'rot1': 0, 'rot0': 0, 'rot3': 0, 'rot2': 0, 'state': 'normal', 'yaw': 0.38, 'datetime': '2018-10-10 01:06:54.705472', 'mgs': 0, 'volt': 0.8496, 'depth': 0.775, 'time': 6, 'pitch': 7.51, 'roll': -0.95, 'pres': 174}
{'lipoC2': 7.47, 'lipoC3S1': 3.85, 'temp': 30.5, 'lipoC3S3': 11.64, 'lipoC3S2': 7.71, 'rot1': 0, 'rot0': 0, 'rot3': 0, 'rot2': 0, 'state': 'normal', 'yaw': 0.24, 'datetime': '2018-10-10 01:06:54.813974', 'mgs': 0, 'volt': 0.8447, 'depth': 0.699, 'time': 7, 'pitch': 7.5, 'roll': -1.18, 'pres': 173}
{'lipoC2': 7.47, 'lipoC3S1': 3.85, 'temp': 30.5, 'lipoC3S3': 11.64, 'lipoC3S2': 7.71, 'rot1': 0, 'rot0': 0, 'rot3': 0, 'rot2': 0, 'state': 'normal', 'yaw': 0.17, 'datetime': '2018-10-10 01:06:54.912052', 'mgs': 0, 'volt': 0.8447, 'depth': 0.699, 'time': 7, 'pitch': 7.5, 'roll': -1.61, 'pres': 173}
{'lipoC2': 7.47, 'lipoC3S1': 3.85, 'temp': 30.5, 'lipoC3S3': 11.64, 'lipoC3S2': 7.71, 'rot1': 0, 'rot0': 0, 'rot3': 0, 'rot2': 0, 'state': 'normal', 'yaw': 0.16, 'datetime': '2018-10-10 01:06:55.015271', 'mgs': 0, 'volt': 0.8447, 'depth': 0.699, 'time': 7, 'pitch': 7.52, 'roll': -2.31, 'pres': 173}
{'lipoC2': 7.47, 'lipoC3S1': 3.85, 'temp': 30.5, 'lipoC3S3': 11.64, 'lipoC3S2': 7.71, 'rot1': 0, 'rot0': 0, 'rot3': 0, 'rot2': 0, 'state': 'normal', 'yaw': 0.17, 'datetime': '2018-10-10 01:06:55.118491', 'mgs': 0, 'volt': 0.8447, 'depth': 0.699, 'time': 7, 'pitch': 7.32, 'roll': -3.0, 'pres': 173}
{'lipoC2': 7.47, 'lipoC3S1': 3.85, 'temp': 30.5, 'lipoC3S3': 11.64, 'lipoC3S2': 7.71, 'rot1': 0, 'rot0': 0, 'rot3': 0, 'rot2': 0, 'state': 'normal', 'yaw': 0.38, 'datetime': '2018-10-10 01:06:55.222679', 'mgs': 0, 'volt': 0.8447, 'depth': 0.699, 'time': 7, 'pitch': 6.97, 'roll': -3.4, 'pres': 173}
{'lipoC2': 7.47, 'lipoC3S1': 3.85, 'temp': 30.56, 'lipoC3S3': 11.64, 'lipoC3S2': 7.71, 'rot1': 0, 'rot0': 0, 'rot3': 0, 'rot2': 0, 'state': 'normal', 'yaw': 0.65, 'datetime': '2018-10-10 01:06:55.326193', 'mgs': 0, 'volt': 0.8447, 'depth': 0.699, 'time': 7, 'pitch': 6.83, 'roll': -3.59, 'pres': 173}
{'lipoC2': 7.47, 'lipoC3S1': 3.85, 'temp': 30.56, 'lipoC3S3': 11.64, 'lipoC3S2': 7.71, 'rot1': 0, 'rot0': 0, 'rot3': 0, 'rot2': 0, 'state': 'normal', 'yaw': 0.66, 'datetime': '2018-10-10 01:06:55.429032', 'mgs': 0, 'volt': 0.8447, 'depth': 0.699, 'time': 7, 'pitch': 6.97, 'roll': -3.56, 'pres': 173}
{'lipoC2': 7.47, 'lipoC3S1': 3.85, 'temp': 30.5, 'lipoC3S3': 11.64, 'lipoC3S2': 7.71, 'rot1': 0, 'rot0': 0, 'rot3': 0, 'rot2': 0, 'state': 'normal', 'yaw': 0.4, 'datetime': '2018-10-10 01:06:55.533579', 'mgs': 0, 'volt': 0.8447, 'depth': 0.699, 'time': 7, 'pitch': 7.24, 'roll': -3.31, 'pres': 173}
{'lipoC2': 7.47, 'lipoC3S1': 3.85, 'temp': 30.5, 'lipoC3S3': 11.64, 'lipoC3S2': 7.71, 'rot1': 0, 'rot0': 0, 'rot3': 0, 'rot2': 0, 'state': 'normal', 'yaw': 0.07, 'datetime': '2018-10-10 01:06:55.637017', 'mgs': 0, 'volt': 0.8496, 'depth': 0.775, 'time': 7, 'pitch': 7.65, 'roll': -2.95, 'pres': 174}
{'lipoC2': 7.47, 'lipoC3S1': 3.85, 'temp': 30.5, 'lipoC3S3': 11.64, 'lipoC3S2': 7.71, 'rot1': 0, 'rot0': 0, 'rot3': 0, 'rot2': 0, 'state': 'normal', 'yaw': 0.09, 'datetime': '2018-10-10 01:06:55.746447', 'mgs': 0, 'volt': 0.8496, 'depth': 0.775, 'time': 7, 'pitch': 7.95, 'roll': -2.53, 'pres': 174}
{'lipoC2': 7.47, 'lipoC3S1': 3.85, 'temp': 30.5, 'lipoC3S3': 11.64, 'lipoC3S2': 7.71, 'rot1': 0, 'rot0': 0, 'rot3': 0, 'rot2': 0, 'state': 'normal', 'yaw': 0.63, 'datetime': '2018-10-10 01:06:55.849726', 'mgs': 0, 'volt': 0.8496, 'depth': 0.775, 'time': 8, 'pitch': 7.91, 'roll': -2.01, 'pres': 174}
{'lipoC2': 7.47, 'lipoC3S1': 3.85, 'temp': 30.5, 'lipoC3S3': 11.64, 'lipoC3S2': 7.71, 'rot1': 0, 'rot0': 0, 'rot3': 0, 'rot2': 0, 'state': 'normal', 'yaw': 1.52, 'datetime': '2018-10-10 01:06:55.953022', 'mgs': 0, 'volt': 0.8496, 'depth': 0.775, 'time': 8, 'pitch': 7.5, 'roll': -0.97, 'pres': 174}
{'lipoC2': 7.47, 'lipoC3S1': 3.85, 'temp': 30.5, 'lipoC3S3': 11.64, 'lipoC3S2': 7.71, 'rot1': 0, 'rot0': 0, 'rot3': 0, 'rot2': 0, 'state': 'normal', 'yaw': 2.15, 'datetime': '2018-10-10 01:06:56.056210', 'mgs': 0, 'volt': 0.8496, 'depth': 0.775, 'time': 8, 'pitch': 7.26, 'roll': 0.22, 'pres': 174}
{'lipoC2': 7.47, 'lipoC3S1': 3.85, 'temp': 30.5, 'lipoC3S3': 11.64, 'lipoC3S2': 7.71, 'rot1': 0, 'rot0': 0, 'rot3': 0, 'rot2': 0, 'state': 'normal', 'yaw': 2.3, 'datetime': '2018-10-10 01:06:56.159296', 'mgs': 0, 'volt': 0.8545, 'depth': 0.851, 'time': 8, 'pitch': 7.02, 'roll': 1.37, 'pres': 175}
{'lipoC2': 7.47, 'lipoC3S1': 3.85, 'temp': 30.56, 'lipoC3S3': 11.64, 'lipoC3S2': 7.71, 'rot1': 0, 'rot0': 0, 'rot3': 0, 'rot2': 0, 'state': 'normal', 'yaw': 2.28, 'datetime': '2018-10-10 01:06:56.262781', 'mgs': 0, 'volt': 0.8545, 'depth': 0.851, 'time': 8, 'pitch': 7.13, 'roll': 2.0, 'pres': 175}
{'lipoC2': 7.47, 'lipoC3S1': 3.85, 'temp': 30.56, 'lipoC3S3': 11.64, 'lipoC3S2': 7.71, 'rot1': 0, 'rot0': 0, 'rot3': 0, 'rot2': 0, 'state': 'normal', 'yaw': 2.58, 'datetime': '2018-10-10 01:06:56.361145', 'mgs': 0, 'volt': 0.8545, 'depth': 0.851, 'time': 8, 'pitch': 7.34, 'roll': 1.62, 'pres': 175}
{'lipoC2': 7.47, 'lipoC3S1': 3.85, 'temp': 30.56, 'lipoC3S3': 11.64, 'lipoC3S2': 7.71, 'rot1': 0, 'rot0': 0, 'rot3': 0, 'rot2': 0, 'state': 'normal', 'yaw': 3.1, 'datetime': '2018-10-10 01:06:56.469404', 'mgs': 0, 'volt': 0.8496, 'depth': 0.775, 'time': 8, 'pitch': 7.46, 'roll': 1.07, 'pres': 174}
{'lipoC2': 7.47, 'lipoC3S1': 3.85, 'temp': 30.5, 'lipoC3S3': 11.64, 'lipoC3S2': 7.71, 'rot1': 0, 'rot0': 0, 'rot3': 0, 'rot2': 0, 'state': 'normal', 'yaw': 3.67, 'datetime': '2018-10-10 01:06:56.572508', 'mgs': 0, 'volt': 0.8496, 'depth': 0.775, 'time': 8, 'pitch': 7.44, 'roll': 0.86, 'pres': 174}
{'lipoC2': 7.47, 'lipoC3S1': 3.85, 'temp': 30.5, 'lipoC3S3': 11.64, 'lipoC3S2': 7.71, 'rot1': 0, 'rot0': 0, 'rot3': 0, 'rot2': 0, 'state': 'normal', 'yaw': 4.14, 'datetime': '2018-10-10 01:06:56.675741', 'mgs': 0, 'volt': 0.8496, 'depth': 0.775, 'time': 8, 'pitch': 7.26, 'roll': 0.87, 'pres': 174}
{'lipoC2': 7.47, 'lipoC3S1': 3.85, 'temp': 30.5, 'lipoC3S3': 11.64, 'lipoC3S2': 7.71, 'rot1': 0, 'rot0': 0, 'rot3': 0, 'rot2': 0, 'state': 'normal', 'yaw': 4.46, 'datetime': '2018-10-10 01:06:56.778900', 'mgs': 0, 'volt': 0.8496, 'depth': 0.775, 'time': 9, 'pitch': 7.15, 'roll': 0.72, 'pres': 174}
{'lipoC2': 7.47, 'lipoC3S1': 3.85, 'temp': 30.5, 'lipoC3S3': 11.64, 'lipoC3S2': 7.71, 'rot1': 0, 'rot0': 0, 'rot3': 0, 'rot2': 0, 'state': 'normal', 'yaw': 4.6, 'datetime': '2018-10-10 01:06:56.883451', 'mgs': 0, 'volt': 0.8496, 'depth': 0.775, 'time': 9, 'pitch': 7.2, 'roll': 0.15, 'pres': 174}
{'lipoC2': 7.47, 'lipoC3S1': 3.85, 'temp': 30.5, 'lipoC3S3': 11.64, 'lipoC3S2': 7.71, 'rot1': 0, 'rot0': 0, 'rot3': 0, 'rot2': 0, 'state': 'normal', 'yaw': 4.4, 'datetime': '2018-10-10 01:06:56.986773', 'mgs': 0, 'volt': 0.8496, 'depth': 0.775, 'time': 9, 'pitch': 7.5, 'roll': -0.76, 'pres': 174}
{'lipoC2': 7.47, 'lipoC3S1': 3.85, 'temp': 30.5, 'lipoC3S3': 11.64, 'lipoC3S2': 7.71, 'rot1': 0, 'rot0': 0, 'rot3': 0, 'rot2': 0, 'state': 'normal', 'yaw': 3.97, 'datetime': '2018-10-10 01:06:57.089869', 'mgs': 0, 'volt': 0.8496, 'depth': 0.775, 'time': 9, 'pitch': 7.81, 'roll': -1.6, 'pres': 174}
{'lipoC2': 7.47, 'lipoC3S1': 3.85, 'temp': 30.5, 'lipoC3S3': 11.64, 'lipoC3S2': 7.71, 'rot1': 0, 'rot0': 0, 'rot3': 0, 'rot2': 0, 'state': 'normal', 'yaw': 3.57, 'datetime': '2018-10-10 01:06:57.194355', 'mgs': 0, 'volt': 0.8496, 'depth': 0.775, 'time': 9, 'pitch': 7.81, 'roll': -2.21, 'pres': 174}
{'lipoC2': 7.47, 'lipoC3S1': 3.85, 'temp': 30.5, 'lipoC3S3': 11.64, 'lipoC3S2': 7.71, 'rot1': 0, 'rot0': 0, 'rot3': 0, 'rot2': 0, 'state': 'normal', 'yaw': 3.47, 'datetime': '2018-10-10 01:06:57.298103', 'mgs': 0, 'volt': 0.8545, 'depth': 0.851, 'time': 9, 'pitch': 7.43, 'roll': -2.67, 'pres': 175}
{'lipoC2': 7.47, 'lipoC3S1': 3.85, 'temp': 30.5, 'lipoC3S3': 11.64, 'lipoC3S2': 7.71, 'rot1': 0, 'rot0': 0, 'rot3': 0, 'rot2': 0, 'state': 'normal', 'yaw': 3.78, 'datetime': '2018-10-10 01:06:57.401130', 'mgs': 0, 'volt': 0.8496, 'depth': 0.775, 'time': 9, 'pitch': 7.03, 'roll': -2.92, 'pres': 174}
{'lipoC2': 7.47, 'lipoC3S1': 3.85, 'temp': 30.5, 'lipoC3S3': 11.64, 'lipoC3S2': 7.71, 'rot1': 0, 'rot0': 0, 'rot3': 0, 'rot2': 0, 'state': 'normal', 'yaw': 3.91, 'datetime': '2018-10-10 01:06:57.504492', 'mgs': 0, 'volt': 0.8496, 'depth': 0.775, 'time': 9, 'pitch': 6.71, 'roll': -2.95, 'pres': 174}
{'lipoC2': 7.47, 'lipoC3S1': 3.85, 'temp': 30.5, 'lipoC3S3': 11.64, 'lipoC3S2': 7.71, 'rot1': 0, 'rot0': 0, 'rot3': 0, 'rot2': 0, 'state': 'normal', 'yaw': 3.63, 'datetime': '2018-10-10 01:06:57.607706', 'mgs': 0, 'volt': 0.8545, 'depth': 0.851, 'time': 9, 'pitch': 6.56, 'roll': -2.76, 'pres': 175}
{'lipoC2': 7.47, 'lipoC3S1': 3.85, 'temp': 30.5, 'lipoC3S3': 11.64, 'lipoC3S2': 7.71, 'rot1': 0, 'rot0': 0, 'rot3': 0, 'rot2': 0, 'state': 'normal', 'yaw': 3.26, 'datetime': '2018-10-10 01:06:57.710799', 'mgs': 0, 'volt': 0.8496, 'depth': 0.775, 'time': 9, 'pitch': 6.73, 'roll': -2.52, 'pres': 174}
{'lipoC2': 7.47, 'lipoC3S1': 3.85, 'temp': 30.5, 'lipoC3S3': 11.64, 'lipoC3S2': 7.71, 'rot1': 0, 'rot0': 0, 'rot3': 0, 'rot2': 0, 'state': 'normal', 'yaw': 2.97, 'datetime': '2018-10-10 01:06:57.819870', 'mgs': 0, 'volt': 0.8545, 'depth': 0.851, 'time': 10, 'pitch': 6.77, 'roll': -2.26, 'pres': 175}
{'lipoC2': 7.47, 'lipoC3S1': 3.85, 'temp': 30.5, 'lipoC3S3': 11.64, 'lipoC3S2': 7.71, 'rot1': 0, 'rot0': 0, 'rot3': 0, 'rot2': 0, 'state': 'normal', 'yaw': 2.93, 'datetime': '2018-10-10 01:06:57.917772', 'mgs': 0, 'volt': 0.8545, 'depth': 0.851, 'time': 10, 'pitch': 6.53, 'roll': -2.18, 'pres': 175}
{'lipoC2': 7.47, 'lipoC3S1': 3.85, 'temp': 30.5, 'lipoC3S3': 11.64, 'lipoC3S2': 7.71, 'rot1': 0, 'rot0': 0, 'rot3': 0, 'rot2': 0, 'state': 'normal', 'yaw': 2.94, 'datetime': '2018-10-10 01:06:58.021068', 'mgs': 0, 'volt': 0.8545, 'depth': 0.851, 'time': 10, 'pitch': 6.32, 'roll': -2.4, 'pres': 175}
{'lipoC2': 7.47, 'lipoC3S1': 3.85, 'temp': 30.5, 'lipoC3S3': 11.64, 'lipoC3S2': 7.71, 'rot1': 0, 'rot0': 0, 'rot3': 0, 'rot2': 0, 'state': 'normal', 'yaw': 2.75, 'datetime': '2018-10-10 01:06:58.120159', 'mgs': 0, 'volt': 0.8594, 'depth': 0.928, 'time': 10, 'pitch': 6.69, 'roll': -2.66, 'pres': 176}
{'lipoC2': 7.47, 'lipoC3S1': 3.85, 'temp': 30.5, 'lipoC3S3': 11.64, 'lipoC3S2': 7.71, 'rot1': 0, 'rot0': 0, 'rot3': 0, 'rot2': 0, 'state': 'normal', 'yaw': 2.33, 'datetime': '2018-10-10 01:06:58.221995', 'mgs': 0, 'volt': 0.8545, 'depth': 0.851, 'time': 10, 'pitch': 7.36, 'roll': -2.65, 'pres': 175}
{'lipoC2': 7.47, 'lipoC3S1': 3.85, 'temp': 30.5, 'lipoC3S3': 11.64, 'lipoC3S2': 7.71, 'rot1': 0, 'rot0': 0, 'rot3': 0, 'rot2': 0, 'state': 'normal', 'yaw': 2.02, 'datetime': '2018-10-10 01:06:58.331672', 'mgs': 0, 'volt': 0.8545, 'depth': 0.851, 'time': 10, 'pitch': 7.52, 'roll': -2.33, 'pres': 175}
{'lipoC2': 7.47, 'lipoC3S1': 3.85, 'temp': 30.5, 'lipoC3S3': 11.64, 'lipoC3S2': 7.71, 'rot1': 0, 'rot0': 0, 'rot3': 0, 'rot2': 0, 'state': 'normal', 'yaw': 1.88, 'datetime': '2018-10-10 01:06:58.435723', 'mgs': 0, 'volt': 0.8545, 'depth': 0.851, 'time': 10, 'pitch': 6.99, 'roll': -1.74, 'pres': 175}
{'lipoC2': 7.47, 'lipoC3S1': 3.85, 'temp': 30.5, 'lipoC3S3': 11.64, 'lipoC3S2': 7.71, 'rot1': 0, 'rot0': 0, 'rot3': 0, 'rot2': 0, 'state': 'normal', 'yaw': 1.88, 'datetime': '2018-10-10 01:06:58.539536', 'mgs': 0, 'volt': 0.8545, 'depth': 0.851, 'time': 10, 'pitch': 6.56, 'roll': -1.08, 'pres': 175}
{'lipoC2': 7.47, 'lipoC3S1': 3.85, 'temp': 30.5, 'lipoC3S3': 11.64, 'lipoC3S2': 7.71, 'rot1': 0, 'rot0': 0, 'rot3': 0, 'rot2': 0, 'state': 'normal', 'yaw': 2.05, 'datetime': '2018-10-10 01:06:58.643578', 'mgs': 0, 'volt': 0.8545, 'depth': 0.851, 'time': 10, 'pitch': 6.76, 'roll': -0.85, 'pres': 175}
{'lipoC2': 7.47, 'lipoC3S1': 3.85, 'temp': 30.5, 'lipoC3S3': 11.64, 'lipoC3S2': 7.71, 'rot1': 0, 'rot0': 0, 'rot3': 0, 'rot2': 0, 'state': 'normal', 'yaw': 2.11, 'datetime': '2018-10-10 01:06:58.747550', 'mgs': 0, 'volt': 0.8545, 'depth': 0.851, 'time': 10, 'pitch': 7.14, 'roll': -1.25, 'pres': 175}
{'lipoC2': 7.47, 'lipoC3S1': 3.85, 'temp': 30.5, 'lipoC3S3': 11.64, 'lipoC3S2': 7.71, 'rot1': 0, 'rot0': 0, 'rot3': 0, 'rot2': 0, 'state': 'normal', 'yaw': 1.95, 'datetime': '2018-10-10 01:06:58.850918', 'mgs': 0, 'volt': 0.8545, 'depth': 0.851, 'time': 11, 'pitch': 7.3, 'roll': -2.12, 'pres': 175}
{'lipoC2': 7.47, 'lipoC3S1': 3.85, 'temp': 30.5, 'lipoC3S3': 11.64, 'lipoC3S2': 7.71, 'rot1': 0, 'rot0': 0, 'rot3': 0, 'rot2': 0, 'state': 'normal', 'yaw': 1.85, 'datetime': '2018-10-10 01:06:58.954229', 'mgs': 0, 'volt': 0.8545, 'depth': 0.851, 'time': 11, 'pitch': 7.38, 'roll': -3.05, 'pres': 175}
{'lipoC2': 7.47, 'lipoC3S1': 3.85, 'temp': 30.5, 'lipoC3S3': 11.64, 'lipoC3S2': 7.71, 'rot1': 0, 'rot0': 0, 'rot3': 0, 'rot2': 0, 'state': 'normal', 'yaw': 1.68, 'datetime': '2018-10-10 01:06:59.057576', 'mgs': 0, 'volt': 0.8545, 'depth': 0.851, 'time': 11, 'pitch': 7.65, 'roll': -3.71, 'pres': 175}
{'lipoC2': 7.47, 'lipoC3S1': 3.85, 'temp': 30.56, 'lipoC3S3': 11.64, 'lipoC3S2': 7.71, 'rot1': 0, 'rot0': 0, 'rot3': 0, 'rot2': 0, 'state': 'normal', 'yaw': 1.3, 'datetime': '2018-10-10 01:06:59.161122', 'mgs': 0, 'volt': 0.8545, 'depth': 0.851, 'time': 11, 'pitch': 7.99, 'roll': -3.52, 'pres': 175}
{'lipoC2': 7.47, 'lipoC3S1': 3.85, 'temp': 30.56, 'lipoC3S3': 11.64, 'lipoC3S2': 7.71, 'rot1': 0, 'rot0': 0, 'rot3': 0, 'rot2': 0, 'state': 'normal', 'yaw': 1.2, 'datetime': '2018-10-10 01:06:59.264321', 'mgs': 0, 'volt': 0.8545, 'depth': 0.851, 'time': 11, 'pitch': 8.17, 'roll': -2.72, 'pres': 175}
{'lipoC2': 7.47, 'lipoC3S1': 3.85, 'temp': 30.56, 'lipoC3S3': 11.64, 'lipoC3S2': 7.71, 'rot1': 0, 'rot0': 0, 'rot3': 0, 'rot2': 0, 'state': 'normal', 'yaw': 1.83, 'datetime': '2018-10-10 01:06:59.367867', 'mgs': 0, 'volt': 0.8545, 'depth': 0.851, 'time': 11, 'pitch': 8.25, 'roll': -1.92, 'pres': 175}
{'lipoC2': 7.47, 'lipoC3S1': 3.85, 'temp': 30.5, 'lipoC3S3': 11.64, 'lipoC3S2': 7.71, 'rot1': 0, 'rot0': 0, 'rot3': 0, 'rot2': 0, 'state': 'normal', 'yaw': 2.79, 'datetime': '2018-10-10 01:06:59.471286', 'mgs': 0, 'volt': 0.8545, 'depth': 0.851, 'time': 11, 'pitch': 8.28, 'roll': -1.41, 'pres': 175}
{'lipoC2': 7.47, 'lipoC3S1': 3.85, 'temp': 30.5, 'lipoC3S3': 11.64, 'lipoC3S2': 7.71, 'rot1': 0, 'rot0': 0, 'rot3': 0, 'rot2': 0, 'state': 'normal', 'yaw': 3.39, 'datetime': '2018-10-10 01:06:59.574707', 'mgs': 0, 'volt': 0.8545, 'depth': 0.851, 'time': 11, 'pitch': 8.0, 'roll': -1.3, 'pres': 175}
{'lipoC2': 7.47, 'lipoC3S1': 3.85, 'temp': 30.56, 'lipoC3S3': 11.64, 'lipoC3S2': 7.71, 'rot1': 0, 'rot0': 0, 'rot3': 0, 'rot2': 0, 'state': 'normal', 'yaw': 3.6, 'datetime': '2018-10-10 01:06:59.678013', 'mgs': 0, 'volt': 0.8545, 'depth': 0.851, 'time': 11, 'pitch': 7.95, 'roll': -1.61, 'pres': 175}
{'lipoC2': 7.47, 'lipoC3S1': 3.85, 'temp': 30.56, 'lipoC3S3': 11.64, 'lipoC3S2': 7.71, 'rot1': 0, 'rot0': 0, 'rot3': 0, 'rot2': 0, 'state': 'normal', 'yaw': 3.7, 'datetime': '2018-10-10 01:06:59.782033', 'mgs': 0, 'volt': 0.8594, 'depth': 0.928, 'time': 12, 'pitch': 7.92, 'roll': -2.14, 'pres': 176}
{'lipoC2': 7.47, 'lipoC3S1': 3.85, 'temp': 30.5, 'lipoC3S3': 11.64, 'lipoC3S2': 7.71, 'rot1': 0, 'rot0': 0, 'rot3': 0, 'rot2': 0, 'state': 'normal', 'yaw': 3.68, 'datetime': '2018-10-10 01:06:59.885292', 'mgs': 0, 'volt': 0.8545, 'depth': 0.851, 'time': 12, 'pitch': 7.69, 'roll': -2.48, 'pres': 175}
{'lipoC2': 7.47, 'lipoC3S1': 3.85, 'temp': 30.5, 'lipoC3S3': 11.64, 'lipoC3S2': 7.71, 'rot1': 0, 'rot0': 0, 'rot3': 0, 'rot2': 0, 'state': 'normal', 'yaw': 3.62, 'datetime': '2018-10-10 01:06:59.987144', 'mgs': 0, 'volt': 0.8545, 'depth': 0.851, 'time': 12, 'pitch': 7.32, 'roll': -2.47, 'pres': 175}
{'lipoC2': 7.47, 'lipoC3S1': 3.85, 'temp': 30.5, 'lipoC3S3': 11.64, 'lipoC3S2': 7.71, 'rot1': 0, 'rot0': 0, 'rot3': 0, 'rot2': 0, 'state': 'normal', 'yaw': 3.52, 'datetime': '2018-10-10 01:07:00.093499', 'mgs': 0, 'volt': 0.8545, 'depth': 0.851, 'time': 12, 'pitch': 6.99, 'roll': -2.54, 'pres': 175}
{'lipoC2': 7.47, 'lipoC3S1': 3.85, 'temp': 30.5, 'lipoC3S3': 11.64, 'lipoC3S2': 7.71, 'rot1': 0, 'rot0': 0, 'rot3': 0, 'rot2': 0, 'state': 'normal', 'yaw': 3.27, 'datetime': '2018-10-10 01:07:00.196988', 'mgs': 0, 'volt': 0.8545, 'depth': 0.851, 'time': 12, 'pitch': 6.82, 'roll': -2.81, 'pres': 175}
{'lipoC2': 7.47, 'lipoC3S1': 3.85, 'temp': 30.5, 'lipoC3S3': 11.64, 'lipoC3S2': 7.71, 'rot1': 0, 'rot0': 0, 'rot3': 0, 'rot2': 0, 'state': 'normal', 'yaw': 2.88, 'datetime': '2018-10-10 01:07:00.301596', 'mgs': 0, 'volt': 0.8496, 'depth': 0.775, 'time': 12, 'pitch': 6.68, 'roll': -3.2, 'pres': 174}
{'lipoC2': 7.47, 'lipoC3S1': 3.85, 'temp': 30.56, 'lipoC3S3': 11.64, 'lipoC3S2': 7.71, 'rot1': 0, 'rot0': 0, 'rot3': 0, 'rot2': 0, 'state': 'normal', 'yaw': 2.72, 'datetime': '2018-10-10 01:07:00.405092', 'mgs': 0, 'volt': 0.8496, 'depth': 0.775, 'time': 12, 'pitch': 6.47, 'roll': -3.77, 'pres': 174}
{'lipoC2': 7.47, 'lipoC3S1': 3.85, 'temp': 30.56, 'lipoC3S3': 11.64, 'lipoC3S2': 7.71, 'rot1': 0, 'rot0': 0, 'rot3': 0, 'rot2': 0, 'state': 'normal', 'yaw': 2.85, 'datetime': '2018-10-10 01:07:00.508214', 'mgs': 0, 'volt': 0.8496, 'depth': 0.775, 'time': 12, 'pitch': 6.09, 'roll': -4.34, 'pres': 174}
{'lipoC2': 7.47, 'lipoC3S1': 3.85, 'temp': 30.5, 'lipoC3S3': 11.64, 'lipoC3S2': 7.71, 'rot1': 0, 'rot0': 0, 'rot3': 0, 'rot2': 0, 'state': 'normal', 'yaw': 2.97, 'datetime': '2018-10-10 01:07:00.611775', 'mgs': 0, 'volt': 0.8496, 'depth': 0.775, 'time': 12, 'pitch': 5.76, 'roll': -4.84, 'pres': 174}
{'lipoC2': 7.47, 'lipoC3S1': 3.85, 'temp': 30.5, 'lipoC3S3': 11.64, 'lipoC3S2': 7.71, 'rot1': 0, 'rot0': 0, 'rot3': 0, 'rot2': 0, 'state': 'normal', 'yaw': 3.23, 'datetime': '2018-10-10 01:07:00.715146', 'mgs': 0, 'volt': 0.8496, 'depth': 0.775, 'time': 12, 'pitch': 5.29, 'roll': -5.37, 'pres': 174}
{'lipoC2': 7.47, 'lipoC3S1': 3.85, 'temp': 30.5, 'lipoC3S3': 11.64, 'lipoC3S2': 7.71, 'rot1': 0, 'rot0': 0, 'rot3': 0, 'rot2': 0, 'state': 'normal', 'yaw': 3.42, 'datetime': '2018-10-10 01:07:00.823611', 'mgs': 0, 'volt': 0.8496, 'depth': 0.775, 'time': 13, 'pitch': 4.9, 'roll': -5.57, 'pres': 174}
{'lipoC2': 7.47, 'lipoC3S1': 3.85, 'temp': 30.5, 'lipoC3S3': 11.64, 'lipoC3S2': 7.71, 'rot1': 0, 'rot0': 0, 'rot3': 0, 'rot2': 0, 'state': 'normal', 'yaw': 3.52, 'datetime': '2018-10-10 01:07:00.917583', 'mgs': 0, 'volt': 0.8545, 'depth': 0.851, 'time': 13, 'pitch': 4.9, 'roll': -5.51, 'pres': 175}
{'lipoC2': 7.47, 'lipoC3S1': 3.85, 'temp': 30.5, 'lipoC3S3': 11.64, 'lipoC3S2': 7.71, 'rot1': 0, 'rot0': 0, 'rot3': 0, 'rot2': 0, 'state': 'normal', 'yaw': 3.48, 'datetime': '2018-10-10 01:07:01.022474', 'mgs': 0, 'volt': 0.8496, 'depth': 0.775, 'time': 13, 'pitch': 5.58, 'roll': -5.41, 'pres': 174}
{'lipoC2': 7.47, 'lipoC3S1': 3.85, 'temp': 30.5, 'lipoC3S3': 11.64, 'lipoC3S2': 7.71, 'rot1': 0, 'rot0': 0, 'rot3': 0, 'rot2': 0, 'state': 'normal', 'yaw': 3.43, 'datetime': '2018-10-10 01:07:01.125375', 'mgs': 0, 'volt': 0.8545, 'depth': 0.851, 'time': 13, 'pitch': 6.08, 'roll': -5.35, 'pres': 175}
{'lipoC2': 7.47, 'lipoC3S1': 3.85, 'temp': 30.5, 'lipoC3S3': 11.64, 'lipoC3S2': 7.71, 'rot1': 0, 'rot0': 0, 'rot3': 0, 'rot2': 0, 'state': 'normal', 'yaw': 3.54, 'datetime': '2018-10-10 01:07:01.228659', 'mgs': 0, 'volt': 0.8545, 'depth': 0.851, 'time': 13, 'pitch': 6.42, 'roll': -5.25, 'pres': 175}
{'lipoC2': 7.47, 'lipoC3S1': 3.85, 'temp': 30.56, 'lipoC3S3': 11.64, 'lipoC3S2': 7.71, 'rot1': 0, 'rot0': 0, 'rot3': 0, 'rot2': 0, 'state': 'normal', 'yaw': 3.73, 'datetime': '2018-10-10 01:07:01.332828', 'mgs': 0, 'volt': 0.8545, 'depth': 0.851, 'time': 13, 'pitch': 6.65, 'roll': -5.14, 'pres': 175}
{'lipoC2': 7.47, 'lipoC3S1': 3.85, 'temp': 30.56, 'lipoC3S3': 11.64, 'lipoC3S2': 7.71, 'rot1': 0, 'rot0': 0, 'rot3': 0, 'rot2': 0, 'state': 'normal', 'yaw': 3.89, 'datetime': '2018-10-10 01:07:01.436189', 'mgs': 0, 'volt': 0.8594, 'depth': 0.928, 'time': 13, 'pitch': 7.04, 'roll': -4.93, 'pres': 176}
{'lipoC2': 7.47, 'lipoC3S1': 3.85, 'temp': 30.56, 'lipoC3S3': 11.64, 'lipoC3S2': 7.71, 'rot1': 0, 'rot0': 0, 'rot3': 0, 'rot2': 0, 'state': 'normal', 'yaw': 3.91, 'datetime': '2018-10-10 01:07:01.540376', 'mgs': 0, 'volt': 0.8594, 'depth': 0.928, 'time': 13, 'pitch': 7.47, 'roll': -4.57, 'pres': 176}
{'lipoC2': 7.47, 'lipoC3S1': 3.85, 'temp': 30.5, 'lipoC3S3': 11.64, 'lipoC3S2': 7.71, 'rot1': 0, 'rot0': 0, 'rot3': 0, 'rot2': 0, 'state': 'normal', 'yaw': 3.81, 'datetime': '2018-10-10 01:07:01.644219', 'mgs': 0, 'volt': 0.8594, 'depth': 0.928, 'time': 13, 'pitch': 7.76, 'roll': -4.12, 'pres': 176}
{'lipoC2': 7.47, 'lipoC3S1': 3.85, 'temp': 30.5, 'lipoC3S3': 11.64, 'lipoC3S2': 7.71, 'rot1': 0, 'rot0': 0, 'rot3': 0, 'rot2': 0, 'state': 'normal', 'yaw': 3.59, 'datetime': '2018-10-10 01:07:01.747615', 'mgs': 0, 'volt': 0.8594, 'depth': 0.928, 'time': 13, 'pitch': 7.83, 'roll': -3.43, 'pres': 176}
{'lipoC2': 7.47, 'lipoC3S1': 3.85, 'temp': 30.5, 'lipoC3S3': 11.64, 'lipoC3S2': 7.71, 'rot1': 0, 'rot0': 0, 'rot3': 0, 'rot2': 0, 'state': 'normal', 'yaw': 3.25, 'datetime': '2018-10-10 01:07:01.852234', 'mgs': 0, 'volt': 0.8594, 'depth': 0.928, 'time': 14, 'pitch': 7.64, 'roll': -2.7, 'pres': 176}
{'lipoC2': 7.47, 'lipoC3S1': 3.85, 'temp': 30.5, 'lipoC3S3': 11.64, 'lipoC3S2': 7.71, 'rot1': 0, 'rot0': 0, 'rot3': 0, 'rot2': 0, 'state': 'normal', 'yaw': 3.17, 'datetime': '2018-10-10 01:07:01.955607', 'mgs': 0, 'volt': 0.8594, 'depth': 0.928, 'time': 14, 'pitch': 7.32, 'roll': -2.15, 'pres': 176}
{'lipoC2': 7.47, 'lipoC3S1': 3.85, 'temp': 30.56, 'lipoC3S3': 11.64, 'lipoC3S2': 7.71, 'rot1': 0, 'rot0': 0, 'rot3': 0, 'rot2': 0, 'state': 'normal', 'yaw': 3.21, 'datetime': '2018-10-10 01:07:02.058963', 'mgs': 0, 'volt': 0.8594, 'depth': 0.928, 'time': 14, 'pitch': 7.05, 'roll': -2.0, 'pres': 176}
{'lipoC2': 7.47, 'lipoC3S1': 3.85, 'temp': 30.56, 'lipoC3S3': 11.64, 'lipoC3S2': 7.71, 'rot1': 0, 'rot0': 0, 'rot3': 0, 'rot2': 0, 'state': 'normal', 'yaw': 2.91, 'datetime': '2018-10-10 01:07:02.162336', 'mgs': 0, 'volt': 0.8545, 'depth': 0.851, 'time': 14, 'pitch': 6.96, 'roll': -2.16, 'pres': 175}
{'lipoC2': 7.47, 'lipoC3S1': 3.85, 'temp': 30.56, 'lipoC3S3': 11.64, 'lipoC3S2': 7.71, 'rot1': 0, 'rot0': 0, 'rot3': 0, 'rot2': 0, 'state': 'normal', 'yaw': 2.33, 'datetime': '2018-10-10 01:07:02.265913', 'mgs': 0, 'volt': 0.8545, 'depth': 0.851, 'time': 14, 'pitch': 7.0, 'roll': -2.7, 'pres': 175}
{'lipoC2': 7.47, 'lipoC3S1': 3.85, 'temp': 30.5, 'lipoC3S3': 11.64, 'lipoC3S2': 7.71, 'rot1': 0, 'rot0': 0, 'rot3': 0, 'rot2': 0, 'state': 'normal', 'yaw': 1.95, 'datetime': '2018-10-10 01:07:02.369430', 'mgs': 1, 'volt': 0.8545, 'depth': 0.851, 'time': 14, 'pitch': 7.05, 'roll': -3.32, 'pres': 175}
{'lipoC2': 7.47, 'lipoC3S1': 3.85, 'temp': 30.56, 'lipoC3S3': 11.64, 'lipoC3S2': 7.71, 'rot1': 0, 'rot0': 0, 'rot3': 0, 'rot2': 0, 'state': 'normal', 'yaw': -0.02, 'datetime': '2018-10-10 01:07:06.900132', 'mgs': 0, 'volt': 0.8594, 'depth': 0.928, 'time': 1, 'pitch': 5.78, 'roll': -3.74, 'pres': 176}
{'lipoC2': 7.47, 'lipoC3S1': 3.85, 'temp': 30.56, 'lipoC3S3': 11.64, 'lipoC3S2': 7.71, 'rot1': 0, 'rot0': 0, 'rot3': 0, 'rot2': 0, 'state': 'normal', 'yaw': -0.29, 'datetime': '2018-10-10 01:07:09.967197', 'mgs': 0, 'volt': 0.8594, 'depth': 0.928, 'time': 1, 'pitch': 5.6, 'roll': -4.03, 'pres': 176}
{'lipoC2': 7.47, 'lipoC3S1': 3.85, 'temp': 30.5, 'lipoC3S3': 11.64, 'lipoC3S2': 7.71, 'rot1': 0, 'rot0': 0, 'rot3': 0, 'rot2': 0, 'state': 'normal', 'yaw': -0.55, 'datetime': '2018-10-10 01:07:10.005762', 'mgs': 1, 'volt': 0.8545, 'depth': 0.851, 'time': 1, 'pitch': 5.43, 'roll': -4.34, 'pres': 175}
{'lipoC2': 7.47, 'lipoC3S1': 3.85, 'temp': 30.5, 'lipoC3S3': 11.64, 'lipoC3S2': 7.71, 'rot1': 0, 'rot0': 0, 'rot3': 0, 'rot2': 0, 'state': 'normal', 'yaw': -0.82, 'datetime': '2018-10-10 01:07:10.016131', 'mgs': 0, 'volt': 0.8545, 'depth': 0.851, 'time': 1, 'pitch': 4.89, 'roll': -4.25, 'pres': 175}
{'lipoC2': 7.47, 'lipoC3S1': 3.85, 'temp': 30.5, 'lipoC3S3': 11.64, 'lipoC3S2': 7.71, 'rot1': 0, 'rot0': 0, 'rot3': 0, 'rot2': 0, 'state': 'normal', 'yaw': -0.62, 'datetime': '2018-10-10 01:07:10.032004', 'mgs': 0, 'volt': 0.8594, 'depth': 0.928, 'time': 1, 'pitch': 4.6, 'roll': -3.91, 'pres': 176}
{'lipoC2': 7.47, 'lipoC3S1': 3.85, 'temp': 30.5, 'lipoC3S3': 11.64, 'lipoC3S2': 7.71, 'rot1': 0, 'rot0': 0, 'rot3': 0, 'rot2': 0, 'state': 'normal', 'yaw': 0.02, 'datetime': '2018-10-10 01:07:10.048152', 'mgs': 0, 'volt': 0.8545, 'depth': 0.851, 'time': 1, 'pitch': 4.56, 'roll': -3.61, 'pres': 175}
{'lipoC2': 7.47, 'lipoC3S1': 3.85, 'temp': 30.5, 'lipoC3S3': 11.64, 'lipoC3S2': 7.71, 'rot1': 0, 'rot0': 0, 'rot3': 0, 'rot2': 0, 'state': 'normal', 'yaw': 0.8, 'datetime': '2018-10-10 01:07:10.058563', 'mgs': 0, 'volt': 0.8594, 'depth': 0.928, 'time': 1, 'pitch': 4.61, 'roll': -3.31, 'pres': 176}
{'lipoC2': 7.47, 'lipoC3S1': 3.86, 'temp': 30.56, 'lipoC3S3': 11.64, 'lipoC3S2': 7.71, 'rot1': 0, 'rot0': 0, 'rot3': 0, 'rot2': 0, 'state': 'normal', 'yaw': 1.11, 'datetime': '2018-10-10 01:07:10.074735', 'mgs': 0, 'volt': 0.8594, 'depth': 0.928, 'time': 1, 'pitch': 4.8, 'roll': -2.9, 'pres': 176}
{'lipoC2': 7.47, 'lipoC3S1': 3.86, 'temp': 30.56, 'lipoC3S3': 11.64, 'lipoC3S2': 7.71, 'rot1': 0, 'rot0': 0, 'rot3': 0, 'rot2': 0, 'state': 'normal', 'yaw': 1.21, 'datetime': '2018-10-10 01:07:10.091099', 'mgs': 0, 'volt': 0.8594, 'depth': 0.928, 'time': 2, 'pitch': 4.82, 'roll': -2.42, 'pres': 176}
{'lipoC2': 7.48, 'lipoC3S1': 3.86, 'temp': 30.56, 'lipoC3S3': 11.64, 'lipoC3S2': 7.71, 'rot1': 0, 'rot0': 0, 'rot3': 0, 'rot2': 0, 'state': 'normal', 'yaw': 1.55, 'datetime': '2018-10-10 01:07:10.101571', 'mgs': 0, 'volt': 0.8594, 'depth': 0.928, 'time': 2, 'pitch': 4.68, 'roll': -2.16, 'pres': 176}
{'lipoC2': 7.48, 'lipoC3S1': 3.86, 'temp': 30.56, 'lipoC3S3': 11.64, 'lipoC3S2': 7.71, 'rot1': 0, 'rot0': 0, 'rot3': 0, 'rot2': 0, 'state': 'normal', 'yaw': 2.02, 'datetime': '2018-10-10 01:07:10.117540', 'mgs': 0, 'volt': 0.8594, 'depth': 0.928, 'time': 2, 'pitch': 4.35, 'roll': -1.98, 'pres': 176}
{'lipoC2': 7.47, 'lipoC3S1': 3.86, 'temp': 30.56, 'lipoC3S3': 11.64, 'lipoC3S2': 7.71, 'rot1': 0, 'rot0': 0, 'rot3': 0, 'rot2': 0, 'state': 'normal', 'yaw': 2.49, 'datetime': '2018-10-10 01:07:10.133864', 'mgs': 0, 'volt': 0.8594, 'depth': 0.928, 'time': 2, 'pitch': 3.84, 'roll': -1.75, 'pres': 176}
{'lipoC2': 7.47, 'lipoC3S1': 3.85, 'temp': 30.56, 'lipoC3S3': 11.64, 'lipoC3S2': 7.71, 'rot1': 0, 'rot0': 0, 'rot3': 0, 'rot2': 0, 'state': 'normal', 'yaw': 2.83, 'datetime': '2018-10-10 01:07:10.144225', 'mgs': 0, 'volt': 0.8594, 'depth': 0.928, 'time': 2, 'pitch': 3.42, 'roll': -1.5, 'pres': 176}
{'lipoC2': 7.47, 'lipoC3S1': 3.85, 'temp': 30.56, 'lipoC3S3': 11.64, 'lipoC3S2': 7.71, 'rot1': 0, 'rot0': 0, 'rot3': 0, 'rot2': 0, 'state': 'normal', 'yaw': 3.07, 'datetime': '2018-10-10 01:07:10.160284', 'mgs': 0, 'volt': 0.8594, 'depth': 0.928, 'time': 2, 'pitch': 3.49, 'roll': -1.19, 'pres': 176}
{'lipoC2': 7.47, 'lipoC3S1': 3.85, 'temp': 30.56, 'lipoC3S3': 11.64, 'lipoC3S2': 7.71, 'rot1': 0, 'rot0': 0, 'rot3': 0, 'rot2': 0, 'state': 'normal', 'yaw': 2.93, 'datetime': '2018-10-10 01:07:10.177562', 'mgs': 0, 'volt': 0.8545, 'depth': 0.851, 'time': 2, 'pitch': 3.78, 'roll': -0.64, 'pres': 175}
{'lipoC2': 7.47, 'lipoC3S1': 3.85, 'temp': 30.56, 'lipoC3S3': 11.64, 'lipoC3S2': 7.71, 'rot1': 0, 'rot0': 0, 'rot3': 0, 'rot2': 0, 'state': 'normal', 'yaw': 2.52, 'datetime': '2018-10-10 01:07:10.188042', 'mgs': 0, 'volt': 0.8545, 'depth': 0.851, 'time': 2, 'pitch': 3.79, 'roll': 0.12, 'pres': 175}
{'lipoC2': 7.47, 'lipoC3S1': 3.85, 'temp': 30.56, 'lipoC3S3': 11.64, 'lipoC3S2': 7.71, 'rot1': 0, 'rot0': 0, 'rot3': 0, 'rot2': 0, 'state': 'normal', 'yaw': 2.25, 'datetime': '2018-10-10 01:07:10.204396', 'mgs': 0, 'volt': 0.8545, 'depth': 0.851, 'time': 2, 'pitch': 3.57, 'roll': 0.75, 'pres': 175}
{'lipoC2': 7.47, 'lipoC3S1': 3.86, 'temp': 30.56, 'lipoC3S3': 11.64, 'lipoC3S2': 7.71, 'rot1': 0, 'rot0': 0, 'rot3': 0, 'rot2': 0, 'state': 'normal', 'yaw': 2.28, 'datetime': '2018-10-10 01:07:10.220978', 'mgs': 0, 'volt': 0.8594, 'depth': 0.928, 'time': 3, 'pitch': 3.23, 'roll': 1.0, 'pres': 176}
{'lipoC2': 7.47, 'lipoC3S1': 3.86, 'temp': 30.56, 'lipoC3S3': 11.64, 'lipoC3S2': 7.71, 'rot1': 0, 'rot0': 0, 'rot3': 0, 'rot2': 0, 'state': 'normal', 'yaw': 2.4, 'datetime': '2018-10-10 01:07:10.231318', 'mgs': 0, 'volt': 0.8594, 'depth': 0.928, 'time': 3, 'pitch': 3.12, 'roll': 0.99, 'pres': 176}
{'lipoC2': 7.47, 'lipoC3S1': 3.86, 'temp': 30.56, 'lipoC3S3': 11.64, 'lipoC3S2': 7.71, 'rot1': 0, 'rot0': 0, 'rot3': 0, 'rot2': 0, 'state': 'normal', 'yaw': 2.49, 'datetime': '2018-10-10 01:07:10.247627', 'mgs': 0, 'volt': 0.8594, 'depth': 0.928, 'time': 3, 'pitch': 3.3, 'roll': 0.99, 'pres': 176}
{'lipoC2': 7.47, 'lipoC3S1': 3.86, 'temp': 30.56, 'lipoC3S3': 11.64, 'lipoC3S2': 7.71, 'rot1': 0, 'rot0': 0, 'rot3': 0, 'rot2': 0, 'state': 'normal', 'yaw': 2.69, 'datetime': '2018-10-10 01:07:10.264019', 'mgs': 0, 'volt': 0.8545, 'depth': 0.851, 'time': 3, 'pitch': 3.78, 'roll': 1.0, 'pres': 175}
{'lipoC2': 7.47, 'lipoC3S1': 3.85, 'temp': 30.56, 'lipoC3S3': 11.64, 'lipoC3S2': 7.71, 'rot1': 0, 'rot0': 0, 'rot3': 0, 'rot2': 0, 'state': 'normal', 'yaw': 3.06, 'datetime': '2018-10-10 01:07:10.274508', 'mgs': 0, 'volt': 0.8545, 'depth': 0.851, 'time': 3, 'pitch': 3.98, 'roll': 1.15, 'pres': 175}
{'lipoC2': 7.47, 'lipoC3S1': 3.85, 'temp': 30.56, 'lipoC3S3': 11.64, 'lipoC3S2': 7.71, 'rot1': 0, 'rot0': 0, 'rot3': 0, 'rot2': 0, 'state': 'normal', 'yaw': 3.4, 'datetime': '2018-10-10 01:07:10.290871', 'mgs': 0, 'volt': 0.8545, 'depth': 0.851, 'time': 3, 'pitch': 3.88, 'roll': 1.4, 'pres': 175}
{'lipoC2': 7.47, 'lipoC3S1': 3.85, 'temp': 30.56, 'lipoC3S3': 11.64, 'lipoC3S2': 7.71, 'rot1': 0, 'rot0': 0, 'rot3': 0, 'rot2': 0, 'state': 'normal', 'yaw': 3.58, 'datetime': '2018-10-10 01:07:10.307230', 'mgs': 0, 'volt': 0.8545, 'depth': 0.851, 'time': 3, 'pitch': 3.94, 'roll': 1.67, 'pres': 175}
{'lipoC2': 7.47, 'lipoC3S1': 3.85, 'temp': 30.56, 'lipoC3S3': 11.64, 'lipoC3S2': 7.71, 'rot1': 0, 'rot0': 0, 'rot3': 0, 'rot2': 0, 'state': 'normal', 'yaw': 3.48, 'datetime': '2018-10-10 01:07:10.317571', 'mgs': 0, 'volt': 0.8545, 'depth': 0.851, 'time': 3, 'pitch': 4.31, 'roll': 1.84, 'pres': 175}
{'lipoC2': 7.47, 'lipoC3S1': 3.85, 'temp': 30.56, 'lipoC3S3': 11.64, 'lipoC3S2': 7.71, 'rot1': 0, 'rot0': 0, 'rot3': 0, 'rot2': 0, 'state': 'normal', 'yaw': 3.19, 'datetime': '2018-10-10 01:07:10.334031', 'mgs': 0, 'volt': 0.8545, 'depth': 0.851, 'time': 3, 'pitch': 4.6, 'roll': 1.79, 'pres': 175}
{'lipoC2': 7.47, 'lipoC3S1': 3.86, 'temp': 30.5, 'lipoC3S3': 11.64, 'lipoC3S2': 7.71, 'rot1': 0, 'rot0': 0, 'rot3': 0, 'rot2': 0, 'state': 'normal', 'yaw': 3.01, 'datetime': '2018-10-10 01:07:10.350403', 'mgs': 0, 'volt': 0.8545, 'depth': 0.851, 'time': 3, 'pitch': 4.54, 'roll': 1.39, 'pres': 175}
{'lipoC2': 7.47, 'lipoC3S1': 3.86, 'temp': 30.5, 'lipoC3S3': 11.64, 'lipoC3S2': 7.71, 'rot1': 0, 'rot0': 0, 'rot3': 0, 'rot2': 0, 'state': 'normal', 'yaw': 3.05, 'datetime': '2018-10-10 01:07:10.360793', 'mgs': 0, 'volt': 0.8545, 'depth': 0.851, 'time': 4, 'pitch': 3.83, 'roll': 0.55, 'pres': 175}
{'lipoC2': 7.47, 'lipoC3S1': 3.86, 'temp': 30.56, 'lipoC3S3': 11.64, 'lipoC3S2': 7.71, 'rot1': 0, 'rot0': 0, 'rot3': 0, 'rot2': 0, 'state': 'normal', 'yaw': 3.05, 'datetime': '2018-10-10 01:07:10.377117', 'mgs': 0, 'volt': 0.8545, 'depth': 0.851, 'time': 4, 'pitch': 2.82, 'roll': -0.24, 'pres': 175}
{'lipoC2': 7.47, 'lipoC3S1': 3.86, 'temp': 30.56, 'lipoC3S3': 11.64, 'lipoC3S2': 7.71, 'rot1': 0, 'rot0': 0, 'rot3': 0, 'rot2': 0, 'state': 'normal', 'yaw': 3.04, 'datetime': '2018-10-10 01:07:10.393509', 'mgs': 0, 'volt': 0.8545, 'depth': 0.851, 'time': 4, 'pitch': 1.94, 'roll': -0.81, 'pres': 175}
{'lipoC2': 7.47, 'lipoC3S1': 3.86, 'temp': 30.56, 'lipoC3S3': 11.64, 'lipoC3S2': 7.71, 'rot1': 0, 'rot0': 0, 'rot3': 0, 'rot2': 0, 'state': 'normal', 'yaw': 2.95, 'datetime': '2018-10-10 01:07:10.403963', 'mgs': 0, 'volt': 0.8545, 'depth': 0.851, 'time': 4, 'pitch': 1.57, 'roll': -1.07, 'pres': 175}
{'lipoC2': 7.47, 'lipoC3S1': 3.85, 'temp': 30.56, 'lipoC3S3': 11.63, 'lipoC3S2': 7.71, 'rot1': 0, 'rot0': 0, 'rot3': 0, 'rot2': 0, 'state': 'normal', 'yaw': 2.94, 'datetime': '2018-10-10 01:07:10.420334', 'mgs': 0, 'volt': 0.8545, 'depth': 0.851, 'time': 4, 'pitch': 2.0, 'roll': -1.1, 'pres': 175}
{'lipoC2': 7.46, 'lipoC3S1': 3.8, 'temp': 30.56, 'lipoC3S3': 11.56, 'lipoC3S2': 7.67, 'rot1': 0, 'rot0': 0, 'rot3': 1, 'rot2': 0, 'state': 'normal', 'yaw': 2.93, 'datetime': '2018-10-10 01:07:10.436453', 'mgs': 0, 'volt': 0.8838, 'depth': 1.309, 'time': 4, 'pitch': 2.81, 'roll': -1.04, 'pres': 181}
{'lipoC2': 7.47, 'lipoC3S1': 3.82, 'temp': 30.5, 'lipoC3S3': 11.51, 'lipoC3S2': 7.63, 'rot1': 0, 'rot0': 0, 'rot3': 2, 'rot2': 1, 'state': 'normal', 'yaw': 2.91, 'datetime': '2018-10-10 01:07:10.446889', 'mgs': 0, 'volt': 0.8594, 'depth': 0.928, 'time': 4, 'pitch': 3.46, 'roll': -0.86, 'pres': 176}
{'lipoC2': 7.47, 'lipoC3S1': 3.81, 'temp': 30.5, 'lipoC3S3': 11.56, 'lipoC3S2': 7.66, 'rot1': 0, 'rot0': 0, 'rot3': 3, 'rot2': 2, 'state': 'normal', 'yaw': 2.94, 'datetime': '2018-10-10 01:07:10.463280', 'mgs': 0, 'volt': 0.8545, 'depth': 0.851, 'time': 4, 'pitch': 3.45, 'roll': -0.7, 'pres': 175}
{'lipoC2': 7.46, 'lipoC3S1': 3.81, 'temp': 30.5, 'lipoC3S3': 11.56, 'lipoC3S2': 7.67, 'rot1': 0, 'rot0': 0, 'rot3': 4, 'rot2': 3, 'state': 'normal', 'yaw': 2.96, 'datetime': '2018-10-10 01:07:10.479489', 'mgs': 0, 'volt': 0.874, 'depth': 1.157, 'time': 4, 'pitch': 2.94, 'roll': -0.52, 'pres': 179}
{'lipoC2': 7.47, 'lipoC3S1': 3.82, 'temp': 30.5, 'lipoC3S3': 11.52, 'lipoC3S2': 7.68, 'rot1': 0, 'rot0': 0, 'rot3': 5, 'rot2': 3, 'state': 'normal', 'yaw': 2.86, 'datetime': '2018-10-10 01:07:10.489883', 'mgs': 0, 'volt': 0.8643, 'depth': 1.004, 'time': 4, 'pitch': 2.33, 'roll': -0.06, 'pres': 177}
{'lipoC2': 7.47, 'lipoC3S1': 3.8, 'temp': 30.5, 'lipoC3S3': 11.58, 'lipoC3S2': 7.67, 'rot1': 0, 'rot0': 0, 'rot3': 6, 'rot2': 4, 'state': 'normal', 'yaw': 2.63, 'datetime': '2018-10-10 01:07:10.506359', 'mgs': 0, 'volt': 0.8691, 'depth': 1.08, 'time': 5, 'pitch': 2.26, 'roll': 0.79, 'pres': 178}
{'lipoC2': 7.46, 'lipoC3S1': 3.82, 'temp': 30.5, 'lipoC3S3': 11.51, 'lipoC3S2': 7.64, 'rot1': 0, 'rot0': 0, 'rot3': 7, 'rot2': 5, 'state': 'normal', 'yaw': 2.56, 'datetime': '2018-10-10 01:07:10.522810', 'mgs': 0, 'volt': 0.8594, 'depth': 0.928, 'time': 5, 'pitch': 3.21, 'roll': 2.05, 'pres': 176}
{'lipoC2': 7.47, 'lipoC3S1': 3.8, 'temp': 30.5, 'lipoC3S3': 11.55, 'lipoC3S2': 7.64, 'rot1': 0, 'rot0': 0, 'rot3': 8, 'rot2': 6, 'state': 'normal', 'yaw': 2.85, 'datetime': '2018-10-10 01:07:10.533209', 'mgs': 0, 'volt': 0.8496, 'depth': 0.775, 'time': 5, 'pitch': 4.5, 'roll': 2.91, 'pres': 174}
{'lipoC2': 7.47, 'lipoC3S1': 3.81, 'temp': 30.5, 'lipoC3S3': 11.58, 'lipoC3S2': 7.67, 'rot1': 0, 'rot0': 0, 'rot3': 9, 'rot2': 6, 'state': 'normal', 'yaw': 3.41, 'datetime': '2018-10-10 01:07:10.549445', 'mgs': 0, 'volt': 0.8691, 'depth': 1.08, 'time': 5, 'pitch': 5.44, 'roll': 3.2, 'pres': 178}
{'lipoC2': 7.47, 'lipoC3S1': 3.83, 'temp': 30.5, 'lipoC3S3': 11.52, 'lipoC3S2': 7.63, 'rot1': 0, 'rot0': 0, 'rot3': 10, 'rot2': 7, 'state': 'normal', 'yaw': 3.81, 'datetime': '2018-10-10 01:07:10.565715', 'mgs': 0, 'volt': 0.8545, 'depth': 0.851, 'time': 5, 'pitch': 5.73, 'roll': 2.89, 'pres': 175}
{'lipoC2': 7.47, 'lipoC3S1': 3.8, 'temp': 30.56, 'lipoC3S3': 11.56, 'lipoC3S2': 7.66, 'rot1': 0, 'rot0': 0, 'rot3': 11, 'rot2': 8, 'state': 'normal', 'yaw': 3.95, 'datetime': '2018-10-10 01:07:10.576144', 'mgs': 0, 'volt': 0.8398, 'depth': 0.623, 'time': 5, 'pitch': 5.44, 'roll': 2.17, 'pres': 172}
{'lipoC2': 7.47, 'lipoC3S1': 3.82, 'temp': 30.56, 'lipoC3S3': 11.58, 'lipoC3S2': 7.67, 'rot1': 0, 'rot0': 0, 'rot3': 12, 'rot2': 9, 'state': 'normal', 'yaw': 3.97, 'datetime': '2018-10-10 01:07:10.592525', 'mgs': 0, 'volt': 0.8594, 'depth': 0.928, 'time': 5, 'pitch': 4.68, 'roll': 1.21, 'pres': 176}
{'lipoC2': 7.47, 'lipoC3S1': 3.82, 'temp': 30.56, 'lipoC3S3': 11.59, 'lipoC3S2': 7.68, 'rot1': 0, 'rot0': 0, 'rot3': 13, 'rot2': 10, 'state': 'normal', 'yaw': 4.08, 'datetime': '2018-10-10 01:07:10.608974', 'mgs': 0, 'volt': 0.8545, 'depth': 0.851, 'time': 5, 'pitch': 3.39, 'roll': 0.26, 'pres': 175}
{'lipoC2': 7.46, 'lipoC3S1': 3.82, 'temp': 30.56, 'lipoC3S3': 11.58, 'lipoC3S2': 7.67, 'rot1': 0, 'rot0': 0, 'rot3': 14, 'rot2': 10, 'state': 'normal', 'yaw': 4.11, 'datetime': '2018-10-10 01:07:10.619451', 'mgs': 0, 'volt': 0.8545, 'depth': 0.851, 'time': 5, 'pitch': 2.11, 'roll': -0.01, 'pres': 175}
{'lipoC2': 7.47, 'lipoC3S1': 3.81, 'temp': 30.56, 'lipoC3S3': 11.58, 'lipoC3S2': 7.67, 'rot1': 0, 'rot0': 0, 'rot3': 16, 'rot2': 11, 'state': 'normal', 'yaw': 4.16, 'datetime': '2018-10-10 01:07:10.635732', 'mgs': 0, 'volt': 0.8496, 'depth': 0.775, 'time': 5, 'pitch': 0.91, 'roll': 0.43, 'pres': 174}
{'lipoC2': 7.47, 'lipoC3S1': 3.82, 'temp': 30.5, 'lipoC3S3': 11.58, 'lipoC3S2': 7.67, 'rot1': 0, 'rot0': 0, 'rot3': 17, 'rot2': 12, 'state': 'normal', 'yaw': 4.26, 'datetime': '2018-10-10 01:07:10.652052', 'mgs': 0, 'volt': 0.8496, 'depth': 0.775, 'time': 6, 'pitch': 0.1, 'roll': 1.35, 'pres': 174}
{'lipoC2': 7.47, 'lipoC3S1': 3.81, 'temp': 30.5, 'lipoC3S3': 11.59, 'lipoC3S2': 7.67, 'rot1': 0, 'rot0': 0, 'rot3': 18, 'rot2': 13, 'state': 'normal', 'yaw': 4.44, 'datetime': '2018-10-10 01:07:10.662536', 'mgs': 0, 'volt': 0.8398, 'depth': 0.623, 'time': 6, 'pitch': -0.21, 'roll': 2.38, 'pres': 172}
{'lipoC2': 7.47, 'lipoC3S1': 3.81, 'temp': 30.5, 'lipoC3S3': 11.6, 'lipoC3S2': 7.67, 'rot1': 0, 'rot0': 0, 'rot3': 19, 'rot2': 14, 'state': 'normal', 'yaw': 4.67, 'datetime': '2018-10-10 01:07:10.678995', 'mgs': 0, 'volt': 0.8447, 'depth': 0.699, 'time': 6, 'pitch': -0.4, 'roll': 2.9, 'pres': 173}
{'lipoC2': 7.47, 'lipoC3S1': 3.8, 'temp': 30.5, 'lipoC3S3': 11.56, 'lipoC3S2': 7.66, 'rot1': 0, 'rot0': 0, 'rot3': 20, 'rot2': 15, 'state': 'normal', 'yaw': 4.81, 'datetime': '2018-10-10 01:07:10.695409', 'mgs': 0, 'volt': 0.8496, 'depth': 0.775, 'time': 6, 'pitch': -0.65, 'roll': 2.78, 'pres': 174}
{'lipoC2': 7.47, 'lipoC3S1': 3.81, 'temp': 30.5, 'lipoC3S3': 11.58, 'lipoC3S2': 7.66, 'rot1': 0, 'rot0': 0, 'rot3': 21, 'rot2': 16, 'state': 'normal', 'yaw': 4.81, 'datetime': '2018-10-10 01:07:10.705956', 'mgs': 0, 'volt': 0.8447, 'depth': 0.699, 'time': 6, 'pitch': -1.01, 'roll': 2.01, 'pres': 173}
{'lipoC2': 7.47, 'lipoC3S1': 3.83, 'temp': 30.56, 'lipoC3S3': 11.54, 'lipoC3S2': 7.66, 'rot1': 0, 'rot0': 0, 'rot3': 23, 'rot2': 16, 'state': 'normal', 'yaw': 4.7, 'datetime': '2018-10-10 01:07:10.721922', 'mgs': 0, 'volt': 0.8252, 'depth': 0.394, 'time': 6, 'pitch': -1.35, 'roll': 1.12, 'pres': 169}
{'lipoC2': 7.46, 'lipoC3S1': 3.82, 'temp': 30.56, 'lipoC3S3': 11.59, 'lipoC3S2': 7.68, 'rot1': 0, 'rot0': 0, 'rot3': 24, 'rot2': 17, 'state': 'normal', 'yaw': 4.6, 'datetime': '2018-10-10 01:07:10.737789', 'mgs': 0, 'volt': 0.8398, 'depth': 0.623, 'time': 6, 'pitch': -1.68, 'roll': 0.43, 'pres': 172}
{'lipoC2': 7.46, 'lipoC3S1': 3.82, 'temp': 30.5, 'lipoC3S3': 11.51, 'lipoC3S2': 7.68, 'rot1': 0, 'rot0': 0, 'rot3': 25, 'rot2': 18, 'state': 'normal', 'yaw': 4.34, 'datetime': '2018-10-10 01:07:10.747742', 'mgs': 0, 'volt': 0.835, 'depth': 0.546, 'time': 6, 'pitch': -2.06, 'roll': 0.32, 'pres': 171}
{'lipoC2': 7.47, 'lipoC3S1': 3.81, 'temp': 30.5, 'lipoC3S3': 11.59, 'lipoC3S2': 7.66, 'rot1': 0, 'rot0': 0, 'rot3': 26, 'rot2': 19, 'state': 'normal', 'yaw': 4.08, 'datetime': '2018-10-10 01:07:10.763615', 'mgs': 0, 'volt': 0.8447, 'depth': 0.699, 'time': 6, 'pitch': -2.28, 'roll': 0.75, 'pres': 173}
{'lipoC2': 7.47, 'lipoC3S1': 3.83, 'temp': 30.5, 'lipoC3S3': 11.54, 'lipoC3S2': 7.64, 'rot1': 0, 'rot0': 0, 'rot3': 27, 'rot2': 20, 'state': 'normal', 'yaw': 3.86, 'datetime': '2018-10-10 01:07:10.779555', 'mgs': 0, 'volt': 0.8252, 'depth': 0.394, 'time': 7, 'pitch': -2.1, 'roll': 1.42, 'pres': 169}
{'lipoC2': 7.47, 'lipoC3S1': 3.83, 'temp': 30.5, 'lipoC3S3': 11.55, 'lipoC3S2': 7.65, 'rot1': 0, 'rot0': 0, 'rot3': 28, 'rot2': 21, 'state': 'normal', 'yaw': 3.69, 'datetime': '2018-10-10 01:07:10.789461', 'mgs': 0, 'volt': 0.8203, 'depth': 0.317, 'time': 7, 'pitch': -1.56, 'roll': 1.78, 'pres': 168}
{'lipoC2': 7.47, 'lipoC3S1': 3.82, 'temp': 30.5, 'lipoC3S3': 11.54, 'lipoC3S2': 7.64, 'rot1': 0, 'rot0': 0, 'rot3': 30, 'rot2': 21, 'state': 'normal', 'yaw': 3.58, 'datetime': '2018-10-10 01:07:10.805381', 'mgs': 0, 'volt': 0.8252, 'depth': 0.394, 'time': 7, 'pitch': -0.79, 'roll': 1.76, 'pres': 169}
{'lipoC2': 7.47, 'lipoC3S1': 3.83, 'temp': 30.56, 'lipoC3S3': 11.54, 'lipoC3S2': 7.68, 'rot1': 0, 'rot0': 0, 'rot3': 31, 'rot2': 22, 'state': 'normal', 'yaw': 3.42, 'datetime': '2018-10-10 01:07:10.821174', 'mgs': 0, 'volt': 0.835, 'depth': 0.546, 'time': 7, 'pitch': -0.18, 'roll': 1.33, 'pres': 171}
{'lipoC2': 7.47, 'lipoC3S1': 3.84, 'temp': 30.56, 'lipoC3S3': 11.55, 'lipoC3S2': 7.68, 'rot1': 0, 'rot0': 0, 'rot3': 32, 'rot2': 23, 'state': 'normal', 'yaw': 3.32, 'datetime': '2018-10-10 01:07:10.831030', 'mgs': 0, 'volt': 0.835, 'depth': 0.546, 'time': 7, 'pitch': -0.03, 'roll': 0.65, 'pres': 171}
{'lipoC2': 7.47, 'lipoC3S1': 3.85, 'temp': 30.5, 'lipoC3S3': 11.63, 'lipoC3S2': 7.71, 'rot1': 0, 'rot0': 0, 'rot3': 32, 'rot2': 24, 'state': 'normal', 'yaw': 3.4, 'datetime': '2018-10-10 01:07:10.847801', 'mgs': 0, 'volt': 0.8252, 'depth': 0.394, 'time': 7, 'pitch': -0.42, 'roll': 0.19, 'pres': 169}
{'lipoC2': 7.46, 'lipoC3S1': 3.82, 'temp': 30.5, 'lipoC3S3': 11.55, 'lipoC3S2': 7.68, 'rot1': 0, 'rot0': 0, 'rot3': 32, 'rot2': 24, 'state': 'normal', 'yaw': 3.55, 'datetime': '2018-10-10 01:07:10.864224', 'mgs': 0, 'volt': 0.8789, 'depth': 1.233, 'time': 7, 'pitch': -1.18, 'roll': 0.02, 'pres': 180}
{'lipoC2': 7.44, 'lipoC3S1': 3.82, 'temp': 30.56, 'lipoC3S3': 11.55, 'lipoC3S2': 7.67, 'rot1': 1, 'rot0': 1, 'rot3': 32, 'rot2': 24, 'state': 'normal', 'yaw': 3.28, 'datetime': '2018-10-10 01:07:10.874174', 'mgs': 0, 'volt': 0.8838, 'depth': 1.309, 'time': 7, 'pitch': -1.3, 'roll': 0.03, 'pres': 181}
{'lipoC2': 7.44, 'lipoC3S1': 3.82, 'temp': 30.56, 'lipoC3S3': 11.55, 'lipoC3S2': 7.67, 'rot1': 2, 'rot0': 3, 'rot3': 32, 'rot2': 24, 'state': 'normal', 'yaw': 2.27, 'datetime': '2018-10-10 01:07:10.889945', 'mgs': 0, 'volt': 0.8691, 'depth': 1.08, 'time': 7, 'pitch': -0.39, 'roll': -0.03, 'pres': 178}
{'lipoC2': 7.47, 'lipoC3S1': 3.83, 'temp': 30.56, 'lipoC3S3': 11.55, 'lipoC3S2': 7.67, 'rot1': 2, 'rot0': 4, 'rot3': 32, 'rot2': 24, 'state': 'normal', 'yaw': 0.61, 'datetime': '2018-10-10 01:07:10.905707', 'mgs': 0, 'volt': 0.8594, 'depth': 0.928, 'time': 7, 'pitch': 1.08, 'roll': -0.42, 'pres': 176}
{'lipoC2': 7.44, 'lipoC3S1': 3.83, 'temp': 30.5, 'lipoC3S3': 11.55, 'lipoC3S2': 7.67, 'rot1': 3, 'rot0': 6, 'rot3': 32, 'rot2': 24, 'state': 'normal', 'yaw': -1.84, 'datetime': '2018-10-10 01:07:10.915646', 'mgs': 0, 'volt': 0.9033, 'depth': 1.614, 'time': 8, 'pitch': 2.76, 'roll': -1.02, 'pres': 185}
{'lipoC2': 7.44, 'lipoC3S1': 3.82, 'temp': 30.5, 'lipoC3S3': 11.55, 'lipoC3S2': 7.67, 'rot1': 4, 'rot0': 7, 'rot3': 32, 'rot2': 24, 'state': 'normal', 'yaw': -4.47, 'datetime': '2018-10-10 01:07:10.931251', 'mgs': 0, 'volt': 0.8887, 'depth': 1.385, 'time': 8, 'pitch': 4.15, 'roll': -1.34, 'pres': 182}
{'lipoC2': 7.47, 'lipoC3S1': 3.77, 'temp': 30.44, 'lipoC3S3': 11.56, 'lipoC3S2': 7.61, 'rot1': 5, 'rot0': 9, 'rot3': 32, 'rot2': 24, 'state': 'normal', 'yaw': -7.37, 'datetime': '2018-10-10 01:07:10.947257', 'mgs': 0, 'volt': 0.8398, 'depth': 0.623, 'time': 8, 'pitch': 5.5, 'roll': -1.14, 'pres': 172}
{'lipoC2': 7.47, 'lipoC3S1': 3.76, 'temp': 30.44, 'lipoC3S3': 11.58, 'lipoC3S2': 7.61, 'rot1': 5, 'rot0': 10, 'rot3': 32, 'rot2': 24, 'state': 'normal', 'yaw': -10.74, 'datetime': '2018-10-10 01:07:10.957984', 'mgs': 0, 'volt': 0.8447, 'depth': 0.699, 'time': 8, 'pitch': 6.91, 'roll': -0.63, 'pres': 173}
