{'lipoC2': 7.46, 'lipoC3S1': 4.06, 'temp': 30.5, 'lipoC3S3': 12.27, 'lipoC3S2': 8.12, 'rot1': 536, 'rot0': 532, 'rot3': 326, 'rot2': 284, 'state': 'normal', 'yaw': -56.98, 'datetime': '2018-10-09 12:47:14.859407', 'mgs': 0, 'volt': 0.9277, 'depth': 1.996, 'time': 112, 'pitch': 0.8, 'roll': -0.95, 'pres': 190}
{'lipoC2': 7.46, 'lipoC3S1': 4.06, 'temp': 30.5, 'lipoC3S3': 12.27, 'lipoC3S2': 8.12, 'rot1': 536, 'rot0': 532, 'rot3': 326, 'rot2': 284, 'state': 'normal', 'yaw': -57.3, 'datetime': '2018-10-09 12:47:14.883195', 'mgs': 0, 'volt': 0.9277, 'depth': 1.996, 'time': 112, 'pitch': 0.76, 'roll': -0.82, 'pres': 190}
{'lipoC2': 7.46, 'lipoC3S1': 4.06, 'temp': 30.5, 'lipoC3S3': 12.27, 'lipoC3S2': 8.12, 'rot1': 536, 'rot0': 532, 'rot3': 326, 'rot2': 284, 'state': 'normal', 'yaw': -57.66, 'datetime': '2018-10-09 12:47:14.900554', 'mgs': 0, 'volt': 0.9277, 'depth': 1.996, 'time': 112, 'pitch': 0.52, 'roll': -0.7, 'pres': 190}
{'lipoC2': 7.46, 'lipoC3S1': 4.06, 'temp': 30.5, 'lipoC3S3': 12.27, 'lipoC3S2': 8.12, 'rot1': 536, 'rot0': 532, 'rot3': 326, 'rot2': 284, 'state': 'normal', 'yaw': -57.96, 'datetime': '2018-10-09 12:47:14.910988', 'mgs': 0, 'volt': 0.9277, 'depth': 1.996, 'time': 112, 'pitch': 0.21, 'roll': -0.69, 'pres': 190}
{'lipoC2': 7.46, 'lipoC3S1': 4.06, 'temp': 30.5, 'lipoC3S3': 12.27, 'lipoC3S2': 8.12, 'rot1': 536, 'rot0': 532, 'rot3': 326, 'rot2': 284, 'state': 'normal', 'yaw': -58.27, 'datetime': '2018-10-09 12:47:14.921334', 'mgs': 0, 'volt': 0.9277, 'depth': 1.996, 'time': 112, 'pitch': -0.08, 'roll': -0.75, 'pres': 190}
{'lipoC2': 7.46, 'lipoC3S1': 4.06, 'temp': 30.5, 'lipoC3S3': 12.27, 'lipoC3S2': 8.12, 'rot1': 536, 'rot0': 532, 'rot3': 326, 'rot2': 284, 'state': 'normal', 'yaw': -58.53, 'datetime': '2018-10-09 12:47:14.931669', 'mgs': 0, 'volt': 0.9277, 'depth': 1.996, 'time': 112, 'pitch': -0.2, 'roll': -0.8, 'pres': 190}
{'lipoC2': 7.46, 'lipoC3S1': 4.06, 'temp': 30.5, 'lipoC3S3': 12.27, 'lipoC3S2': 8.12, 'rot1': 536, 'rot0': 532, 'rot3': 326, 'rot2': 284, 'state': 'normal', 'yaw': -58.79, 'datetime': '2018-10-09 12:47:14.942024', 'mgs': 0, 'volt': 0.9277, 'depth': 1.996, 'time': 112, 'pitch': -0.18, 'roll': -0.85, 'pres': 190}
{'lipoC2': 7.46, 'lipoC3S1': 4.06, 'temp': 30.56, 'lipoC3S3': 12.27, 'lipoC3S2': 8.12, 'rot1': 536, 'rot0': 532, 'rot3': 326, 'rot2': 284, 'state': 'normal', 'yaw': -59.11, 'datetime': '2018-10-09 12:47:14.952335', 'mgs': 0, 'volt': 0.9277, 'depth': 1.996, 'time': 113, 'pitch': -0.05, 'roll': -0.9, 'pres': 190}
{'lipoC2': 7.46, 'lipoC3S1': 4.06, 'temp': 30.56, 'lipoC3S3': 12.27, 'lipoC3S2': 8.12, 'rot1': 536, 'rot0': 532, 'rot3': 326, 'rot2': 284, 'state': 'normal', 'yaw': -59.41, 'datetime': '2018-10-09 12:47:14.962687', 'mgs': 0, 'volt': 0.9229, 'depth': 1.92, 'time': 113, 'pitch': 0.08, 'roll': -1.0, 'pres': 189}
{'lipoC2': 7.46, 'lipoC3S1': 4.06, 'temp': 30.56, 'lipoC3S3': 12.27, 'lipoC3S2': 8.12, 'rot1': 536, 'rot0': 532, 'rot3': 326, 'rot2': 284, 'state': 'normal', 'yaw': -59.76, 'datetime': '2018-10-09 12:47:14.973033', 'mgs': 0, 'volt': 0.9229, 'depth': 1.92, 'time': 113, 'pitch': 0.18, 'roll': -1.17, 'pres': 189}
{'lipoC2': 7.46, 'lipoC3S1': 4.06, 'temp': 30.56, 'lipoC3S3': 12.27, 'lipoC3S2': 8.12, 'rot1': 536, 'rot0': 532, 'rot3': 326, 'rot2': 284, 'state': 'normal', 'yaw': -60.08, 'datetime': '2018-10-09 12:47:14.983361', 'mgs': 0, 'volt': 0.9229, 'depth': 1.92, 'time': 113, 'pitch': 0.21, 'roll': -1.38, 'pres': 189}
{'lipoC2': 7.46, 'lipoC3S1': 4.06, 'temp': 30.56, 'lipoC3S3': 12.27, 'lipoC3S2': 8.12, 'rot1': 536, 'rot0': 532, 'rot3': 326, 'rot2': 284, 'state': 'normal', 'yaw': -60.4, 'datetime': '2018-10-09 12:47:14.993683', 'mgs': 0, 'volt': 0.9277, 'depth': 1.996, 'time': 113, 'pitch': 0.18, 'roll': -1.57, 'pres': 190}
{'lipoC2': 7.46, 'lipoC3S1': 4.06, 'temp': 30.56, 'lipoC3S3': 12.27, 'lipoC3S2': 8.12, 'rot1': 536, 'rot0': 532, 'rot3': 326, 'rot2': 284, 'state': 'normal', 'yaw': -60.68, 'datetime': '2018-10-09 12:47:15.004035', 'mgs': 0, 'volt': 0.9277, 'depth': 1.996, 'time': 113, 'pitch': 0.17, 'roll': -1.64, 'pres': 190}
{'lipoC2': 7.46, 'lipoC3S1': 4.06, 'temp': 30.56, 'lipoC3S3': 12.27, 'lipoC3S2': 8.12, 'rot1': 536, 'rot0': 532, 'rot3': 326, 'rot2': 284, 'state': 'normal', 'yaw': -60.95, 'datetime': '2018-10-09 12:47:15.014387', 'mgs': 0, 'volt': 0.9229, 'depth': 1.92, 'time': 113, 'pitch': 0.25, 'roll': -1.62, 'pres': 189}
{'lipoC2': 7.46, 'lipoC3S1': 4.06, 'temp': 30.56, 'lipoC3S3': 12.27, 'lipoC3S2': 8.12, 'rot1': 536, 'rot0': 532, 'rot3': 326, 'rot2': 284, 'state': 'normal', 'yaw': -61.27, 'datetime': '2018-10-09 12:47:15.025109', 'mgs': 0, 'volt': 0.9229, 'depth': 1.92, 'time': 113, 'pitch': 0.36, 'roll': -1.51, 'pres': 189}
{'lipoC2': 7.46, 'lipoC3S1': 4.06, 'temp': 30.56, 'lipoC3S3': 12.27, 'lipoC3S2': 8.12, 'rot1': 536, 'rot0': 532, 'rot3': 326, 'rot2': 284, 'state': 'normal', 'yaw': -61.59, 'datetime': '2018-10-09 12:47:15.035475', 'mgs': 0, 'volt': 0.9229, 'depth': 1.92, 'time': 113, 'pitch': 0.42, 'roll': -1.4, 'pres': 189}
{'lipoC2': 7.46, 'lipoC3S1': 4.06, 'temp': 30.56, 'lipoC3S3': 12.27, 'lipoC3S2': 8.12, 'rot1': 536, 'rot0': 532, 'rot3': 326, 'rot2': 284, 'state': 'normal', 'yaw': -61.94, 'datetime': '2018-10-09 12:47:15.045860', 'mgs': 0, 'volt': 0.9229, 'depth': 1.92, 'time': 113, 'pitch': 0.4, 'roll': -1.37, 'pres': 189}
{'lipoC2': 7.46, 'lipoC3S1': 4.06, 'temp': 30.56, 'lipoC3S3': 12.27, 'lipoC3S2': 8.12, 'rot1': 536, 'rot0': 532, 'rot3': 326, 'rot2': 284, 'state': 'normal', 'yaw': -62.25, 'datetime': '2018-10-09 12:47:15.056254', 'mgs': 0, 'volt': 0.9229, 'depth': 1.92, 'time': 114, 'pitch': 0.26, 'roll': -1.37, 'pres': 189}
{'lipoC2': 7.46, 'lipoC3S1': 4.06, 'temp': 30.56, 'lipoC3S3': 12.27, 'lipoC3S2': 8.12, 'rot1': 536, 'rot0': 532, 'rot3': 326, 'rot2': 284, 'state': 'normal', 'yaw': -62.55, 'datetime': '2018-10-09 12:47:15.066623', 'mgs': 0, 'volt': 0.9229, 'depth': 1.92, 'time': 114, 'pitch': 0.1, 'roll': -1.38, 'pres': 189}
{'lipoC2': 7.46, 'lipoC3S1': 4.06, 'temp': 30.5, 'lipoC3S3': 12.27, 'lipoC3S2': 8.12, 'rot1': 536, 'rot0': 532, 'rot3': 326, 'rot2': 284, 'state': 'normal', 'yaw': -62.86, 'datetime': '2018-10-09 12:47:15.076988', 'mgs': 0, 'volt': 0.9229, 'depth': 1.92, 'time': 114, 'pitch': 0.01, 'roll': -1.3, 'pres': 189}
{'lipoC2': 7.46, 'lipoC3S1': 4.06, 'temp': 30.5, 'lipoC3S3': 12.26, 'lipoC3S2': 8.12, 'rot1': 536, 'rot0': 532, 'rot3': 326, 'rot2': 284, 'state': 'normal', 'yaw': -63.14, 'datetime': '2018-10-09 12:47:15.087374', 'mgs': 0, 'volt': 0.9229, 'depth': 1.92, 'time': 114, 'pitch': 0.05, 'roll': -1.13, 'pres': 189}
{'lipoC2': 7.46, 'lipoC3S1': 4.06, 'temp': 30.5, 'lipoC3S3': 12.26, 'lipoC3S2': 8.12, 'rot1': 536, 'rot0': 532, 'rot3': 326, 'rot2': 284, 'state': 'normal', 'yaw': -63.47, 'datetime': '2018-10-09 12:47:15.097723', 'mgs': 0, 'volt': 0.9229, 'depth': 1.92, 'time': 114, 'pitch': 0.24, 'roll': -0.9, 'pres': 189}
{'lipoC2': 7.46, 'lipoC3S1': 4.06, 'temp': 30.5, 'lipoC3S3': 12.27, 'lipoC3S2': 8.12, 'rot1': 536, 'rot0': 532, 'rot3': 326, 'rot2': 284, 'state': 'normal', 'yaw': -63.76, 'datetime': '2018-10-09 12:47:15.108064', 'mgs': 0, 'volt': 0.9229, 'depth': 1.92, 'time': 114, 'pitch': 0.48, 'roll': -0.76, 'pres': 189}
{'lipoC2': 7.46, 'lipoC3S1': 4.06, 'temp': 30.56, 'lipoC3S3': 12.27, 'lipoC3S2': 8.12, 'rot1': 536, 'rot0': 532, 'rot3': 326, 'rot2': 284, 'state': 'normal', 'yaw': -64.1, 'datetime': '2018-10-09 12:47:15.118375', 'mgs': 0, 'volt': 0.9229, 'depth': 1.92, 'time': 114, 'pitch': 0.75, 'roll': -0.74, 'pres': 189}
{'lipoC2': 7.46, 'lipoC3S1': 4.06, 'temp': 30.56, 'lipoC3S3': 12.27, 'lipoC3S2': 8.12, 'rot1': 536, 'rot0': 532, 'rot3': 326, 'rot2': 284, 'state': 'normal', 'yaw': -64.42, 'datetime': '2018-10-09 12:47:15.128719', 'mgs': 0, 'volt': 0.9229, 'depth': 1.92, 'time': 114, 'pitch': 0.89, 'roll': -0.84, 'pres': 189}
{'lipoC2': 7.46, 'lipoC3S1': 4.06, 'temp': 30.56, 'lipoC3S3': 12.26, 'lipoC3S2': 8.12, 'rot1': 536, 'rot0': 532, 'rot3': 326, 'rot2': 284, 'state': 'normal', 'yaw': -64.76, 'datetime': '2018-10-09 12:47:15.139077', 'mgs': 0, 'volt': 0.9229, 'depth': 1.92, 'time': 114, 'pitch': 0.83, 'roll': -1.01, 'pres': 189}
{'lipoC2': 7.46, 'lipoC3S1': 4.06, 'temp': 30.56, 'lipoC3S3': 12.26, 'lipoC3S2': 8.12, 'rot1': 536, 'rot0': 532, 'rot3': 326, 'rot2': 284, 'state': 'normal', 'yaw': -65.05, 'datetime': '2018-10-09 12:47:15.149446', 'mgs': 0, 'volt': 0.9229, 'depth': 1.92, 'time': 114, 'pitch': 0.61, 'roll': -1.18, 'pres': 189}
{'lipoC2': 7.46, 'lipoC3S1': 4.06, 'temp': 30.56, 'lipoC3S3': 12.26, 'lipoC3S2': 8.12, 'rot1': 536, 'rot0': 532, 'rot3': 326, 'rot2': 284, 'state': 'normal', 'yaw': -65.33, 'datetime': '2018-10-09 12:47:15.160045', 'mgs': 0, 'volt': 0.9229, 'depth': 1.92, 'time': 115, 'pitch': 0.33, 'roll': -1.21, 'pres': 189}
{'lipoC2': 7.46, 'lipoC3S1': 4.06, 'temp': 30.5, 'lipoC3S3': 12.27, 'lipoC3S2': 8.12, 'rot1': 536, 'rot0': 532, 'rot3': 326, 'rot2': 284, 'state': 'normal', 'yaw': -65.64, 'datetime': '2018-10-09 12:47:15.170424', 'mgs': 0, 'volt': 0.9229, 'depth': 1.92, 'time': 115, 'pitch': 0.14, 'roll': -1.2, 'pres': 189}
{'lipoC2': 7.46, 'lipoC3S1': 4.06, 'temp': 30.5, 'lipoC3S3': 12.27, 'lipoC3S2': 8.12, 'rot1': 536, 'rot0': 532, 'rot3': 326, 'rot2': 284, 'state': 'normal', 'yaw': -65.93, 'datetime': '2018-10-09 12:47:15.180743', 'mgs': 0, 'volt': 0.9229, 'depth': 1.92, 'time': 115, 'pitch': 0.16, 'roll': -1.13, 'pres': 189}
{'lipoC2': 7.46, 'lipoC3S1': 4.06, 'temp': 30.56, 'lipoC3S3': 12.26, 'lipoC3S2': 8.12, 'rot1': 536, 'rot0': 532, 'rot3': 326, 'rot2': 284, 'state': 'normal', 'yaw': -66.27, 'datetime': '2018-10-09 12:47:15.191100', 'mgs': 0, 'volt': 0.9229, 'depth': 1.92, 'time': 115, 'pitch': 0.32, 'roll': -1.07, 'pres': 189}
{'lipoC2': 7.46, 'lipoC3S1': 4.06, 'temp': 30.56, 'lipoC3S3': 12.27, 'lipoC3S2': 8.12, 'rot1': 536, 'rot0': 532, 'rot3': 326, 'rot2': 284, 'state': 'normal', 'yaw': -66.6, 'datetime': '2018-10-09 12:47:15.201461', 'mgs': 0, 'volt': 0.9229, 'depth': 1.92, 'time': 115, 'pitch': 0.47, 'roll': -0.97, 'pres': 189}
{'lipoC2': 7.46, 'lipoC3S1': 4.06, 'temp': 30.56, 'lipoC3S3': 12.27, 'lipoC3S2': 8.12, 'rot1': 536, 'rot0': 532, 'rot3': 326, 'rot2': 284, 'state': 'normal', 'yaw': -66.94, 'datetime': '2018-10-09 12:47:15.211817', 'mgs': 0, 'volt': 0.918, 'depth': 1.843, 'time': 115, 'pitch': 0.48, 'roll': -0.91, 'pres': 188}
{'lipoC2': 7.46, 'lipoC3S1': 4.06, 'temp': 30.56, 'lipoC3S3': 12.27, 'lipoC3S2': 8.12, 'rot1': 536, 'rot0': 532, 'rot3': 326, 'rot2': 284, 'state': 'normal', 'yaw': -67.29, 'datetime': '2018-10-09 12:47:15.222129', 'mgs': 0, 'volt': 0.9229, 'depth': 1.92, 'time': 115, 'pitch': 0.34, 'roll': -0.93, 'pres': 189}
{'lipoC2': 7.46, 'lipoC3S1': 4.06, 'temp': 30.56, 'lipoC3S3': 12.27, 'lipoC3S2': 8.12, 'rot1': 536, 'rot0': 532, 'rot3': 326, 'rot2': 284, 'state': 'normal', 'yaw': -67.59, 'datetime': '2018-10-09 12:47:15.232477', 'mgs': 0, 'volt': 0.9229, 'depth': 1.92, 'time': 115, 'pitch': 0.14, 'roll': -1.06, 'pres': 189}
{'lipoC2': 7.46, 'lipoC3S1': 4.06, 'temp': 30.56, 'lipoC3S3': 12.27, 'lipoC3S2': 8.12, 'rot1': 536, 'rot0': 532, 'rot3': 326, 'rot2': 284, 'state': 'normal', 'yaw': -67.88, 'datetime': '2018-10-09 12:47:15.242821', 'mgs': 0, 'volt': 0.918, 'depth': 1.843, 'time': 115, 'pitch': 0.04, 'roll': -1.26, 'pres': 188}
{'lipoC2': 7.46, 'lipoC3S1': 4.06, 'temp': 30.56, 'lipoC3S3': 12.27, 'lipoC3S2': 8.12, 'rot1': 536, 'rot0': 532, 'rot3': 326, 'rot2': 284, 'state': 'normal', 'yaw': -68.14, 'datetime': '2018-10-09 12:47:15.253179', 'mgs': 0, 'volt': 0.9229, 'depth': 1.92, 'time': 116, 'pitch': 0.05, 'roll': -1.41, 'pres': 189}
{'lipoC2': 7.46, 'lipoC3S1': 4.06, 'temp': 30.5, 'lipoC3S3': 12.27, 'lipoC3S2': 8.12, 'rot1': 536, 'rot0': 532, 'rot3': 326, 'rot2': 284, 'state': 'normal', 'yaw': -68.46, 'datetime': '2018-10-09 12:47:15.263567', 'mgs': 0, 'volt': 0.9229, 'depth': 1.92, 'time': 116, 'pitch': 0.21, 'roll': -1.49, 'pres': 189}
{'lipoC2': 7.46, 'lipoC3S1': 4.06, 'temp': 30.5, 'lipoC3S3': 12.26, 'lipoC3S2': 8.12, 'rot1': 536, 'rot0': 532, 'rot3': 326, 'rot2': 284, 'state': 'normal', 'yaw': -68.76, 'datetime': '2018-10-09 12:47:15.273900', 'mgs': 0, 'volt': 0.9229, 'depth': 1.92, 'time': 116, 'pitch': 0.4, 'roll': -1.42, 'pres': 189}
{'lipoC2': 7.46, 'lipoC3S1': 4.06, 'temp': 30.56, 'lipoC3S3': 12.27, 'lipoC3S2': 8.12, 'rot1': 536, 'rot0': 532, 'rot3': 326, 'rot2': 284, 'state': 'normal', 'yaw': -69.09, 'datetime': '2018-10-09 12:47:15.284217', 'mgs': 0, 'volt': 0.9229, 'depth': 1.92, 'time': 116, 'pitch': 0.57, 'roll': -1.3, 'pres': 189}
{'lipoC2': 7.46, 'lipoC3S1': 4.06, 'temp': 30.56, 'lipoC3S3': 12.27, 'lipoC3S2': 8.12, 'rot1': 536, 'rot0': 532, 'rot3': 326, 'rot2': 284, 'state': 'normal', 'yaw': -69.47, 'datetime': '2018-10-09 12:47:15.294774', 'mgs': 0, 'volt': 0.9229, 'depth': 1.92, 'time': 116, 'pitch': 0.76, 'roll': -1.04, 'pres': 189}
{'lipoC2': 7.46, 'lipoC3S1': 4.06, 'temp': 30.56, 'lipoC3S3': 12.27, 'lipoC3S2': 8.12, 'rot1': 536, 'rot0': 532, 'rot3': 326, 'rot2': 284, 'state': 'normal', 'yaw': -69.81, 'datetime': '2018-10-09 12:47:15.305147', 'mgs': 0, 'volt': 0.918, 'depth': 1.843, 'time': 116, 'pitch': 0.91, 'roll': -0.76, 'pres': 188}
{'lipoC2': 7.46, 'lipoC3S1': 4.06, 'temp': 30.56, 'lipoC3S3': 12.27, 'lipoC3S2': 8.12, 'rot1': 536, 'rot0': 532, 'rot3': 326, 'rot2': 284, 'state': 'normal', 'yaw': -70.15, 'datetime': '2018-10-09 12:47:15.315506', 'mgs': 0, 'volt': 0.9229, 'depth': 1.92, 'time': 116, 'pitch': 0.95, 'roll': -0.52, 'pres': 189}
{'lipoC2': 7.46, 'lipoC3S1': 4.06, 'temp': 30.56, 'lipoC3S3': 12.26, 'lipoC3S2': 8.12, 'rot1': 536, 'rot0': 532, 'rot3': 326, 'rot2': 284, 'state': 'normal', 'yaw': -70.46, 'datetime': '2018-10-09 12:47:15.325829', 'mgs': 0, 'volt': 0.9229, 'depth': 1.92, 'time': 116, 'pitch': 0.91, 'roll': -0.5, 'pres': 189}
{'lipoC2': 7.46, 'lipoC3S1': 4.06, 'temp': 30.5, 'lipoC3S3': 12.27, 'lipoC3S2': 8.12, 'rot1': 536, 'rot0': 532, 'rot3': 326, 'rot2': 284, 'state': 'normal', 'yaw': -70.76, 'datetime': '2018-10-09 12:47:15.336211', 'mgs': 0, 'volt': 0.9229, 'depth': 1.92, 'time': 116, 'pitch': 0.73, 'roll': -0.64, 'pres': 189}
{'lipoC2': 7.46, 'lipoC3S1': 4.06, 'temp': 30.5, 'lipoC3S3': 12.26, 'lipoC3S2': 8.12, 'rot1': 536, 'rot0': 532, 'rot3': 326, 'rot2': 284, 'state': 'normal', 'yaw': -71.1, 'datetime': '2018-10-09 12:47:15.346570', 'mgs': 0, 'volt': 0.9229, 'depth': 1.92, 'time': 116, 'pitch': 0.44, 'roll': -0.94, 'pres': 189}
{'lipoC2': 7.46, 'lipoC3S1': 4.06, 'temp': 30.5, 'lipoC3S3': 12.27, 'lipoC3S2': 8.12, 'rot1': 536, 'rot0': 532, 'rot3': 326, 'rot2': 284, 'state': 'normal', 'yaw': -71.39, 'datetime': '2018-10-09 12:47:15.356927', 'mgs': 0, 'volt': 0.9229, 'depth': 1.92, 'time': 117, 'pitch': 0.22, 'roll': -1.16, 'pres': 189}
{'lipoC2': 7.46, 'lipoC3S1': 4.06, 'temp': 30.5, 'lipoC3S3': 12.26, 'lipoC3S2': 8.12, 'rot1': 536, 'rot0': 532, 'rot3': 326, 'rot2': 284, 'state': 'normal', 'yaw': -71.7, 'datetime': '2018-10-09 12:47:15.367290', 'mgs': 0, 'volt': 0.9229, 'depth': 1.92, 'time': 117, 'pitch': 0.16, 'roll': -1.18, 'pres': 189}
{'lipoC2': 7.46, 'lipoC3S1': 4.06, 'temp': 30.5, 'lipoC3S3': 12.27, 'lipoC3S2': 8.12, 'rot1': 536, 'rot0': 532, 'rot3': 326, 'rot2': 284, 'state': 'normal', 'yaw': -71.99, 'datetime': '2018-10-09 12:47:15.377635', 'mgs': 0, 'volt': 0.9229, 'depth': 1.92, 'time': 117, 'pitch': 0.27, 'roll': -1.05, 'pres': 189}
{'lipoC2': 7.46, 'lipoC3S1': 4.06, 'temp': 30.56, 'lipoC3S3': 12.27, 'lipoC3S2': 8.12, 'rot1': 536, 'rot0': 532, 'rot3': 326, 'rot2': 284, 'state': 'normal', 'yaw': -72.31, 'datetime': '2018-10-09 12:47:15.388005', 'mgs': 0, 'volt': 0.9229, 'depth': 1.92, 'time': 117, 'pitch': 0.48, 'roll': -0.86, 'pres': 189}
{'lipoC2': 7.46, 'lipoC3S1': 4.06, 'temp': 30.56, 'lipoC3S3': 12.27, 'lipoC3S2': 8.12, 'rot1': 536, 'rot0': 532, 'rot3': 326, 'rot2': 284, 'state': 'normal', 'yaw': -72.64, 'datetime': '2018-10-09 12:47:15.398376', 'mgs': 0, 'volt': 0.9229, 'depth': 1.92, 'time': 117, 'pitch': 0.61, 'roll': -0.79, 'pres': 189}
{'lipoC2': 7.46, 'lipoC3S1': 4.06, 'temp': 30.56, 'lipoC3S3': 12.27, 'lipoC3S2': 8.12, 'rot1': 536, 'rot0': 532, 'rot3': 326, 'rot2': 284, 'state': 'normal', 'yaw': -72.96, 'datetime': '2018-10-09 12:47:15.408730', 'mgs': 0, 'volt': 0.9229, 'depth': 1.92, 'time': 117, 'pitch': 0.6, 'roll': -0.91, 'pres': 189}
{'lipoC2': 7.46, 'lipoC3S1': 4.06, 'temp': 30.56, 'lipoC3S3': 12.27, 'lipoC3S2': 8.12, 'rot1': 536, 'rot0': 532, 'rot3': 326, 'rot2': 284, 'state': 'normal', 'yaw': -73.31, 'datetime': '2018-10-09 12:47:15.419042', 'mgs': 0, 'volt': 0.9229, 'depth': 1.92, 'time': 117, 'pitch': 0.47, 'roll': -1.2, 'pres': 189}
{'lipoC2': 7.46, 'lipoC3S1': 4.06, 'temp': 30.56, 'lipoC3S3': 12.27, 'lipoC3S2': 8.12, 'rot1': 536, 'rot0': 532, 'rot3': 326, 'rot2': 284, 'state': 'normal', 'yaw': -73.62, 'datetime': '2018-10-09 12:47:15.429562', 'mgs': 0, 'volt': 0.9229, 'depth': 1.92, 'time': 117, 'pitch': 0.33, 'roll': -1.42, 'pres': 189}
{'lipoC2': 7.46, 'lipoC3S1': 4.06, 'temp': 30.56, 'lipoC3S3': 12.26, 'lipoC3S2': 8.12, 'rot1': 536, 'rot0': 532, 'rot3': 326, 'rot2': 284, 'state': 'normal', 'yaw': -73.95, 'datetime': '2018-10-09 12:47:15.439951', 'mgs': 0, 'volt': 0.9229, 'depth': 1.92, 'time': 117, 'pitch': 0.27, 'roll': -1.46, 'pres': 189}
{'lipoC2': 7.46, 'lipoC3S1': 4.06, 'temp': 30.56, 'lipoC3S3': 12.27, 'lipoC3S2': 8.12, 'rot1': 536, 'rot0': 532, 'rot3': 326, 'rot2': 284, 'state': 'normal', 'yaw': -74.25, 'datetime': '2018-10-09 12:47:15.450366', 'mgs': 0, 'volt': 0.9229, 'depth': 1.92, 'time': 118, 'pitch': 0.3, 'roll': -1.34, 'pres': 189}
{'lipoC2': 7.46, 'lipoC3S1': 4.06, 'temp': 30.56, 'lipoC3S3': 12.27, 'lipoC3S2': 8.12, 'rot1': 536, 'rot0': 532, 'rot3': 326, 'rot2': 284, 'state': 'normal', 'yaw': -74.58, 'datetime': '2018-10-09 12:47:15.460741', 'mgs': 0, 'volt': 0.9229, 'depth': 1.92, 'time': 118, 'pitch': 0.39, 'roll': -1.08, 'pres': 189}
{'lipoC2': 7.46, 'lipoC3S1': 4.06, 'temp': 30.56, 'lipoC3S3': 12.26, 'lipoC3S2': 8.12, 'rot1': 536, 'rot0': 532, 'rot3': 326, 'rot2': 284, 'state': 'normal', 'yaw': -74.95, 'datetime': '2018-10-09 12:47:15.471119', 'mgs': 0, 'volt': 0.9229, 'depth': 1.92, 'time': 118, 'pitch': 0.41, 'roll': -0.85, 'pres': 189}
{'lipoC2': 7.46, 'lipoC3S1': 4.06, 'temp': 30.5, 'lipoC3S3': 12.26, 'lipoC3S2': 8.12, 'rot1': 536, 'rot0': 532, 'rot3': 326, 'rot2': 284, 'state': 'normal', 'yaw': -75.29, 'datetime': '2018-10-09 12:47:15.481471', 'mgs': 0, 'volt': 0.918, 'depth': 1.843, 'time': 118, 'pitch': 0.34, 'roll': -0.75, 'pres': 188}
{'lipoC2': 7.46, 'lipoC3S1': 4.06, 'temp': 30.5, 'lipoC3S3': 12.26, 'lipoC3S2': 8.12, 'rot1': 536, 'rot0': 532, 'rot3': 326, 'rot2': 284, 'state': 'normal', 'yaw': -75.64, 'datetime': '2018-10-09 12:47:15.491782', 'mgs': 0, 'volt': 0.918, 'depth': 1.843, 'time': 118, 'pitch': 0.1, 'roll': -0.77, 'pres': 188}
{'lipoC2': 7.46, 'lipoC3S1': 4.06, 'temp': 30.56, 'lipoC3S3': 12.27, 'lipoC3S2': 8.12, 'rot1': 536, 'rot0': 532, 'rot3': 326, 'rot2': 284, 'state': 'normal', 'yaw': -75.94, 'datetime': '2018-10-09 12:47:15.502124', 'mgs': 0, 'volt': 0.9229, 'depth': 1.92, 'time': 118, 'pitch': -0.19, 'roll': -0.8, 'pres': 189}
{'lipoC2': 7.46, 'lipoC3S1': 4.06, 'temp': 30.56, 'lipoC3S3': 12.27, 'lipoC3S2': 8.12, 'rot1': 536, 'rot0': 532, 'rot3': 326, 'rot2': 284, 'state': 'normal', 'yaw': -76.24, 'datetime': '2018-10-09 12:47:15.512491', 'mgs': 0, 'volt': 0.9229, 'depth': 1.92, 'time': 118, 'pitch': -0.46, 'roll': -0.88, 'pres': 189}
{'lipoC2': 7.46, 'lipoC3S1': 4.06, 'temp': 30.56, 'lipoC3S3': 12.27, 'lipoC3S2': 8.12, 'rot1': 536, 'rot0': 532, 'rot3': 326, 'rot2': 284, 'state': 'normal', 'yaw': -76.51, 'datetime': '2018-10-09 12:47:15.522930', 'mgs': 0, 'volt': 0.9229, 'depth': 1.92, 'time': 118, 'pitch': -0.48, 'roll': -0.94, 'pres': 189}
{'lipoC2': 7.46, 'lipoC3S1': 4.06, 'temp': 30.56, 'lipoC3S3': 12.27, 'lipoC3S2': 8.12, 'rot1': 536, 'rot0': 532, 'rot3': 326, 'rot2': 284, 'state': 'normal', 'yaw': -76.8, 'datetime': '2018-10-09 12:47:15.533326', 'mgs': 0, 'volt': 0.9229, 'depth': 1.92, 'time': 118, 'pitch': -0.21, 'roll': -0.92, 'pres': 189}
{'lipoC2': 7.46, 'lipoC3S1': 4.06, 'temp': 30.56, 'lipoC3S3': 12.27, 'lipoC3S2': 8.12, 'rot1': 536, 'rot0': 532, 'rot3': 326, 'rot2': 284, 'state': 'normal', 'yaw': -77.14, 'datetime': '2018-10-09 12:47:15.543666', 'mgs': 0, 'volt': 0.9229, 'depth': 1.92, 'time': 118, 'pitch': 0.4, 'roll': -0.77, 'pres': 189}
{'lipoC2': 7.46, 'lipoC3S1': 4.06, 'temp': 30.56, 'lipoC3S3': 12.27, 'lipoC3S2': 8.12, 'rot1': 536, 'rot0': 532, 'rot3': 326, 'rot2': 284, 'state': 'normal', 'yaw': -77.45, 'datetime': '2018-10-09 12:47:15.554022', 'mgs': 0, 'volt': 0.9229, 'depth': 1.92, 'time': 119, 'pitch': 1.09, 'roll': -0.59, 'pres': 189}
{'lipoC2': 7.46, 'lipoC3S1': 4.06, 'temp': 30.56, 'lipoC3S3': 12.26, 'lipoC3S2': 8.12, 'rot1': 536, 'rot0': 532, 'rot3': 326, 'rot2': 284, 'state': 'normal', 'yaw': -77.82, 'datetime': '2018-10-09 12:47:15.564590', 'mgs': 0, 'volt': 0.9229, 'depth': 1.92, 'time': 119, 'pitch': 1.67, 'roll': -0.4, 'pres': 189}
{'lipoC2': 7.46, 'lipoC3S1': 4.06, 'temp': 30.56, 'lipoC3S3': 12.26, 'lipoC3S2': 8.12, 'rot1': 536, 'rot0': 532, 'rot3': 326, 'rot2': 284, 'state': 'normal', 'yaw': -78.13, 'datetime': '2018-10-09 12:47:15.575002', 'mgs': 0, 'volt': 0.9229, 'depth': 1.92, 'time': 119, 'pitch': 1.81, 'roll': -0.3, 'pres': 189}
{'lipoC2': 7.46, 'lipoC3S1': 4.06, 'temp': 30.56, 'lipoC3S3': 12.26, 'lipoC3S2': 8.12, 'rot1': 536, 'rot0': 532, 'rot3': 326, 'rot2': 284, 'state': 'normal', 'yaw': -78.46, 'datetime': '2018-10-09 12:47:15.585339', 'mgs': 0, 'volt': 0.9229, 'depth': 1.92, 'time': 119, 'pitch': 1.46, 'roll': -0.32, 'pres': 189}
{'lipoC2': 7.46, 'lipoC3S1': 4.06, 'temp': 30.56, 'lipoC3S3': 12.26, 'lipoC3S2': 8.12, 'rot1': 536, 'rot0': 532, 'rot3': 326, 'rot2': 284, 'state': 'normal', 'yaw': -78.79, 'datetime': '2018-10-09 12:47:15.595729', 'mgs': 0, 'volt': 0.9229, 'depth': 1.92, 'time': 119, 'pitch': 0.71, 'roll': -0.47, 'pres': 189}
{'lipoC2': 7.46, 'lipoC3S1': 4.06, 'temp': 30.5, 'lipoC3S3': 12.26, 'lipoC3S2': 8.12, 'rot1': 536, 'rot0': 532, 'rot3': 326, 'rot2': 284, 'state': 'normal', 'yaw': -79.07, 'datetime': '2018-10-09 12:47:15.606116', 'mgs': 0, 'volt': 0.9229, 'depth': 1.92, 'time': 119, 'pitch': -0.0, 'roll': -0.7, 'pres': 189}
{'lipoC2': 7.46, 'lipoC3S1': 4.06, 'temp': 30.5, 'lipoC3S3': 12.27, 'lipoC3S2': 8.12, 'rot1': 536, 'rot0': 532, 'rot3': 326, 'rot2': 284, 'state': 'normal', 'yaw': -79.36, 'datetime': '2018-10-09 12:47:15.616522', 'mgs': 0, 'volt': 0.9229, 'depth': 1.92, 'time': 119, 'pitch': -0.45, 'roll': -0.99, 'pres': 189}
{'lipoC2': 7.46, 'lipoC3S1': 4.06, 'temp': 30.56, 'lipoC3S3': 12.27, 'lipoC3S2': 8.12, 'rot1': 536, 'rot0': 532, 'rot3': 326, 'rot2': 284, 'state': 'normal', 'yaw': -79.62, 'datetime': '2018-10-09 12:47:15.626894', 'mgs': 0, 'volt': 0.9229, 'depth': 1.92, 'time': 119, 'pitch': -0.39, 'roll': -1.23, 'pres': 189}
{'lipoC2': 7.46, 'lipoC3S1': 4.06, 'temp': 30.56, 'lipoC3S3': 12.26, 'lipoC3S2': 8.12, 'rot1': 536, 'rot0': 532, 'rot3': 326, 'rot2': 284, 'state': 'normal', 'yaw': -79.92, 'datetime': '2018-10-09 12:47:15.637356', 'mgs': 0, 'volt': 0.9229, 'depth': 1.92, 'time': 119, 'pitch': 0.18, 'roll': -1.39, 'pres': 189}
{'lipoC2': 7.46, 'lipoC3S1': 4.06, 'temp': 30.5, 'lipoC3S3': 12.27, 'lipoC3S2': 8.12, 'rot1': 536, 'rot0': 532, 'rot3': 326, 'rot2': 284, 'state': 'normal', 'yaw': -80.22, 'datetime': '2018-10-09 12:47:15.647724', 'mgs': 0, 'volt': 0.918, 'depth': 1.843, 'time': 120, 'pitch': 0.87, 'roll': -1.4, 'pres': 188}
{'lipoC2': 7.46, 'lipoC3S1': 4.06, 'temp': 30.5, 'lipoC3S3': 12.26, 'lipoC3S2': 8.12, 'rot1': 536, 'rot0': 532, 'rot3': 326, 'rot2': 284, 'state': 'normal', 'yaw': -80.53, 'datetime': '2018-10-09 12:47:15.658216', 'mgs': 0, 'volt': 0.9229, 'depth': 1.92, 'time': 120, 'pitch': 1.38, 'roll': -1.38, 'pres': 189}
{'lipoC2': 7.46, 'lipoC3S1': 4.06, 'temp': 30.5, 'lipoC3S3': 12.27, 'lipoC3S2': 8.12, 'rot1': 536, 'rot0': 532, 'rot3': 326, 'rot2': 284, 'state': 'normal', 'yaw': -80.87, 'datetime': '2018-10-09 12:47:15.668572', 'mgs': 0, 'volt': 0.9229, 'depth': 1.92, 'time': 120, 'pitch': 1.46, 'roll': -1.41, 'pres': 189}
{'lipoC2': 7.46, 'lipoC3S1': 4.06, 'temp': 30.5, 'lipoC3S3': 12.27, 'lipoC3S2': 8.12, 'rot1': 536, 'rot0': 532, 'rot3': 326, 'rot2': 284, 'state': 'normal', 'yaw': -81.16, 'datetime': '2018-10-09 12:47:15.679042', 'mgs': 0, 'volt': 0.9229, 'depth': 1.92, 'time': 120, 'pitch': 1.12, 'roll': -1.53, 'pres': 189}
{'lipoC2': 7.46, 'lipoC3S1': 4.06, 'temp': 30.5, 'lipoC3S3': 12.27, 'lipoC3S2': 8.12, 'rot1': 536, 'rot0': 532, 'rot3': 326, 'rot2': 284, 'state': 'normal', 'yaw': -81.47, 'datetime': '2018-10-09 12:47:15.689416', 'mgs': 0, 'volt': 0.9229, 'depth': 1.92, 'time': 120, 'pitch': 0.51, 'roll': -1.61, 'pres': 189}
{'lipoC2': 7.46, 'lipoC3S1': 4.06, 'temp': 30.56, 'lipoC3S3': 12.27, 'lipoC3S2': 8.12, 'rot1': 536, 'rot0': 532, 'rot3': 326, 'rot2': 284, 'state': 'normal', 'yaw': -81.75, 'datetime': '2018-10-09 12:47:15.700097', 'mgs': 0, 'volt': 0.9229, 'depth': 1.92, 'time': 120, 'pitch': 0.0, 'roll': -1.57, 'pres': 189}
{'lipoC2': 7.46, 'lipoC3S1': 4.06, 'temp': 30.56, 'lipoC3S3': 12.27, 'lipoC3S2': 8.12, 'rot1': 536, 'rot0': 532, 'rot3': 326, 'rot2': 284, 'state': 'normal', 'yaw': -82.03, 'datetime': '2018-10-09 12:47:15.710463', 'mgs': 0, 'volt': 0.9229, 'depth': 1.92, 'time': 120, 'pitch': -0.3, 'roll': -1.37, 'pres': 189}
{'lipoC2': 7.46, 'lipoC3S1': 4.06, 'temp': 30.56, 'lipoC3S3': 12.26, 'lipoC3S2': 8.12, 'rot1': 536, 'rot0': 532, 'rot3': 326, 'rot2': 284, 'state': 'normal', 'yaw': -82.35, 'datetime': '2018-10-09 12:47:15.720885', 'mgs': 0, 'volt': 0.918, 'depth': 1.843, 'time': 120, 'pitch': -0.35, 'roll': -1.05, 'pres': 188}
{'lipoC2': 7.46, 'lipoC3S1': 4.06, 'temp': 30.56, 'lipoC3S3': 12.27, 'lipoC3S2': 8.12, 'rot1': 536, 'rot0': 532, 'rot3': 326, 'rot2': 284, 'state': 'normal', 'yaw': -82.64, 'datetime': '2018-10-09 12:47:15.731248', 'mgs': 0, 'volt': 0.9229, 'depth': 1.92, 'time': 120, 'pitch': -0.21, 'roll': -0.79, 'pres': 189}
{'lipoC2': 7.46, 'lipoC3S1': 4.06, 'temp': 30.56, 'lipoC3S3': 12.26, 'lipoC3S2': 8.12, 'rot1': 536, 'rot0': 532, 'rot3': 326, 'rot2': 284, 'state': 'normal', 'yaw': -82.97, 'datetime': '2018-10-09 12:47:15.741706', 'mgs': 0, 'volt': 0.9229, 'depth': 1.92, 'time': 120, 'pitch': -0.03, 'roll': -0.72, 'pres': 189}
{'lipoC2': 7.46, 'lipoC3S1': 4.06, 'temp': 30.56, 'lipoC3S3': 12.27, 'lipoC3S2': 8.12, 'rot1': 536, 'rot0': 532, 'rot3': 326, 'rot2': 284, 'state': 'normal', 'yaw': -83.25, 'datetime': '2018-10-09 12:47:15.752210', 'mgs': 0, 'volt': 0.9229, 'depth': 1.92, 'time': 121, 'pitch': 0.16, 'roll': -0.81, 'pres': 189}
{'lipoC2': 7.46, 'lipoC3S1': 4.06, 'temp': 30.56, 'lipoC3S3': 12.27, 'lipoC3S2': 8.12, 'rot1': 536, 'rot0': 532, 'rot3': 326, 'rot2': 284, 'state': 'normal', 'yaw': -83.55, 'datetime': '2018-10-09 12:47:15.762774', 'mgs': 0, 'volt': 0.9229, 'depth': 1.92, 'time': 121, 'pitch': 0.37, 'roll': -0.97, 'pres': 189}
{'lipoC2': 7.46, 'lipoC3S1': 4.06, 'temp': 30.56, 'lipoC3S3': 12.27, 'lipoC3S2': 8.12, 'rot1': 536, 'rot0': 532, 'rot3': 326, 'rot2': 284, 'state': 'normal', 'yaw': -83.81, 'datetime': '2018-10-09 12:47:15.773161', 'mgs': 0, 'volt': 0.9229, 'depth': 1.92, 'time': 121, 'pitch': 0.46, 'roll': -0.95, 'pres': 189}
{'lipoC2': 7.46, 'lipoC3S1': 4.06, 'temp': 30.56, 'lipoC3S3': 12.27, 'lipoC3S2': 8.12, 'rot1': 536, 'rot0': 532, 'rot3': 326, 'rot2': 284, 'state': 'normal', 'yaw': -84.07, 'datetime': '2018-10-09 12:47:15.783616', 'mgs': 0, 'volt': 0.9229, 'depth': 1.92, 'time': 121, 'pitch': 0.47, 'roll': -0.76, 'pres': 189}
{'lipoC2': 7.46, 'lipoC3S1': 4.06, 'temp': 30.56, 'lipoC3S3': 12.27, 'lipoC3S2': 8.12, 'rot1': 536, 'rot0': 532, 'rot3': 326, 'rot2': 284, 'state': 'normal', 'yaw': -84.38, 'datetime': '2018-10-09 12:47:15.793974', 'mgs': 0, 'volt': 0.9229, 'depth': 1.92, 'time': 121, 'pitch': 0.44, 'roll': -0.46, 'pres': 189}
{'lipoC2': 7.46, 'lipoC3S1': 4.06, 'temp': 30.56, 'lipoC3S3': 12.27, 'lipoC3S2': 8.12, 'rot1': 536, 'rot0': 532, 'rot3': 326, 'rot2': 284, 'state': 'normal', 'yaw': -84.66, 'datetime': '2018-10-09 12:47:15.804486', 'mgs': 0, 'volt': 0.9229, 'depth': 1.92, 'time': 121, 'pitch': 0.41, 'roll': -0.22, 'pres': 189}
{'lipoC2': 7.46, 'lipoC3S1': 4.06, 'temp': 30.56, 'lipoC3S3': 12.27, 'lipoC3S2': 8.12, 'rot1': 536, 'rot0': 532, 'rot3': 326, 'rot2': 284, 'state': 'normal', 'yaw': -84.97, 'datetime': '2018-10-09 12:47:15.815364', 'mgs': 0, 'volt': 0.9229, 'depth': 1.92, 'time': 121, 'pitch': 0.4, 'roll': -0.14, 'pres': 189}
{'lipoC2': 7.46, 'lipoC3S1': 4.06, 'temp': 30.56, 'lipoC3S3': 12.26, 'lipoC3S2': 8.12, 'rot1': 536, 'rot0': 532, 'rot3': 326, 'rot2': 284, 'state': 'normal', 'yaw': -85.26, 'datetime': '2018-10-09 12:47:15.825876', 'mgs': 0, 'volt': 0.9229, 'depth': 1.92, 'time': 121, 'pitch': 0.39, 'roll': -0.25, 'pres': 189}
{'lipoC2': 7.46, 'lipoC3S1': 4.06, 'temp': 30.56, 'lipoC3S3': 12.27, 'lipoC3S2': 8.12, 'rot1': 536, 'rot0': 532, 'rot3': 326, 'rot2': 284, 'state': 'normal', 'yaw': -85.51, 'datetime': '2018-10-09 12:47:15.836243', 'mgs': 0, 'volt': 0.9229, 'depth': 1.92, 'time': 121, 'pitch': 0.38, 'roll': -0.51, 'pres': 189}
{'lipoC2': 7.46, 'lipoC3S1': 4.06, 'temp': 30.56, 'lipoC3S3': 12.27, 'lipoC3S2': 8.12, 'rot1': 536, 'rot0': 532, 'rot3': 326, 'rot2': 284, 'state': 'normal', 'yaw': -85.79, 'datetime': '2018-10-09 12:47:15.846751', 'mgs': 0, 'volt': 0.9229, 'depth': 1.92, 'time': 121, 'pitch': 0.45, 'roll': -0.78, 'pres': 189}
{'lipoC2': 7.46, 'lipoC3S1': 4.06, 'temp': 30.56, 'lipoC3S3': 12.27, 'lipoC3S2': 8.12, 'rot1': 536, 'rot0': 532, 'rot3': 326, 'rot2': 284, 'state': 'normal', 'yaw': -86.03, 'datetime': '2018-10-09 12:47:15.857120', 'mgs': 0, 'volt': 0.9229, 'depth': 1.92, 'time': 122, 'pitch': 0.54, 'roll': -0.9, 'pres': 189}
{'lipoC2': 7.46, 'lipoC3S1': 4.06, 'temp': 30.56, 'lipoC3S3': 12.26, 'lipoC3S2': 8.12, 'rot1': 536, 'rot0': 532, 'rot3': 326, 'rot2': 284, 'state': 'normal', 'yaw': -86.31, 'datetime': '2018-10-09 12:47:15.867483', 'mgs': 0, 'volt': 0.9229, 'depth': 1.92, 'time': 122, 'pitch': 0.69, 'roll': -0.88, 'pres': 189}
{'lipoC2': 7.46, 'lipoC3S1': 4.06, 'temp': 30.56, 'lipoC3S3': 12.27, 'lipoC3S2': 8.12, 'rot1': 536, 'rot0': 532, 'rot3': 326, 'rot2': 284, 'state': 'normal', 'yaw': -86.59, 'datetime': '2018-10-09 12:47:15.877843', 'mgs': 0, 'volt': 0.9229, 'depth': 1.92, 'time': 122, 'pitch': 0.76, 'roll': -0.77, 'pres': 189}
{'lipoC2': 7.46, 'lipoC3S1': 4.06, 'temp': 30.56, 'lipoC3S3': 12.27, 'lipoC3S2': 8.12, 'rot1': 536, 'rot0': 532, 'rot3': 326, 'rot2': 284, 'state': 'normal', 'yaw': -86.88, 'datetime': '2018-10-09 12:47:15.888181', 'mgs': 0, 'volt': 0.9229, 'depth': 1.92, 'time': 122, 'pitch': 0.76, 'roll': -0.72, 'pres': 189}
{'lipoC2': 7.46, 'lipoC3S1': 4.06, 'temp': 30.56, 'lipoC3S3': 12.27, 'lipoC3S2': 8.12, 'rot1': 536, 'rot0': 532, 'rot3': 326, 'rot2': 284, 'state': 'normal', 'yaw': -87.15, 'datetime': '2018-10-09 12:47:15.898539', 'mgs': 0, 'volt': 0.9229, 'depth': 1.92, 'time': 122, 'pitch': 0.66, 'roll': -0.84, 'pres': 189}
{'lipoC2': 7.46, 'lipoC3S1': 4.06, 'temp': 30.56, 'lipoC3S3': 12.27, 'lipoC3S2': 8.12, 'rot1': 536, 'rot0': 532, 'rot3': 326, 'rot2': 284, 'state': 'normal', 'yaw': -87.38, 'datetime': '2018-10-09 12:47:15.908868', 'mgs': 0, 'volt': 0.9229, 'depth': 1.92, 'time': 122, 'pitch': 0.51, 'roll': -1.17, 'pres': 189}
{'lipoC2': 7.46, 'lipoC3S1': 4.06, 'temp': 30.5, 'lipoC3S3': 12.26, 'lipoC3S2': 8.12, 'rot1': 536, 'rot0': 532, 'rot3': 326, 'rot2': 284, 'state': 'normal', 'yaw': -87.64, 'datetime': '2018-10-09 12:47:15.919188', 'mgs': 0, 'volt': 0.9229, 'depth': 1.92, 'time': 122, 'pitch': 0.44, 'roll': -1.63, 'pres': 189}
{'lipoC2': 7.46, 'lipoC3S1': 4.06, 'temp': 30.5, 'lipoC3S3': 12.27, 'lipoC3S2': 8.12, 'rot1': 536, 'rot0': 532, 'rot3': 326, 'rot2': 284, 'state': 'normal', 'yaw': -87.89, 'datetime': '2018-10-09 12:47:15.929521', 'mgs': 0, 'volt': 0.9229, 'depth': 1.92, 'time': 122, 'pitch': 0.46, 'roll': -1.83, 'pres': 189}
{'lipoC2': 7.46, 'lipoC3S1': 4.06, 'temp': 30.56, 'lipoC3S3': 12.27, 'lipoC3S2': 8.12, 'rot1': 536, 'rot0': 532, 'rot3': 326, 'rot2': 284, 'state': 'normal', 'yaw': -88.18, 'datetime': '2018-10-09 12:47:15.939899', 'mgs': 0, 'volt': 0.9229, 'depth': 1.92, 'time': 122, 'pitch': 0.58, 'roll': -1.74, 'pres': 189}
{'lipoC2': 7.46, 'lipoC3S1': 4.06, 'temp': 30.56, 'lipoC3S3': 12.27, 'lipoC3S2': 8.12, 'rot1': 536, 'rot0': 532, 'rot3': 326, 'rot2': 284, 'state': 'normal', 'yaw': -88.44, 'datetime': '2018-10-09 12:47:15.950249', 'mgs': 0, 'volt': 0.9229, 'depth': 1.92, 'time': 123, 'pitch': 0.67, 'roll': -1.49, 'pres': 189}
{'lipoC2': 7.46, 'lipoC3S1': 4.06, 'temp': 30.56, 'lipoC3S3': 12.27, 'lipoC3S2': 8.12, 'rot1': 536, 'rot0': 532, 'rot3': 326, 'rot2': 284, 'state': 'normal', 'yaw': -88.74, 'datetime': '2018-10-09 12:47:15.960611', 'mgs': 0, 'volt': 0.9229, 'depth': 1.92, 'time': 123, 'pitch': 0.64, 'roll': -1.13, 'pres': 189}
{'lipoC2': 7.46, 'lipoC3S1': 4.06, 'temp': 30.56, 'lipoC3S3': 12.27, 'lipoC3S2': 8.12, 'rot1': 536, 'rot0': 532, 'rot3': 326, 'rot2': 284, 'state': 'normal', 'yaw': -89.02, 'datetime': '2018-10-09 12:47:15.970976', 'mgs': 0, 'volt': 0.9229, 'depth': 1.92, 'time': 123, 'pitch': 0.49, 'roll': -0.85, 'pres': 189}
{'lipoC2': 7.46, 'lipoC3S1': 4.06, 'temp': 30.56, 'lipoC3S3': 12.27, 'lipoC3S2': 8.12, 'rot1': 536, 'rot0': 532, 'rot3': 326, 'rot2': 284, 'state': 'normal', 'yaw': -89.3, 'datetime': '2018-10-09 12:47:15.981528', 'mgs': 0, 'volt': 0.9229, 'depth': 1.92, 'time': 123, 'pitch': 0.3, 'roll': -0.71, 'pres': 189}
{'lipoC2': 7.46, 'lipoC3S1': 4.06, 'temp': 30.56, 'lipoC3S3': 12.26, 'lipoC3S2': 8.12, 'rot1': 536, 'rot0': 532, 'rot3': 326, 'rot2': 284, 'state': 'normal', 'yaw': -89.6, 'datetime': '2018-10-09 12:47:15.991905', 'mgs': 0, 'volt': 0.9229, 'depth': 1.92, 'time': 123, 'pitch': 0.21, 'roll': -0.7, 'pres': 189}
{'lipoC2': 7.46, 'lipoC3S1': 4.06, 'temp': 30.56, 'lipoC3S3': 12.27, 'lipoC3S2': 8.11, 'rot1': 536, 'rot0': 532, 'rot3': 326, 'rot2': 284, 'state': 'normal', 'yaw': -89.86, 'datetime': '2018-10-09 12:47:16.002223', 'mgs': 0, 'volt': 0.9229, 'depth': 1.92, 'time': 123, 'pitch': 0.21, 'roll': -0.67, 'pres': 189}
{'lipoC2': 7.46, 'lipoC3S1': 4.06, 'temp': 30.56, 'lipoC3S3': 12.26, 'lipoC3S2': 8.12, 'rot1': 536, 'rot0': 532, 'rot3': 326, 'rot2': 284, 'state': 'normal', 'yaw': -90.14, 'datetime': '2018-10-09 12:47:16.012549', 'mgs': 0, 'volt': 0.9229, 'depth': 1.92, 'time': 123, 'pitch': 0.3, 'roll': -0.56, 'pres': 189}
{'lipoC2': 7.46, 'lipoC3S1': 4.06, 'temp': 30.56, 'lipoC3S3': 12.26, 'lipoC3S2': 8.12, 'rot1': 536, 'rot0': 532, 'rot3': 326, 'rot2': 284, 'state': 'normal', 'yaw': -90.41, 'datetime': '2018-10-09 12:47:16.022894', 'mgs': 0, 'volt': 0.9229, 'depth': 1.92, 'time': 123, 'pitch': 0.33, 'roll': -0.45, 'pres': 189}
{'lipoC2': 7.46, 'lipoC3S1': 4.06, 'temp': 30.56, 'lipoC3S3': 12.27, 'lipoC3S2': 8.12, 'rot1': 536, 'rot0': 532, 'rot3': 326, 'rot2': 284, 'state': 'normal', 'yaw': -90.68, 'datetime': '2018-10-09 12:47:16.033247', 'mgs': 0, 'volt': 0.9229, 'depth': 1.92, 'time': 123, 'pitch': 0.25, 'roll': -0.42, 'pres': 189}
{'lipoC2': 7.46, 'lipoC3S1': 4.06, 'temp': 30.56, 'lipoC3S3': 12.26, 'lipoC3S2': 8.12, 'rot1': 536, 'rot0': 532, 'rot3': 326, 'rot2': 284, 'state': 'normal', 'yaw': -90.95, 'datetime': '2018-10-09 12:47:16.043605', 'mgs': 0, 'volt': 0.9277, 'depth': 1.996, 'time': 123, 'pitch': 0.07, 'roll': -0.47, 'pres': 190}
{'lipoC2': 7.46, 'lipoC3S1': 4.06, 'temp': 30.56, 'lipoC3S3': 12.26, 'lipoC3S2': 8.12, 'rot1': 536, 'rot0': 532, 'rot3': 326, 'rot2': 284, 'state': 'normal', 'yaw': -91.19, 'datetime': '2018-10-09 12:47:16.053964', 'mgs': 0, 'volt': 0.9229, 'depth': 1.92, 'time': 124, 'pitch': -0.05, 'roll': -0.49, 'pres': 189}
{'lipoC2': 7.46, 'lipoC3S1': 4.06, 'temp': 30.56, 'lipoC3S3': 12.26, 'lipoC3S2': 8.12, 'rot1': 536, 'rot0': 532, 'rot3': 326, 'rot2': 284, 'state': 'normal', 'yaw': -91.44, 'datetime': '2018-10-09 12:47:16.064331', 'mgs': 0, 'volt': 0.9229, 'depth': 1.92, 'time': 124, 'pitch': -0.01, 'roll': -0.41, 'pres': 189}
{'lipoC2': 7.46, 'lipoC3S1': 4.06, 'temp': 30.56, 'lipoC3S3': 12.27, 'lipoC3S2': 8.11, 'rot1': 536, 'rot0': 532, 'rot3': 326, 'rot2': 284, 'state': 'normal', 'yaw': -91.68, 'datetime': '2018-10-09 12:47:16.074684', 'mgs': 0, 'volt': 0.9229, 'depth': 1.92, 'time': 124, 'pitch': 0.23, 'roll': -0.25, 'pres': 189}
{'lipoC2': 7.46, 'lipoC3S1': 4.06, 'temp': 30.5, 'lipoC3S3': 12.26, 'lipoC3S2': 8.12, 'rot1': 536, 'rot0': 532, 'rot3': 326, 'rot2': 284, 'state': 'normal', 'yaw': -91.97, 'datetime': '2018-10-09 12:47:16.085102', 'mgs': 0, 'volt': 0.9229, 'depth': 1.92, 'time': 124, 'pitch': 0.55, 'roll': -0.13, 'pres': 189}
{'lipoC2': 7.46, 'lipoC3S1': 4.06, 'temp': 30.5, 'lipoC3S3': 12.27, 'lipoC3S2': 8.12, 'rot1': 536, 'rot0': 532, 'rot3': 326, 'rot2': 284, 'state': 'normal', 'yaw': -92.29, 'datetime': '2018-10-09 12:47:16.095457', 'mgs': 0, 'volt': 0.9229, 'depth': 1.92, 'time': 124, 'pitch': 0.75, 'roll': -0.06, 'pres': 189}
{'lipoC2': 7.46, 'lipoC3S1': 4.06, 'temp': 30.5, 'lipoC3S3': 12.27, 'lipoC3S2': 8.12, 'rot1': 536, 'rot0': 532, 'rot3': 326, 'rot2': 284, 'state': 'normal', 'yaw': -92.69, 'datetime': '2018-10-09 12:47:16.105808', 'mgs': 0, 'volt': 0.918, 'depth': 1.843, 'time': 124, 'pitch': 0.72, 'roll': -0.08, 'pres': 188}
{'lipoC2': 7.46, 'lipoC3S1': 4.06, 'temp': 30.5, 'lipoC3S3': 12.27, 'lipoC3S2': 8.12, 'rot1': 536, 'rot0': 532, 'rot3': 326, 'rot2': 284, 'state': 'normal', 'yaw': -93.26, 'datetime': '2018-10-09 12:47:16.116362', 'mgs': 0, 'volt': 0.9229, 'depth': 1.92, 'time': 124, 'pitch': 0.42, 'roll': -0.2, 'pres': 189}
{'lipoC2': 7.46, 'lipoC3S1': 4.06, 'temp': 30.5, 'lipoC3S3': 12.26, 'lipoC3S2': 8.12, 'rot1': 536, 'rot0': 532, 'rot3': 326, 'rot2': 284, 'state': 'normal', 'yaw': -93.77, 'datetime': '2018-10-09 12:47:16.126735', 'mgs': 0, 'volt': 0.9229, 'depth': 1.92, 'time': 124, 'pitch': 0.54, 'roll': -0.35, 'pres': 189}
{'lipoC2': 7.46, 'lipoC3S1': 4.06, 'temp': 30.5, 'lipoC3S3': 12.27, 'lipoC3S2': 8.12, 'rot1': 536, 'rot0': 532, 'rot3': 326, 'rot2': 284, 'state': 'normal', 'yaw': -93.08, 'datetime': '2018-10-09 12:47:16.137085', 'mgs': 0, 'volt': 0.9277, 'depth': 1.996, 'time': 124, 'pitch': 1.34, 'roll': -1.01, 'pres': 190}
{'lipoC2': 7.46, 'lipoC3S1': 4.06, 'temp': 30.5, 'lipoC3S3': 12.26, 'lipoC3S2': 8.12, 'rot1': 536, 'rot0': 532, 'rot3': 326, 'rot2': 284, 'state': 'normal', 'yaw': -90.29, 'datetime': '2018-10-09 12:47:16.147459', 'mgs': 0, 'volt': 0.9229, 'depth': 1.92, 'time': 125, 'pitch': 2.07, 'roll': -2.87, 'pres': 189}
{'lipoC2': 7.46, 'lipoC3S1': 4.06, 'temp': 30.56, 'lipoC3S3': 12.27, 'lipoC3S2': 8.12, 'rot1': 536, 'rot0': 532, 'rot3': 326, 'rot2': 284, 'state': 'normal', 'yaw': -86.18, 'datetime': '2018-10-09 12:47:16.157801', 'mgs': 0, 'volt': 0.9229, 'depth': 1.92, 'time': 125, 'pitch': 2.81, 'roll': -5.54, 'pres': 189}
{'lipoC2': 7.46, 'lipoC3S1': 4.06, 'temp': 30.56, 'lipoC3S3': 12.27, 'lipoC3S2': 8.12, 'rot1': 536, 'rot0': 532, 'rot3': 326, 'rot2': 284, 'state': 'normal', 'yaw': -80.76, 'datetime': '2018-10-09 12:47:16.168166', 'mgs': 0, 'volt': 0.918, 'depth': 1.843, 'time': 125, 'pitch': 3.3, 'roll': -8.67, 'pres': 188}
{'lipoC2': 7.46, 'lipoC3S1': 4.06, 'temp': 30.56, 'lipoC3S3': 12.27, 'lipoC3S2': 8.12, 'rot1': 536, 'rot0': 532, 'rot3': 326, 'rot2': 284, 'state': 'normal', 'yaw': -75.86, 'datetime': '2018-10-09 12:47:16.178576', 'mgs': 0, 'volt': 0.918, 'depth': 1.843, 'time': 125, 'pitch': 3.6, 'roll': -10.95, 'pres': 188}
{'lipoC2': 7.46, 'lipoC3S1': 4.06, 'temp': 30.56, 'lipoC3S3': 12.26, 'lipoC3S2': 8.12, 'rot1': 536, 'rot0': 532, 'rot3': 326, 'rot2': 284, 'state': 'normal', 'yaw': -70.85, 'datetime': '2018-10-09 12:47:16.188969', 'mgs': 0, 'volt': 0.918, 'depth': 1.843, 'time': 125, 'pitch': 3.71, 'roll': -12.51, 'pres': 188}
{'lipoC2': 7.46, 'lipoC3S1': 4.06, 'temp': 30.56, 'lipoC3S3': 12.26, 'lipoC3S2': 8.12, 'rot1': 536, 'rot0': 532, 'rot3': 326, 'rot2': 284, 'state': 'normal', 'yaw': -67.21, 'datetime': '2018-10-09 12:47:16.199329', 'mgs': 0, 'volt': 0.9229, 'depth': 1.92, 'time': 125, 'pitch': 3.38, 'roll': -12.66, 'pres': 189}
{'lipoC2': 7.46, 'lipoC3S1': 4.06, 'temp': 30.56, 'lipoC3S3': 12.27, 'lipoC3S2': 8.12, 'rot1': 536, 'rot0': 532, 'rot3': 326, 'rot2': 284, 'state': 'normal', 'yaw': -64.2, 'datetime': '2018-10-09 12:47:16.209690', 'mgs': 0, 'volt': 0.9229, 'depth': 1.92, 'time': 125, 'pitch': 3.01, 'roll': -11.23, 'pres': 189}
{'lipoC2': 7.46, 'lipoC3S1': 4.06, 'temp': 30.56, 'lipoC3S3': 12.27, 'lipoC3S2': 8.12, 'rot1': 536, 'rot0': 532, 'rot3': 326, 'rot2': 284, 'state': 'normal', 'yaw': -61.77, 'datetime': '2018-10-09 12:47:16.220090', 'mgs': 0, 'volt': 0.9277, 'depth': 1.996, 'time': 125, 'pitch': 2.74, 'roll': -9.02, 'pres': 190}
{'lipoC2': 7.46, 'lipoC3S1': 4.06, 'temp': 30.56, 'lipoC3S3': 12.26, 'lipoC3S2': 8.12, 'rot1': 536, 'rot0': 532, 'rot3': 326, 'rot2': 284, 'state': 'normal', 'yaw': -59.36, 'datetime': '2018-10-09 12:47:16.230491', 'mgs': 0, 'volt': 0.9326, 'depth': 2.072, 'time': 125, 'pitch': 2.42, 'roll': -6.48, 'pres': 191}
{'lipoC2': 7.46, 'lipoC3S1': 4.06, 'temp': 30.56, 'lipoC3S3': 12.27, 'lipoC3S2': 8.12, 'rot1': 536, 'rot0': 532, 'rot3': 326, 'rot2': 284, 'state': 'normal', 'yaw': -56.81, 'datetime': '2018-10-09 12:47:16.240868', 'mgs': 0, 'volt': 0.9375, 'depth': 2.148, 'time': 125, 'pitch': 2.22, 'roll': -3.54, 'pres': 192}
{'lipoC2': 7.46, 'lipoC3S1': 4.06, 'temp': 30.56, 'lipoC3S3': 12.27, 'lipoC3S2': 8.12, 'rot1': 536, 'rot0': 532, 'rot3': 326, 'rot2': 284, 'state': 'normal', 'yaw': -54.44, 'datetime': '2018-10-09 12:47:16.251424', 'mgs': 0, 'volt': 0.9424, 'depth': 2.225, 'time': 126, 'pitch': 2.07, 'roll': -0.91, 'pres': 193}
{'lipoC2': 7.46, 'lipoC3S1': 4.06, 'temp': 30.56, 'lipoC3S3': 12.27, 'lipoC3S2': 8.12, 'rot1': 536, 'rot0': 532, 'rot3': 326, 'rot2': 284, 'state': 'normal', 'yaw': -51.71, 'datetime': '2018-10-09 12:47:16.261782', 'mgs': 0, 'volt': 0.9424, 'depth': 2.225, 'time': 126, 'pitch': 1.77, 'roll': 1.74, 'pres': 193}
{'lipoC2': 7.46, 'lipoC3S1': 4.06, 'temp': 30.56, 'lipoC3S3': 12.26, 'lipoC3S2': 8.12, 'rot1': 536, 'rot0': 532, 'rot3': 326, 'rot2': 284, 'state': 'normal', 'yaw': -49.02, 'datetime': '2018-10-09 12:47:16.272164', 'mgs': 0, 'volt': 0.9473, 'depth': 2.301, 'time': 126, 'pitch': 1.31, 'roll': 3.73, 'pres': 194}
{'lipoC2': 7.46, 'lipoC3S1': 4.06, 'temp': 30.56, 'lipoC3S3': 12.27, 'lipoC3S2': 8.12, 'rot1': 536, 'rot0': 532, 'rot3': 326, 'rot2': 284, 'state': 'normal', 'yaw': -46.17, 'datetime': '2018-10-09 12:47:16.282541', 'mgs': 0, 'volt': 0.9521, 'depth': 2.377, 'time': 126, 'pitch': 0.56, 'roll': 5.18, 'pres': 195}
{'lipoC2': 7.46, 'lipoC3S1': 4.06, 'temp': 30.56, 'lipoC3S3': 12.27, 'lipoC3S2': 8.12, 'rot1': 536, 'rot0': 532, 'rot3': 326, 'rot2': 284, 'state': 'normal', 'yaw': -43.02, 'datetime': '2018-10-09 12:47:16.292951', 'mgs': 0, 'volt': 0.9521, 'depth': 2.377, 'time': 126, 'pitch': -0.31, 'roll': 6.13, 'pres': 195}
{'lipoC2': 7.46, 'lipoC3S1': 4.06, 'temp': 30.56, 'lipoC3S3': 12.27, 'lipoC3S2': 8.12, 'rot1': 536, 'rot0': 532, 'rot3': 326, 'rot2': 284, 'state': 'normal', 'yaw': -40.23, 'datetime': '2018-10-09 12:47:16.303337', 'mgs': 0, 'volt': 0.9521, 'depth': 2.377, 'time': 126, 'pitch': -0.84, 'roll': 6.42, 'pres': 195}
{'lipoC2': 7.46, 'lipoC3S1': 4.06, 'temp': 30.56, 'lipoC3S3': 12.27, 'lipoC3S2': 8.12, 'rot1': 536, 'rot0': 532, 'rot3': 326, 'rot2': 284, 'state': 'normal', 'yaw': -37.42, 'datetime': '2018-10-09 12:47:16.313749', 'mgs': 0, 'volt': 0.957, 'depth': 2.454, 'time': 126, 'pitch': -1.04, 'roll': 6.33, 'pres': 196}
{'lipoC2': 7.46, 'lipoC3S1': 4.06, 'temp': 30.56, 'lipoC3S3': 12.26, 'lipoC3S2': 8.12, 'rot1': 536, 'rot0': 532, 'rot3': 326, 'rot2': 284, 'state': 'normal', 'yaw': -35.23, 'datetime': '2018-10-09 12:47:16.324114', 'mgs': 0, 'volt': 0.957, 'depth': 2.454, 'time': 126, 'pitch': -0.87, 'roll': 6.03, 'pres': 196}
{'lipoC2': 7.46, 'lipoC3S1': 4.06, 'temp': 30.56, 'lipoC3S3': 12.26, 'lipoC3S2': 8.12, 'rot1': 536, 'rot0': 532, 'rot3': 326, 'rot2': 284, 'state': 'normal', 'yaw': -33.34, 'datetime': '2018-10-09 12:47:16.334452', 'mgs': 0, 'volt': 0.957, 'depth': 2.454, 'time': 126, 'pitch': -0.3, 'roll': 5.67, 'pres': 196}
{'lipoC2': 7.46, 'lipoC3S1': 4.06, 'temp': 30.56, 'lipoC3S3': 12.27, 'lipoC3S2': 8.12, 'rot1': 536, 'rot0': 532, 'rot3': 326, 'rot2': 284, 'state': 'normal', 'yaw': -31.86, 'datetime': '2018-10-09 12:47:16.344860', 'mgs': 0, 'volt': 0.9619, 'depth': 2.53, 'time': 126, 'pitch': 0.64, 'roll': 5.34, 'pres': 197}
{'lipoC2': 7.46, 'lipoC3S1': 4.06, 'temp': 30.56, 'lipoC3S3': 12.27, 'lipoC3S2': 8.12, 'rot1': 536, 'rot0': 532, 'rot3': 326, 'rot2': 284, 'state': 'normal', 'yaw': -31.1, 'datetime': '2018-10-09 12:47:16.355291', 'mgs': 0, 'volt': 0.9619, 'depth': 2.53, 'time': 127, 'pitch': 1.86, 'roll': 5.16, 'pres': 197}
{'lipoC2': 7.46, 'lipoC3S1': 4.06, 'temp': 30.56, 'lipoC3S3': 12.27, 'lipoC3S2': 8.12, 'rot1': 536, 'rot0': 532, 'rot3': 326, 'rot2': 284, 'state': 'normal', 'yaw': -30.56, 'datetime': '2018-10-09 12:47:16.365637', 'mgs': 0, 'volt': 0.9668, 'depth': 2.606, 'time': 127, 'pitch': 3.56, 'roll': 4.85, 'pres': 198}
{'lipoC2': 7.46, 'lipoC3S1': 4.06, 'temp': 30.56, 'lipoC3S3': 12.27, 'lipoC3S2': 8.12, 'rot1': 536, 'rot0': 532, 'rot3': 326, 'rot2': 284, 'state': 'normal', 'yaw': -30.05, 'datetime': '2018-10-09 12:47:16.375991', 'mgs': 0, 'volt': 0.9668, 'depth': 2.606, 'time': 127, 'pitch': 5.0, 'roll': 4.24, 'pres': 198}
{'lipoC2': 7.46, 'lipoC3S1': 4.06, 'temp': 30.56, 'lipoC3S3': 12.26, 'lipoC3S2': 8.12, 'rot1': 536, 'rot0': 532, 'rot3': 326, 'rot2': 284, 'state': 'normal', 'yaw': -29.52, 'datetime': '2018-10-09 12:47:16.386545', 'mgs': 0, 'volt': 0.9717, 'depth': 2.682, 'time': 127, 'pitch': 6.59, 'roll': 3.23, 'pres': 199}
{'lipoC2': 7.46, 'lipoC3S1': 4.06, 'temp': 30.56, 'lipoC3S3': 12.27, 'lipoC3S2': 8.12, 'rot1': 536, 'rot0': 532, 'rot3': 326, 'rot2': 284, 'state': 'normal', 'yaw': -29.42, 'datetime': '2018-10-09 12:47:16.396939', 'mgs': 0, 'volt': 0.9717, 'depth': 2.682, 'time': 127, 'pitch': 8.12, 'roll': 2.28, 'pres': 199}
{'lipoC2': 7.46, 'lipoC3S1': 4.06, 'temp': 30.56, 'lipoC3S3': 12.27, 'lipoC3S2': 8.12, 'rot1': 536, 'rot0': 532, 'rot3': 326, 'rot2': 284, 'state': 'normal', 'yaw': -29.05, 'datetime': '2018-10-09 12:47:16.407315', 'mgs': 0, 'volt': 0.9717, 'depth': 2.682, 'time': 127, 'pitch': 9.35, 'roll': 1.22, 'pres': 199}
{'lipoC2': 7.46, 'lipoC3S1': 4.06, 'temp': 30.5, 'lipoC3S3': 12.26, 'lipoC3S2': 8.12, 'rot1': 536, 'rot0': 532, 'rot3': 326, 'rot2': 284, 'state': 'normal', 'yaw': -28.3, 'datetime': '2018-10-09 12:47:16.417670', 'mgs': 0, 'volt': 0.9717, 'depth': 2.682, 'time': 127, 'pitch': 9.79, 'roll': 0.11, 'pres': 199}
{'lipoC2': 7.46, 'lipoC3S1': 4.06, 'temp': 30.5, 'lipoC3S3': 12.26, 'lipoC3S2': 8.12, 'rot1': 536, 'rot0': 532, 'rot3': 326, 'rot2': 284, 'state': 'normal', 'yaw': -26.83, 'datetime': '2018-10-09 12:47:16.428037', 'mgs': 0, 'volt': 0.9766, 'depth': 2.759, 'time': 127, 'pitch': 9.0, 'roll': -0.81, 'pres': 200}
{'lipoC2': 7.46, 'lipoC3S1': 4.06, 'temp': 30.5, 'lipoC3S3': 12.27, 'lipoC3S2': 8.12, 'rot1': 536, 'rot0': 532, 'rot3': 326, 'rot2': 284, 'state': 'normal', 'yaw': -24.1, 'datetime': '2018-10-09 12:47:16.438392', 'mgs': 0, 'volt': 0.9717, 'depth': 2.682, 'time': 127, 'pitch': 7.99, 'roll': -1.73, 'pres': 199}
{'lipoC2': 7.46, 'lipoC3S1': 4.06, 'temp': 30.56, 'lipoC3S3': 12.27, 'lipoC3S2': 8.12, 'rot1': 536, 'rot0': 532, 'rot3': 326, 'rot2': 284, 'state': 'normal', 'yaw': -21.52, 'datetime': '2018-10-09 12:47:16.448849', 'mgs': 0, 'volt': 0.9717, 'depth': 2.682, 'time': 128, 'pitch': 7.56, 'roll': -2.24, 'pres': 199}
{'lipoC2': 7.46, 'lipoC3S1': 4.06, 'temp': 30.56, 'lipoC3S3': 12.27, 'lipoC3S2': 8.12, 'rot1': 536, 'rot0': 532, 'rot3': 326, 'rot2': 284, 'state': 'normal', 'yaw': -19.04, 'datetime': '2018-10-09 12:47:16.459180', 'mgs': 0, 'volt': 0.9668, 'depth': 2.606, 'time': 128, 'pitch': 7.67, 'roll': -2.12, 'pres': 198}
{'lipoC2': 7.46, 'lipoC3S1': 4.06, 'temp': 30.5, 'lipoC3S3': 12.27, 'lipoC3S2': 8.12, 'rot1': 536, 'rot0': 532, 'rot3': 326, 'rot2': 284, 'state': 'normal', 'yaw': -17.08, 'datetime': '2018-10-09 12:47:16.469654', 'mgs': 0, 'volt': 0.9668, 'depth': 2.606, 'time': 128, 'pitch': 7.62, 'roll': -1.66, 'pres': 198}
{'lipoC2': 7.46, 'lipoC3S1': 4.06, 'temp': 30.5, 'lipoC3S3': 12.26, 'lipoC3S2': 8.12, 'rot1': 536, 'rot0': 532, 'rot3': 326, 'rot2': 284, 'state': 'normal', 'yaw': -15.18, 'datetime': '2018-10-09 12:47:16.480005', 'mgs': 0, 'volt': 0.9668, 'depth': 2.606, 'time': 128, 'pitch': 7.2, 'roll': -1.1, 'pres': 198}
{'lipoC2': 7.46, 'lipoC3S1': 4.06, 'temp': 30.56, 'lipoC3S3': 12.27, 'lipoC3S2': 8.12, 'rot1': 536, 'rot0': 532, 'rot3': 326, 'rot2': 284, 'state': 'normal', 'yaw': -13.57, 'datetime': '2018-10-09 12:47:16.490486', 'mgs': 0, 'volt': 0.9668, 'depth': 2.606, 'time': 128, 'pitch': 6.48, 'roll': -0.65, 'pres': 198}
{'lipoC2': 7.46, 'lipoC3S1': 4.06, 'temp': 30.56, 'lipoC3S3': 12.27, 'lipoC3S2': 8.12, 'rot1': 536, 'rot0': 532, 'rot3': 326, 'rot2': 284, 'state': 'normal', 'yaw': -12.09, 'datetime': '2018-10-09 12:47:16.500819', 'mgs': 0, 'volt': 0.9619, 'depth': 2.53, 'time': 128, 'pitch': 5.22, 'roll': -0.24, 'pres': 197}
{'lipoC2': 7.46, 'lipoC3S1': 4.06, 'temp': 30.56, 'lipoC3S3': 12.27, 'lipoC3S2': 8.12, 'rot1': 536, 'rot0': 532, 'rot3': 326, 'rot2': 284, 'state': 'normal', 'yaw': -10.63, 'datetime': '2018-10-09 12:47:16.511017', 'mgs': 0, 'volt': 0.9619, 'depth': 2.53, 'time': 128, 'pitch': 3.22, 'roll': 0.16, 'pres': 197}
{'lipoC2': 7.46, 'lipoC3S1': 4.06, 'temp': 30.56, 'lipoC3S3': 12.26, 'lipoC3S2': 8.12, 'rot1': 536, 'rot0': 532, 'rot3': 326, 'rot2': 284, 'state': 'normal', 'yaw': -9.46, 'datetime': '2018-10-09 12:47:16.521002', 'mgs': 0, 'volt': 0.957, 'depth': 2.454, 'time': 128, 'pitch': 1.01, 'roll': 0.48, 'pres': 196}
{'lipoC2': 7.46, 'lipoC3S1': 4.06, 'temp': 30.56, 'lipoC3S3': 12.27, 'lipoC3S2': 8.12, 'rot1': 536, 'rot0': 532, 'rot3': 326, 'rot2': 284, 'state': 'normal', 'yaw': -8.43, 'datetime': '2018-10-09 12:47:16.530936', 'mgs': 0, 'volt': 0.957, 'depth': 2.454, 'time': 128, 'pitch': -1.62, 'roll': 0.78, 'pres': 196}
{'lipoC2': 7.46, 'lipoC3S1': 4.06, 'temp': 30.44, 'lipoC3S3': 12.27, 'lipoC3S2': 8.12, 'rot1': 536, 'rot0': 532, 'rot3': 326, 'rot2': 284, 'state': 'normal', 'yaw': -7.69, 'datetime': '2018-10-09 12:47:16.540733', 'mgs': 0, 'volt': 0.9521, 'depth': 2.377, 'time': 128, 'pitch': -3.66, 'roll': 1.0, 'pres': 195}
{'lipoC2': 7.46, 'lipoC3S1': 4.06, 'temp': 30.44, 'lipoC3S3': 12.26, 'lipoC3S2': 8.12, 'rot1': 536, 'rot0': 532, 'rot3': 326, 'rot2': 284, 'state': 'normal', 'yaw': -6.99, 'datetime': '2018-10-09 12:47:16.550603', 'mgs': 0, 'volt': 0.9521, 'depth': 2.377, 'time': 129, 'pitch': -5.05, 'roll': 1.07, 'pres': 195}
{'lipoC2': 7.46, 'lipoC3S1': 4.06, 'temp': 30.44, 'lipoC3S3': 12.27, 'lipoC3S2': 8.12, 'rot1': 536, 'rot0': 532, 'rot3': 326, 'rot2': 284, 'state': 'normal', 'yaw': -5.87, 'datetime': '2018-10-09 12:47:16.560391', 'mgs': 0, 'volt': 0.9473, 'depth': 2.301, 'time': 129, 'pitch': -6.18, 'roll': 0.72, 'pres': 194}
{'lipoC2': 7.46, 'lipoC3S1': 4.06, 'temp': 30.44, 'lipoC3S3': 12.27, 'lipoC3S2': 8.11, 'rot1': 536, 'rot0': 532, 'rot3': 326, 'rot2': 284, 'state': 'normal', 'yaw': -4.35, 'datetime': '2018-10-09 12:47:16.570289', 'mgs': 0, 'volt': 0.9424, 'depth': 2.225, 'time': 129, 'pitch': -6.67, 'roll': -0.12, 'pres': 193}
{'lipoC2': 7.46, 'lipoC3S1': 4.06, 'temp': 30.44, 'lipoC3S3': 12.26, 'lipoC3S2': 8.12, 'rot1': 536, 'rot0': 532, 'rot3': 326, 'rot2': 284, 'state': 'normal', 'yaw': -2.42, 'datetime': '2018-10-09 12:47:16.580139', 'mgs': 0, 'volt': 0.9375, 'depth': 2.148, 'time': 129, 'pitch': -6.76, 'roll': -1.61, 'pres': 192}
{'lipoC2': 7.46, 'lipoC3S1': 4.06, 'temp': 30.44, 'lipoC3S3': 12.27, 'lipoC3S2': 8.12, 'rot1': 536, 'rot0': 532, 'rot3': 326, 'rot2': 284, 'state': 'normal', 'yaw': -0.79, 'datetime': '2018-10-09 12:47:16.589997', 'mgs': 0, 'volt': 0.9326, 'depth': 2.072, 'time': 129, 'pitch': -7.11, 'roll': -3.33, 'pres': 191}
{'lipoC2': 7.44, 'lipoC3S1': 4.06, 'temp': 30.44, 'lipoC3S3': 12.26, 'lipoC3S2': 8.12, 'rot1': 536, 'rot0': 532, 'rot3': 326, 'rot2': 284, 'state': 'normal', 'yaw': 0.93, 'datetime': '2018-10-09 12:47:16.599793', 'mgs': 0, 'volt': 0.9326, 'depth': 2.072, 'time': 129, 'pitch': -7.36, 'roll': -5.51, 'pres': 191}
{'lipoC2': 7.46, 'lipoC3S1': 4.06, 'temp': 30.44, 'lipoC3S3': 12.27, 'lipoC3S2': 8.12, 'rot1': 536, 'rot0': 532, 'rot3': 326, 'rot2': 284, 'state': 'normal', 'yaw': 2.34, 'datetime': '2018-10-09 12:47:16.609571', 'mgs': 0, 'volt': 0.9277, 'depth': 1.996, 'time': 129, 'pitch': -6.95, 'roll': -7.66, 'pres': 190}
{'lipoC2': 7.46, 'lipoC3S1': 4.06, 'temp': 30.44, 'lipoC3S3': 12.26, 'lipoC3S2': 8.12, 'rot1': 536, 'rot0': 532, 'rot3': 326, 'rot2': 284, 'state': 'normal', 'yaw': 3.48, 'datetime': '2018-10-09 12:47:16.619347', 'mgs': 0, 'volt': 0.9277, 'depth': 1.996, 'time': 129, 'pitch': -5.66, 'roll': -9.93, 'pres': 190}
{'lipoC2': 7.46, 'lipoC3S1': 4.06, 'temp': 30.44, 'lipoC3S3': 12.27, 'lipoC3S2': 8.12, 'rot1': 536, 'rot0': 532, 'rot3': 326, 'rot2': 284, 'state': 'normal', 'yaw': 4.06, 'datetime': '2018-10-09 12:47:16.629156', 'mgs': 0, 'volt': 0.9229, 'depth': 1.92, 'time': 129, 'pitch': -4.25, 'roll': -11.61, 'pres': 189}
{'lipoC2': 7.44, 'lipoC3S1': 4.06, 'temp': 30.44, 'lipoC3S3': 12.26, 'lipoC3S2': 8.12, 'rot1': 536, 'rot0': 532, 'rot3': 326, 'rot2': 284, 'state': 'normal', 'yaw': 4.16, 'datetime': '2018-10-09 12:47:16.638924', 'mgs': 0, 'volt': 0.918, 'depth': 1.843, 'time': 130, 'pitch': -2.68, 'roll': -12.77, 'pres': 188}
{'lipoC2': 7.46, 'lipoC3S1': 4.06, 'temp': 30.44, 'lipoC3S3': 12.27, 'lipoC3S2': 8.12, 'rot1': 536, 'rot0': 532, 'rot3': 326, 'rot2': 284, 'state': 'normal', 'yaw': 3.63, 'datetime': '2018-10-09 12:47:16.648901', 'mgs': 0, 'volt': 0.918, 'depth': 1.843, 'time': 130, 'pitch': -0.94, 'roll': -13.3, 'pres': 188}
{'lipoC2': 7.46, 'lipoC3S1': 4.06, 'temp': 30.38, 'lipoC3S3': 12.26, 'lipoC3S2': 8.12, 'rot1': 536, 'rot0': 532, 'rot3': 326, 'rot2': 284, 'state': 'normal', 'yaw': 2.72, 'datetime': '2018-10-09 12:47:16.658704', 'mgs': 0, 'volt': 0.9131, 'depth': 1.767, 'time': 130, 'pitch': 0.39, 'roll': -13.13, 'pres': 187}
{'lipoC2': 7.46, 'lipoC3S1': 4.06, 'temp': 30.38, 'lipoC3S3': 12.26, 'lipoC3S2': 8.12, 'rot1': 536, 'rot0': 532, 'rot3': 326, 'rot2': 284, 'state': 'normal', 'yaw': 1.66, 'datetime': '2018-10-09 12:47:16.668537', 'mgs': 0, 'volt': 0.9082, 'depth': 1.691, 'time': 130, 'pitch': 1.14, 'roll': -12.5, 'pres': 186}
{'lipoC2': 7.46, 'lipoC3S1': 4.06, 'temp': 30.44, 'lipoC3S3': 12.27, 'lipoC3S2': 8.12, 'rot1': 536, 'rot0': 532, 'rot3': 326, 'rot2': 284, 'state': 'normal', 'yaw': 0.88, 'datetime': '2018-10-09 12:47:16.695523', 'mgs': 0, 'volt': 0.9082, 'depth': 1.691, 'time': 130, 'pitch': 1.32, 'roll': -11.72, 'pres': 186}
{'lipoC2': 7.46, 'lipoC3S1': 4.06, 'temp': 30.44, 'lipoC3S3': 12.27, 'lipoC3S2': 8.12, 'rot1': 536, 'rot0': 532, 'rot3': 326, 'rot2': 284, 'state': 'normal', 'yaw': 0.26, 'datetime': '2018-10-09 12:47:16.800851', 'mgs': 0, 'volt': 0.9082, 'depth': 1.691, 'time': 130, 'pitch': 1.35, 'roll': -10.9, 'pres': 186}
{'lipoC2': 7.46, 'lipoC3S1': 4.06, 'temp': 30.5, 'lipoC3S3': 12.27, 'lipoC3S2': 8.12, 'rot1': 536, 'rot0': 532, 'rot3': 326, 'rot2': 284, 'state': 'normal', 'yaw': 0.0, 'datetime': '2018-10-09 12:47:16.905038', 'mgs': 0, 'volt': 0.9033, 'depth': 1.614, 'time': 130, 'pitch': 1.34, 'roll': -10.1, 'pres': 185}
{'lipoC2': 7.46, 'lipoC3S1': 4.06, 'temp': 30.5, 'lipoC3S3': 12.26, 'lipoC3S2': 8.12, 'rot1': 536, 'rot0': 532, 'rot3': 326, 'rot2': 284, 'state': 'normal', 'yaw': 0.37, 'datetime': '2018-10-09 12:47:17.010526', 'mgs': 0, 'volt': 0.8984, 'depth': 1.538, 'time': 130, 'pitch': 0.96, 'roll': -9.18, 'pres': 184}
{'lipoC2': 7.46, 'lipoC3S1': 4.06, 'temp': 30.5, 'lipoC3S3': 12.27, 'lipoC3S2': 8.12, 'rot1': 536, 'rot0': 532, 'rot3': 326, 'rot2': 284, 'state': 'normal', 'yaw': 0.47, 'datetime': '2018-10-09 12:47:17.114695', 'mgs': 0, 'volt': 0.8984, 'depth': 1.538, 'time': 130, 'pitch': 0.41, 'roll': -7.51, 'pres': 184}
{'lipoC2': 7.46, 'lipoC3S1': 4.06, 'temp': 30.5, 'lipoC3S3': 12.26, 'lipoC3S2': 8.12, 'rot1': 536, 'rot0': 532, 'rot3': 326, 'rot2': 284, 'state': 'normal', 'yaw': 0.14, 'datetime': '2018-10-09 12:47:17.218856', 'mgs': 0, 'volt': 0.9033, 'depth': 1.614, 'time': 130, 'pitch': -0.02, 'roll': -5.63, 'pres': 185}
{'lipoC2': 7.46, 'lipoC3S1': 4.06, 'temp': 30.5, 'lipoC3S3': 12.27, 'lipoC3S2': 8.12, 'rot1': 536, 'rot0': 532, 'rot3': 326, 'rot2': 284, 'state': 'normal', 'yaw': -0.62, 'datetime': '2018-10-09 12:47:17.323091', 'mgs': 0, 'volt': 0.9033, 'depth': 1.614, 'time': 131, 'pitch': 0.18, 'roll': -3.45, 'pres': 185}
{'lipoC2': 7.46, 'lipoC3S1': 4.06, 'temp': 30.5, 'lipoC3S3': 12.27, 'lipoC3S2': 8.12, 'rot1': 536, 'rot0': 532, 'rot3': 326, 'rot2': 284, 'state': 'normal', 'yaw': -1.57, 'datetime': '2018-10-09 12:47:17.427239', 'mgs': 0, 'volt': 0.9033, 'depth': 1.614, 'time': 131, 'pitch': 1.35, 'roll': -1.49, 'pres': 185}
{'lipoC2': 7.46, 'lipoC3S1': 4.06, 'temp': 30.5, 'lipoC3S3': 12.27, 'lipoC3S2': 8.12, 'rot1': 536, 'rot0': 532, 'rot3': 326, 'rot2': 284, 'state': 'normal', 'yaw': -2.48, 'datetime': '2018-10-09 12:47:17.531415', 'mgs': 0, 'volt': 0.8984, 'depth': 1.538, 'time': 131, 'pitch': 3.31, 'roll': 0.45, 'pres': 184}
{'lipoC2': 7.46, 'lipoC3S1': 4.06, 'temp': 30.5, 'lipoC3S3': 12.27, 'lipoC3S2': 8.12, 'rot1': 536, 'rot0': 532, 'rot3': 326, 'rot2': 284, 'state': 'normal', 'yaw': -3.15, 'datetime': '2018-10-09 12:47:17.635612', 'mgs': 0, 'volt': 0.8984, 'depth': 1.538, 'time': 131, 'pitch': 5.79, 'roll': 2.43, 'pres': 184}
{'lipoC2': 7.46, 'lipoC3S1': 4.06, 'temp': 30.5, 'lipoC3S3': 12.27, 'lipoC3S2': 8.12, 'rot1': 536, 'rot0': 532, 'rot3': 326, 'rot2': 284, 'state': 'normal', 'yaw': -3.64, 'datetime': '2018-10-09 12:47:17.740505', 'mgs': 0, 'volt': 0.8984, 'depth': 1.538, 'time': 131, 'pitch': 7.6, 'roll': 4.31, 'pres': 184}
{'lipoC2': 7.46, 'lipoC3S1': 4.06, 'temp': 30.5, 'lipoC3S3': 12.26, 'lipoC3S2': 8.12, 'rot1': 536, 'rot0': 532, 'rot3': 326, 'rot2': 284, 'state': 'normal', 'yaw': -4.35, 'datetime': '2018-10-09 12:47:17.844825', 'mgs': 0, 'volt': 0.8984, 'depth': 1.538, 'time': 131, 'pitch': 8.44, 'roll': 6.27, 'pres': 184}
{'lipoC2': 7.46, 'lipoC3S1': 4.06, 'temp': 30.5, 'lipoC3S3': 12.27, 'lipoC3S2': 8.12, 'rot1': 536, 'rot0': 532, 'rot3': 326, 'rot2': 284, 'state': 'normal', 'yaw': -5.22, 'datetime': '2018-10-09 12:47:17.949001', 'mgs': 0, 'volt': 0.8936, 'depth': 1.462, 'time': 131, 'pitch': 8.09, 'roll': 7.73, 'pres': 183}
{'lipoC2': 7.46, 'lipoC3S1': 4.06, 'temp': 30.5, 'lipoC3S3': 12.27, 'lipoC3S2': 8.12, 'rot1': 536, 'rot0': 532, 'rot3': 326, 'rot2': 284, 'state': 'normal', 'yaw': -6.37, 'datetime': '2018-10-09 12:47:18.054338', 'mgs': 0, 'volt': 0.8887, 'depth': 1.385, 'time': 131, 'pitch': 6.98, 'roll': 8.58, 'pres': 182}
{'lipoC2': 7.46, 'lipoC3S1': 4.06, 'temp': 30.56, 'lipoC3S3': 12.27, 'lipoC3S2': 8.12, 'rot1': 536, 'rot0': 532, 'rot3': 326, 'rot2': 284, 'state': 'normal', 'yaw': -7.89, 'datetime': '2018-10-09 12:47:18.158536', 'mgs': 0, 'volt': 0.8789, 'depth': 1.233, 'time': 131, 'pitch': 5.66, 'roll': 8.65, 'pres': 180}
{'lipoC2': 7.46, 'lipoC3S1': 4.06, 'temp': 30.56, 'lipoC3S3': 12.27, 'lipoC3S2': 8.12, 'rot1': 536, 'rot0': 532, 'rot3': 326, 'rot2': 284, 'state': 'normal', 'yaw': -9.74, 'datetime': '2018-10-09 12:47:18.264002', 'mgs': 0, 'volt': 0.874, 'depth': 1.157, 'time': 131, 'pitch': 4.74, 'roll': 7.96, 'pres': 179}
{'lipoC2': 7.46, 'lipoC3S1': 4.06, 'temp': 30.56, 'lipoC3S3': 12.26, 'lipoC3S2': 8.12, 'rot1': 536, 'rot0': 532, 'rot3': 326, 'rot2': 284, 'state': 'normal', 'yaw': -12.3, 'datetime': '2018-10-09 12:47:18.368226', 'mgs': 0, 'volt': 0.8691, 'depth': 1.08, 'time': 132, 'pitch': 4.18, 'roll': 6.6, 'pres': 178}
{'lipoC2': 7.46, 'lipoC3S1': 4.06, 'temp': 30.56, 'lipoC3S3': 12.27, 'lipoC3S2': 8.12, 'rot1': 536, 'rot0': 532, 'rot3': 326, 'rot2': 284, 'state': 'normal', 'yaw': -14.94, 'datetime': '2018-10-09 12:47:18.472452', 'mgs': 0, 'volt': 0.8643, 'depth': 1.004, 'time': 132, 'pitch': 3.96, 'roll': 5.16, 'pres': 177}
