{'lipoC2': 0.0, 'lipoC3S1': 4.0, 'temp': 25.69, 'lipoC3S3': 12.13, 'lipoC3S2': 8.01, 'rot1': 273, 'rot0': 252, 'rot3': 180, 'rot2': 153, 'state': 'normal', 'yaw': -46.61, 'datetime': '2018-10-03 16:57:08.926190', 'mgs': 0, 'volt': 1.0303, 'depth': 3.598, 'time': 911, 'pitch': 32.02, 'roll': -153.88, 'pres': 211}
{'lipoC2': 0.0, 'lipoC3S1': 4.0, 'temp': 25.69, 'lipoC3S3': 12.13, 'lipoC3S2': 8.01, 'rot1': 0, 'rot0': 0, 'rot3': 0, 'rot2': 0, 'state': 'normal', 'yaw': 1.44, 'datetime': '2018-10-03 16:57:08.948180', 'mgs': 0, 'volt': 1.0303, 'depth': 3.598, 'time': 1, 'pitch': 43.59, 'roll': -61.73, 'pres': 211}
{'lipoC2': 0.0, 'lipoC3S1': 4.0, 'temp': 25.69, 'lipoC3S3': 12.13, 'lipoC3S2': 8.0, 'rot1': 0, 'rot0': 0, 'rot3': 0, 'rot2': 0, 'state': 'normal', 'yaw': 12.54, 'datetime': '2018-10-03 16:57:08.965530', 'mgs': 0, 'volt': 1.0303, 'depth': 3.598, 'time': 1, 'pitch': 35.58, 'roll': -44.12, 'pres': 211}
{'lipoC2': 0.0, 'lipoC3S1': 4.0, 'temp': 25.69, 'lipoC3S3': 12.13, 'lipoC3S2': 8.01, 'rot1': 0, 'rot0': 0, 'rot3': 0, 'rot2': 0, 'state': 'normal', 'yaw': 18.77, 'datetime': '2018-10-03 16:57:08.975003', 'mgs': 0, 'volt': 1.0303, 'depth': 3.598, 'time': 1, 'pitch': 27.06, 'roll': -31.78, 'pres': 211}
{'lipoC2': 0.0, 'lipoC3S1': 4.0, 'temp': 25.69, 'lipoC3S3': 12.13, 'lipoC3S2': 8.01, 'rot1': 0, 'rot0': 0, 'rot3': 0, 'rot2': 0, 'state': 'normal', 'yaw': 22.02, 'datetime': '2018-10-03 16:57:08.984447', 'mgs': 0, 'volt': 1.0303, 'depth': 3.598, 'time': 1, 'pitch': 19.45, 'roll': -23.09, 'pres': 211}
{'lipoC2': 0.0, 'lipoC3S1': 4.0, 'temp': 25.69, 'lipoC3S3': 12.13, 'lipoC3S2': 8.01, 'rot1': 0, 'rot0': 0, 'rot3': 0, 'rot2': 0, 'state': 'normal', 'yaw': 23.71, 'datetime': '2018-10-03 16:57:08.993857', 'mgs': 0, 'volt': 1.0303, 'depth': 3.598, 'time': 1, 'pitch': 12.68, 'roll': -16.31, 'pres': 211}
{'lipoC2': 0.0, 'lipoC3S1': 4.0, 'temp': 25.69, 'lipoC3S3': 12.13, 'lipoC3S2': 8.01, 'rot1': 0, 'rot0': 0, 'rot3': 0, 'rot2': 0, 'state': 'normal', 'yaw': 24.3, 'datetime': '2018-10-03 16:57:09.085697', 'mgs': 0, 'volt': 1.0303, 'depth': 3.598, 'time': 1, 'pitch': 7.97, 'roll': -11.88, 'pres': 211}
{'lipoC2': 0.0, 'lipoC3S1': 4.0, 'temp': 25.69, 'lipoC3S3': 12.13, 'lipoC3S2': 8.01, 'rot1': 0, 'rot0': 0, 'rot3': 0, 'rot2': 0, 'state': 'normal', 'yaw': 24.45, 'datetime': '2018-10-03 16:57:09.188856', 'mgs': 0, 'volt': 1.0303, 'depth': 3.598, 'time': 1, 'pitch': 4.34, 'roll': -8.65, 'pres': 211}
{'lipoC2': 0.0, 'lipoC3S1': 4.0, 'temp': 25.69, 'lipoC3S3': 12.13, 'lipoC3S2': 8.01, 'rot1': 0, 'rot0': 0, 'rot3': 0, 'rot2': 0, 'state': 'normal', 'yaw': 24.35, 'datetime': '2018-10-03 16:57:09.291998', 'mgs': 0, 'volt': 1.0303, 'depth': 3.598, 'time': 1, 'pitch': 1.35, 'roll': -6.04, 'pres': 211}
{'lipoC2': 0.0, 'lipoC3S1': 4.0, 'temp': 25.69, 'lipoC3S3': 12.13, 'lipoC3S2': 8.0, 'rot1': 0, 'rot0': 0, 'rot3': 0, 'rot2': 0, 'state': 'normal', 'yaw': 24.16, 'datetime': '2018-10-03 16:57:09.395108', 'mgs': 0, 'volt': 1.0303, 'depth': 3.598, 'time': 2, 'pitch': -0.69, 'roll': -4.3, 'pres': 211}
{'lipoC2': 0.0, 'lipoC3S1': 4.0, 'temp': 25.69, 'lipoC3S3': 12.13, 'lipoC3S2': 8.01, 'rot1': 0, 'rot0': 0, 'rot3': 0, 'rot2': 0, 'state': 'normal', 'yaw': 23.92, 'datetime': '2018-10-03 16:57:09.498227', 'mgs': 0, 'volt': 1.0303, 'depth': 3.598, 'time': 2, 'pitch': -2.23, 'roll': -2.98, 'pres': 211}
{'lipoC2': 0.0, 'lipoC3S1': 4.0, 'temp': 25.69, 'lipoC3S3': 12.13, 'lipoC3S2': 8.01, 'rot1': 0, 'rot0': 0, 'rot3': 0, 'rot2': 0, 'state': 'normal', 'yaw': 23.68, 'datetime': '2018-10-03 16:57:09.602027', 'mgs': 0, 'volt': 1.0303, 'depth': 3.598, 'time': 2, 'pitch': -3.31, 'roll': -2.06, 'pres': 211}
{'lipoC2': 0.0, 'lipoC3S1': 4.0, 'temp': 25.69, 'lipoC3S3': 12.13, 'lipoC3S2': 8.01, 'rot1': 0, 'rot0': 0, 'rot3': 0, 'rot2': 0, 'state': 'normal', 'yaw': 23.44, 'datetime': '2018-10-03 16:57:09.705835', 'mgs': 0, 'volt': 1.0303, 'depth': 3.598, 'time': 2, 'pitch': -4.09, 'roll': -1.42, 'pres': 211}
{'lipoC2': 0.0, 'lipoC3S1': 4.0, 'temp': 25.69, 'lipoC3S3': 12.13, 'lipoC3S2': 8.01, 'rot1': 0, 'rot0': 0, 'rot3': 0, 'rot2': 0, 'state': 'normal', 'yaw': 23.23, 'datetime': '2018-10-03 16:57:09.809956', 'mgs': 0, 'volt': 1.0303, 'depth': 3.598, 'time': 2, 'pitch': -4.6, 'roll': -1.03, 'pres': 211}
{'lipoC2': 0.0, 'lipoC3S1': 4.0, 'temp': 25.69, 'lipoC3S3': 12.13, 'lipoC3S2': 8.01, 'rot1': 0, 'rot0': 0, 'rot3': 0, 'rot2': 0, 'state': 'normal', 'yaw': 23.02, 'datetime': '2018-10-03 16:57:09.913646', 'mgs': 0, 'volt': 1.0303, 'depth': 3.598, 'time': 2, 'pitch': -5.0, 'roll': -0.74, 'pres': 211}
{'lipoC2': 0.0, 'lipoC3S1': 4.0, 'temp': 25.69, 'lipoC3S3': 12.13, 'lipoC3S2': 8.01, 'rot1': 0, 'rot0': 0, 'rot3': 0, 'rot2': 0, 'state': 'normal', 'yaw': 22.79, 'datetime': '2018-10-03 16:57:10.021118', 'mgs': 0, 'volt': 1.0303, 'depth': 3.598, 'time': 2, 'pitch': -5.3, 'roll': -0.51, 'pres': 211}
{'lipoC2': 0.0, 'lipoC3S1': 4.0, 'temp': 25.69, 'lipoC3S3': 12.13, 'lipoC3S2': 8.0, 'rot1': 0, 'rot0': 0, 'rot3': 0, 'rot2': 0, 'state': 'normal', 'yaw': 22.66, 'datetime': '2018-10-03 16:57:10.127139', 'mgs': 0, 'volt': 1.0303, 'depth': 3.598, 'time': 2, 'pitch': -5.55, 'roll': -0.5, 'pres': 211}
{'lipoC2': 0.0, 'lipoC3S1': 4.0, 'temp': 25.69, 'lipoC3S3': 12.13, 'lipoC3S2': 8.01, 'rot1': 0, 'rot0': 0, 'rot3': 0, 'rot2': 0, 'state': 'normal', 'yaw': 22.6, 'datetime': '2018-10-03 16:57:10.231154', 'mgs': 0, 'volt': 1.0303, 'depth': 3.598, 'time': 2, 'pitch': -5.79, 'roll': -0.71, 'pres': 211}
{'lipoC2': 0.0, 'lipoC3S1': 4.0, 'temp': 25.69, 'lipoC3S3': 12.13, 'lipoC3S2': 8.0, 'rot1': 0, 'rot0': 0, 'rot3': 0, 'rot2': 0, 'state': 'normal', 'yaw': 22.52, 'datetime': '2018-10-03 16:57:10.327306', 'mgs': 0, 'volt': 1.0303, 'depth': 3.598, 'time': 3, 'pitch': -5.93, 'roll': -0.88, 'pres': 211}
{'lipoC2': 0.0, 'lipoC3S1': 4.0, 'temp': 25.69, 'lipoC3S3': 12.13, 'lipoC3S2': 8.01, 'rot1': 0, 'rot0': 0, 'rot3': 0, 'rot2': 0, 'state': 'normal', 'yaw': 22.43, 'datetime': '2018-10-03 16:57:10.430500', 'mgs': 0, 'volt': 1.0254, 'depth': 3.522, 'time': 3, 'pitch': -5.99, 'roll': -0.98, 'pres': 210}
{'lipoC2': 0.0, 'lipoC3S1': 4.0, 'temp': 25.69, 'lipoC3S3': 12.13, 'lipoC3S2': 8.01, 'rot1': 0, 'rot0': 0, 'rot3': 0, 'rot2': 0, 'state': 'normal', 'yaw': 22.3, 'datetime': '2018-10-03 16:57:10.533860', 'mgs': 0, 'volt': 1.0254, 'depth': 3.522, 'time': 3, 'pitch': -6.11, 'roll': -0.95, 'pres': 210}
{'lipoC2': 0.0, 'lipoC3S1': 4.0, 'temp': 25.69, 'lipoC3S3': 12.13, 'lipoC3S2': 8.01, 'rot1': 0, 'rot0': 0, 'rot3': 0, 'rot2': 0, 'state': 'normal', 'yaw': 22.14, 'datetime': '2018-10-03 16:57:10.636947', 'mgs': 0, 'volt': 1.0254, 'depth': 3.522, 'time': 3, 'pitch': -6.2, 'roll': -0.88, 'pres': 210}
{'lipoC2': 0.0, 'lipoC3S1': 4.0, 'temp': 25.63, 'lipoC3S3': 12.13, 'lipoC3S2': 8.01, 'rot1': 0, 'rot0': 0, 'rot3': 0, 'rot2': 0, 'state': 'normal', 'yaw': 21.99, 'datetime': '2018-10-03 16:57:10.740075', 'mgs': 0, 'volt': 1.0254, 'depth': 3.522, 'time': 3, 'pitch': -6.24, 'roll': -0.81, 'pres': 210}
{'lipoC2': 0.0, 'lipoC3S1': 4.0, 'temp': 25.63, 'lipoC3S3': 12.13, 'lipoC3S2': 8.01, 'rot1': 0, 'rot0': 0, 'rot3': 0, 'rot2': 0, 'state': 'normal', 'yaw': 21.88, 'datetime': '2018-10-03 16:57:10.844487', 'mgs': 0, 'volt': 1.0254, 'depth': 3.522, 'time': 3, 'pitch': -6.26, 'roll': -0.73, 'pres': 210}
{'lipoC2': 0.0, 'lipoC3S1': 4.0, 'temp': 25.63, 'lipoC3S3': 12.13, 'lipoC3S2': 8.0, 'rot1': 0, 'rot0': 0, 'rot3': 0, 'rot2': 0, 'state': 'normal', 'yaw': 21.77, 'datetime': '2018-10-03 16:57:10.947636', 'mgs': 0, 'volt': 1.0254, 'depth': 3.522, 'time': 3, 'pitch': -6.21, 'roll': -0.65, 'pres': 210}
{'lipoC2': 0.0, 'lipoC3S1': 4.0, 'temp': 25.63, 'lipoC3S3': 12.13, 'lipoC3S2': 8.01, 'rot1': 0, 'rot0': 0, 'rot3': 0, 'rot2': 0, 'state': 'normal', 'yaw': 21.73, 'datetime': '2018-10-03 16:57:11.057316', 'mgs': 0, 'volt': 1.0254, 'depth': 3.522, 'time': 3, 'pitch': -6.15, 'roll': -0.58, 'pres': 210}
{'lipoC2': 0.0, 'lipoC3S1': 4.0, 'temp': 25.63, 'lipoC3S3': 12.13, 'lipoC3S2': 8.01, 'rot1': 0, 'rot0': 0, 'rot3': 0, 'rot2': 0, 'state': 'normal', 'yaw': 21.7, 'datetime': '2018-10-03 16:57:11.160772', 'mgs': 0, 'volt': 1.0254, 'depth': 3.522, 'time': 3, 'pitch': -6.04, 'roll': -0.52, 'pres': 210}
{'lipoC2': 0.0, 'lipoC3S1': 4.0, 'temp': 25.63, 'lipoC3S3': 12.13, 'lipoC3S2': 8.01, 'rot1': 0, 'rot0': 0, 'rot3': 0, 'rot2': 0, 'state': 'normal', 'yaw': 21.69, 'datetime': '2018-10-03 16:57:11.263896', 'mgs': 0, 'volt': 1.0254, 'depth': 3.522, 'time': 3, 'pitch': -5.98, 'roll': -0.46, 'pres': 210}
{'lipoC2': 0.0, 'lipoC3S1': 4.0, 'temp': 25.63, 'lipoC3S3': 12.13, 'lipoC3S2': 8.01, 'rot1': 0, 'rot0': 0, 'rot3': 0, 'rot2': 0, 'state': 'normal', 'yaw': 21.68, 'datetime': '2018-10-03 16:57:11.367080', 'mgs': 0, 'volt': 1.0254, 'depth': 3.522, 'time': 4, 'pitch': -5.92, 'roll': -0.42, 'pres': 210}
{'lipoC2': 0.0, 'lipoC3S1': 4.0, 'temp': 25.69, 'lipoC3S3': 12.13, 'lipoC3S2': 8.01, 'rot1': 0, 'rot0': 0, 'rot3': 0, 'rot2': 0, 'state': 'normal', 'yaw': 21.68, 'datetime': '2018-10-03 16:57:11.471507', 'mgs': 0, 'volt': 1.0254, 'depth': 3.522, 'time': 4, 'pitch': -5.84, 'roll': -0.38, 'pres': 210}
{'lipoC2': 0.0, 'lipoC3S1': 4.0, 'temp': 25.69, 'lipoC3S3': 12.13, 'lipoC3S2': 8.01, 'rot1': 0, 'rot0': 0, 'rot3': 0, 'rot2': 0, 'state': 'normal', 'yaw': 21.68, 'datetime': '2018-10-03 16:57:11.574554', 'mgs': 0, 'volt': 1.0254, 'depth': 3.522, 'time': 4, 'pitch': -5.73, 'roll': -0.34, 'pres': 210}
{'lipoC2': 0.0, 'lipoC3S1': 4.0, 'temp': 25.69, 'lipoC3S3': 12.13, 'lipoC3S2': 8.01, 'rot1': 0, 'rot0': 0, 'rot3': 0, 'rot2': 0, 'state': 'normal', 'yaw': 21.67, 'datetime': '2018-10-03 16:57:11.677724', 'mgs': 0, 'volt': 1.0254, 'depth': 3.522, 'time': 4, 'pitch': -5.62, 'roll': -0.31, 'pres': 210}
{'lipoC2': 0.0, 'lipoC3S1': 4.0, 'temp': 25.69, 'lipoC3S3': 12.13, 'lipoC3S2': 8.01, 'rot1': 0, 'rot0': 0, 'rot3': 0, 'rot2': 0, 'state': 'normal', 'yaw': 21.67, 'datetime': '2018-10-03 16:57:11.782200', 'mgs': 0, 'volt': 1.0254, 'depth': 3.522, 'time': 4, 'pitch': -5.53, 'roll': -0.28, 'pres': 210}
{'lipoC2': 0.0, 'lipoC3S1': 4.0, 'temp': 25.69, 'lipoC3S3': 12.13, 'lipoC3S2': 8.01, 'rot1': 0, 'rot0': 0, 'rot3': 0, 'rot2': 0, 'state': 'normal', 'yaw': 21.66, 'datetime': '2018-10-03 16:57:11.885561', 'mgs': 0, 'volt': 1.0303, 'depth': 3.598, 'time': 4, 'pitch': -5.45, 'roll': -0.25, 'pres': 211}
{'lipoC2': 0.0, 'lipoC3S1': 4.0, 'temp': 25.69, 'lipoC3S3': 12.13, 'lipoC3S2': 8.01, 'rot1': 0, 'rot0': 0, 'rot3': 0, 'rot2': 0, 'state': 'normal', 'yaw': 21.59, 'datetime': '2018-10-03 16:57:11.988697', 'mgs': 0, 'volt': 1.0303, 'depth': 3.598, 'time': 4, 'pitch': -5.36, 'roll': -0.24, 'pres': 211}
{'lipoC2': 0.0, 'lipoC3S1': 4.0, 'temp': 25.69, 'lipoC3S3': 12.13, 'lipoC3S2': 8.01, 'rot1': 0, 'rot0': 0, 'rot3': 0, 'rot2': 0, 'state': 'normal', 'yaw': 21.49, 'datetime': '2018-10-03 16:57:12.091786', 'mgs': 0, 'volt': 1.0254, 'depth': 3.522, 'time': 4, 'pitch': -5.28, 'roll': -0.28, 'pres': 210}
{'lipoC2': 0.0, 'lipoC3S1': 4.0, 'temp': 25.69, 'lipoC3S3': 12.13, 'lipoC3S2': 8.0, 'rot1': 0, 'rot0': 0, 'rot3': 0, 'rot2': 0, 'state': 'normal', 'yaw': 21.37, 'datetime': '2018-10-03 16:57:12.195153', 'mgs': 0, 'volt': 1.0303, 'depth': 3.598, 'time': 4, 'pitch': -5.2, 'roll': -0.32, 'pres': 211}
{'lipoC2': 0.0, 'lipoC3S1': 4.0, 'temp': 25.69, 'lipoC3S3': 12.13, 'lipoC3S2': 8.0, 'rot1': 0, 'rot0': 0, 'rot3': 0, 'rot2': 0, 'state': 'normal', 'yaw': 21.26, 'datetime': '2018-10-03 16:57:12.298283', 'mgs': 0, 'volt': 1.0254, 'depth': 3.522, 'time': 4, 'pitch': -5.11, 'roll': -0.32, 'pres': 210}
{'lipoC2': 0.0, 'lipoC3S1': 4.0, 'temp': 25.69, 'lipoC3S3': 12.13, 'lipoC3S2': 8.01, 'rot1': 0, 'rot0': 0, 'rot3': 0, 'rot2': 0, 'state': 'normal', 'yaw': 21.15, 'datetime': '2018-10-03 16:57:12.401309', 'mgs': 0, 'volt': 1.0303, 'depth': 3.598, 'time': 5, 'pitch': -5.04, 'roll': -0.32, 'pres': 211}
{'lipoC2': 0.0, 'lipoC3S1': 4.0, 'temp': 25.69, 'lipoC3S3': 12.13, 'lipoC3S2': 8.01, 'rot1': 0, 'rot0': 0, 'rot3': 0, 'rot2': 0, 'state': 'normal', 'yaw': 21.02, 'datetime': '2018-10-03 16:57:12.504553', 'mgs': 0, 'volt': 1.0303, 'depth': 3.598, 'time': 5, 'pitch': -5.04, 'roll': -0.31, 'pres': 211}
{'lipoC2': 0.0, 'lipoC3S1': 4.0, 'temp': 25.69, 'lipoC3S3': 12.13, 'lipoC3S2': 8.01, 'rot1': 0, 'rot0': 0, 'rot3': 0, 'rot2': 0, 'state': 'normal', 'yaw': 20.86, 'datetime': '2018-10-03 16:57:12.607657', 'mgs': 0, 'volt': 1.0303, 'depth': 3.598, 'time': 5, 'pitch': -5.04, 'roll': -0.3, 'pres': 211}
{'lipoC2': 0.0, 'lipoC3S1': 4.0, 'temp': 25.69, 'lipoC3S3': 12.13, 'lipoC3S2': 8.01, 'rot1': 0, 'rot0': 0, 'rot3': 0, 'rot2': 0, 'state': 'normal', 'yaw': 20.71, 'datetime': '2018-10-03 16:57:12.710724', 'mgs': 0, 'volt': 1.0303, 'depth': 3.598, 'time': 5, 'pitch': -5.08, 'roll': -0.28, 'pres': 211}
{'lipoC2': 0.0, 'lipoC3S1': 4.0, 'temp': 25.69, 'lipoC3S3': 12.13, 'lipoC3S2': 8.0, 'rot1': 0, 'rot0': 0, 'rot3': 0, 'rot2': 0, 'state': 'normal', 'yaw': 20.54, 'datetime': '2018-10-03 16:57:12.808033', 'mgs': 0, 'volt': 1.0303, 'depth': 3.598, 'time': 5, 'pitch': -5.18, 'roll': -0.27, 'pres': 211}
{'lipoC2': 0.0, 'lipoC3S1': 4.0, 'temp': 25.69, 'lipoC3S3': 12.13, 'lipoC3S2': 8.01, 'rot1': 0, 'rot0': 0, 'rot3': 0, 'rot2': 0, 'state': 'normal', 'yaw': 20.36, 'datetime': '2018-10-03 16:57:12.911871', 'mgs': 0, 'volt': 1.0303, 'depth': 3.598, 'time': 5, 'pitch': -5.31, 'roll': -0.25, 'pres': 211}
{'lipoC2': 0.0, 'lipoC3S1': 4.0, 'temp': 25.69, 'lipoC3S3': 12.13, 'lipoC3S2': 8.01, 'rot1': 0, 'rot0': 0, 'rot3': 0, 'rot2': 0, 'state': 'normal', 'yaw': 20.15, 'datetime': '2018-10-03 16:57:13.015006', 'mgs': 0, 'volt': 1.0303, 'depth': 3.598, 'time': 5, 'pitch': -5.46, 'roll': -0.23, 'pres': 211}
{'lipoC2': 0.0, 'lipoC3S1': 4.0, 'temp': 25.69, 'lipoC3S3': 12.13, 'lipoC3S2': 8.01, 'rot1': 0, 'rot0': 0, 'rot3': 0, 'rot2': 0, 'state': 'normal', 'yaw': 19.96, 'datetime': '2018-10-03 16:57:13.119407', 'mgs': 0, 'volt': 1.0303, 'depth': 3.598, 'time': 5, 'pitch': -5.58, 'roll': -0.21, 'pres': 211}
{'lipoC2': 0.0, 'lipoC3S1': 4.0, 'temp': 25.75, 'lipoC3S3': 12.13, 'lipoC3S2': 8.01, 'rot1': 0, 'rot0': 0, 'rot3': 0, 'rot2': 0, 'state': 'normal', 'yaw': 19.8, 'datetime': '2018-10-03 16:57:13.223102', 'mgs': 0, 'volt': 1.0303, 'depth': 3.598, 'time': 5, 'pitch': -5.72, 'roll': -0.2, 'pres': 211}
{'lipoC2': 0.0, 'lipoC3S1': 4.0, 'temp': 25.75, 'lipoC3S3': 12.13, 'lipoC3S2': 8.01, 'rot1': 0, 'rot0': 0, 'rot3': 0, 'rot2': 0, 'state': 'normal', 'yaw': 19.62, 'datetime': '2018-10-03 16:57:13.326216', 'mgs': 0, 'volt': 1.0303, 'depth': 3.598, 'time': 6, 'pitch': -5.89, 'roll': -0.18, 'pres': 211}
{'lipoC2': 0.0, 'lipoC3S1': 4.0, 'temp': 25.75, 'lipoC3S3': 12.13, 'lipoC3S2': 8.01, 'rot1': 0, 'rot0': 0, 'rot3': 0, 'rot2': 0, 'state': 'normal', 'yaw': 19.48, 'datetime': '2018-10-03 16:57:13.430460', 'mgs': 0, 'volt': 1.0303, 'depth': 3.598, 'time': 6, 'pitch': -6.02, 'roll': -0.16, 'pres': 211}
{'lipoC2': 0.0, 'lipoC3S1': 4.0, 'temp': 25.75, 'lipoC3S3': 12.13, 'lipoC3S2': 8.01, 'rot1': 0, 'rot0': 0, 'rot3': 0, 'rot2': 0, 'state': 'normal', 'yaw': 19.35, 'datetime': '2018-10-03 16:57:13.534347', 'mgs': 0, 'volt': 1.0303, 'depth': 3.598, 'time': 6, 'pitch': -6.14, 'roll': -0.15, 'pres': 211}
{'lipoC2': 0.0, 'lipoC3S1': 4.0, 'temp': 25.75, 'lipoC3S3': 12.13, 'lipoC3S2': 8.01, 'rot1': 0, 'rot0': 0, 'rot3': 0, 'rot2': 0, 'state': 'normal', 'yaw': 19.22, 'datetime': '2018-10-03 16:57:13.637422', 'mgs': 0, 'volt': 1.0303, 'depth': 3.598, 'time': 6, 'pitch': -6.25, 'roll': -0.14, 'pres': 211}
{'lipoC2': 0.0, 'lipoC3S1': 4.0, 'temp': 25.75, 'lipoC3S3': 12.13, 'lipoC3S2': 8.01, 'rot1': 0, 'rot0': 0, 'rot3': 0, 'rot2': 0, 'state': 'normal', 'yaw': 19.11, 'datetime': '2018-10-03 16:57:13.740581', 'mgs': 0, 'volt': 1.0303, 'depth': 3.598, 'time': 6, 'pitch': -6.34, 'roll': -0.14, 'pres': 211}
{'lipoC2': 0.0, 'lipoC3S1': 4.0, 'temp': 25.75, 'lipoC3S3': 12.13, 'lipoC3S2': 8.01, 'rot1': 0, 'rot0': 0, 'rot3': 0, 'rot2': 0, 'state': 'normal', 'yaw': 19.03, 'datetime': '2018-10-03 16:57:13.844520', 'mgs': 0, 'volt': 1.0303, 'depth': 3.598, 'time': 6, 'pitch': -6.35, 'roll': -0.25, 'pres': 211}
{'lipoC2': 0.0, 'lipoC3S1': 4.0, 'temp': 25.75, 'lipoC3S3': 12.13, 'lipoC3S2': 8.01, 'rot1': 0, 'rot0': 0, 'rot3': 0, 'rot2': 0, 'state': 'normal', 'yaw': 18.95, 'datetime': '2018-10-03 16:57:13.947700', 'mgs': 0, 'volt': 1.0303, 'depth': 3.598, 'time': 6, 'pitch': -6.35, 'roll': -0.38, 'pres': 211}
{'lipoC2': 0.0, 'lipoC3S1': 4.0, 'temp': 25.75, 'lipoC3S3': 12.13, 'lipoC3S2': 8.0, 'rot1': 0, 'rot0': 0, 'rot3': 0, 'rot2': 0, 'state': 'normal', 'yaw': 18.95, 'datetime': '2018-10-03 16:57:14.050806', 'mgs': 0, 'volt': 1.0303, 'depth': 3.598, 'time': 6, 'pitch': -6.39, 'roll': -0.58, 'pres': 211}
{'lipoC2': 0.0, 'lipoC3S1': 4.0, 'temp': 25.75, 'lipoC3S3': 12.13, 'lipoC3S2': 8.01, 'rot1': 0, 'rot0': 0, 'rot3': 0, 'rot2': 0, 'state': 'normal', 'yaw': 18.94, 'datetime': '2018-10-03 16:57:14.153974', 'mgs': 0, 'volt': 1.0254, 'depth': 3.522, 'time': 6, 'pitch': -6.34, 'roll': -0.77, 'pres': 210}
{'lipoC2': 0.0, 'lipoC3S1': 4.0, 'temp': 25.75, 'lipoC3S3': 12.13, 'lipoC3S2': 8.01, 'rot1': 0, 'rot0': 0, 'rot3': 0, 'rot2': 0, 'state': 'normal', 'yaw': 18.86, 'datetime': '2018-10-03 16:57:14.257052', 'mgs': 0, 'volt': 1.0254, 'depth': 3.522, 'time': 6, 'pitch': -6.47, 'roll': -0.81, 'pres': 210}
{'lipoC2': 0.0, 'lipoC3S1': 4.0, 'temp': 25.75, 'lipoC3S3': 12.13, 'lipoC3S2': 8.0, 'rot1': 0, 'rot0': 0, 'rot3': 0, 'rot2': 0, 'state': 'normal', 'yaw': 18.72, 'datetime': '2018-10-03 16:57:14.360204', 'mgs': 0, 'volt': 1.0254, 'depth': 3.522, 'time': 7, 'pitch': -6.62, 'roll': -0.77, 'pres': 210}
{'lipoC2': 0.0, 'lipoC3S1': 4.0, 'temp': 25.75, 'lipoC3S3': 12.13, 'lipoC3S2': 8.0, 'rot1': 0, 'rot0': 0, 'rot3': 0, 'rot2': 0, 'state': 'normal', 'yaw': 18.5, 'datetime': '2018-10-03 16:57:14.463416', 'mgs': 0, 'volt': 1.0254, 'depth': 3.522, 'time': 7, 'pitch': -6.65, 'roll': -0.69, 'pres': 210}
{'lipoC2': 0.0, 'lipoC3S1': 4.0, 'temp': 25.75, 'lipoC3S3': 12.13, 'lipoC3S2': 8.01, 'rot1': 0, 'rot0': 0, 'rot3': 0, 'rot2': 0, 'state': 'normal', 'yaw': 17.99, 'datetime': '2018-10-03 16:57:14.567103', 'mgs': 0, 'volt': 1.0254, 'depth': 3.522, 'time': 7, 'pitch': -6.45, 'roll': -0.52, 'pres': 210}
{'lipoC2': 0.0, 'lipoC3S1': 4.0, 'temp': 25.75, 'lipoC3S3': 12.13, 'lipoC3S2': 8.01, 'rot1': 0, 'rot0': 0, 'rot3': 0, 'rot2': 0, 'state': 'normal', 'yaw': 16.67, 'datetime': '2018-10-03 16:57:14.670190', 'mgs': 0, 'volt': 1.0254, 'depth': 3.522, 'time': 7, 'pitch': -6.26, 'roll': -0.21, 'pres': 210}
{'lipoC2': 0.0, 'lipoC3S1': 4.0, 'temp': 25.75, 'lipoC3S3': 12.13, 'lipoC3S2': 8.01, 'rot1': 0, 'rot0': 0, 'rot3': 0, 'rot2': 0, 'state': 'normal', 'yaw': 14.39, 'datetime': '2018-10-03 16:57:14.774279', 'mgs': 0, 'volt': 1.0205, 'depth': 3.445, 'time': 7, 'pitch': -6.58, 'roll': 0.54, 'pres': 209}
{'lipoC2': 0.0, 'lipoC3S1': 4.0, 'temp': 25.69, 'lipoC3S3': 12.13, 'lipoC3S2': 8.01, 'rot1': 0, 'rot0': 0, 'rot3': 0, 'rot2': 0, 'state': 'normal', 'yaw': 11.32, 'datetime': '2018-10-03 16:57:14.878937', 'mgs': 0, 'volt': 1.0205, 'depth': 3.445, 'time': 7, 'pitch': -7.34, 'roll': 1.17, 'pres': 209}
{'lipoC2': 0.0, 'lipoC3S1': 4.0, 'temp': 25.69, 'lipoC3S3': 12.13, 'lipoC3S2': 8.01, 'rot1': 0, 'rot0': 0, 'rot3': 0, 'rot2': 0, 'state': 'normal', 'yaw': 7.14, 'datetime': '2018-10-03 16:57:14.984370', 'mgs': 0, 'volt': 1.0205, 'depth': 3.445, 'time': 7, 'pitch': -7.98, 'roll': 2.01, 'pres': 209}
{'lipoC2': 0.0, 'lipoC3S1': 4.0, 'temp': 25.81, 'lipoC3S3': 12.13, 'lipoC3S2': 8.01, 'rot1': 0, 'rot0': 0, 'rot3': 0, 'rot2': 0, 'state': 'normal', 'yaw': 2.94, 'datetime': '2018-10-03 16:57:15.090530', 'mgs': 0, 'volt': 1.0156, 'depth': 3.369, 'time': 7, 'pitch': -8.32, 'roll': 2.89, 'pres': 208}
{'lipoC2': 0.0, 'lipoC3S1': 4.0, 'temp': 25.81, 'lipoC3S3': 12.13, 'lipoC3S2': 8.01, 'rot1': 0, 'rot0': 0, 'rot3': 0, 'rot2': 0, 'state': 'normal', 'yaw': -1.76, 'datetime': '2018-10-03 16:57:15.194664', 'mgs': 0, 'volt': 1.0156, 'depth': 3.369, 'time': 7, 'pitch': -8.65, 'roll': 4.1, 'pres': 208}
{'lipoC2': 0.0, 'lipoC3S1': 4.0, 'temp': 25.81, 'lipoC3S3': 12.13, 'lipoC3S2': 8.0, 'rot1': 0, 'rot0': 0, 'rot3': 0, 'rot2': 0, 'state': 'normal', 'yaw': -6.55, 'datetime': '2018-10-03 16:57:15.297909', 'mgs': 0, 'volt': 1.0107, 'depth': 3.293, 'time': 7, 'pitch': -9.37, 'roll': 5.27, 'pres': 207}
{'lipoC2': 0.0, 'lipoC3S1': 4.0, 'temp': 25.75, 'lipoC3S3': 12.13, 'lipoC3S2': 8.01, 'rot1': 0, 'rot0': 0, 'rot3': 0, 'rot2': 0, 'state': 'normal', 'yaw': -9.26, 'datetime': '2018-10-03 16:57:15.401109', 'mgs': 0, 'volt': 1.0107, 'depth': 3.293, 'time': 8, 'pitch': -10.75, 'roll': 5.65, 'pres': 207}
{'lipoC2': 0.0, 'lipoC3S1': 4.0, 'temp': 25.75, 'lipoC3S3': 12.13, 'lipoC3S2': 8.01, 'rot1': 0, 'rot0': 0, 'rot3': 0, 'rot2': 0, 'state': 'normal', 'yaw': -9.96, 'datetime': '2018-10-03 16:57:15.504109', 'mgs': 0, 'volt': 1.0059, 'depth': 3.217, 'time': 8, 'pitch': -11.72, 'roll': 4.36, 'pres': 206}
{'lipoC2': 0.0, 'lipoC3S1': 4.0, 'temp': 25.75, 'lipoC3S3': 12.13, 'lipoC3S2': 8.01, 'rot1': 0, 'rot0': 0, 'rot3': 0, 'rot2': 0, 'state': 'normal', 'yaw': -9.4, 'datetime': '2018-10-03 16:57:15.607383', 'mgs': 0, 'volt': 1.001, 'depth': 3.14, 'time': 8, 'pitch': -11.62, 'roll': 1.99, 'pres': 205}
{'lipoC2': 0.0, 'lipoC3S1': 4.0, 'temp': 25.75, 'lipoC3S3': 12.13, 'lipoC3S2': 8.01, 'rot1': 0, 'rot0': 0, 'rot3': 0, 'rot2': 0, 'state': 'normal', 'yaw': -7.79, 'datetime': '2018-10-03 16:57:15.710456', 'mgs': 0, 'volt': 0.9961, 'depth': 3.064, 'time': 8, 'pitch': -10.81, 'roll': -0.65, 'pres': 204}
{'lipoC2': 0.0, 'lipoC3S1': 4.0, 'temp': 25.81, 'lipoC3S3': 12.13, 'lipoC3S2': 8.0, 'rot1': 0, 'rot0': 0, 'rot3': 0, 'rot2': 0, 'state': 'normal', 'yaw': -5.26, 'datetime': '2018-10-03 16:57:15.813597', 'mgs': 0, 'volt': 0.9912, 'depth': 2.988, 'time': 8, 'pitch': -9.98, 'roll': -3.59, 'pres': 203}
{'lipoC2': 0.0, 'lipoC3S1': 4.0, 'temp': 25.81, 'lipoC3S3': 12.13, 'lipoC3S2': 8.01, 'rot1': 0, 'rot0': 0, 'rot3': 0, 'rot2': 0, 'state': 'normal', 'yaw': -2.28, 'datetime': '2018-10-03 16:57:15.917211', 'mgs': 0, 'volt': 0.9814, 'depth': 2.835, 'time': 8, 'pitch': -9.14, 'roll': -6.36, 'pres': 201}
{'lipoC2': 0.0, 'lipoC3S1': 4.0, 'temp': 25.81, 'lipoC3S3': 12.13, 'lipoC3S2': 8.0, 'rot1': 0, 'rot0': 0, 'rot3': 0, 'rot2': 0, 'state': 'normal', 'yaw': 1.23, 'datetime': '2018-10-03 16:57:16.020174', 'mgs': 0, 'volt': 0.9814, 'depth': 2.835, 'time': 8, 'pitch': -7.98, 'roll': -8.91, 'pres': 201}
{'lipoC2': 0.0, 'lipoC3S1': 4.0, 'temp': 25.75, 'lipoC3S3': 12.13, 'lipoC3S2': 8.01, 'rot1': 0, 'rot0': 0, 'rot3': 0, 'rot2': 0, 'state': 'normal', 'yaw': 4.37, 'datetime': '2018-10-03 16:57:16.123301', 'mgs': 0, 'volt': 0.9766, 'depth': 2.759, 'time': 8, 'pitch': -6.76, 'roll': -10.54, 'pres': 200}
{'lipoC2': 0.0, 'lipoC3S1': 4.0, 'temp': 25.75, 'lipoC3S3': 12.13, 'lipoC3S2': 8.01, 'rot1': 0, 'rot0': 0, 'rot3': 0, 'rot2': 0, 'state': 'normal', 'yaw': 7.29, 'datetime': '2018-10-03 16:57:16.226516', 'mgs': 0, 'volt': 0.9766, 'depth': 2.759, 'time': 8, 'pitch': -5.71, 'roll': -11.38, 'pres': 200}
{'lipoC2': 0.0, 'lipoC3S1': 4.0, 'temp': 25.81, 'lipoC3S3': 12.13, 'lipoC3S2': 8.01, 'rot1': 0, 'rot0': 0, 'rot3': 0, 'rot2': 0, 'state': 'normal', 'yaw': 10.09, 'datetime': '2018-10-03 16:57:16.329791', 'mgs': 0, 'volt': 0.9766, 'depth': 2.759, 'time': 9, 'pitch': -4.9, 'roll': -11.27, 'pres': 200}
{'lipoC2': 0.0, 'lipoC3S1': 4.0, 'temp': 25.81, 'lipoC3S3': 12.13, 'lipoC3S2': 8.0, 'rot1': 0, 'rot0': 0, 'rot3': 0, 'rot2': 0, 'state': 'normal', 'yaw': 12.12, 'datetime': '2018-10-03 16:57:16.432880', 'mgs': 0, 'volt': 0.9717, 'depth': 2.682, 'time': 9, 'pitch': -4.48, 'roll': -10.2, 'pres': 199}
{'lipoC2': 0.0, 'lipoC3S1': 4.0, 'temp': 25.75, 'lipoC3S3': 12.13, 'lipoC3S2': 8.01, 'rot1': 0, 'rot0': 0, 'rot3': 0, 'rot2': 0, 'state': 'normal', 'yaw': 13.83, 'datetime': '2018-10-03 16:57:16.537251', 'mgs': 0, 'volt': 0.9717, 'depth': 2.682, 'time': 9, 'pitch': -4.29, 'roll': -8.46, 'pres': 199}
{'lipoC2': 0.0, 'lipoC3S1': 4.0, 'temp': 25.75, 'lipoC3S3': 12.13, 'lipoC3S2': 8.01, 'rot1': 0, 'rot0': 0, 'rot3': 0, 'rot2': 0, 'state': 'normal', 'yaw': 15.7, 'datetime': '2018-10-03 16:57:16.640412', 'mgs': 0, 'volt': 0.9717, 'depth': 2.682, 'time': 9, 'pitch': -4.59, 'roll': -6.16, 'pres': 199}
{'lipoC2': 0.0, 'lipoC3S1': 4.0, 'temp': 25.75, 'lipoC3S3': 12.13, 'lipoC3S2': 8.01, 'rot1': 0, 'rot0': 0, 'rot3': 0, 'rot2': 0, 'state': 'normal', 'yaw': 17.38, 'datetime': '2018-10-03 16:57:16.743456', 'mgs': 0, 'volt': 0.9717, 'depth': 2.682, 'time': 9, 'pitch': -5.06, 'roll': -3.95, 'pres': 199}
{'lipoC2': 0.0, 'lipoC3S1': 4.0, 'temp': 25.81, 'lipoC3S3': 12.13, 'lipoC3S2': 8.01, 'rot1': 0, 'rot0': 0, 'rot3': 0, 'rot2': 0, 'state': 'normal', 'yaw': 18.97, 'datetime': '2018-10-03 16:57:16.847928', 'mgs': 0, 'volt': 0.9766, 'depth': 2.759, 'time': 9, 'pitch': -5.27, 'roll': -1.7, 'pres': 200}
{'lipoC2': 0.0, 'lipoC3S1': 4.0, 'temp': 25.81, 'lipoC3S3': 12.13, 'lipoC3S2': 8.0, 'rot1': 0, 'rot0': 0, 'rot3': 0, 'rot2': 0, 'state': 'normal', 'yaw': 20.63, 'datetime': '2018-10-03 16:57:16.950393', 'mgs': 0, 'volt': 0.9766, 'depth': 2.759, 'time': 9, 'pitch': -5.11, 'roll': 0.65, 'pres': 200}
{'lipoC2': 0.0, 'lipoC3S1': 4.0, 'temp': 25.69, 'lipoC3S3': 12.13, 'lipoC3S2': 8.01, 'rot1': 0, 'rot0': 0, 'rot3': 0, 'rot2': 0, 'state': 'normal', 'yaw': 22.01, 'datetime': '2018-10-03 16:57:17.048337', 'mgs': 0, 'volt': 0.9766, 'depth': 2.759, 'time': 9, 'pitch': -4.91, 'roll': 2.56, 'pres': 200}
{'lipoC2': 0.0, 'lipoC3S1': 4.0, 'temp': 25.69, 'lipoC3S3': 12.13, 'lipoC3S2': 8.01, 'rot1': 0, 'rot0': 0, 'rot3': 0, 'rot2': 0, 'state': 'normal', 'yaw': 23.56, 'datetime': '2018-10-03 16:57:17.151511', 'mgs': 0, 'volt': 0.9766, 'depth': 2.759, 'time': 9, 'pitch': -4.8, 'roll': 3.99, 'pres': 200}
{'lipoC2': 0.0, 'lipoC3S1': 4.0, 'temp': 25.75, 'lipoC3S3': 12.13, 'lipoC3S2': 8.01, 'rot1': 0, 'rot0': 0, 'rot3': 0, 'rot2': 0, 'state': 'normal', 'yaw': 25.04, 'datetime': '2018-10-03 16:57:17.254836', 'mgs': 0, 'volt': 0.9766, 'depth': 2.759, 'time': 9, 'pitch': -4.9, 'roll': 4.91, 'pres': 200}
{'lipoC2': 0.0, 'lipoC3S1': 4.0, 'temp': 25.75, 'lipoC3S3': 12.13, 'lipoC3S2': 8.01, 'rot1': 0, 'rot0': 0, 'rot3': 0, 'rot2': 0, 'state': 'normal', 'yaw': 26.36, 'datetime': '2018-10-03 16:57:17.358077', 'mgs': 0, 'volt': 0.9766, 'depth': 2.759, 'time': 10, 'pitch': -5.03, 'roll': 5.36, 'pres': 200}
{'lipoC2': 0.0, 'lipoC3S1': 4.0, 'temp': 25.75, 'lipoC3S3': 12.13, 'lipoC3S2': 8.01, 'rot1': 0, 'rot0': 0, 'rot3': 0, 'rot2': 0, 'state': 'normal', 'yaw': 27.07, 'datetime': '2018-10-03 16:57:17.461301', 'mgs': 0, 'volt': 0.9766, 'depth': 2.759, 'time': 10, 'pitch': -4.98, 'roll': 5.35, 'pres': 200}
{'lipoC2': 0.0, 'lipoC3S1': 4.0, 'temp': 25.75, 'lipoC3S3': 12.13, 'lipoC3S2': 8.01, 'rot1': 0, 'rot0': 0, 'rot3': 0, 'rot2': 0, 'state': 'normal', 'yaw': 27.28, 'datetime': '2018-10-03 16:57:17.564561', 'mgs': 0, 'volt': 0.9766, 'depth': 2.759, 'time': 10, 'pitch': -4.52, 'roll': 5.05, 'pres': 200}
{'lipoC2': 0.0, 'lipoC3S1': 4.0, 'temp': 25.75, 'lipoC3S3': 12.13, 'lipoC3S2': 8.0, 'rot1': 0, 'rot0': 0, 'rot3': 0, 'rot2': 0, 'state': 'normal', 'yaw': 27.0, 'datetime': '2018-10-03 16:57:17.667843', 'mgs': 0, 'volt': 0.9766, 'depth': 2.759, 'time': 10, 'pitch': -4.11, 'roll': 4.38, 'pres': 200}
{'lipoC2': 0.0, 'lipoC3S1': 4.0, 'temp': 25.75, 'lipoC3S3': 12.13, 'lipoC3S2': 8.01, 'rot1': 0, 'rot0': 0, 'rot3': 0, 'rot2': 0, 'state': 'normal', 'yaw': 26.55, 'datetime': '2018-10-03 16:57:17.771096', 'mgs': 0, 'volt': 0.9766, 'depth': 2.759, 'time': 10, 'pitch': -4.18, 'roll': 3.44, 'pres': 200}
{'lipoC2': 0.0, 'lipoC3S1': 4.0, 'temp': 25.75, 'lipoC3S3': 12.13, 'lipoC3S2': 8.0, 'rot1': 0, 'rot0': 0, 'rot3': 0, 'rot2': 0, 'state': 'normal', 'yaw': 25.73, 'datetime': '2018-10-03 16:57:17.878827', 'mgs': 0, 'volt': 0.9766, 'depth': 2.759, 'time': 10, 'pitch': -4.56, 'roll': 2.43, 'pres': 200}
{'lipoC2': 0.0, 'lipoC3S1': 4.0, 'temp': 25.75, 'lipoC3S3': 12.13, 'lipoC3S2': 8.01, 'rot1': 0, 'rot0': 0, 'rot3': 0, 'rot2': 0, 'state': 'normal', 'yaw': 24.36, 'datetime': '2018-10-03 16:57:17.983656', 'mgs': 0, 'volt': 0.9766, 'depth': 2.759, 'time': 10, 'pitch': -5.09, 'roll': 1.4, 'pres': 200}
{'lipoC2': 0.0, 'lipoC3S1': 4.0, 'temp': 25.75, 'lipoC3S3': 12.13, 'lipoC3S2': 8.0, 'rot1': 0, 'rot0': 0, 'rot3': 0, 'rot2': 0, 'state': 'normal', 'yaw': 22.88, 'datetime': '2018-10-03 16:57:18.086933', 'mgs': 0, 'volt': 0.9717, 'depth': 2.682, 'time': 10, 'pitch': -5.62, 'roll': 0.52, 'pres': 199}
{'lipoC2': 0.0, 'lipoC3S1': 4.0, 'temp': 25.75, 'lipoC3S3': 12.13, 'lipoC3S2': 8.01, 'rot1': 0, 'rot0': 0, 'rot3': 0, 'rot2': 0, 'state': 'normal', 'yaw': 21.45, 'datetime': '2018-10-03 16:57:18.190592', 'mgs': 0, 'volt': 0.9717, 'depth': 2.682, 'time': 10, 'pitch': -6.28, 'roll': -0.4, 'pres': 199}
{'lipoC2': 0.0, 'lipoC3S1': 4.0, 'temp': 25.75, 'lipoC3S3': 12.13, 'lipoC3S2': 8.01, 'rot1': 0, 'rot0': 0, 'rot3': 0, 'rot2': 0, 'state': 'normal', 'yaw': 20.04, 'datetime': '2018-10-03 16:57:18.294787', 'mgs': 0, 'volt': 0.9717, 'depth': 2.682, 'time': 10, 'pitch': -7.02, 'roll': -1.47, 'pres': 199}
{'lipoC2': 0.0, 'lipoC3S1': 4.0, 'temp': 25.75, 'lipoC3S3': 12.13, 'lipoC3S2': 8.0, 'rot1': 0, 'rot0': 0, 'rot3': 0, 'rot2': 0, 'state': 'normal', 'yaw': 18.97, 'datetime': '2018-10-03 16:57:18.398244', 'mgs': 0, 'volt': 0.9668, 'depth': 2.606, 'time': 11, 'pitch': -7.44, 'roll': -2.5, 'pres': 198}
{'lipoC2': 0.0, 'lipoC3S1': 4.0, 'temp': 25.75, 'lipoC3S3': 12.13, 'lipoC3S2': 8.0, 'rot1': 0, 'rot0': 0, 'rot3': 0, 'rot2': 0, 'state': 'normal', 'yaw': 18.06, 'datetime': '2018-10-03 16:57:18.502729', 'mgs': 0, 'volt': 0.9668, 'depth': 2.606, 'time': 11, 'pitch': -7.34, 'roll': -3.51, 'pres': 198}
{'lipoC2': 0.0, 'lipoC3S1': 4.0, 'temp': 25.75, 'lipoC3S3': 12.13, 'lipoC3S2': 8.0, 'rot1': 0, 'rot0': 0, 'rot3': 0, 'rot2': 0, 'state': 'normal', 'yaw': 17.15, 'datetime': '2018-10-03 16:57:18.606021', 'mgs': 0, 'volt': 0.9668, 'depth': 2.606, 'time': 11, 'pitch': -6.81, 'roll': -4.52, 'pres': 198}
{'lipoC2': 0.0, 'lipoC3S1': 4.0, 'temp': 25.69, 'lipoC3S3': 12.13, 'lipoC3S2': 8.0, 'rot1': 0, 'rot0': 0, 'rot3': 0, 'rot2': 0, 'state': 'normal', 'yaw': 16.37, 'datetime': '2018-10-03 16:57:18.709215', 'mgs': 0, 'volt': 0.9668, 'depth': 2.606, 'time': 11, 'pitch': -6.27, 'roll': -5.22, 'pres': 198}
{'lipoC2': 0.0, 'lipoC3S1': 4.0, 'temp': 25.69, 'lipoC3S3': 12.13, 'lipoC3S2': 8.01, 'rot1': 0, 'rot0': 0, 'rot3': 0, 'rot2': 0, 'state': 'normal', 'yaw': 15.63, 'datetime': '2018-10-03 16:57:18.812506', 'mgs': 0, 'volt': 0.9619, 'depth': 2.53, 'time': 11, 'pitch': -5.87, 'roll': -5.69, 'pres': 197}
{'lipoC2': 0.0, 'lipoC3S1': 4.0, 'temp': 25.69, 'lipoC3S3': 12.13, 'lipoC3S2': 8.0, 'rot1': 0, 'rot0': 0, 'rot3': 0, 'rot2': 0, 'state': 'normal', 'yaw': 14.91, 'datetime': '2018-10-03 16:57:18.916061', 'mgs': 0, 'volt': 0.9668, 'depth': 2.606, 'time': 11, 'pitch': -5.8, 'roll': -5.91, 'pres': 198}
{'lipoC2': 0.0, 'lipoC3S1': 4.0, 'temp': 25.75, 'lipoC3S3': 12.13, 'lipoC3S2': 8.01, 'rot1': 0, 'rot0': 0, 'rot3': 0, 'rot2': 0, 'state': 'normal', 'yaw': 14.09, 'datetime': '2018-10-03 16:57:19.019316', 'mgs': 0, 'volt': 0.9619, 'depth': 2.53, 'time': 11, 'pitch': -6.02, 'roll': -5.83, 'pres': 197}
{'lipoC2': 0.0, 'lipoC3S1': 4.0, 'temp': 25.75, 'lipoC3S3': 12.13, 'lipoC3S2': 8.01, 'rot1': 0, 'rot0': 0, 'rot3': 0, 'rot2': 0, 'state': 'normal', 'yaw': 13.23, 'datetime': '2018-10-03 16:57:19.122561', 'mgs': 0, 'volt': 0.9619, 'depth': 2.53, 'time': 11, 'pitch': -6.28, 'roll': -5.4, 'pres': 197}
{'lipoC2': 0.0, 'lipoC3S1': 4.0, 'temp': 25.75, 'lipoC3S3': 12.13, 'lipoC3S2': 8.0, 'rot1': 0, 'rot0': 0, 'rot3': 0, 'rot2': 0, 'state': 'normal', 'yaw': 12.19, 'datetime': '2018-10-03 16:57:19.225840', 'mgs': 0, 'volt': 0.9619, 'depth': 2.53, 'time': 11, 'pitch': -6.48, 'roll': -4.61, 'pres': 197}
{'lipoC2': 0.0, 'lipoC3S1': 4.0, 'temp': 25.75, 'lipoC3S3': 12.13, 'lipoC3S2': 8.01, 'rot1': 0, 'rot0': 0, 'rot3': 0, 'rot2': 0, 'state': 'normal', 'yaw': 10.99, 'datetime': '2018-10-03 16:57:19.329204', 'mgs': 0, 'volt': 0.9668, 'depth': 2.606, 'time': 11, 'pitch': -6.55, 'roll': -3.44, 'pres': 198}
{'lipoC2': 0.0, 'lipoC3S1': 4.0, 'temp': 25.81, 'lipoC3S3': 12.13, 'lipoC3S2': 8.01, 'rot1': 0, 'rot0': 0, 'rot3': 0, 'rot2': 0, 'state': 'normal', 'yaw': 10.31, 'datetime': '2018-10-03 16:57:19.432387', 'mgs': 0, 'volt': 0.9668, 'depth': 2.606, 'time': 12, 'pitch': -6.28, 'roll': -2.41, 'pres': 198}
{'lipoC2': 0.0, 'lipoC3S1': 4.0, 'temp': 25.81, 'lipoC3S3': 12.13, 'lipoC3S2': 8.0, 'rot1': 0, 'rot0': 0, 'rot3': 0, 'rot2': 0, 'state': 'normal', 'yaw': 10.07, 'datetime': '2018-10-03 16:57:19.535599', 'mgs': 0, 'volt': 0.9668, 'depth': 2.606, 'time': 12, 'pitch': -5.76, 'roll': -1.59, 'pres': 198}
{'lipoC2': 0.0, 'lipoC3S1': 4.0, 'temp': 25.81, 'lipoC3S3': 12.13, 'lipoC3S2': 8.01, 'rot1': 0, 'rot0': 0, 'rot3': 0, 'rot2': 0, 'state': 'normal', 'yaw': 10.35, 'datetime': '2018-10-03 16:57:19.638827', 'mgs': 0, 'volt': 0.9717, 'depth': 2.682, 'time': 12, 'pitch': -5.38, 'roll': -0.95, 'pres': 199}
{'lipoC2': 0.0, 'lipoC3S1': 4.0, 'temp': 25.75, 'lipoC3S3': 12.13, 'lipoC3S2': 8.01, 'rot1': 0, 'rot0': 0, 'rot3': 0, 'rot2': 0, 'state': 'normal', 'yaw': 11.03, 'datetime': '2018-10-03 16:57:19.742161', 'mgs': 0, 'volt': 0.9668, 'depth': 2.606, 'time': 12, 'pitch': -5.53, 'roll': -0.61, 'pres': 198}
{'lipoC2': 0.0, 'lipoC3S1': 4.0, 'temp': 25.75, 'lipoC3S3': 12.13, 'lipoC3S2': 8.01, 'rot1': 0, 'rot0': 0, 'rot3': 0, 'rot2': 0, 'state': 'normal', 'yaw': 11.55, 'datetime': '2018-10-03 16:57:19.847801', 'mgs': 0, 'volt': 0.9668, 'depth': 2.606, 'time': 12, 'pitch': -5.9, 'roll': -0.19, 'pres': 198}
{'lipoC2': 0.0, 'lipoC3S1': 4.0, 'temp': 25.69, 'lipoC3S3': 12.13, 'lipoC3S2': 8.01, 'rot1': 0, 'rot0': 0, 'rot3': 0, 'rot2': 0, 'state': 'normal', 'yaw': 11.58, 'datetime': '2018-10-03 16:57:19.950031', 'mgs': 0, 'volt': 0.9668, 'depth': 2.606, 'time': 12, 'pitch': -6.04, 'roll': 0.66, 'pres': 198}
{'lipoC2': 0.0, 'lipoC3S1': 4.0, 'temp': 25.69, 'lipoC3S3': 12.13, 'lipoC3S2': 8.0, 'rot1': 0, 'rot0': 0, 'rot3': 0, 'rot2': 0, 'state': 'normal', 'yaw': 11.62, 'datetime': '2018-10-03 16:57:20.053149', 'mgs': 0, 'volt': 0.9668, 'depth': 2.606, 'time': 12, 'pitch': -6.05, 'roll': 1.41, 'pres': 198}
{'lipoC2': 0.0, 'lipoC3S1': 4.0, 'temp': 25.75, 'lipoC3S3': 12.13, 'lipoC3S2': 8.01, 'rot1': 0, 'rot0': 0, 'rot3': 0, 'rot2': 0, 'state': 'normal', 'yaw': 11.92, 'datetime': '2018-10-03 16:57:20.157681', 'mgs': 0, 'volt': 0.9717, 'depth': 2.682, 'time': 12, 'pitch': -6.16, 'roll': 1.94, 'pres': 199}
{'lipoC2': 0.0, 'lipoC3S1': 4.0, 'temp': 25.75, 'lipoC3S3': 12.13, 'lipoC3S2': 8.01, 'rot1': 0, 'rot0': 0, 'rot3': 0, 'rot2': 0, 'state': 'normal', 'yaw': 12.62, 'datetime': '2018-10-03 16:57:20.260823', 'mgs': 0, 'volt': 0.9717, 'depth': 2.682, 'time': 12, 'pitch': -6.26, 'roll': 2.19, 'pres': 199}
{'lipoC2': 0.0, 'lipoC3S1': 4.0, 'temp': 25.75, 'lipoC3S3': 12.13, 'lipoC3S2': 8.0, 'rot1': 0, 'rot0': 0, 'rot3': 0, 'rot2': 0, 'state': 'normal', 'yaw': 13.37, 'datetime': '2018-10-03 16:57:20.362523', 'mgs': 0, 'volt': 0.9717, 'depth': 2.682, 'time': 13, 'pitch': -6.34, 'roll': 2.23, 'pres': 199}
{'lipoC2': 0.0, 'lipoC3S1': 4.0, 'temp': 25.75, 'lipoC3S3': 12.13, 'lipoC3S2': 8.0, 'rot1': 0, 'rot0': 0, 'rot3': 0, 'rot2': 0, 'state': 'normal', 'yaw': 13.83, 'datetime': '2018-10-03 16:57:20.461568', 'mgs': 0, 'volt': 0.9717, 'depth': 2.682, 'time': 13, 'pitch': -6.3, 'roll': 2.51, 'pres': 199}
{'lipoC2': 0.0, 'lipoC3S1': 4.0, 'temp': 25.75, 'lipoC3S3': 12.13, 'lipoC3S2': 8.0, 'rot1': 0, 'rot0': 0, 'rot3': 0, 'rot2': 0, 'state': 'normal', 'yaw': 14.26, 'datetime': '2018-10-03 16:57:20.565040', 'mgs': 0, 'volt': 0.9717, 'depth': 2.682, 'time': 13, 'pitch': -6.62, 'roll': 3.01, 'pres': 199}
{'lipoC2': 0.0, 'lipoC3S1': 4.0, 'temp': 25.75, 'lipoC3S3': 12.13, 'lipoC3S2': 8.01, 'rot1': 0, 'rot0': 0, 'rot3': 0, 'rot2': 0, 'state': 'normal', 'yaw': 14.65, 'datetime': '2018-10-03 16:57:20.668293', 'mgs': 0, 'volt': 0.9717, 'depth': 2.682, 'time': 13, 'pitch': -7.05, 'roll': 3.83, 'pres': 199}
{'lipoC2': 0.0, 'lipoC3S1': 4.0, 'temp': 25.75, 'lipoC3S3': 12.13, 'lipoC3S2': 8.01, 'rot1': 0, 'rot0': 0, 'rot3': 0, 'rot2': 0, 'state': 'normal', 'yaw': 14.78, 'datetime': '2018-10-03 16:57:20.771598', 'mgs': 0, 'volt': 0.9717, 'depth': 2.682, 'time': 13, 'pitch': -7.07, 'roll': 4.84, 'pres': 199}
{'lipoC2': 0.0, 'lipoC3S1': 4.0, 'temp': 25.81, 'lipoC3S3': 12.13, 'lipoC3S2': 8.01, 'rot1': 0, 'rot0': 0, 'rot3': 0, 'rot2': 0, 'state': 'normal', 'yaw': 14.91, 'datetime': '2018-10-03 16:57:20.875070', 'mgs': 0, 'volt': 0.9717, 'depth': 2.682, 'time': 13, 'pitch': -7.03, 'roll': 5.85, 'pres': 199}
{'lipoC2': 0.0, 'lipoC3S1': 4.0, 'temp': 25.81, 'lipoC3S3': 12.13, 'lipoC3S2': 8.01, 'rot1': 0, 'rot0': 0, 'rot3': 0, 'rot2': 0, 'state': 'normal', 'yaw': 15.29, 'datetime': '2018-10-03 16:57:20.978142', 'mgs': 0, 'volt': 0.9717, 'depth': 2.682, 'time': 13, 'pitch': -7.31, 'roll': 6.71, 'pres': 199}
{'lipoC2': 0.0, 'lipoC3S1': 4.0, 'temp': 25.81, 'lipoC3S3': 12.13, 'lipoC3S2': 8.0, 'rot1': 0, 'rot0': 0, 'rot3': 0, 'rot2': 0, 'state': 'normal', 'yaw': 15.84, 'datetime': '2018-10-03 16:57:21.081428', 'mgs': 0, 'volt': 0.9766, 'depth': 2.759, 'time': 13, 'pitch': -7.74, 'roll': 7.26, 'pres': 200}
{'lipoC2': 0.0, 'lipoC3S1': 4.0, 'temp': 25.81, 'lipoC3S3': 12.13, 'lipoC3S2': 8.01, 'rot1': 0, 'rot0': 0, 'rot3': 0, 'rot2': 0, 'state': 'normal', 'yaw': 16.35, 'datetime': '2018-10-03 16:57:21.185302', 'mgs': 0, 'volt': 0.9766, 'depth': 2.759, 'time': 13, 'pitch': -8.01, 'roll': 7.69, 'pres': 200}
{'lipoC2': 0.0, 'lipoC3S1': 4.0, 'temp': 25.81, 'lipoC3S3': 12.13, 'lipoC3S2': 8.01, 'rot1': 0, 'rot0': 0, 'rot3': 0, 'rot2': 0, 'state': 'normal', 'yaw': 16.57, 'datetime': '2018-10-03 16:57:21.288577', 'mgs': 0, 'volt': 0.9717, 'depth': 2.682, 'time': 13, 'pitch': -7.65, 'roll': 8.18, 'pres': 199}
{'lipoC2': 0.0, 'lipoC3S1': 4.0, 'temp': 25.75, 'lipoC3S3': 12.13, 'lipoC3S2': 8.01, 'rot1': 0, 'rot0': 0, 'rot3': 0, 'rot2': 0, 'state': 'normal', 'yaw': 16.64, 'datetime': '2018-10-03 16:57:21.391835', 'mgs': 0, 'volt': 0.9766, 'depth': 2.759, 'time': 14, 'pitch': -7.13, 'roll': 8.5, 'pres': 200}
{'lipoC2': 0.0, 'lipoC3S1': 4.0, 'temp': 25.75, 'lipoC3S3': 12.13, 'lipoC3S2': 8.0, 'rot1': 0, 'rot0': 0, 'rot3': 0, 'rot2': 0, 'state': 'normal', 'yaw': 16.68, 'datetime': '2018-10-03 16:57:21.496398', 'mgs': 0, 'volt': 0.9766, 'depth': 2.759, 'time': 14, 'pitch': -6.69, 'roll': 8.55, 'pres': 200}
{'lipoC2': 0.0, 'lipoC3S1': 4.0, 'temp': 25.75, 'lipoC3S3': 12.13, 'lipoC3S2': 8.01, 'rot1': 0, 'rot0': 0, 'rot3': 0, 'rot2': 0, 'state': 'normal', 'yaw': 16.51, 'datetime': '2018-10-03 16:57:21.599705', 'mgs': 0, 'volt': 0.9717, 'depth': 2.682, 'time': 14, 'pitch': -6.44, 'roll': 8.42, 'pres': 199}
{'lipoC2': 0.0, 'lipoC3S1': 4.0, 'temp': 25.75, 'lipoC3S3': 12.13, 'lipoC3S2': 8.01, 'rot1': 0, 'rot0': 0, 'rot3': 0, 'rot2': 0, 'state': 'normal', 'yaw': 16.12, 'datetime': '2018-10-03 16:57:21.702983', 'mgs': 0, 'volt': 0.9717, 'depth': 2.682, 'time': 14, 'pitch': -6.52, 'roll': 8.14, 'pres': 199}
{'lipoC2': 0.0, 'lipoC3S1': 4.0, 'temp': 25.75, 'lipoC3S3': 12.13, 'lipoC3S2': 8.0, 'rot1': 0, 'rot0': 0, 'rot3': 0, 'rot2': 0, 'state': 'normal', 'yaw': 15.47, 'datetime': '2018-10-03 16:57:21.807523', 'mgs': 0, 'volt': 0.9717, 'depth': 2.682, 'time': 14, 'pitch': -6.77, 'roll': 7.77, 'pres': 199}
{'lipoC2': 0.0, 'lipoC3S1': 4.0, 'temp': 25.75, 'lipoC3S3': 12.13, 'lipoC3S2': 8.01, 'rot1': 0, 'rot0': 0, 'rot3': 0, 'rot2': 0, 'state': 'normal', 'yaw': 14.48, 'datetime': '2018-10-03 16:57:21.910768', 'mgs': 0, 'volt': 0.9717, 'depth': 2.682, 'time': 14, 'pitch': -7.15, 'roll': 7.29, 'pres': 199}
{'lipoC2': 0.0, 'lipoC3S1': 4.0, 'temp': 25.75, 'lipoC3S3': 12.13, 'lipoC3S2': 8.0, 'rot1': 0, 'rot0': 0, 'rot3': 0, 'rot2': 0, 'state': 'normal', 'yaw': 13.29, 'datetime': '2018-10-03 16:57:22.014071', 'mgs': 0, 'volt': 0.9717, 'depth': 2.682, 'time': 14, 'pitch': -7.42, 'roll': 6.85, 'pres': 199}
{'lipoC2': 0.0, 'lipoC3S1': 4.0, 'temp': 25.69, 'lipoC3S3': 12.13, 'lipoC3S2': 8.01, 'rot1': 0, 'rot0': 0, 'rot3': 0, 'rot2': 0, 'state': 'normal', 'yaw': 11.8, 'datetime': '2018-10-03 16:57:22.117355', 'mgs': 0, 'volt': 0.9668, 'depth': 2.606, 'time': 14, 'pitch': -7.39, 'roll': 6.39, 'pres': 198}
{'lipoC2': 0.0, 'lipoC3S1': 4.0, 'temp': 25.69, 'lipoC3S3': 12.13, 'lipoC3S2': 8.0, 'rot1': 0, 'rot0': 0, 'rot3': 0, 'rot2': 0, 'state': 'normal', 'yaw': 10.31, 'datetime': '2018-10-03 16:57:22.220639', 'mgs': 0, 'volt': 0.9668, 'depth': 2.606, 'time': 14, 'pitch': -7.21, 'roll': 5.49, 'pres': 198}
{'lipoC2': 0.0, 'lipoC3S1': 4.0, 'temp': 25.69, 'lipoC3S3': 12.13, 'lipoC3S2': 8.01, 'rot1': 0, 'rot0': 0, 'rot3': 0, 'rot2': 0, 'state': 'normal', 'yaw': 9.1, 'datetime': '2018-10-03 16:57:22.323902', 'mgs': 0, 'volt': 0.9668, 'depth': 2.606, 'time': 14, 'pitch': -6.98, 'roll': 4.38, 'pres': 198}
{'lipoC2': 0.0, 'lipoC3S1': 4.0, 'temp': 25.69, 'lipoC3S3': 12.13, 'lipoC3S2': 8.01, 'rot1': 0, 'rot0': 0, 'rot3': 0, 'rot2': 0, 'state': 'normal', 'yaw': 8.0, 'datetime': '2018-10-03 16:57:22.427537', 'mgs': 0, 'volt': 0.9668, 'depth': 2.606, 'time': 15, 'pitch': -6.73, 'roll': 3.11, 'pres': 198}
{'lipoC2': 0.0, 'lipoC3S1': 4.0, 'temp': 25.69, 'lipoC3S3': 12.13, 'lipoC3S2': 8.01, 'rot1': 0, 'rot0': 0, 'rot3': 0, 'rot2': 0, 'state': 'normal', 'yaw': 6.98, 'datetime': '2018-10-03 16:57:22.530634', 'mgs': 0, 'volt': 0.9619, 'depth': 2.53, 'time': 15, 'pitch': -6.41, 'roll': 1.7, 'pres': 197}
{'lipoC2': 0.0, 'lipoC3S1': 4.0, 'temp': 25.75, 'lipoC3S3': 12.13, 'lipoC3S2': 8.01, 'rot1': 0, 'rot0': 0, 'rot3': 0, 'rot2': 0, 'state': 'normal', 'yaw': 5.94, 'datetime': '2018-10-03 16:57:22.633850', 'mgs': 0, 'volt': 0.9668, 'depth': 2.606, 'time': 15, 'pitch': -6.07, 'roll': 0.1, 'pres': 198}
{'lipoC2': 0.0, 'lipoC3S1': 4.0, 'temp': 25.75, 'lipoC3S3': 12.13, 'lipoC3S2': 8.01, 'rot1': 0, 'rot0': 0, 'rot3': 0, 'rot2': 0, 'state': 'normal', 'yaw': 5.11, 'datetime': '2018-10-03 16:57:22.737103', 'mgs': 0, 'volt': 0.9619, 'depth': 2.53, 'time': 15, 'pitch': -5.79, 'roll': -1.38, 'pres': 197}
{'lipoC2': 0.0, 'lipoC3S1': 4.0, 'temp': 25.75, 'lipoC3S3': 12.13, 'lipoC3S2': 8.01, 'rot1': 0, 'rot0': 0, 'rot3': 0, 'rot2': 0, 'state': 'normal', 'yaw': 4.5, 'datetime': '2018-10-03 16:57:22.840368', 'mgs': 0, 'volt': 0.9668, 'depth': 2.606, 'time': 15, 'pitch': -5.63, 'roll': -2.83, 'pres': 198}
{'lipoC2': 0.0, 'lipoC3S1': 4.0, 'temp': 25.75, 'lipoC3S3': 12.13, 'lipoC3S2': 8.01, 'rot1': 0, 'rot0': 0, 'rot3': 0, 'rot2': 0, 'state': 'normal', 'yaw': 4.09, 'datetime': '2018-10-03 16:57:22.943581', 'mgs': 0, 'volt': 0.9668, 'depth': 2.606, 'time': 15, 'pitch': -5.65, 'roll': -4.24, 'pres': 198}
{'lipoC2': 0.0, 'lipoC3S1': 4.0, 'temp': 25.75, 'lipoC3S3': 12.13, 'lipoC3S2': 8.01, 'rot1': 0, 'rot0': 0, 'rot3': 0, 'rot2': 0, 'state': 'normal', 'yaw': 3.85, 'datetime': '2018-10-03 16:57:23.046816', 'mgs': 0, 'volt': 0.9668, 'depth': 2.606, 'time': 15, 'pitch': -5.77, 'roll': -5.22, 'pres': 198}
{'lipoC2': 0.0, 'lipoC3S1': 4.0, 'temp': 25.75, 'lipoC3S3': 12.13, 'lipoC3S2': 8.01, 'rot1': 0, 'rot0': 0, 'rot3': 0, 'rot2': 0, 'state': 'normal', 'yaw': 3.65, 'datetime': '2018-10-03 16:57:23.154694', 'mgs': 0, 'volt': 0.9668, 'depth': 2.606, 'time': 15, 'pitch': -5.76, 'roll': -5.99, 'pres': 198}
{'lipoC2': 0.0, 'lipoC3S1': 4.0, 'temp': 25.75, 'lipoC3S3': 12.13, 'lipoC3S2': 8.01, 'rot1': 0, 'rot0': 0, 'rot3': 0, 'rot2': 0, 'state': 'normal', 'yaw': 3.5, 'datetime': '2018-10-03 16:57:23.260483', 'mgs': 0, 'volt': 0.9668, 'depth': 2.606, 'time': 15, 'pitch': -5.52, 'roll': -6.61, 'pres': 198}
{'lipoC2': 0.0, 'lipoC3S1': 4.0, 'temp': 25.75, 'lipoC3S3': 12.13, 'lipoC3S2': 8.0, 'rot1': 0, 'rot0': 0, 'rot3': 0, 'rot2': 0, 'state': 'normal', 'yaw': 3.43, 'datetime': '2018-10-03 16:57:23.358642', 'mgs': 0, 'volt': 0.9668, 'depth': 2.606, 'time': 16, 'pitch': -5.29, 'roll': -6.77, 'pres': 198}
{'lipoC2': 0.0, 'lipoC3S1': 4.0, 'temp': 25.75, 'lipoC3S3': 12.13, 'lipoC3S2': 8.01, 'rot1': 0, 'rot0': 0, 'rot3': 0, 'rot2': 0, 'state': 'normal', 'yaw': 3.44, 'datetime': '2018-10-03 16:57:23.466695', 'mgs': 0, 'volt': 0.9717, 'depth': 2.682, 'time': 16, 'pitch': -5.17, 'roll': -6.54, 'pres': 199}
{'lipoC2': 0.0, 'lipoC3S1': 4.0, 'temp': 25.75, 'lipoC3S3': 12.13, 'lipoC3S2': 8.0, 'rot1': 0, 'rot0': 0, 'rot3': 0, 'rot2': 0, 'state': 'normal', 'yaw': 3.58, 'datetime': '2018-10-03 16:57:23.571518', 'mgs': 0, 'volt': 0.9766, 'depth': 2.759, 'time': 16, 'pitch': -5.21, 'roll': -5.9, 'pres': 200}
{'lipoC2': 0.0, 'lipoC3S1': 4.0, 'temp': 25.75, 'lipoC3S3': 12.13, 'lipoC3S2': 8.01, 'rot1': 0, 'rot0': 0, 'rot3': 0, 'rot2': 0, 'state': 'normal', 'yaw': 3.78, 'datetime': '2018-10-03 16:57:23.675184', 'mgs': 0, 'volt': 0.9766, 'depth': 2.759, 'time': 16, 'pitch': -5.33, 'roll': -5.06, 'pres': 200}
{'lipoC2': 0.0, 'lipoC3S1': 4.0, 'temp': 25.75, 'lipoC3S3': 12.13, 'lipoC3S2': 8.0, 'rot1': 0, 'rot0': 0, 'rot3': 0, 'rot2': 0, 'state': 'normal', 'yaw': 4.06, 'datetime': '2018-10-03 16:57:23.779597', 'mgs': 0, 'volt': 0.9766, 'depth': 2.759, 'time': 16, 'pitch': -5.49, 'roll': -4.05, 'pres': 200}
{'lipoC2': 0.0, 'lipoC3S1': 4.0, 'temp': 25.75, 'lipoC3S3': 12.13, 'lipoC3S2': 8.01, 'rot1': 0, 'rot0': 0, 'rot3': 0, 'rot2': 0, 'state': 'normal', 'yaw': 4.36, 'datetime': '2018-10-03 16:57:23.881673', 'mgs': 0, 'volt': 0.9814, 'depth': 2.835, 'time': 16, 'pitch': -5.66, 'roll': -2.84, 'pres': 201}
{'lipoC2': 0.0, 'lipoC3S1': 4.0, 'temp': 25.75, 'lipoC3S3': 12.13, 'lipoC3S2': 8.0, 'rot1': 0, 'rot0': 0, 'rot3': 0, 'rot2': 0, 'state': 'normal', 'yaw': 4.66, 'datetime': '2018-10-03 16:57:23.984866', 'mgs': 0, 'volt': 0.9814, 'depth': 2.835, 'time': 16, 'pitch': -5.7, 'roll': -1.79, 'pres': 201}
{'lipoC2': 0.0, 'lipoC3S1': 4.0, 'temp': 25.81, 'lipoC3S3': 12.13, 'lipoC3S2': 8.0, 'rot1': 0, 'rot0': 0, 'rot3': 0, 'rot2': 0, 'state': 'normal', 'yaw': 5.08, 'datetime': '2018-10-03 16:57:24.088098', 'mgs': 0, 'volt': 0.9863, 'depth': 2.911, 'time': 16, 'pitch': -5.71, 'roll': -0.8, 'pres': 202}
{'lipoC2': 0.0, 'lipoC3S1': 4.0, 'temp': 25.81, 'lipoC3S3': 12.13, 'lipoC3S2': 8.01, 'rot1': 0, 'rot0': 0, 'rot3': 0, 'rot2': 0, 'state': 'normal', 'yaw': 5.64, 'datetime': '2018-10-03 16:57:24.191527', 'mgs': 0, 'volt': 0.9912, 'depth': 2.988, 'time': 16, 'pitch': -5.73, 'roll': 0.06, 'pres': 203}
{'lipoC2': 0.0, 'lipoC3S1': 4.0, 'temp': 25.81, 'lipoC3S3': 12.13, 'lipoC3S2': 8.01, 'rot1': 0, 'rot0': 0, 'rot3': 0, 'rot2': 0, 'state': 'normal', 'yaw': 6.36, 'datetime': '2018-10-03 16:57:24.294786', 'mgs': 0, 'volt': 0.9912, 'depth': 2.988, 'time': 16, 'pitch': -5.71, 'roll': 0.77, 'pres': 203}
{'lipoC2': 0.0, 'lipoC3S1': 4.0, 'temp': 25.81, 'lipoC3S3': 12.13, 'lipoC3S2': 8.0, 'rot1': 0, 'rot0': 0, 'rot3': 0, 'rot2': 0, 'state': 'normal', 'yaw': 6.97, 'datetime': '2018-10-03 16:57:24.398087', 'mgs': 0, 'volt': 0.9961, 'depth': 3.064, 'time': 17, 'pitch': -5.53, 'roll': 1.25, 'pres': 204}
{'lipoC2': 0.0, 'lipoC3S1': 4.0, 'temp': 25.81, 'lipoC3S3': 12.13, 'lipoC3S2': 8.0, 'rot1': 0, 'rot0': 0, 'rot3': 0, 'rot2': 0, 'state': 'normal', 'yaw': 7.54, 'datetime': '2018-10-03 16:57:24.501497', 'mgs': 0, 'volt': 1.001, 'depth': 3.14, 'time': 17, 'pitch': -5.17, 'roll': 1.5, 'pres': 205}
{'lipoC2': 0.0, 'lipoC3S1': 4.0, 'temp': 25.81, 'lipoC3S3': 12.13, 'lipoC3S2': 8.01, 'rot1': 0, 'rot0': 0, 'rot3': 0, 'rot2': 0, 'state': 'normal', 'yaw': 8.18, 'datetime': '2018-10-03 16:57:24.604491', 'mgs': 0, 'volt': 1.001, 'depth': 3.14, 'time': 17, 'pitch': -4.68, 'roll': 1.55, 'pres': 205}
{'lipoC2': 0.0, 'lipoC3S1': 4.0, 'temp': 25.81, 'lipoC3S3': 12.13, 'lipoC3S2': 8.01, 'rot1': 0, 'rot0': 0, 'rot3': 0, 'rot2': 0, 'state': 'normal', 'yaw': 8.82, 'datetime': '2018-10-03 16:57:24.707791', 'mgs': 0, 'volt': 1.0059, 'depth': 3.217, 'time': 17, 'pitch': -4.32, 'roll': 1.5, 'pres': 206}
{'lipoC2': 0.0, 'lipoC3S1': 4.0, 'temp': 25.81, 'lipoC3S3': 12.13, 'lipoC3S2': 8.0, 'rot1': 0, 'rot0': 0, 'rot3': 0, 'rot2': 0, 'state': 'normal', 'yaw': 9.49, 'datetime': '2018-10-03 16:57:24.812299', 'mgs': 0, 'volt': 1.0059, 'depth': 3.217, 'time': 17, 'pitch': -4.11, 'roll': 1.42, 'pres': 206}
{'lipoC2': 0.0, 'lipoC3S1': 4.0, 'temp': 25.81, 'lipoC3S3': 12.13, 'lipoC3S2': 8.01, 'rot1': 0, 'rot0': 0, 'rot3': 0, 'rot2': 0, 'state': 'normal', 'yaw': 10.19, 'datetime': '2018-10-03 16:57:24.908989', 'mgs': 0, 'volt': 1.0107, 'depth': 3.293, 'time': 17, 'pitch': -4.03, 'roll': 1.29, 'pres': 207}
{'lipoC2': 0.0, 'lipoC3S1': 4.0, 'temp': 25.75, 'lipoC3S3': 12.13, 'lipoC3S2': 8.0, 'rot1': 0, 'rot0': 0, 'rot3': 0, 'rot2': 0, 'state': 'normal', 'yaw': 10.74, 'datetime': '2018-10-03 16:57:25.012235', 'mgs': 0, 'volt': 1.0156, 'depth': 3.369, 'time': 17, 'pitch': -4.04, 'roll': 1.17, 'pres': 208}
{'lipoC2': 0.0, 'lipoC3S1': 4.0, 'temp': 25.75, 'lipoC3S3': 12.13, 'lipoC3S2': 8.0, 'rot1': 0, 'rot0': 0, 'rot3': 0, 'rot2': 0, 'state': 'normal', 'yaw': 11.17, 'datetime': '2018-10-03 16:57:25.116782', 'mgs': 0, 'volt': 1.0156, 'depth': 3.369, 'time': 17, 'pitch': -4.05, 'roll': 1.05, 'pres': 208}
{'lipoC2': 0.0, 'lipoC3S1': 4.0, 'temp': 25.75, 'lipoC3S3': 12.13, 'lipoC3S2': 8.01, 'rot1': 0, 'rot0': 0, 'rot3': 0, 'rot2': 0, 'state': 'normal', 'yaw': 11.51, 'datetime': '2018-10-03 16:57:25.220033', 'mgs': 0, 'volt': 1.0205, 'depth': 3.445, 'time': 17, 'pitch': -3.96, 'roll': 0.87, 'pres': 209}
{'lipoC2': 0.0, 'lipoC3S1': 4.0, 'temp': 25.75, 'lipoC3S3': 12.13, 'lipoC3S2': 8.01, 'rot1': 0, 'rot0': 0, 'rot3': 0, 'rot2': 0, 'state': 'normal', 'yaw': 11.68, 'datetime': '2018-10-03 16:57:25.323340', 'mgs': 0, 'volt': 1.0205, 'depth': 3.445, 'time': 17, 'pitch': -3.79, 'roll': 0.63, 'pres': 209}
{'lipoC2': 0.0, 'lipoC3S1': 4.0, 'temp': 25.75, 'lipoC3S3': 12.13, 'lipoC3S2': 8.01, 'rot1': 0, 'rot0': 0, 'rot3': 0, 'rot2': 0, 'state': 'normal', 'yaw': 11.77, 'datetime': '2018-10-03 16:57:25.426582', 'mgs': 0, 'volt': 1.0254, 'depth': 3.522, 'time': 18, 'pitch': -3.64, 'roll': 0.39, 'pres': 210}
{'lipoC2': 0.0, 'lipoC3S1': 4.0, 'temp': 25.81, 'lipoC3S3': 12.13, 'lipoC3S2': 8.0, 'rot1': 0, 'rot0': 0, 'rot3': 0, 'rot2': 0, 'state': 'normal', 'yaw': 11.76, 'datetime': '2018-10-03 16:57:25.529833', 'mgs': 0, 'volt': 1.0254, 'depth': 3.522, 'time': 18, 'pitch': -3.56, 'roll': 0.18, 'pres': 210}
{'lipoC2': 0.0, 'lipoC3S1': 4.0, 'temp': 25.81, 'lipoC3S3': 12.13, 'lipoC3S2': 8.01, 'rot1': 0, 'rot0': 0, 'rot3': 0, 'rot2': 0, 'state': 'normal', 'yaw': 11.8, 'datetime': '2018-10-03 16:57:25.639267', 'mgs': 0, 'volt': 1.0205, 'depth': 3.445, 'time': 18, 'pitch': -3.98, 'roll': -0.16, 'pres': 209}
{'lipoC2': 0.0, 'lipoC3S1': 4.0, 'temp': 25.81, 'lipoC3S3': 12.13, 'lipoC3S2': 8.01, 'rot1': 0, 'rot0': 0, 'rot3': 0, 'rot2': 0, 'state': 'normal', 'yaw': 11.91, 'datetime': '2018-10-03 16:57:25.743045', 'mgs': 0, 'volt': 1.0254, 'depth': 3.522, 'time': 18, 'pitch': -4.32, 'roll': -0.19, 'pres': 210}
{'lipoC2': 0.0, 'lipoC3S1': 4.0, 'temp': 25.81, 'lipoC3S3': 12.13, 'lipoC3S2': 8.01, 'rot1': 0, 'rot0': 0, 'rot3': 0, 'rot2': 0, 'state': 'normal', 'yaw': 11.95, 'datetime': '2018-10-03 16:57:25.840516', 'mgs': 0, 'volt': 1.0254, 'depth': 3.522, 'time': 18, 'pitch': -4.59, 'roll': -0.22, 'pres': 210}
{'lipoC2': 0.0, 'lipoC3S1': 4.0, 'temp': 25.81, 'lipoC3S3': 12.13, 'lipoC3S2': 8.0, 'rot1': 0, 'rot0': 0, 'rot3': 0, 'rot2': 0, 'state': 'normal', 'yaw': 11.96, 'datetime': '2018-10-03 16:57:25.943787', 'mgs': 0, 'volt': 1.0205, 'depth': 3.445, 'time': 18, 'pitch': -4.84, 'roll': -0.32, 'pres': 209}
{'lipoC2': 0.0, 'lipoC3S1': 4.0, 'temp': 25.75, 'lipoC3S3': 12.13, 'lipoC3S2': 8.0, 'rot1': 0, 'rot0': 0, 'rot3': 0, 'rot2': 0, 'state': 'normal', 'yaw': 11.96, 'datetime': '2018-10-03 16:57:26.047005', 'mgs': 0, 'volt': 1.0205, 'depth': 3.445, 'time': 18, 'pitch': -5.05, 'roll': -0.33, 'pres': 209}
{'lipoC2': 0.0, 'lipoC3S1': 4.0, 'temp': 25.75, 'lipoC3S3': 12.13, 'lipoC3S2': 8.0, 'rot1': 0, 'rot0': 0, 'rot3': 0, 'rot2': 0, 'state': 'normal', 'yaw': 11.96, 'datetime': '2018-10-03 16:57:26.151035', 'mgs': 0, 'volt': 1.0205, 'depth': 3.445, 'time': 18, 'pitch': -5.28, 'roll': -0.34, 'pres': 209}
{'lipoC2': 0.0, 'lipoC3S1': 4.0, 'temp': 25.81, 'lipoC3S3': 12.13, 'lipoC3S2': 8.01, 'rot1': 0, 'rot0': 0, 'rot3': 0, 'rot2': 0, 'state': 'normal', 'yaw': 11.94, 'datetime': '2018-10-03 16:57:26.254240', 'mgs': 0, 'volt': 1.0205, 'depth': 3.445, 'time': 18, 'pitch': -5.51, 'roll': -0.22, 'pres': 209}
{'lipoC2': 0.0, 'lipoC3S1': 4.0, 'temp': 25.81, 'lipoC3S3': 12.13, 'lipoC3S2': 8.0, 'rot1': 0, 'rot0': 0, 'rot3': 0, 'rot2': 0, 'state': 'normal', 'yaw': 11.94, 'datetime': '2018-10-03 16:57:26.357529', 'mgs': 0, 'volt': 1.0205, 'depth': 3.445, 'time': 19, 'pitch': -5.72, 'roll': -0.05, 'pres': 209}
{'lipoC2': 0.0, 'lipoC3S1': 4.0, 'temp': 25.81, 'lipoC3S3': 12.13, 'lipoC3S2': 8.01, 'rot1': 0, 'rot0': 0, 'rot3': 0, 'rot2': 0, 'state': 'normal', 'yaw': 11.93, 'datetime': '2018-10-03 16:57:26.462103', 'mgs': 0, 'volt': 1.0205, 'depth': 3.445, 'time': 19, 'pitch': -5.93, 'roll': 0.16, 'pres': 209}
{'lipoC2': 0.0, 'lipoC3S1': 4.0, 'temp': 25.81, 'lipoC3S3': 12.13, 'lipoC3S2': 8.01, 'rot1': 0, 'rot0': 0, 'rot3': 0, 'rot2': 0, 'state': 'normal', 'yaw': 11.93, 'datetime': '2018-10-03 16:57:26.565295', 'mgs': 0, 'volt': 1.0205, 'depth': 3.445, 'time': 19, 'pitch': -6.12, 'roll': 0.41, 'pres': 209}
{'lipoC2': 0.0, 'lipoC3S1': 4.0, 'temp': 25.81, 'lipoC3S3': 12.13, 'lipoC3S2': 8.01, 'rot1': 0, 'rot0': 0, 'rot3': 0, 'rot2': 0, 'state': 'normal', 'yaw': 11.93, 'datetime': '2018-10-03 16:57:26.668546', 'mgs': 0, 'volt': 1.0205, 'depth': 3.445, 'time': 19, 'pitch': -6.24, 'roll': 0.66, 'pres': 209}
{'lipoC2': 0.0, 'lipoC3S1': 4.0, 'temp': 25.81, 'lipoC3S3': 12.13, 'lipoC3S2': 8.0, 'rot1': 0, 'rot0': 0, 'rot3': 0, 'rot2': 0, 'state': 'normal', 'yaw': 11.92, 'datetime': '2018-10-03 16:57:26.773375', 'mgs': 0, 'volt': 1.0205, 'depth': 3.445, 'time': 19, 'pitch': -6.3, 'roll': 0.9, 'pres': 209}
{'lipoC2': 0.0, 'lipoC3S1': 4.0, 'temp': 25.81, 'lipoC3S3': 12.13, 'lipoC3S2': 8.0, 'rot1': 0, 'rot0': 0, 'rot3': 0, 'rot2': 0, 'state': 'normal', 'yaw': 11.93, 'datetime': '2018-10-03 16:57:26.876743', 'mgs': 0, 'volt': 1.0205, 'depth': 3.445, 'time': 19, 'pitch': -6.36, 'roll': 1.13, 'pres': 209}
{'lipoC2': 0.0, 'lipoC3S1': 4.0, 'temp': 25.75, 'lipoC3S3': 12.13, 'lipoC3S2': 8.01, 'rot1': 0, 'rot0': 0, 'rot3': 0, 'rot2': 0, 'state': 'normal', 'yaw': 11.92, 'datetime': '2018-10-03 16:57:26.979849', 'mgs': 0, 'volt': 1.0254, 'depth': 3.522, 'time': 19, 'pitch': -6.38, 'roll': 1.3, 'pres': 210}
{'lipoC2': 0.0, 'lipoC3S1': 4.0, 'temp': 25.75, 'lipoC3S3': 12.13, 'lipoC3S2': 8.0, 'rot1': 0, 'rot0': 0, 'rot3': 0, 'rot2': 0, 'state': 'normal', 'yaw': 11.92, 'datetime': '2018-10-03 16:57:27.083739', 'mgs': 0, 'volt': 1.0254, 'depth': 3.522, 'time': 19, 'pitch': -6.36, 'roll': 1.41, 'pres': 210}
{'lipoC2': 0.0, 'lipoC3S1': 4.0, 'temp': 25.88, 'lipoC3S3': 12.13, 'lipoC3S2': 8.01, 'rot1': 0, 'rot0': 0, 'rot3': 0, 'rot2': 0, 'state': 'normal', 'yaw': 11.92, 'datetime': '2018-10-03 16:57:27.186960', 'mgs': 0, 'volt': 1.0254, 'depth': 3.522, 'time': 19, 'pitch': -6.29, 'roll': 1.44, 'pres': 210}
{'lipoC2': 0.0, 'lipoC3S1': 4.0, 'temp': 25.88, 'lipoC3S3': 12.13, 'lipoC3S2': 8.01, 'rot1': 0, 'rot0': 0, 'rot3': 0, 'rot2': 0, 'state': 'normal', 'yaw': 11.93, 'datetime': '2018-10-03 16:57:27.290220', 'mgs': 0, 'volt': 1.0254, 'depth': 3.522, 'time': 19, 'pitch': -6.19, 'roll': 1.44, 'pres': 210}
{'lipoC2': 0.0, 'lipoC3S1': 4.0, 'temp': 25.88, 'lipoC3S3': 12.13, 'lipoC3S2': 8.0, 'rot1': 0, 'rot0': 0, 'rot3': 0, 'rot2': 0, 'state': 'normal', 'yaw': 11.93, 'datetime': '2018-10-03 16:57:27.393493', 'mgs': 0, 'volt': 1.0254, 'depth': 3.522, 'time': 20, 'pitch': -5.99, 'roll': 1.25, 'pres': 210}
{'lipoC2': 0.0, 'lipoC3S1': 4.0, 'temp': 25.81, 'lipoC3S3': 12.13, 'lipoC3S2': 8.01, 'rot1': 0, 'rot0': 0, 'rot3': 0, 'rot2': 0, 'state': 'normal', 'yaw': 11.94, 'datetime': '2018-10-03 16:57:27.496720', 'mgs': 0, 'volt': 1.0254, 'depth': 3.522, 'time': 20, 'pitch': -5.75, 'roll': 0.96, 'pres': 210}
{'lipoC2': 0.0, 'lipoC3S1': 4.0, 'temp': 25.81, 'lipoC3S3': 12.13, 'lipoC3S2': 8.01, 'rot1': 0, 'rot0': 0, 'rot3': 0, 'rot2': 0, 'state': 'normal', 'yaw': 11.94, 'datetime': '2018-10-03 16:57:27.599998', 'mgs': 0, 'volt': 1.0303, 'depth': 3.598, 'time': 20, 'pitch': -5.53, 'roll': 0.66, 'pres': 211}
{'lipoC2': 0.0, 'lipoC3S1': 4.0, 'temp': 25.81, 'lipoC3S3': 12.13, 'lipoC3S2': 8.01, 'rot1': 0, 'rot0': 0, 'rot3': 0, 'rot2': 0, 'state': 'normal', 'yaw': 11.94, 'datetime': '2018-10-03 16:57:27.703280', 'mgs': 0, 'volt': 1.0303, 'depth': 3.598, 'time': 20, 'pitch': -5.34, 'roll': 0.35, 'pres': 211}
{'lipoC2': 0.0, 'lipoC3S1': 4.0, 'temp': 25.81, 'lipoC3S3': 12.13, 'lipoC3S2': 8.0, 'rot1': 0, 'rot0': 0, 'rot3': 0, 'rot2': 0, 'state': 'normal', 'yaw': 11.94, 'datetime': '2018-10-03 16:57:27.806915', 'mgs': 0, 'volt': 1.0303, 'depth': 3.598, 'time': 20, 'pitch': -5.19, 'roll': 0.06, 'pres': 211}
{'lipoC2': 0.0, 'lipoC3S1': 4.0, 'temp': 25.81, 'lipoC3S3': 12.13, 'lipoC3S2': 8.01, 'rot1': 0, 'rot0': 0, 'rot3': 0, 'rot2': 0, 'state': 'normal', 'yaw': 11.95, 'datetime': '2018-10-03 16:57:27.910129', 'mgs': 0, 'volt': 1.0303, 'depth': 3.598, 'time': 20, 'pitch': -5.3, 'roll': -0.16, 'pres': 211}
{'lipoC2': 0.0, 'lipoC3S1': 4.0, 'temp': 25.81, 'lipoC3S3': 12.13, 'lipoC3S2': 8.01, 'rot1': 0, 'rot0': 0, 'rot3': 0, 'rot2': 0, 'state': 'normal', 'yaw': 11.94, 'datetime': '2018-10-03 16:57:28.014658', 'mgs': 0, 'volt': 1.0303, 'depth': 3.598, 'time': 20, 'pitch': -5.7, 'roll': -0.05, 'pres': 211}
{'lipoC2': 0.0, 'lipoC3S1': 4.0, 'temp': 25.81, 'lipoC3S3': 12.13, 'lipoC3S2': 8.01, 'rot1': 0, 'rot0': 0, 'rot3': 0, 'rot2': 0, 'state': 'normal', 'yaw': 11.94, 'datetime': '2018-10-03 16:57:28.118021', 'mgs': 0, 'volt': 1.0303, 'depth': 3.598, 'time': 20, 'pitch': -6.1, 'roll': -0.0, 'pres': 211}
{'lipoC2': 0.0, 'lipoC3S1': 4.0, 'temp': 25.81, 'lipoC3S3': 12.13, 'lipoC3S2': 8.01, 'rot1': 0, 'rot0': 0, 'rot3': 0, 'rot2': 0, 'state': 'normal', 'yaw': 11.95, 'datetime': '2018-10-03 16:57:28.221302', 'mgs': 0, 'volt': 1.0254, 'depth': 3.522, 'time': 20, 'pitch': -6.44, 'roll': -0.0, 'pres': 210}
{'lipoC2': 0.0, 'lipoC3S1': 4.0, 'temp': 25.81, 'lipoC3S3': 12.13, 'lipoC3S2': 8.01, 'rot1': 0, 'rot0': 0, 'rot3': 0, 'rot2': 0, 'state': 'normal', 'yaw': 11.94, 'datetime': '2018-10-03 16:57:28.325837', 'mgs': 0, 'volt': 1.0254, 'depth': 3.522, 'time': 20, 'pitch': -6.72, 'roll': -0.05, 'pres': 210}
{'lipoC2': 0.0, 'lipoC3S1': 4.0, 'temp': 25.81, 'lipoC3S3': 12.13, 'lipoC3S2': 8.01, 'rot1': 0, 'rot0': 0, 'rot3': 0, 'rot2': 0, 'state': 'normal', 'yaw': 11.95, 'datetime': '2018-10-03 16:57:28.433141', 'mgs': 0, 'volt': 1.0254, 'depth': 3.522, 'time': 21, 'pitch': -6.88, 'roll': -0.06, 'pres': 210}
{'lipoC2': 0.0, 'lipoC3S1': 4.0, 'temp': 25.81, 'lipoC3S3': 12.13, 'lipoC3S2': 8.01, 'rot1': 0, 'rot0': 0, 'rot3': 0, 'rot2': 0, 'state': 'normal', 'yaw': 11.95, 'datetime': '2018-10-03 16:57:28.538273', 'mgs': 0, 'volt': 1.0254, 'depth': 3.522, 'time': 21, 'pitch': -6.93, 'roll': -0.07, 'pres': 210}
{'lipoC2': 0.0, 'lipoC3S1': 4.0, 'temp': 25.81, 'lipoC3S3': 12.13, 'lipoC3S2': 8.01, 'rot1': 0, 'rot0': 0, 'rot3': 0, 'rot2': 0, 'state': 'normal', 'yaw': 11.95, 'datetime': '2018-10-03 16:57:28.641433', 'mgs': 0, 'volt': 1.0254, 'depth': 3.522, 'time': 21, 'pitch': -6.91, 'roll': -0.01, 'pres': 210}
{'lipoC2': 0.0, 'lipoC3S1': 4.0, 'temp': 25.81, 'lipoC3S3': 12.13, 'lipoC3S2': 8.01, 'rot1': 0, 'rot0': 0, 'rot3': 0, 'rot2': 0, 'state': 'normal', 'yaw': 11.94, 'datetime': '2018-10-03 16:57:28.744925', 'mgs': 0, 'volt': 1.0254, 'depth': 3.522, 'time': 21, 'pitch': -6.83, 'roll': 0.07, 'pres': 210}
{'lipoC2': 0.0, 'lipoC3S1': 4.0, 'temp': 25.81, 'lipoC3S3': 12.13, 'lipoC3S2': 8.0, 'rot1': 0, 'rot0': 0, 'rot3': 0, 'rot2': 0, 'state': 'normal', 'yaw': 11.94, 'datetime': '2018-10-03 16:57:28.848264', 'mgs': 0, 'volt': 1.0303, 'depth': 3.598, 'time': 21, 'pitch': -6.67, 'roll': 0.13, 'pres': 211}
{'lipoC2': 0.0, 'lipoC3S1': 4.0, 'temp': 25.81, 'lipoC3S3': 12.13, 'lipoC3S2': 8.0, 'rot1': 0, 'rot0': 0, 'rot3': 0, 'rot2': 0, 'state': 'normal', 'yaw': 11.99, 'datetime': '2018-10-03 16:57:28.951486', 'mgs': 0, 'volt': 1.0254, 'depth': 3.522, 'time': 21, 'pitch': -6.48, 'roll': 0.03, 'pres': 210}
