{'lipoC2': 7.65, 'lipoC3S1': 4.15, 'temp': 31.44, 'lipoC3S3': 12.54, 'lipoC3S2': 8.3, 'rot1': 0, 'rot0': 0, 'rot3': 0, 'rot2': 0, 'state': 'normal', 'yaw': -128.27, 'datetime': '2018-10-09 11:35:31.484701', 'mgs': 0, 'volt': 0.0, 'depth': -12.5, 'time': 1, 'pitch': 7.67, 'roll': 0.8, 'pres': 0}
{'lipoC2': 7.65, 'lipoC3S1': 4.15, 'temp': 31.44, 'lipoC3S3': 12.54, 'lipoC3S2': 8.3, 'rot1': 0, 'rot0': 0, 'rot3': 0, 'rot2': 0, 'state': 'normal', 'yaw': -128.75, 'datetime': '2018-10-09 11:35:31.508136', 'mgs': 0, 'volt': 0.0, 'depth': -12.5, 'time': 1, 'pitch': 6.59, 'roll': 0.64, 'pres': 0}
{'lipoC2': 7.65, 'lipoC3S1': 4.15, 'temp': 31.44, 'lipoC3S3': 12.55, 'lipoC3S2': 8.29, 'rot1': 0, 'rot0': 0, 'rot3': 0, 'rot2': 0, 'state': 'normal', 'yaw': -129.2, 'datetime': '2018-10-09 11:35:31.523078', 'mgs': 0, 'volt': 0.0, 'depth': -12.5, 'time': 1, 'pitch': 5.58, 'roll': 0.54, 'pres': 0}
{'lipoC2': 7.65, 'lipoC3S1': 4.15, 'temp': 31.44, 'lipoC3S3': 12.55, 'lipoC3S2': 8.3, 'rot1': 0, 'rot0': 0, 'rot3': 0, 'rot2': 0, 'state': 'normal', 'yaw': -129.6, 'datetime': '2018-10-09 11:35:31.533220', 'mgs': 0, 'volt': 0.0, 'depth': -12.5, 'time': 1, 'pitch': 5.16, 'roll': 0.49, 'pres': 0}
{'lipoC2': 7.65, 'lipoC3S1': 4.15, 'temp': 31.44, 'lipoC3S3': 12.55, 'lipoC3S2': 8.29, 'rot1': 0, 'rot0': 0, 'rot3': 0, 'rot2': 0, 'state': 'normal', 'yaw': -130.02, 'datetime': '2018-10-09 11:35:31.543222', 'mgs': 0, 'volt': 0.0, 'depth': -12.5, 'time': 1, 'pitch': 5.28, 'roll': 0.35, 'pres': 0}
{'lipoC2': 7.65, 'lipoC3S1': 4.15, 'temp': 31.44, 'lipoC3S3': 12.54, 'lipoC3S2': 8.29, 'rot1': 0, 'rot0': 0, 'rot3': 0, 'rot2': 0, 'state': 'normal', 'yaw': -130.52, 'datetime': '2018-10-09 11:35:31.553351', 'mgs': 0, 'volt': 0.0, 'depth': -12.5, 'time': 1, 'pitch': 5.81, 'roll': 0.15, 'pres': 0}
{'lipoC2': 7.65, 'lipoC3S1': 4.15, 'temp': 31.38, 'lipoC3S3': 12.55, 'lipoC3S2': 8.29, 'rot1': 0, 'rot0': 0, 'rot3': 0, 'rot2': 0, 'state': 'normal', 'yaw': -131.11, 'datetime': '2018-10-09 11:35:31.563454', 'mgs': 0, 'volt': 0.0, 'depth': -12.5, 'time': 1, 'pitch': 6.3, 'roll': -0.1, 'pres': 0}
{'lipoC2': 7.65, 'lipoC3S1': 4.15, 'temp': 31.38, 'lipoC3S3': 12.55, 'lipoC3S2': 8.29, 'rot1': 0, 'rot0': 0, 'rot3': 0, 'rot2': 0, 'state': 'normal', 'yaw': -131.69, 'datetime': '2018-10-09 11:35:31.573563', 'mgs': 0, 'volt': 0.0, 'depth': -12.5, 'time': 2, 'pitch': 6.58, 'roll': -0.37, 'pres': 0}
{'lipoC2': 7.65, 'lipoC3S1': 4.15, 'temp': 31.44, 'lipoC3S3': 12.55, 'lipoC3S2': 8.3, 'rot1': 0, 'rot0': 0, 'rot3': 0, 'rot2': 0, 'state': 'normal', 'yaw': -132.41, 'datetime': '2018-10-09 11:35:31.583669', 'mgs': 0, 'volt': 0.0, 'depth': -12.5, 'time': 2, 'pitch': 6.61, 'roll': -0.59, 'pres': 0}
{'lipoC2': 7.65, 'lipoC3S1': 4.15, 'temp': 31.44, 'lipoC3S3': 12.55, 'lipoC3S2': 8.3, 'rot1': 0, 'rot0': 0, 'rot3': 0, 'rot2': 0, 'state': 'normal', 'yaw': -132.85, 'datetime': '2018-10-09 11:35:31.593760', 'mgs': 0, 'volt': 0.0, 'depth': -12.5, 'time': 2, 'pitch': 6.46, 'roll': -0.73, 'pres': 0}
{'lipoC2': 7.65, 'lipoC3S1': 4.15, 'temp': 31.44, 'lipoC3S3': 12.54, 'lipoC3S2': 8.29, 'rot1': 0, 'rot0': 0, 'rot3': 0, 'rot2': 0, 'state': 'normal', 'yaw': -133.28, 'datetime': '2018-10-09 11:35:31.603806', 'mgs': 0, 'volt': 0.0, 'depth': -12.5, 'time': 2, 'pitch': 6.25, 'roll': -0.73, 'pres': 0}
{'lipoC2': 7.65, 'lipoC3S1': 4.15, 'temp': 31.38, 'lipoC3S3': 12.54, 'lipoC3S2': 8.3, 'rot1': 0, 'rot0': 0, 'rot3': 0, 'rot2': 0, 'state': 'normal', 'yaw': -133.86, 'datetime': '2018-10-09 11:35:31.613828', 'mgs': 0, 'volt': 0.0, 'depth': -12.5, 'time': 2, 'pitch': 5.98, 'roll': -0.64, 'pres': 0}
{'lipoC2': 7.65, 'lipoC3S1': 4.15, 'temp': 31.38, 'lipoC3S3': 12.54, 'lipoC3S2': 8.3, 'rot1': 0, 'rot0': 0, 'rot3': 0, 'rot2': 0, 'state': 'normal', 'yaw': -134.36, 'datetime': '2018-10-09 11:35:31.623869', 'mgs': 0, 'volt': 0.0, 'depth': -12.5, 'time': 2, 'pitch': 5.75, 'roll': -0.5, 'pres': 0}
{'lipoC2': 7.65, 'lipoC3S1': 4.15, 'temp': 31.44, 'lipoC3S3': 12.55, 'lipoC3S2': 8.29, 'rot1': 0, 'rot0': 0, 'rot3': 0, 'rot2': 0, 'state': 'normal', 'yaw': -134.79, 'datetime': '2018-10-09 11:35:31.633949', 'mgs': 0, 'volt': 0.0, 'depth': -12.5, 'time': 2, 'pitch': 5.55, 'roll': -0.37, 'pres': 0}
{'lipoC2': 7.65, 'lipoC3S1': 4.15, 'temp': 31.44, 'lipoC3S3': 12.54, 'lipoC3S2': 8.29, 'rot1': 0, 'rot0': 0, 'rot3': 0, 'rot2': 0, 'state': 'normal', 'yaw': -135.37, 'datetime': '2018-10-09 11:35:31.644516', 'mgs': 0, 'volt': 0.0, 'depth': -12.5, 'time': 2, 'pitch': 5.38, 'roll': -0.28, 'pres': 0}
{'lipoC2': 7.65, 'lipoC3S1': 4.15, 'temp': 31.44, 'lipoC3S3': 12.54, 'lipoC3S2': 8.3, 'rot1': 0, 'rot0': 0, 'rot3': 0, 'rot2': 0, 'state': 'normal', 'yaw': -135.83, 'datetime': '2018-10-09 11:35:31.654708', 'mgs': 0, 'volt': 0.0, 'depth': -12.5, 'time': 2, 'pitch': 5.16, 'roll': -0.26, 'pres': 0}
{'lipoC2': 7.66, 'lipoC3S1': 4.15, 'temp': 31.44, 'lipoC3S3': 12.55, 'lipoC3S2': 8.3, 'rot1': 0, 'rot0': 0, 'rot3': 0, 'rot2': 0, 'state': 'normal', 'yaw': -136.2, 'datetime': '2018-10-09 11:35:31.664878', 'mgs': 0, 'volt': 0.0, 'depth': -12.5, 'time': 3, 'pitch': 4.9, 'roll': -0.27, 'pres': 0}
{'lipoC2': 7.65, 'lipoC3S1': 4.15, 'temp': 31.44, 'lipoC3S3': 12.55, 'lipoC3S2': 8.3, 'rot1': 0, 'rot0': 0, 'rot3': 0, 'rot2': 0, 'state': 'normal', 'yaw': -136.59, 'datetime': '2018-10-09 11:35:31.674850', 'mgs': 0, 'volt': 0.0, 'depth': -12.5, 'time': 3, 'pitch': 4.75, 'roll': -0.21, 'pres': 0}
{'lipoC2': 7.66, 'lipoC3S1': 4.15, 'temp': 31.44, 'lipoC3S3': 12.55, 'lipoC3S2': 8.3, 'rot1': 0, 'rot0': 0, 'rot3': 0, 'rot2': 0, 'state': 'normal', 'yaw': -137.01, 'datetime': '2018-10-09 11:35:31.684909', 'mgs': 0, 'volt': 0.0, 'depth': -12.5, 'time': 3, 'pitch': 4.81, 'roll': -0.17, 'pres': 0}
{'lipoC2': 7.65, 'lipoC3S1': 4.15, 'temp': 31.44, 'lipoC3S3': 12.55, 'lipoC3S2': 8.3, 'rot1': 0, 'rot0': 0, 'rot3': 0, 'rot2': 0, 'state': 'normal', 'yaw': -137.39, 'datetime': '2018-10-09 11:35:31.694987', 'mgs': 0, 'volt': 0.0, 'depth': -12.5, 'time': 3, 'pitch': 5.09, 'roll': -0.2, 'pres': 0}
{'lipoC2': 7.66, 'lipoC3S1': 4.15, 'temp': 31.44, 'lipoC3S3': 12.54, 'lipoC3S2': 8.3, 'rot1': 0, 'rot0': 0, 'rot3': 0, 'rot2': 0, 'state': 'normal', 'yaw': -137.77, 'datetime': '2018-10-09 11:35:31.705011', 'mgs': 0, 'volt': 0.0, 'depth': -12.5, 'time': 3, 'pitch': 5.49, 'roll': -0.21, 'pres': 0}
{'lipoC2': 7.66, 'lipoC3S1': 4.15, 'temp': 31.44, 'lipoC3S3': 12.54, 'lipoC3S2': 8.29, 'rot1': 0, 'rot0': 0, 'rot3': 0, 'rot2': 0, 'state': 'normal', 'yaw': -138.18, 'datetime': '2018-10-09 11:35:31.715074', 'mgs': 0, 'volt': 0.0, 'depth': -12.5, 'time': 3, 'pitch': 5.83, 'roll': -0.23, 'pres': 0}
{'lipoC2': 7.65, 'lipoC3S1': 4.15, 'temp': 31.5, 'lipoC3S3': 12.55, 'lipoC3S2': 8.29, 'rot1': 0, 'rot0': 0, 'rot3': 0, 'rot2': 0, 'state': 'normal', 'yaw': -138.57, 'datetime': '2018-10-09 11:35:31.725127', 'mgs': 0, 'volt': 0.0, 'depth': -12.5, 'time': 3, 'pitch': 5.87, 'roll': -0.23, 'pres': 0}
{'lipoC2': 7.65, 'lipoC3S1': 4.15, 'temp': 31.5, 'lipoC3S3': 12.54, 'lipoC3S2': 8.3, 'rot1': 0, 'rot0': 0, 'rot3': 0, 'rot2': 0, 'state': 'normal', 'yaw': -139.43, 'datetime': '2018-10-09 11:35:31.735161', 'mgs': 0, 'volt': 0.0, 'depth': -12.5, 'time': 3, 'pitch': 5.62, 'roll': -0.15, 'pres': 0}
{'lipoC2': 7.65, 'lipoC3S1': 4.15, 'temp': 31.5, 'lipoC3S3': 12.54, 'lipoC3S2': 8.3, 'rot1': 0, 'rot0': 0, 'rot3': 0, 'rot2': 0, 'state': 'normal', 'yaw': -140.19, 'datetime': '2018-10-09 11:35:31.745165', 'mgs': 0, 'volt': 0.0, 'depth': -12.5, 'time': 3, 'pitch': 5.12, 'roll': -0.03, 'pres': 0}
{'lipoC2': 7.65, 'lipoC3S1': 4.15, 'temp': 31.44, 'lipoC3S3': 12.54, 'lipoC3S2': 8.3, 'rot1': 0, 'rot0': 0, 'rot3': 0, 'rot2': 0, 'state': 'normal', 'yaw': -140.78, 'datetime': '2018-10-09 11:35:31.755200', 'mgs': 0, 'volt': 0.0, 'depth': -12.5, 'time': 3, 'pitch': 4.6, 'roll': 0.05, 'pres': 0}
{'lipoC2': 7.66, 'lipoC3S1': 4.15, 'temp': 31.44, 'lipoC3S3': 12.55, 'lipoC3S2': 8.3, 'rot1': 0, 'rot0': 0, 'rot3': 0, 'rot2': 0, 'state': 'normal', 'yaw': -141.22, 'datetime': '2018-10-09 11:35:31.765259', 'mgs': 0, 'volt': 0.0, 'depth': -12.5, 'time': 4, 'pitch': 4.18, 'roll': 0.04, 'pres': 0}
{'lipoC2': 7.65, 'lipoC3S1': 4.15, 'temp': 31.44, 'lipoC3S3': 12.54, 'lipoC3S2': 8.29, 'rot1': 0, 'rot0': 0, 'rot3': 0, 'rot2': 0, 'state': 'normal', 'yaw': -141.65, 'datetime': '2018-10-09 11:35:31.775324', 'mgs': 0, 'volt': 0.0, 'depth': -12.5, 'time': 4, 'pitch': 3.97, 'roll': -0.05, 'pres': 0}
{'lipoC2': 7.66, 'lipoC3S1': 4.15, 'temp': 31.44, 'lipoC3S3': 12.54, 'lipoC3S2': 8.29, 'rot1': 0, 'rot0': 0, 'rot3': 0, 'rot2': 0, 'state': 'normal', 'yaw': -142.28, 'datetime': '2018-10-09 11:35:31.785354', 'mgs': 0, 'volt': 0.0, 'depth': -12.5, 'time': 4, 'pitch': 4.02, 'roll': -0.26, 'pres': 0}
{'lipoC2': 7.66, 'lipoC3S1': 4.15, 'temp': 31.5, 'lipoC3S3': 12.54, 'lipoC3S2': 8.3, 'rot1': 0, 'rot0': 0, 'rot3': 0, 'rot2': 0, 'state': 'normal', 'yaw': -142.71, 'datetime': '2018-10-09 11:35:31.795474', 'mgs': 0, 'volt': 0.0, 'depth': -12.5, 'time': 4, 'pitch': 4.3, 'roll': -0.53, 'pres': 0}
{'lipoC2': 7.65, 'lipoC3S1': 4.15, 'temp': 31.5, 'lipoC3S3': 12.54, 'lipoC3S2': 8.29, 'rot1': 0, 'rot0': 0, 'rot3': 0, 'rot2': 0, 'state': 'normal', 'yaw': -143.11, 'datetime': '2018-10-09 11:35:31.804973', 'mgs': 0, 'volt': 0.0, 'depth': -12.5, 'time': 4, 'pitch': 4.81, 'roll': -0.8, 'pres': 0}
{'lipoC2': 7.65, 'lipoC3S1': 4.15, 'temp': 31.5, 'lipoC3S3': 12.55, 'lipoC3S2': 8.3, 'rot1': 0, 'rot0': 0, 'rot3': 0, 'rot2': 0, 'state': 'normal', 'yaw': -143.58, 'datetime': '2018-10-09 11:35:31.814404', 'mgs': 0, 'volt': 0.0, 'depth': -12.5, 'time': 4, 'pitch': 5.32, 'roll': -0.91, 'pres': 0}
{'lipoC2': 7.65, 'lipoC3S1': 4.15, 'temp': 31.44, 'lipoC3S3': 12.54, 'lipoC3S2': 8.29, 'rot1': 0, 'rot0': 0, 'rot3': 0, 'rot2': 0, 'state': 'normal', 'yaw': -144.04, 'datetime': '2018-10-09 11:35:31.823885', 'mgs': 0, 'volt': 0.0, 'depth': -12.5, 'time': 4, 'pitch': 5.64, 'roll': -0.82, 'pres': 0}
{'lipoC2': 7.66, 'lipoC3S1': 4.15, 'temp': 31.44, 'lipoC3S3': 12.54, 'lipoC3S2': 8.3, 'rot1': 0, 'rot0': 0, 'rot3': 0, 'rot2': 0, 'state': 'normal', 'yaw': -144.44, 'datetime': '2018-10-09 11:35:31.833391', 'mgs': 0, 'volt': 0.0, 'depth': -12.5, 'time': 4, 'pitch': 5.6, 'roll': -0.56, 'pres': 0}
{'lipoC2': 7.65, 'lipoC3S1': 4.15, 'temp': 31.44, 'lipoC3S3': 12.54, 'lipoC3S2': 8.3, 'rot1': 0, 'rot0': 0, 'rot3': 0, 'rot2': 0, 'state': 'normal', 'yaw': -145.0, 'datetime': '2018-10-09 11:35:31.842893', 'mgs': 0, 'volt': 0.0, 'depth': -12.5, 'time': 4, 'pitch': 5.26, 'roll': -0.33, 'pres': 0}
{'lipoC2': 7.65, 'lipoC3S1': 4.15, 'temp': 31.44, 'lipoC3S3': 12.55, 'lipoC3S2': 8.29, 'rot1': 0, 'rot0': 0, 'rot3': 0, 'rot2': 0, 'state': 'normal', 'yaw': -145.46, 'datetime': '2018-10-09 11:35:31.852446', 'mgs': 0, 'volt': 0.0, 'depth': -12.5, 'time': 4, 'pitch': 4.79, 'roll': -0.19, 'pres': 0}
{'lipoC2': 7.65, 'lipoC3S1': 4.15, 'temp': 31.44, 'lipoC3S3': 12.55, 'lipoC3S2': 8.3, 'rot1': 0, 'rot0': 0, 'rot3': 0, 'rot2': 0, 'state': 'normal', 'yaw': -145.87, 'datetime': '2018-10-09 11:35:31.861950', 'mgs': 0, 'volt': 0.0, 'depth': -12.5, 'time': 5, 'pitch': 4.32, 'roll': -0.21, 'pres': 0}
{'lipoC2': 7.66, 'lipoC3S1': 4.15, 'temp': 31.44, 'lipoC3S3': 12.55, 'lipoC3S2': 8.3, 'rot1': 0, 'rot0': 0, 'rot3': 0, 'rot2': 0, 'state': 'normal', 'yaw': -146.24, 'datetime': '2018-10-09 11:35:31.871463', 'mgs': 0, 'volt': 0.0, 'depth': -12.5, 'time': 5, 'pitch': 4.16, 'roll': -0.34, 'pres': 0}
{'lipoC2': 7.65, 'lipoC3S1': 4.15, 'temp': 31.44, 'lipoC3S3': 12.54, 'lipoC3S2': 8.3, 'rot1': 0, 'rot0': 0, 'rot3': 0, 'rot2': 0, 'state': 'normal', 'yaw': -146.6, 'datetime': '2018-10-09 11:35:31.880968', 'mgs': 0, 'volt': 0.0, 'depth': -12.5, 'time': 5, 'pitch': 4.36, 'roll': -0.48, 'pres': 0}
{'lipoC2': 7.65, 'lipoC3S1': 4.15, 'temp': 31.44, 'lipoC3S3': 12.55, 'lipoC3S2': 8.29, 'rot1': 0, 'rot0': 0, 'rot3': 0, 'rot2': 0, 'state': 'normal', 'yaw': -147.11, 'datetime': '2018-10-09 11:35:31.890482', 'mgs': 0, 'volt': 0.0, 'depth': -12.5, 'time': 5, 'pitch': 4.92, 'roll': -0.53, 'pres': 0}
{'lipoC2': 7.65, 'lipoC3S1': 4.15, 'temp': 31.44, 'lipoC3S3': 12.55, 'lipoC3S2': 8.29, 'rot1': 0, 'rot0': 0, 'rot3': 0, 'rot2': 0, 'state': 'normal', 'yaw': -147.52, 'datetime': '2018-10-09 11:35:31.900023', 'mgs': 0, 'volt': 0.0, 'depth': -12.5, 'time': 5, 'pitch': 5.52, 'roll': -0.47, 'pres': 0}
{'lipoC2': 7.65, 'lipoC3S1': 4.15, 'temp': 31.44, 'lipoC3S3': 12.54, 'lipoC3S2': 8.3, 'rot1': 0, 'rot0': 0, 'rot3': 0, 'rot2': 0, 'state': 'normal', 'yaw': -147.85, 'datetime': '2018-10-09 11:35:31.909529', 'mgs': 0, 'volt': 0.0, 'depth': -12.5, 'time': 5, 'pitch': 5.95, 'roll': -0.38, 'pres': 0}
{'lipoC2': 7.65, 'lipoC3S1': 4.15, 'temp': 31.44, 'lipoC3S3': 12.55, 'lipoC3S2': 8.3, 'rot1': 0, 'rot0': 0, 'rot3': 0, 'rot2': 0, 'state': 'normal', 'yaw': -148.22, 'datetime': '2018-10-09 11:35:31.919218', 'mgs': 0, 'volt': 0.0, 'depth': -12.5, 'time': 5, 'pitch': 6.0, 'roll': -0.4, 'pres': 0}
{'lipoC2': 7.65, 'lipoC3S1': 4.15, 'temp': 31.44, 'lipoC3S3': 12.55, 'lipoC3S2': 8.3, 'rot1': 0, 'rot0': 0, 'rot3': 0, 'rot2': 0, 'state': 'normal', 'yaw': -148.57, 'datetime': '2018-10-09 11:35:31.928766', 'mgs': 0, 'volt': 0.0, 'depth': -12.5, 'time': 5, 'pitch': 5.6, 'roll': -0.43, 'pres': 0}
{'lipoC2': 7.65, 'lipoC3S1': 4.15, 'temp': 31.44, 'lipoC3S3': 12.54, 'lipoC3S2': 8.3, 'rot1': 0, 'rot0': 0, 'rot3': 0, 'rot2': 0, 'state': 'normal', 'yaw': -148.93, 'datetime': '2018-10-09 11:35:31.938298', 'mgs': 0, 'volt': 0.0, 'depth': -12.5, 'time': 5, 'pitch': 4.96, 'roll': -0.4, 'pres': 0}
{'lipoC2': 7.65, 'lipoC3S1': 4.15, 'temp': 31.44, 'lipoC3S3': 12.55, 'lipoC3S2': 8.29, 'rot1': 0, 'rot0': 0, 'rot3': 0, 'rot2': 0, 'state': 'normal', 'yaw': -149.32, 'datetime': '2018-10-09 11:35:31.947812', 'mgs': 0, 'volt': 0.0, 'depth': -12.5, 'time': 6, 'pitch': 4.28, 'roll': -0.19, 'pres': 0}
{'lipoC2': 7.65, 'lipoC3S1': 4.15, 'temp': 31.31, 'lipoC3S3': 12.55, 'lipoC3S2': 8.29, 'rot1': 0, 'rot0': 0, 'rot3': 0, 'rot2': 0, 'state': 'normal', 'yaw': -149.63, 'datetime': '2018-10-09 11:35:31.957338', 'mgs': 0, 'volt': 0.0, 'depth': -12.5, 'time': 6, 'pitch': 3.95, 'roll': 0.07, 'pres': 0}
{'lipoC2': 7.65, 'lipoC3S1': 4.15, 'temp': 31.31, 'lipoC3S3': 12.54, 'lipoC3S2': 8.29, 'rot1': 0, 'rot0': 0, 'rot3': 0, 'rot2': 0, 'state': 'normal', 'yaw': -149.9, 'datetime': '2018-10-09 11:35:31.966884', 'mgs': 0, 'volt': 0.0, 'depth': -12.5, 'time': 6, 'pitch': 4.06, 'roll': 0.19, 'pres': 0}
{'lipoC2': 7.65, 'lipoC3S1': 4.15, 'temp': 31.38, 'lipoC3S3': 12.54, 'lipoC3S2': 8.29, 'rot1': 0, 'rot0': 0, 'rot3': 0, 'rot2': 0, 'state': 'normal', 'yaw': -150.18, 'datetime': '2018-10-09 11:35:32.065079', 'mgs': 0, 'volt': 0.0, 'depth': -12.5, 'time': 6, 'pitch': 4.7, 'roll': -0.01, 'pres': 0}
{'lipoC2': 7.65, 'lipoC3S1': 4.15, 'temp': 31.38, 'lipoC3S3': 12.55, 'lipoC3S2': 8.29, 'rot1': 0, 'rot0': 0, 'rot3': 0, 'rot2': 0, 'state': 'normal', 'yaw': -150.45, 'datetime': '2018-10-09 11:35:32.168308', 'mgs': 0, 'volt': 0.0, 'depth': -12.5, 'time': 6, 'pitch': 5.48, 'roll': -0.44, 'pres': 0}
{'lipoC2': 7.65, 'lipoC3S1': 4.15, 'temp': 31.38, 'lipoC3S3': 12.55, 'lipoC3S2': 8.29, 'rot1': 0, 'rot0': 0, 'rot3': 0, 'rot2': 0, 'state': 'normal', 'yaw': -150.77, 'datetime': '2018-10-09 11:35:32.271546', 'mgs': 0, 'volt': 0.0, 'depth': -12.5, 'time': 6, 'pitch': 6.01, 'roll': -0.86, 'pres': 0}
{'lipoC2': 7.65, 'lipoC3S1': 4.15, 'temp': 31.44, 'lipoC3S3': 12.54, 'lipoC3S2': 8.29, 'rot1': 0, 'rot0': 0, 'rot3': 0, 'rot2': 0, 'state': 'normal', 'yaw': -151.11, 'datetime': '2018-10-09 11:35:32.375024', 'mgs': 0, 'volt': 0.0, 'depth': -12.5, 'time': 6, 'pitch': 6.07, 'roll': -1.02, 'pres': 0}
{'lipoC2': 7.65, 'lipoC3S1': 4.15, 'temp': 31.44, 'lipoC3S3': 12.54, 'lipoC3S2': 8.29, 'rot1': 0, 'rot0': 0, 'rot3': 0, 'rot2': 0, 'state': 'normal', 'yaw': -151.46, 'datetime': '2018-10-09 11:35:32.478233', 'mgs': 0, 'volt': 0.0, 'depth': -12.5, 'time': 6, 'pitch': 5.52, 'roll': -0.79, 'pres': 0}
{'lipoC2': 7.65, 'lipoC3S1': 4.15, 'temp': 31.38, 'lipoC3S3': 12.54, 'lipoC3S2': 8.29, 'rot1': 0, 'rot0': 0, 'rot3': 0, 'rot2': 0, 'state': 'normal', 'yaw': -151.73, 'datetime': '2018-10-09 11:35:32.581503', 'mgs': 0, 'volt': 0.0, 'depth': -12.5, 'time': 6, 'pitch': 4.75, 'roll': -0.38, 'pres': 0}
{'lipoC2': 7.65, 'lipoC3S1': 4.15, 'temp': 31.38, 'lipoC3S3': 12.54, 'lipoC3S2': 8.29, 'rot1': 0, 'rot0': 0, 'rot3': 0, 'rot2': 0, 'state': 'normal', 'yaw': -151.95, 'datetime': '2018-10-09 11:35:32.685465', 'mgs': 0, 'volt': 0.0, 'depth': -12.5, 'time': 6, 'pitch': 4.18, 'roll': -0.13, 'pres': 0}
{'lipoC2': 7.65, 'lipoC3S1': 4.15, 'temp': 31.44, 'lipoC3S3': 12.55, 'lipoC3S2': 8.3, 'rot1': 0, 'rot0': 0, 'rot3': 0, 'rot2': 0, 'state': 'normal', 'yaw': -152.2, 'datetime': '2018-10-09 11:35:32.788767', 'mgs': 0, 'volt': 0.0, 'depth': -12.5, 'time': 7, 'pitch': 4.08, 'roll': -0.25, 'pres': 0}
{'lipoC2': 7.65, 'lipoC3S1': 4.15, 'temp': 31.44, 'lipoC3S3': 12.54, 'lipoC3S2': 8.3, 'rot1': 0, 'rot0': 0, 'rot3': 0, 'rot2': 0, 'state': 'normal', 'yaw': -152.45, 'datetime': '2018-10-09 11:35:32.893284', 'mgs': 0, 'volt': 0.0, 'depth': -12.5, 'time': 7, 'pitch': 4.47, 'roll': -0.65, 'pres': 0}
{'lipoC2': 7.65, 'lipoC3S1': 4.15, 'temp': 31.44, 'lipoC3S3': 12.55, 'lipoC3S2': 8.3, 'rot1': 0, 'rot0': 0, 'rot3': 0, 'rot2': 0, 'state': 'normal', 'yaw': -152.78, 'datetime': '2018-10-09 11:35:32.997343', 'mgs': 0, 'volt': 0.0, 'depth': -12.5, 'time': 7, 'pitch': 5.06, 'roll': -1.05, 'pres': 0}
{'lipoC2': 7.66, 'lipoC3S1': 4.15, 'temp': 31.44, 'lipoC3S3': 12.54, 'lipoC3S2': 8.3, 'rot1': 0, 'rot0': 0, 'rot3': 0, 'rot2': 0, 'state': 'normal', 'yaw': -153.07, 'datetime': '2018-10-09 11:35:33.100548', 'mgs': 0, 'volt': 0.0, 'depth': -12.5, 'time': 7, 'pitch': 5.42, 'roll': -1.16, 'pres': 0}
{'lipoC2': 7.65, 'lipoC3S1': 4.15, 'temp': 31.44, 'lipoC3S3': 12.55, 'lipoC3S2': 8.3, 'rot1': 0, 'rot0': 0, 'rot3': 0, 'rot2': 0, 'state': 'normal', 'yaw': -153.36, 'datetime': '2018-10-09 11:35:33.205149', 'mgs': 0, 'volt': 0.0, 'depth': -12.5, 'time': 7, 'pitch': 5.56, 'roll': -1.07, 'pres': 0}
{'lipoC2': 7.65, 'lipoC3S1': 4.15, 'temp': 31.44, 'lipoC3S3': 12.54, 'lipoC3S2': 8.29, 'rot1': 0, 'rot0': 0, 'rot3': 0, 'rot2': 0, 'state': 'normal', 'yaw': -153.66, 'datetime': '2018-10-09 11:35:33.308356', 'mgs': 0, 'volt': 0.0, 'depth': -12.5, 'time': 7, 'pitch': 5.57, 'roll': -0.91, 'pres': 0}
{'lipoC2': 7.66, 'lipoC3S1': 4.15, 'temp': 31.44, 'lipoC3S3': 12.54, 'lipoC3S2': 8.29, 'rot1': 0, 'rot0': 0, 'rot3': 0, 'rot2': 0, 'state': 'normal', 'yaw': -153.93, 'datetime': '2018-10-09 11:35:33.411620', 'mgs': 0, 'volt': 0.0, 'depth': -12.5, 'time': 7, 'pitch': 5.56, 'roll': -0.87, 'pres': 0}
{'lipoC2': 7.66, 'lipoC3S1': 4.15, 'temp': 31.5, 'lipoC3S3': 12.54, 'lipoC3S2': 8.3, 'rot1': 0, 'rot0': 0, 'rot3': 0, 'rot2': 0, 'state': 'normal', 'yaw': -154.21, 'datetime': '2018-10-09 11:35:33.514908', 'mgs': 0, 'volt': 0.0, 'depth': -12.5, 'time': 7, 'pitch': 5.56, 'roll': -0.89, 'pres': 0}
{'lipoC2': 7.65, 'lipoC3S1': 4.15, 'temp': 31.5, 'lipoC3S3': 12.54, 'lipoC3S2': 8.29, 'rot1': 0, 'rot0': 0, 'rot3': 0, 'rot2': 0, 'state': 'normal', 'yaw': -154.55, 'datetime': '2018-10-09 11:35:33.618291', 'mgs': 0, 'volt': 0.0, 'depth': -12.5, 'time': 7, 'pitch': 5.55, 'roll': -0.88, 'pres': 0}
{'lipoC2': 7.66, 'lipoC3S1': 4.15, 'temp': 31.5, 'lipoC3S3': 12.54, 'lipoC3S2': 8.29, 'rot1': 0, 'rot0': 0, 'rot3': 0, 'rot2': 0, 'state': 'normal', 'yaw': -154.87, 'datetime': '2018-10-09 11:35:33.721574', 'mgs': 0, 'volt': 0.0, 'depth': -12.5, 'time': 7, 'pitch': 5.55, 'roll': -0.75, 'pres': 0}
{'lipoC2': 7.65, 'lipoC3S1': 4.15, 'temp': 31.5, 'lipoC3S3': 12.54, 'lipoC3S2': 8.29, 'rot1': 0, 'rot0': 0, 'rot3': 0, 'rot2': 0, 'state': 'normal', 'yaw': -155.17, 'datetime': '2018-10-09 11:35:33.824881', 'mgs': 0, 'volt': 0.0, 'depth': -12.5, 'time': 8, 'pitch': 5.54, 'roll': -0.54, 'pres': 0}
{'lipoC2': 7.65, 'lipoC3S1': 4.15, 'temp': 31.5, 'lipoC3S3': 12.54, 'lipoC3S2': 8.3, 'rot1': 0, 'rot0': 0, 'rot3': 0, 'rot2': 0, 'state': 'normal', 'yaw': -155.46, 'datetime': '2018-10-09 11:35:33.928241', 'mgs': 0, 'volt': 0.0, 'depth': -12.5, 'time': 8, 'pitch': 5.54, 'roll': -0.37, 'pres': 0}
{'lipoC2': 7.65, 'lipoC3S1': 4.15, 'temp': 31.44, 'lipoC3S3': 12.54, 'lipoC3S2': 8.3, 'rot1': 0, 'rot0': 0, 'rot3': 0, 'rot2': 0, 'state': 'normal', 'yaw': -155.74, 'datetime': '2018-10-09 11:35:34.031451', 'mgs': 0, 'volt': 0.0, 'depth': -12.5, 'time': 8, 'pitch': 5.54, 'roll': -0.29, 'pres': 0}
{'lipoC2': 7.65, 'lipoC3S1': 4.15, 'temp': 31.44, 'lipoC3S3': 12.55, 'lipoC3S2': 8.29, 'rot1': 0, 'rot0': 0, 'rot3': 0, 'rot2': 0, 'state': 'normal', 'yaw': -155.99, 'datetime': '2018-10-09 11:35:34.134731', 'mgs': 0, 'volt': 0.0, 'depth': -12.5, 'time': 8, 'pitch': 5.44, 'roll': -0.31, 'pres': 0}
{'lipoC2': 7.65, 'lipoC3S1': 4.15, 'temp': 31.44, 'lipoC3S3': 12.55, 'lipoC3S2': 8.3, 'rot1': 0, 'rot0': 0, 'rot3': 0, 'rot2': 0, 'state': 'normal', 'yaw': -157.03, 'datetime': '2018-10-09 11:35:34.238832', 'mgs': 0, 'volt': 0.0, 'depth': -12.5, 'time': 8, 'pitch': 5.3, 'roll': -0.33, 'pres': 0}
{'lipoC2': 7.65, 'lipoC3S1': 4.15, 'temp': 31.44, 'lipoC3S3': 12.55, 'lipoC3S2': 8.3, 'rot1': 0, 'rot0': 0, 'rot3': 0, 'rot2': 0, 'state': 'normal', 'yaw': -157.47, 'datetime': '2018-10-09 11:35:34.342033', 'mgs': 0, 'volt': 0.0, 'depth': -12.5, 'time': 8, 'pitch': 5.06, 'roll': -0.36, 'pres': 0}
{'lipoC2': 7.65, 'lipoC3S1': 4.15, 'temp': 31.44, 'lipoC3S3': 12.54, 'lipoC3S2': 8.3, 'rot1': 0, 'rot0': 0, 'rot3': 0, 'rot2': 0, 'state': 'normal', 'yaw': -158.16, 'datetime': '2018-10-09 11:35:34.446635', 'mgs': 0, 'volt': 0.0, 'depth': -12.5, 'time': 8, 'pitch': 4.83, 'roll': -0.38, 'pres': 0}
{'lipoC2': 7.65, 'lipoC3S1': 4.15, 'temp': 31.44, 'lipoC3S3': 12.55, 'lipoC3S2': 8.29, 'rot1': 0, 'rot0': 0, 'rot3': 0, 'rot2': 0, 'state': 'normal', 'yaw': -158.68, 'datetime': '2018-10-09 11:35:34.550078', 'mgs': 0, 'volt': 0.0, 'depth': -12.5, 'time': 8, 'pitch': 4.65, 'roll': -0.4, 'pres': 0}
{'lipoC2': 7.65, 'lipoC3S1': 4.15, 'temp': 31.44, 'lipoC3S3': 12.55, 'lipoC3S2': 8.3, 'rot1': 0, 'rot0': 0, 'rot3': 0, 'rot2': 0, 'state': 'normal', 'yaw': -159.46, 'datetime': '2018-10-09 11:35:34.653347', 'mgs': 0, 'volt': 0.0, 'depth': -12.5, 'time': 8, 'pitch': 4.58, 'roll': -0.42, 'pres': 0}
{'lipoC2': 7.65, 'lipoC3S1': 4.15, 'temp': 31.44, 'lipoC3S3': 12.55, 'lipoC3S2': 8.3, 'rot1': 0, 'rot0': 0, 'rot3': 0, 'rot2': 0, 'state': 'normal', 'yaw': -160.17, 'datetime': '2018-10-09 11:35:34.757848', 'mgs': 0, 'volt': 0.0, 'depth': -12.5, 'time': 9, 'pitch': 4.48, 'roll': -0.36, 'pres': 0}
{'lipoC2': 7.65, 'lipoC3S1': 4.15, 'temp': 31.44, 'lipoC3S3': 12.54, 'lipoC3S2': 8.3, 'rot1': 0, 'rot0': 0, 'rot3': 0, 'rot2': 0, 'state': 'normal', 'yaw': -160.58, 'datetime': '2018-10-09 11:35:34.861064', 'mgs': 0, 'volt': 0.0, 'depth': -12.5, 'time': 9, 'pitch': 4.36, 'roll': -0.24, 'pres': 0}
{'lipoC2': 7.65, 'lipoC3S1': 4.15, 'temp': 31.44, 'lipoC3S3': 12.55, 'lipoC3S2': 8.29, 'rot1': 0, 'rot0': 0, 'rot3': 0, 'rot2': 0, 'state': 'normal', 'yaw': -161.35, 'datetime': '2018-10-09 11:35:34.964266', 'mgs': 0, 'volt': 0.0, 'depth': -12.5, 'time': 9, 'pitch': 4.37, 'roll': -0.19, 'pres': 0}
{'lipoC2': 7.65, 'lipoC3S1': 4.15, 'temp': 31.44, 'lipoC3S3': 12.55, 'lipoC3S2': 8.29, 'rot1': 0, 'rot0': 0, 'rot3': 0, 'rot2': 0, 'state': 'normal', 'yaw': -161.67, 'datetime': '2018-10-09 11:35:35.067574', 'mgs': 0, 'volt': 0.0, 'depth': -12.5, 'time': 9, 'pitch': 4.57, 'roll': -0.31, 'pres': 0}
{'lipoC2': 7.65, 'lipoC3S1': 4.15, 'temp': 31.44, 'lipoC3S3': 12.55, 'lipoC3S2': 8.29, 'rot1': 0, 'rot0': 0, 'rot3': 0, 'rot2': 0, 'state': 'normal', 'yaw': -162.18, 'datetime': '2018-10-09 11:35:35.170911', 'mgs': 0, 'volt': 0.0, 'depth': -12.5, 'time': 9, 'pitch': 4.93, 'roll': -0.63, 'pres': 0}
{'lipoC2': 7.65, 'lipoC3S1': 4.15, 'temp': 31.38, 'lipoC3S3': 12.55, 'lipoC3S2': 8.29, 'rot1': 0, 'rot0': 0, 'rot3': 0, 'rot2': 0, 'state': 'normal', 'yaw': -162.53, 'datetime': '2018-10-09 11:35:35.274166', 'mgs': 0, 'volt': 0.0, 'depth': -12.5, 'time': 9, 'pitch': 5.42, 'roll': -1.07, 'pres': 0}
{'lipoC2': 7.65, 'lipoC3S1': 4.15, 'temp': 31.38, 'lipoC3S3': 12.54, 'lipoC3S2': 8.3, 'rot1': 0, 'rot0': 0, 'rot3': 0, 'rot2': 0, 'state': 'normal', 'yaw': -162.93, 'datetime': '2018-10-09 11:35:35.377396', 'mgs': 0, 'volt': 0.0, 'depth': -12.5, 'time': 9, 'pitch': 5.68, 'roll': -1.31, 'pres': 0}
{'lipoC2': 7.65, 'lipoC3S1': 4.15, 'temp': 31.44, 'lipoC3S3': 12.54, 'lipoC3S2': 8.3, 'rot1': 0, 'rot0': 0, 'rot3': 0, 'rot2': 0, 'state': 'normal', 'yaw': -163.26, 'datetime': '2018-10-09 11:35:35.481248', 'mgs': 0, 'volt': 0.0, 'depth': -12.5, 'time': 9, 'pitch': 5.59, 'roll': -1.24, 'pres': 0}
{'lipoC2': 7.65, 'lipoC3S1': 4.15, 'temp': 31.44, 'lipoC3S3': 12.54, 'lipoC3S2': 8.29, 'rot1': 0, 'rot0': 0, 'rot3': 0, 'rot2': 0, 'state': 'normal', 'yaw': -163.58, 'datetime': '2018-10-09 11:35:35.584458', 'mgs': 0, 'volt': 0.0, 'depth': -12.5, 'time': 9, 'pitch': 5.17, 'roll': -0.96, 'pres': 0}
{'lipoC2': 7.65, 'lipoC3S1': 4.15, 'temp': 31.44, 'lipoC3S3': 12.54, 'lipoC3S2': 8.29, 'rot1': 0, 'rot0': 0, 'rot3': 0, 'rot2': 0, 'state': 'normal', 'yaw': -163.96, 'datetime': '2018-10-09 11:35:35.687752', 'mgs': 0, 'volt': 0.0, 'depth': -12.5, 'time': 9, 'pitch': 4.74, 'roll': -0.75, 'pres': 0}
{'lipoC2': 7.65, 'lipoC3S1': 4.15, 'temp': 31.44, 'lipoC3S3': 12.55, 'lipoC3S2': 8.29, 'rot1': 0, 'rot0': 0, 'rot3': 0, 'rot2': 0, 'state': 'normal', 'yaw': -164.49, 'datetime': '2018-10-09 11:35:35.792607', 'mgs': 0, 'volt': 0.0, 'depth': -12.5, 'time': 10, 'pitch': 4.48, 'roll': -0.72, 'pres': 0}
{'lipoC2': 7.65, 'lipoC3S1': 4.15, 'temp': 31.44, 'lipoC3S3': 12.54, 'lipoC3S2': 8.29, 'rot1': 0, 'rot0': 0, 'rot3': 0, 'rot2': 0, 'state': 'normal', 'yaw': -165.06, 'datetime': '2018-10-09 11:35:35.894729', 'mgs': 0, 'volt': 0.0, 'depth': -12.5, 'time': 10, 'pitch': 4.51, 'roll': -0.87, 'pres': 0}
{'lipoC2': 7.66, 'lipoC3S1': 4.15, 'temp': 31.44, 'lipoC3S3': 12.55, 'lipoC3S2': 8.29, 'rot1': 0, 'rot0': 0, 'rot3': 0, 'rot2': 0, 'state': 'normal', 'yaw': -165.55, 'datetime': '2018-10-09 11:35:35.998568', 'mgs': 0, 'volt': 0.0, 'depth': -12.5, 'time': 10, 'pitch': 4.83, 'roll': -1.07, 'pres': 0}
{'lipoC2': 7.65, 'lipoC3S1': 4.15, 'temp': 31.44, 'lipoC3S3': 12.54, 'lipoC3S2': 8.29, 'rot1': 0, 'rot0': 0, 'rot3': 0, 'rot2': 0, 'state': 'normal', 'yaw': -166.32, 'datetime': '2018-10-09 11:35:36.102479', 'mgs': 0, 'volt': 0.0, 'depth': -12.5, 'time': 10, 'pitch': 5.33, 'roll': -1.17, 'pres': 0}
{'lipoC2': 7.65, 'lipoC3S1': 4.15, 'temp': 31.44, 'lipoC3S3': 12.54, 'lipoC3S2': 8.29, 'rot1': 0, 'rot0': 0, 'rot3': 0, 'rot2': 0, 'state': 'normal', 'yaw': -166.87, 'datetime': '2018-10-09 11:35:36.205876', 'mgs': 0, 'volt': 0.0, 'depth': -12.5, 'time': 10, 'pitch': 5.91, 'roll': -1.11, 'pres': 0}
{'lipoC2': 7.65, 'lipoC3S1': 4.15, 'temp': 31.44, 'lipoC3S3': 12.55, 'lipoC3S2': 8.3, 'rot1': 0, 'rot0': 0, 'rot3': 0, 'rot2': 0, 'state': 'normal', 'yaw': -167.2, 'datetime': '2018-10-09 11:35:36.310484', 'mgs': 0, 'volt': 0.0, 'depth': -12.5, 'time': 10, 'pitch': 6.28, 'roll': -0.93, 'pres': 0}
{'lipoC2': 7.65, 'lipoC3S1': 4.15, 'temp': 31.44, 'lipoC3S3': 12.54, 'lipoC3S2': 8.3, 'rot1': 0, 'rot0': 0, 'rot3': 0, 'rot2': 0, 'state': 'normal', 'yaw': -167.51, 'datetime': '2018-10-09 11:35:36.414547', 'mgs': 0, 'volt': 0.0, 'depth': -12.5, 'time': 10, 'pitch': 6.38, 'roll': -0.67, 'pres': 0}
{'lipoC2': 7.66, 'lipoC3S1': 4.15, 'temp': 31.44, 'lipoC3S3': 12.54, 'lipoC3S2': 8.29, 'rot1': 0, 'rot0': 0, 'rot3': 0, 'rot2': 0, 'state': 'normal', 'yaw': -167.81, 'datetime': '2018-10-09 11:35:36.517266', 'mgs': 0, 'volt': 0.0, 'depth': -12.5, 'time': 10, 'pitch': 6.06, 'roll': -0.39, 'pres': 0}
{'lipoC2': 7.65, 'lipoC3S1': 4.15, 'temp': 31.44, 'lipoC3S3': 12.55, 'lipoC3S2': 8.3, 'rot1': 0, 'rot0': 0, 'rot3': 0, 'rot2': 0, 'state': 'normal', 'yaw': -168.12, 'datetime': '2018-10-09 11:35:36.620586', 'mgs': 0, 'volt': 0.0, 'depth': -12.5, 'time': 10, 'pitch': 5.42, 'roll': -0.06, 'pres': 0}
{'lipoC2': 7.65, 'lipoC3S1': 4.15, 'temp': 31.44, 'lipoC3S3': 12.54, 'lipoC3S2': 8.3, 'rot1': 0, 'rot0': 0, 'rot3': 0, 'rot2': 0, 'state': 'normal', 'yaw': -168.43, 'datetime': '2018-10-09 11:35:36.723948', 'mgs': 0, 'volt': 0.0, 'depth': -12.5, 'time': 10, 'pitch': 4.62, 'roll': 0.19, 'pres': 0}
{'lipoC2': 7.65, 'lipoC3S1': 4.15, 'temp': 31.44, 'lipoC3S3': 12.54, 'lipoC3S2': 8.3, 'rot1': 0, 'rot0': 0, 'rot3': 0, 'rot2': 0, 'state': 'normal', 'yaw': -168.64, 'datetime': '2018-10-09 11:35:36.827281', 'mgs': 0, 'volt': 0.0, 'depth': -12.5, 'time': 11, 'pitch': 4.07, 'roll': 0.29, 'pres': 0}
{'lipoC2': 7.66, 'lipoC3S1': 4.15, 'temp': 31.44, 'lipoC3S3': 12.54, 'lipoC3S2': 8.29, 'rot1': 0, 'rot0': 0, 'rot3': 0, 'rot2': 0, 'state': 'normal', 'yaw': -168.81, 'datetime': '2018-10-09 11:35:36.930682', 'mgs': 0, 'volt': 0.0, 'depth': -12.5, 'time': 11, 'pitch': 3.88, 'roll': 0.16, 'pres': 0}
{'lipoC2': 7.65, 'lipoC3S1': 4.15, 'temp': 31.44, 'lipoC3S3': 12.55, 'lipoC3S2': 8.3, 'rot1': 0, 'rot0': 0, 'rot3': 0, 'rot2': 0, 'state': 'normal', 'yaw': -168.97, 'datetime': '2018-10-09 11:35:37.034225', 'mgs': 0, 'volt': 0.0, 'depth': -12.5, 'time': 11, 'pitch': 4.08, 'roll': -0.21, 'pres': 0}
{'lipoC2': 7.65, 'lipoC3S1': 4.15, 'temp': 31.44, 'lipoC3S3': 12.54, 'lipoC3S2': 8.29, 'rot1': 0, 'rot0': 0, 'rot3': 0, 'rot2': 0, 'state': 'normal', 'yaw': -169.17, 'datetime': '2018-10-09 11:35:37.137603', 'mgs': 0, 'volt': 0.0, 'depth': -12.5, 'time': 11, 'pitch': 4.54, 'roll': -0.66, 'pres': 0}
{'lipoC2': 7.65, 'lipoC3S1': 4.15, 'temp': 31.44, 'lipoC3S3': 12.54, 'lipoC3S2': 8.29, 'rot1': 0, 'rot0': 0, 'rot3': 0, 'rot2': 0, 'state': 'normal', 'yaw': -169.39, 'datetime': '2018-10-09 11:35:37.240912', 'mgs': 0, 'volt': 0.0, 'depth': -12.5, 'time': 11, 'pitch': 4.97, 'roll': -0.89, 'pres': 0}
{'lipoC2': 7.66, 'lipoC3S1': 4.15, 'temp': 31.44, 'lipoC3S3': 12.54, 'lipoC3S2': 8.3, 'rot1': 0, 'rot0': 0, 'rot3': 0, 'rot2': 0, 'state': 'normal', 'yaw': -169.64, 'datetime': '2018-10-09 11:35:37.344693', 'mgs': 0, 'volt': 0.0, 'depth': -12.5, 'time': 11, 'pitch': 5.29, 'roll': -0.88, 'pres': 0}
{'lipoC2': 7.65, 'lipoC3S1': 4.15, 'temp': 31.44, 'lipoC3S3': 12.54, 'lipoC3S2': 8.29, 'rot1': 0, 'rot0': 0, 'rot3': 0, 'rot2': 0, 'state': 'normal', 'yaw': -169.95, 'datetime': '2018-10-09 11:35:37.447970', 'mgs': 0, 'volt': 0.0, 'depth': -12.5, 'time': 11, 'pitch': 5.34, 'roll': -0.65, 'pres': 0}
{'lipoC2': 7.66, 'lipoC3S1': 4.15, 'temp': 31.44, 'lipoC3S3': 12.54, 'lipoC3S2': 8.3, 'rot1': 0, 'rot0': 0, 'rot3': 0, 'rot2': 0, 'state': 'normal', 'yaw': -170.24, 'datetime': '2018-10-09 11:35:37.552607', 'mgs': 0, 'volt': 0.0, 'depth': -12.5, 'time': 11, 'pitch': 5.04, 'roll': -0.31, 'pres': 0}
{'lipoC2': 7.65, 'lipoC3S1': 4.15, 'temp': 31.44, 'lipoC3S3': 12.55, 'lipoC3S2': 8.3, 'rot1': 0, 'rot0': 0, 'rot3': 0, 'rot2': 0, 'state': 'normal', 'yaw': -170.53, 'datetime': '2018-10-09 11:35:37.655982', 'mgs': 0, 'volt': 0.0, 'depth': -12.5, 'time': 11, 'pitch': 4.51, 'roll': -0.02, 'pres': 0}
{'lipoC2': 7.65, 'lipoC3S1': 4.15, 'temp': 31.44, 'lipoC3S3': 12.55, 'lipoC3S2': 8.29, 'rot1': 0, 'rot0': 0, 'rot3': 0, 'rot2': 0, 'state': 'normal', 'yaw': -170.73, 'datetime': '2018-10-09 11:35:37.759322', 'mgs': 0, 'volt': 0.0, 'depth': -12.5, 'time': 12, 'pitch': 4.09, 'roll': 0.01, 'pres': 0}
{'lipoC2': 7.65, 'lipoC3S1': 4.15, 'temp': 31.44, 'lipoC3S3': 12.54, 'lipoC3S2': 8.3, 'rot1': 0, 'rot0': 0, 'rot3': 0, 'rot2': 0, 'state': 'normal', 'yaw': -170.88, 'datetime': '2018-10-09 11:35:37.863924', 'mgs': 0, 'volt': 0.0, 'depth': -12.5, 'time': 12, 'pitch': 3.94, 'roll': -0.19, 'pres': 0}
{'lipoC2': 7.65, 'lipoC3S1': 4.15, 'temp': 31.44, 'lipoC3S3': 12.55, 'lipoC3S2': 8.29, 'rot1': 0, 'rot0': 0, 'rot3': 0, 'rot2': 0, 'state': 'normal', 'yaw': -171.05, 'datetime': '2018-10-09 11:35:37.967289', 'mgs': 0, 'volt': 0.0, 'depth': -12.5, 'time': 12, 'pitch': 4.2, 'roll': -0.6, 'pres': 0}
{'lipoC2': 7.65, 'lipoC3S1': 4.15, 'temp': 31.44, 'lipoC3S3': 12.55, 'lipoC3S2': 8.29, 'rot1': 0, 'rot0': 0, 'rot3': 0, 'rot2': 0, 'state': 'normal', 'yaw': -171.24, 'datetime': '2018-10-09 11:35:38.070650', 'mgs': 0, 'volt': 0.0, 'depth': -12.5, 'time': 12, 'pitch': 4.74, 'roll': -0.96, 'pres': 0}
{'lipoC2': 7.65, 'lipoC3S1': 4.15, 'temp': 31.44, 'lipoC3S3': 12.55, 'lipoC3S2': 8.29, 'rot1': 0, 'rot0': 0, 'rot3': 0, 'rot2': 0, 'state': 'normal', 'yaw': -171.46, 'datetime': '2018-10-09 11:35:38.174047', 'mgs': 0, 'volt': 0.0, 'depth': -12.5, 'time': 12, 'pitch': 5.27, 'roll': -1.16, 'pres': 0}
{'lipoC2': 7.65, 'lipoC3S1': 4.15, 'temp': 31.44, 'lipoC3S3': 12.55, 'lipoC3S2': 8.29, 'rot1': 0, 'rot0': 0, 'rot3': 0, 'rot2': 0, 'state': 'normal', 'yaw': -171.71, 'datetime': '2018-10-09 11:35:38.277404', 'mgs': 0, 'volt': 0.0, 'depth': -12.5, 'time': 12, 'pitch': 5.65, 'roll': -1.15, 'pres': 0}
{'lipoC2': 7.66, 'lipoC3S1': 4.15, 'temp': 31.44, 'lipoC3S3': 12.54, 'lipoC3S2': 8.3, 'rot1': 0, 'rot0': 0, 'rot3': 0, 'rot2': 0, 'state': 'normal', 'yaw': -171.92, 'datetime': '2018-10-09 11:35:38.380706', 'mgs': 0, 'volt': 0.0, 'depth': -12.5, 'time': 12, 'pitch': 5.72, 'roll': -1.01, 'pres': 0}
{'lipoC2': 7.65, 'lipoC3S1': 4.15, 'temp': 31.44, 'lipoC3S3': 12.54, 'lipoC3S2': 8.29, 'rot1': 0, 'rot0': 0, 'rot3': 0, 'rot2': 0, 'state': 'normal', 'yaw': -172.87, 'datetime': '2018-10-09 11:35:38.484129', 'mgs': 0, 'volt': 0.0, 'depth': -12.5, 'time': 12, 'pitch': 5.6, 'roll': -0.87, 'pres': 0}
{'lipoC2': 7.66, 'lipoC3S1': 4.15, 'temp': 31.44, 'lipoC3S3': 12.55, 'lipoC3S2': 8.29, 'rot1': 0, 'rot0': 0, 'rot3': 0, 'rot2': 0, 'state': 'normal', 'yaw': -173.92, 'datetime': '2018-10-09 11:35:38.587524', 'mgs': 0, 'volt': 0.0, 'depth': -12.5, 'time': 12, 'pitch': 5.31, 'roll': -0.71, 'pres': 0}
{'lipoC2': 7.65, 'lipoC3S1': 4.15, 'temp': 31.44, 'lipoC3S3': 12.54, 'lipoC3S2': 8.29, 'rot1': 0, 'rot0': 0, 'rot3': 0, 'rot2': 0, 'state': 'normal', 'yaw': -174.77, 'datetime': '2018-10-09 11:35:38.690833', 'mgs': 0, 'volt': 0.0, 'depth': -12.5, 'time': 12, 'pitch': 5.06, 'roll': -0.55, 'pres': 0}
{'lipoC2': 7.65, 'lipoC3S1': 4.15, 'temp': 31.44, 'lipoC3S3': 12.54, 'lipoC3S2': 8.29, 'rot1': 0, 'rot0': 0, 'rot3': 0, 'rot2': 0, 'state': 'normal', 'yaw': -175.3, 'datetime': '2018-10-09 11:35:38.799545', 'mgs': 0, 'volt': 0.0, 'depth': -12.5, 'time': 13, 'pitch': 4.87, 'roll': -0.38, 'pres': 0}
{'lipoC2': 7.65, 'lipoC3S1': 4.15, 'temp': 31.44, 'lipoC3S3': 12.54, 'lipoC3S2': 8.29, 'rot1': 0, 'rot0': 0, 'rot3': 0, 'rot2': 0, 'state': 'normal', 'yaw': -175.95, 'datetime': '2018-10-09 11:35:38.904073', 'mgs': 0, 'volt': 0.0, 'depth': -12.5, 'time': 13, 'pitch': 4.79, 'roll': -0.29, 'pres': 0}
{'lipoC2': 7.65, 'lipoC3S1': 4.15, 'temp': 31.44, 'lipoC3S3': 12.54, 'lipoC3S2': 8.3, 'rot1': 0, 'rot0': 0, 'rot3': 0, 'rot2': 0, 'state': 'normal', 'yaw': -176.43, 'datetime': '2018-10-09 11:35:39.007218', 'mgs': 0, 'volt': 0.0, 'depth': -12.5, 'time': 13, 'pitch': 4.83, 'roll': -0.3, 'pres': 0}
{'lipoC2': 7.65, 'lipoC3S1': 4.15, 'temp': 31.38, 'lipoC3S3': 12.54, 'lipoC3S2': 8.3, 'rot1': 0, 'rot0': 0, 'rot3': 0, 'rot2': 0, 'state': 'normal', 'yaw': -176.9, 'datetime': '2018-10-09 11:35:39.111729', 'mgs': 0, 'volt': 0.0, 'depth': -12.5, 'time': 13, 'pitch': 4.96, 'roll': -0.38, 'pres': 0}
{'lipoC2': 7.65, 'lipoC3S1': 4.15, 'temp': 31.38, 'lipoC3S3': 12.55, 'lipoC3S2': 8.29, 'rot1': 0, 'rot0': 0, 'rot3': 0, 'rot2': 0, 'state': 'normal', 'yaw': -177.19, 'datetime': '2018-10-09 11:35:39.215173', 'mgs': 0, 'volt': 0.0, 'depth': -12.5, 'time': 13, 'pitch': 5.07, 'roll': -0.4, 'pres': 0}
{'lipoC2': 7.65, 'lipoC3S1': 4.15, 'temp': 31.38, 'lipoC3S3': 12.54, 'lipoC3S2': 8.29, 'rot1': 0, 'rot0': 0, 'rot3': 0, 'rot2': 0, 'state': 'normal', 'yaw': -177.53, 'datetime': '2018-10-09 11:35:39.318453', 'mgs': 0, 'volt': 0.0, 'depth': -12.5, 'time': 13, 'pitch': 5.07, 'roll': -0.41, 'pres': 0}
{'lipoC2': 7.65, 'lipoC3S1': 4.15, 'temp': 31.38, 'lipoC3S3': 12.54, 'lipoC3S2': 8.29, 'rot1': 0, 'rot0': 0, 'rot3': 0, 'rot2': 0, 'state': 'normal', 'yaw': -178.11, 'datetime': '2018-10-09 11:35:39.423125', 'mgs': 0, 'volt': 0.0, 'depth': -12.5, 'time': 13, 'pitch': 4.98, 'roll': -0.37, 'pres': 0}
{'lipoC2': 7.66, 'lipoC3S1': 4.15, 'temp': 31.38, 'lipoC3S3': 12.55, 'lipoC3S2': 8.3, 'rot1': 0, 'rot0': 0, 'rot3': 0, 'rot2': 0, 'state': 'normal', 'yaw': -178.28, 'datetime': '2018-10-09 11:35:39.526405', 'mgs': 0, 'volt': 0.0, 'depth': -12.5, 'time': 13, 'pitch': 4.76, 'roll': -0.28, 'pres': 0}
{'lipoC2': 7.65, 'lipoC3S1': 4.15, 'temp': 31.44, 'lipoC3S3': 12.54, 'lipoC3S2': 8.29, 'rot1': 0, 'rot0': 0, 'rot3': 0, 'rot2': 0, 'state': 'normal', 'yaw': -178.62, 'datetime': '2018-10-09 11:35:39.630122', 'mgs': 0, 'volt': 0.0, 'depth': -12.5, 'time': 13, 'pitch': 4.5, 'roll': -0.19, 'pres': 0}
{'lipoC2': 7.65, 'lipoC3S1': 4.15, 'temp': 31.44, 'lipoC3S3': 12.55, 'lipoC3S2': 8.29, 'rot1': 0, 'rot0': 0, 'rot3': 0, 'rot2': 0, 'state': 'normal', 'yaw': -178.96, 'datetime': '2018-10-09 11:35:39.733095', 'mgs': 0, 'volt': 0.0, 'depth': -12.5, 'time': 13, 'pitch': 4.25, 'roll': -0.11, 'pres': 0}
{'lipoC2': 7.65, 'lipoC3S1': 4.15, 'temp': 31.38, 'lipoC3S3': 12.55, 'lipoC3S2': 8.29, 'rot1': 0, 'rot0': 0, 'rot3': 0, 'rot2': 0, 'state': 'normal', 'yaw': -179.58, 'datetime': '2018-10-09 11:35:39.836651', 'mgs': 0, 'volt': 0.0, 'depth': -12.5, 'time': 14, 'pitch': 4.17, 'roll': -0.12, 'pres': 0}
{'lipoC2': 7.65, 'lipoC3S1': 4.15, 'temp': 31.38, 'lipoC3S3': 12.54, 'lipoC3S2': 8.29, 'rot1': 0, 'rot0': 0, 'rot3': 0, 'rot2': 0, 'state': 'normal', 'yaw': -179.77, 'datetime': '2018-10-09 11:35:39.939881', 'mgs': 0, 'volt': 0.0, 'depth': -12.5, 'time': 14, 'pitch': 4.31, 'roll': -0.18, 'pres': 0}
{'lipoC2': 7.66, 'lipoC3S1': 4.15, 'temp': 31.38, 'lipoC3S3': 12.55, 'lipoC3S2': 8.3, 'rot1': 0, 'rot0': 0, 'rot3': 0, 'rot2': 0, 'state': 'normal', 'yaw': 179.75, 'datetime': '2018-10-09 11:35:40.043079', 'mgs': 0, 'volt': 0.0, 'depth': -12.5, 'time': 14, 'pitch': 4.56, 'roll': -0.33, 'pres': 0}
{'lipoC2': 7.66, 'lipoC3S1': 4.15, 'temp': 31.38, 'lipoC3S3': 12.54, 'lipoC3S2': 8.3, 'rot1': 0, 'rot0': 0, 'rot3': 0, 'rot2': 0, 'state': 'normal', 'yaw': 179.5, 'datetime': '2018-10-09 11:35:40.146435', 'mgs': 0, 'volt': 0.0, 'depth': -12.5, 'time': 14, 'pitch': 4.79, 'roll': -0.48, 'pres': 0}
{'lipoC2': 7.65, 'lipoC3S1': 4.15, 'temp': 31.38, 'lipoC3S3': 12.55, 'lipoC3S2': 8.29, 'rot1': 0, 'rot0': 0, 'rot3': 0, 'rot2': 0, 'state': 'normal', 'yaw': 179.09, 'datetime': '2018-10-09 11:35:40.249603', 'mgs': 0, 'volt': 0.0, 'depth': -12.5, 'time': 14, 'pitch': 4.82, 'roll': -0.52, 'pres': 0}
{'lipoC2': 7.65, 'lipoC3S1': 4.15, 'temp': 31.38, 'lipoC3S3': 12.54, 'lipoC3S2': 8.29, 'rot1': 0, 'rot0': 0, 'rot3': 0, 'rot2': 0, 'state': 'normal', 'yaw': 178.9, 'datetime': '2018-10-09 11:35:40.351140', 'mgs': 0, 'volt': 0.0, 'depth': -12.5, 'time': 14, 'pitch': 4.62, 'roll': -0.48, 'pres': 0}
{'lipoC2': 7.65, 'lipoC3S1': 4.15, 'temp': 31.38, 'lipoC3S3': 12.55, 'lipoC3S2': 8.29, 'rot1': 0, 'rot0': 0, 'rot3': 0, 'rot2': 0, 'state': 'normal', 'yaw': 178.53, 'datetime': '2018-10-09 11:35:40.456486', 'mgs': 0, 'volt': 0.0, 'depth': -12.5, 'time': 14, 'pitch': 4.24, 'roll': -0.33, 'pres': 0}
{'lipoC2': 7.66, 'lipoC3S1': 4.15, 'temp': 31.44, 'lipoC3S3': 12.55, 'lipoC3S2': 8.29, 'rot1': 0, 'rot0': 0, 'rot3': 0, 'rot2': 0, 'state': 'normal', 'yaw': 178.32, 'datetime': '2018-10-09 11:35:40.559569', 'mgs': 0, 'volt': 0.0, 'depth': -12.5, 'time': 14, 'pitch': 3.9, 'roll': -0.27, 'pres': 0}
{'lipoC2': 7.65, 'lipoC3S1': 4.15, 'temp': 31.44, 'lipoC3S3': 12.55, 'lipoC3S2': 8.29, 'rot1': 0, 'rot0': 0, 'rot3': 0, 'rot2': 0, 'state': 'normal', 'yaw': 177.92, 'datetime': '2018-10-09 11:35:40.664063', 'mgs': 0, 'volt': 0.0, 'depth': -12.5, 'time': 14, 'pitch': 3.73, 'roll': -0.38, 'pres': 0}
{'lipoC2': 7.65, 'lipoC3S1': 4.15, 'temp': 31.38, 'lipoC3S3': 12.54, 'lipoC3S2': 8.3, 'rot1': 0, 'rot0': 0, 'rot3': 0, 'rot2': 0, 'state': 'normal', 'yaw': 177.75, 'datetime': '2018-10-09 11:35:40.767470', 'mgs': 0, 'volt': 0.0, 'depth': -12.5, 'time': 15, 'pitch': 3.87, 'roll': -0.72, 'pres': 0}
{'lipoC2': 7.65, 'lipoC3S1': 4.15, 'temp': 31.38, 'lipoC3S3': 12.54, 'lipoC3S2': 8.3, 'rot1': 0, 'rot0': 0, 'rot3': 0, 'rot2': 0, 'state': 'normal', 'yaw': 177.58, 'datetime': '2018-10-09 11:35:40.870842', 'mgs': 0, 'volt': 0.0, 'depth': -12.5, 'time': 15, 'pitch': 4.3, 'roll': -1.1, 'pres': 0}
{'lipoC2': 7.65, 'lipoC3S1': 4.15, 'temp': 31.38, 'lipoC3S3': 12.55, 'lipoC3S2': 8.29, 'rot1': 0, 'rot0': 0, 'rot3': 0, 'rot2': 0, 'state': 'normal', 'yaw': 177.4, 'datetime': '2018-10-09 11:35:40.975140', 'mgs': 0, 'volt': 0.0, 'depth': -12.5, 'time': 15, 'pitch': 4.9, 'roll': -1.31, 'pres': 0}
{'lipoC2': 7.65, 'lipoC3S1': 4.15, 'temp': 31.44, 'lipoC3S3': 12.54, 'lipoC3S2': 8.3, 'rot1': 0, 'rot0': 0, 'rot3': 0, 'rot2': 0, 'state': 'normal', 'yaw': 177.17, 'datetime': '2018-10-09 11:35:41.078543', 'mgs': 0, 'volt': 0.0, 'depth': -12.5, 'time': 15, 'pitch': 5.45, 'roll': -1.16, 'pres': 0}
{'lipoC2': 7.65, 'lipoC3S1': 4.15, 'temp': 31.44, 'lipoC3S3': 12.54, 'lipoC3S2': 8.29, 'rot1': 0, 'rot0': 0, 'rot3': 0, 'rot2': 0, 'state': 'normal', 'yaw': 176.96, 'datetime': '2018-10-09 11:35:41.181596', 'mgs': 0, 'volt': 0.0, 'depth': -12.5, 'time': 15, 'pitch': 5.68, 'roll': -0.72, 'pres': 0}
{'lipoC2': 7.65, 'lipoC3S1': 4.15, 'temp': 31.44, 'lipoC3S3': 12.54, 'lipoC3S2': 8.29, 'rot1': 0, 'rot0': 0, 'rot3': 0, 'rot2': 0, 'state': 'normal', 'yaw': 176.76, 'datetime': '2018-10-09 11:35:41.284858', 'mgs': 0, 'volt': 0.0, 'depth': -12.5, 'time': 15, 'pitch': 5.61, 'roll': -0.27, 'pres': 0}
{'lipoC2': 7.65, 'lipoC3S1': 4.15, 'temp': 31.44, 'lipoC3S3': 12.54, 'lipoC3S2': 8.29, 'rot1': 0, 'rot0': 0, 'rot3': 0, 'rot2': 0, 'state': 'normal', 'yaw': 176.57, 'datetime': '2018-10-09 11:35:41.388304', 'mgs': 0, 'volt': 0.0, 'depth': -12.5, 'time': 15, 'pitch': 5.33, 'roll': -0.0, 'pres': 0}
{'lipoC2': 7.65, 'lipoC3S1': 4.15, 'temp': 31.38, 'lipoC3S3': 12.54, 'lipoC3S2': 8.29, 'rot1': 0, 'rot0': 0, 'rot3': 0, 'rot2': 0, 'state': 'normal', 'yaw': 176.41, 'datetime': '2018-10-09 11:35:41.491470', 'mgs': 0, 'volt': 0.0, 'depth': -12.5, 'time': 15, 'pitch': 5.06, 'roll': -0.12, 'pres': 0}
{'lipoC2': 7.65, 'lipoC3S1': 4.15, 'temp': 31.38, 'lipoC3S3': 12.54, 'lipoC3S2': 8.3, 'rot1': 0, 'rot0': 0, 'rot3': 0, 'rot2': 0, 'state': 'normal', 'yaw': 176.27, 'datetime': '2018-10-09 11:35:41.594577', 'mgs': 0, 'volt': 0.0, 'depth': -12.5, 'time': 15, 'pitch': 4.97, 'roll': -0.4, 'pres': 0}
{'lipoC2': 7.65, 'lipoC3S1': 4.15, 'temp': 31.38, 'lipoC3S3': 12.54, 'lipoC3S2': 8.29, 'rot1': 0, 'rot0': 0, 'rot3': 0, 'rot2': 0, 'state': 'normal', 'yaw': 175.67, 'datetime': '2018-10-09 11:35:41.698168', 'mgs': 0, 'volt': 0.0, 'depth': -12.5, 'time': 15, 'pitch': 5.08, 'roll': -0.76, 'pres': 0}
{'lipoC2': 7.65, 'lipoC3S1': 4.15, 'temp': 31.44, 'lipoC3S3': 12.54, 'lipoC3S2': 8.29, 'rot1': 0, 'rot0': 0, 'rot3': 0, 'rot2': 0, 'state': 'normal', 'yaw': 175.28, 'datetime': '2018-10-09 11:35:41.801679', 'mgs': 0, 'volt': 0.0, 'depth': -12.5, 'time': 16, 'pitch': 5.32, 'roll': -1.01, 'pres': 0}
{'lipoC2': 7.65, 'lipoC3S1': 4.15, 'temp': 31.44, 'lipoC3S3': 12.55, 'lipoC3S2': 8.3, 'rot1': 0, 'rot0': 0, 'rot3': 0, 'rot2': 0, 'state': 'normal', 'yaw': 174.76, 'datetime': '2018-10-09 11:35:41.904708', 'mgs': 0, 'volt': 0.0, 'depth': -12.5, 'time': 16, 'pitch': 5.53, 'roll': -0.98, 'pres': 0}
{'lipoC2': 7.65, 'lipoC3S1': 4.15, 'temp': 31.38, 'lipoC3S3': 12.54, 'lipoC3S2': 8.29, 'rot1': 0, 'rot0': 0, 'rot3': 0, 'rot2': 0, 'state': 'normal', 'yaw': 174.36, 'datetime': '2018-10-09 11:35:42.002009', 'mgs': 0, 'volt': 0.0, 'depth': -12.5, 'time': 16, 'pitch': 5.66, 'roll': -0.75, 'pres': 0}
{'lipoC2': 7.65, 'lipoC3S1': 4.15, 'temp': 31.38, 'lipoC3S3': 12.55, 'lipoC3S2': 8.3, 'rot1': 0, 'rot0': 0, 'rot3': 0, 'rot2': 0, 'state': 'normal', 'yaw': 173.47, 'datetime': '2018-10-09 11:35:42.105341', 'mgs': 0, 'volt': 0.0, 'depth': -12.5, 'time': 16, 'pitch': 5.57, 'roll': -0.3, 'pres': 0}
{'lipoC2': 7.65, 'lipoC3S1': 4.15, 'temp': 31.38, 'lipoC3S3': 12.54, 'lipoC3S2': 8.29, 'rot1': 0, 'rot0': 0, 'rot3': 0, 'rot2': 0, 'state': 'normal', 'yaw': 172.92, 'datetime': '2018-10-09 11:35:42.208979', 'mgs': 0, 'volt': 0.0, 'depth': -12.5, 'time': 16, 'pitch': 5.17, 'roll': 0.16, 'pres': 0}
{'lipoC2': 7.65, 'lipoC3S1': 4.15, 'temp': 31.38, 'lipoC3S3': 12.55, 'lipoC3S2': 8.29, 'rot1': 0, 'rot0': 0, 'rot3': 0, 'rot2': 0, 'state': 'normal', 'yaw': 172.7, 'datetime': '2018-10-09 11:35:42.312951', 'mgs': 0, 'volt': 0.0, 'depth': -12.5, 'time': 16, 'pitch': 4.56, 'roll': 0.42, 'pres': 0}
{'lipoC2': 7.65, 'lipoC3S1': 4.15, 'temp': 31.38, 'lipoC3S3': 12.54, 'lipoC3S2': 8.3, 'rot1': 0, 'rot0': 0, 'rot3': 0, 'rot2': 0, 'state': 'normal', 'yaw': 172.51, 'datetime': '2018-10-09 11:35:42.415516', 'mgs': 0, 'volt': 0.0, 'depth': -12.5, 'time': 16, 'pitch': 3.81, 'roll': 0.39, 'pres': 0}
{'lipoC2': 7.65, 'lipoC3S1': 4.15, 'temp': 31.44, 'lipoC3S3': 12.54, 'lipoC3S2': 8.29, 'rot1': 0, 'rot0': 0, 'rot3': 0, 'rot2': 0, 'state': 'normal', 'yaw': 172.1, 'datetime': '2018-10-09 11:35:42.519797', 'mgs': 0, 'volt': 0.0, 'depth': -12.5, 'time': 16, 'pitch': 3.31, 'roll': 0.16, 'pres': 0}
{'lipoC2': 7.65, 'lipoC3S1': 4.15, 'temp': 31.44, 'lipoC3S3': 12.55, 'lipoC3S2': 8.29, 'rot1': 0, 'rot0': 0, 'rot3': 0, 'rot2': 0, 'state': 'normal', 'yaw': 171.91, 'datetime': '2018-10-09 11:35:42.623494', 'mgs': 0, 'volt': 0.0, 'depth': -12.5, 'time': 16, 'pitch': 3.25, 'roll': -0.28, 'pres': 0}
{'lipoC2': 7.65, 'lipoC3S1': 4.15, 'temp': 31.38, 'lipoC3S3': 12.54, 'lipoC3S2': 8.3, 'rot1': 0, 'rot0': 0, 'rot3': 0, 'rot2': 0, 'state': 'normal', 'yaw': 171.73, 'datetime': '2018-10-09 11:35:42.726741', 'mgs': 0, 'volt': 0.0, 'depth': -12.5, 'time': 16, 'pitch': 3.68, 'roll': -0.65, 'pres': 0}
{'lipoC2': 7.65, 'lipoC3S1': 4.15, 'temp': 31.38, 'lipoC3S3': 12.54, 'lipoC3S2': 8.3, 'rot1': 0, 'rot0': 0, 'rot3': 0, 'rot2': 0, 'state': 'normal', 'yaw': 171.47, 'datetime': '2018-10-09 11:35:42.830027', 'mgs': 0, 'volt': 0.0, 'depth': -12.5, 'time': 17, 'pitch': 4.37, 'roll': -0.79, 'pres': 0}
{'lipoC2': 7.65, 'lipoC3S1': 4.15, 'temp': 31.38, 'lipoC3S3': 12.54, 'lipoC3S2': 8.29, 'rot1': 0, 'rot0': 0, 'rot3': 0, 'rot2': 0, 'state': 'normal', 'yaw': 171.28, 'datetime': '2018-10-09 11:35:42.933476', 'mgs': 0, 'volt': 0.0, 'depth': -12.5, 'time': 17, 'pitch': 4.99, 'roll': -0.7, 'pres': 0}
{'lipoC2': 7.65, 'lipoC3S1': 4.15, 'temp': 31.38, 'lipoC3S3': 12.54, 'lipoC3S2': 8.3, 'rot1': 0, 'rot0': 0, 'rot3': 0, 'rot2': 0, 'state': 'normal', 'yaw': 171.06, 'datetime': '2018-10-09 11:35:43.036706', 'mgs': 0, 'volt': 0.0, 'depth': -12.5, 'time': 17, 'pitch': 5.28, 'roll': -0.43, 'pres': 0}
{'lipoC2': 7.65, 'lipoC3S1': 4.15, 'temp': 31.38, 'lipoC3S3': 12.54, 'lipoC3S2': 8.3, 'rot1': 0, 'rot0': 0, 'rot3': 0, 'rot2': 0, 'state': 'normal', 'yaw': 171.0, 'datetime': '2018-10-09 11:35:43.140671', 'mgs': 0, 'volt': 0.0, 'depth': -12.5, 'time': 17, 'pitch': 5.21, 'roll': -0.31, 'pres': 0}
{'lipoC2': 7.65, 'lipoC3S1': 4.15, 'temp': 31.38, 'lipoC3S3': 12.54, 'lipoC3S2': 8.29, 'rot1': 0, 'rot0': 0, 'rot3': 0, 'rot2': 0, 'state': 'normal', 'yaw': 170.84, 'datetime': '2018-10-09 11:35:43.244123', 'mgs': 0, 'volt': 0.0, 'depth': -12.5, 'time': 17, 'pitch': 5.0, 'roll': -0.43, 'pres': 0}
{'lipoC2': 7.65, 'lipoC3S1': 4.15, 'temp': 31.38, 'lipoC3S3': 12.54, 'lipoC3S2': 8.3, 'rot1': 0, 'rot0': 0, 'rot3': 0, 'rot2': 0, 'state': 'normal', 'yaw': 170.68, 'datetime': '2018-10-09 11:35:43.346706', 'mgs': 0, 'volt': 0.0, 'depth': -12.5, 'time': 17, 'pitch': 4.83, 'roll': -0.8, 'pres': 0}
{'lipoC2': 7.65, 'lipoC3S1': 4.15, 'temp': 31.38, 'lipoC3S3': 12.54, 'lipoC3S2': 8.3, 'rot1': 0, 'rot0': 0, 'rot3': 0, 'rot2': 0, 'state': 'normal', 'yaw': 170.3, 'datetime': '2018-10-09 11:35:43.449911', 'mgs': 0, 'volt': 0.0, 'depth': -12.5, 'time': 17, 'pitch': 4.89, 'roll': -1.18, 'pres': 0}
{'lipoC2': 7.65, 'lipoC3S1': 4.15, 'temp': 31.38, 'lipoC3S3': 12.55, 'lipoC3S2': 8.29, 'rot1': 0, 'rot0': 0, 'rot3': 0, 'rot2': 0, 'state': 'normal', 'yaw': 170.1, 'datetime': '2018-10-09 11:35:43.554078', 'mgs': 0, 'volt': 0.0, 'depth': -12.5, 'time': 17, 'pitch': 5.15, 'roll': -1.35, 'pres': 0}
{'lipoC2': 7.65, 'lipoC3S1': 4.15, 'temp': 31.38, 'lipoC3S3': 12.54, 'lipoC3S2': 8.29, 'rot1': 0, 'rot0': 0, 'rot3': 0, 'rot2': 0, 'state': 'normal', 'yaw': 169.79, 'datetime': '2018-10-09 11:35:43.657327', 'mgs': 0, 'volt': 0.0, 'depth': -12.5, 'time': 17, 'pitch': 5.53, 'roll': -1.18, 'pres': 0}
{'lipoC2': 7.65, 'lipoC3S1': 4.15, 'temp': 31.38, 'lipoC3S3': 12.54, 'lipoC3S2': 8.29, 'rot1': 0, 'rot0': 0, 'rot3': 0, 'rot2': 0, 'state': 'normal', 'yaw': 169.41, 'datetime': '2018-10-09 11:35:43.761658', 'mgs': 0, 'volt': 0.0, 'depth': -12.5, 'time': 17, 'pitch': 5.77, 'roll': -0.83, 'pres': 0}
{'lipoC2': 7.65, 'lipoC3S1': 4.15, 'temp': 31.38, 'lipoC3S3': 12.54, 'lipoC3S2': 8.29, 'rot1': 0, 'rot0': 0, 'rot3': 0, 'rot2': 0, 'state': 'normal', 'yaw': 169.13, 'datetime': '2018-10-09 11:35:43.865331', 'mgs': 0, 'volt': 0.0, 'depth': -12.5, 'time': 18, 'pitch': 5.86, 'roll': -0.5, 'pres': 0}
{'lipoC2': 7.65, 'lipoC3S1': 4.15, 'temp': 31.38, 'lipoC3S3': 12.54, 'lipoC3S2': 8.29, 'rot1': 0, 'rot0': 0, 'rot3': 0, 'rot2': 0, 'state': 'normal', 'yaw': 168.77, 'datetime': '2018-10-09 11:35:43.968569', 'mgs': 0, 'volt': 0.0, 'depth': -12.5, 'time': 18, 'pitch': 5.75, 'roll': -0.34, 'pres': 0}
{'lipoC2': 7.65, 'lipoC3S1': 4.15, 'temp': 31.38, 'lipoC3S3': 12.54, 'lipoC3S2': 8.29, 'rot1': 0, 'rot0': 0, 'rot3': 0, 'rot2': 0, 'state': 'normal', 'yaw': 168.46, 'datetime': '2018-10-09 11:35:44.073806', 'mgs': 0, 'volt': 0.0, 'depth': -12.5, 'time': 18, 'pitch': 5.44, 'roll': -0.37, 'pres': 0}
{'lipoC2': 7.65, 'lipoC3S1': 4.15, 'temp': 31.38, 'lipoC3S3': 12.54, 'lipoC3S2': 8.3, 'rot1': 0, 'rot0': 0, 'rot3': 0, 'rot2': 0, 'state': 'normal', 'yaw': 168.16, 'datetime': '2018-10-09 11:35:44.182968', 'mgs': 0, 'volt': 0.0, 'depth': -12.5, 'time': 18, 'pitch': 4.96, 'roll': -0.5, 'pres': 0}
{'lipoC2': 7.65, 'lipoC3S1': 4.15, 'temp': 31.38, 'lipoC3S3': 12.54, 'lipoC3S2': 8.29, 'rot1': 0, 'rot0': 0, 'rot3': 0, 'rot2': 0, 'state': 'normal', 'yaw': 167.63, 'datetime': '2018-10-09 11:35:44.286528', 'mgs': 0, 'volt': 0.0, 'depth': -12.5, 'time': 18, 'pitch': 4.61, 'roll': -0.54, 'pres': 0}
{'lipoC2': 7.65, 'lipoC3S1': 4.15, 'temp': 31.38, 'lipoC3S3': 12.54, 'lipoC3S2': 8.3, 'rot1': 0, 'rot0': 0, 'rot3': 0, 'rot2': 0, 'state': 'normal', 'yaw': 167.25, 'datetime': '2018-10-09 11:35:44.389660', 'mgs': 0, 'volt': 0.0, 'depth': -12.5, 'time': 18, 'pitch': 4.5, 'roll': -0.45, 'pres': 0}
{'lipoC2': 7.65, 'lipoC3S1': 4.15, 'temp': 31.38, 'lipoC3S3': 12.54, 'lipoC3S2': 8.3, 'rot1': 0, 'rot0': 0, 'rot3': 0, 'rot2': 0, 'state': 'normal', 'yaw': 167.11, 'datetime': '2018-10-09 11:35:44.493095', 'mgs': 0, 'volt': 0.0, 'depth': -12.5, 'time': 18, 'pitch': 4.63, 'roll': -0.22, 'pres': 0}
{'lipoC2': 7.65, 'lipoC3S1': 4.15, 'temp': 31.38, 'lipoC3S3': 12.55, 'lipoC3S2': 8.29, 'rot1': 0, 'rot0': 0, 'rot3': 0, 'rot2': 0, 'state': 'normal', 'yaw': 166.78, 'datetime': '2018-10-09 11:35:44.596554', 'mgs': 0, 'volt': 0.0, 'depth': -12.5, 'time': 18, 'pitch': 4.93, 'roll': 0.06, 'pres': 0}
{'lipoC2': 7.65, 'lipoC3S1': 4.15, 'temp': 31.38, 'lipoC3S3': 12.54, 'lipoC3S2': 8.3, 'rot1': 0, 'rot0': 0, 'rot3': 0, 'rot2': 0, 'state': 'normal', 'yaw': 166.64, 'datetime': '2018-10-09 11:35:44.699829', 'mgs': 0, 'volt': 0.0, 'depth': -12.5, 'time': 18, 'pitch': 5.19, 'roll': 0.19, 'pres': 0}
{'lipoC2': 7.65, 'lipoC3S1': 4.15, 'temp': 31.38, 'lipoC3S3': 12.54, 'lipoC3S2': 8.3, 'rot1': 0, 'rot0': 0, 'rot3': 0, 'rot2': 0, 'state': 'normal', 'yaw': 166.5, 'datetime': '2018-10-09 11:35:44.803251', 'mgs': 0, 'volt': 0.0, 'depth': -12.5, 'time': 19, 'pitch': 5.4, 'roll': 0.12, 'pres': 0}
{'lipoC2': 7.65, 'lipoC3S1': 4.15, 'temp': 31.38, 'lipoC3S3': 12.55, 'lipoC3S2': 8.3, 'rot1': 0, 'rot0': 0, 'rot3': 0, 'rot2': 0, 'state': 'normal', 'yaw': 166.31, 'datetime': '2018-10-09 11:35:44.906669', 'mgs': 0, 'volt': 0.0, 'depth': -12.5, 'time': 19, 'pitch': 5.47, 'roll': -0.12, 'pres': 0}
{'lipoC2': 7.65, 'lipoC3S1': 4.15, 'temp': 31.38, 'lipoC3S3': 12.54, 'lipoC3S2': 8.3, 'rot1': 0, 'rot0': 0, 'rot3': 0, 'rot2': 0, 'state': 'normal', 'yaw': 166.16, 'datetime': '2018-10-09 11:35:45.009494', 'mgs': 0, 'volt': 0.0, 'depth': -12.5, 'time': 19, 'pitch': 5.31, 'roll': -0.33, 'pres': 0}
{'lipoC2': 7.65, 'lipoC3S1': 4.15, 'temp': 31.38, 'lipoC3S3': 12.54, 'lipoC3S2': 8.3, 'rot1': 0, 'rot0': 0, 'rot3': 0, 'rot2': 0, 'state': 'normal', 'yaw': 166.02, 'datetime': '2018-10-09 11:35:45.113442', 'mgs': 0, 'volt': 0.0, 'depth': -12.5, 'time': 19, 'pitch': 4.94, 'roll': -0.4, 'pres': 0}
{'lipoC2': 7.65, 'lipoC3S1': 4.15, 'temp': 31.44, 'lipoC3S3': 12.54, 'lipoC3S2': 8.3, 'rot1': 0, 'rot0': 0, 'rot3': 0, 'rot2': 0, 'state': 'normal', 'yaw': 165.87, 'datetime': '2018-10-09 11:35:45.216640', 'mgs': 0, 'volt': 0.0, 'depth': -12.5, 'time': 19, 'pitch': 4.37, 'roll': -0.43, 'pres': 0}
{'lipoC2': 7.65, 'lipoC3S1': 4.15, 'temp': 31.44, 'lipoC3S3': 12.54, 'lipoC3S2': 8.3, 'rot1': 0, 'rot0': 0, 'rot3': 0, 'rot2': 0, 'state': 'normal', 'yaw': 165.72, 'datetime': '2018-10-09 11:35:45.321346', 'mgs': 0, 'volt': 0.0, 'depth': -12.5, 'time': 19, 'pitch': 3.88, 'roll': -0.44, 'pres': 0}
{'lipoC2': 7.65, 'lipoC3S1': 4.15, 'temp': 31.38, 'lipoC3S3': 12.54, 'lipoC3S2': 8.29, 'rot1': 0, 'rot0': 0, 'rot3': 0, 'rot2': 0, 'state': 'normal', 'yaw': 165.55, 'datetime': '2018-10-09 11:35:45.424841', 'mgs': 0, 'volt': 0.0, 'depth': -12.5, 'time': 19, 'pitch': 3.55, 'roll': -0.45, 'pres': 0}
{'lipoC2': 7.65, 'lipoC3S1': 4.15, 'temp': 31.38, 'lipoC3S3': 12.55, 'lipoC3S2': 8.29, 'rot1': 0, 'rot0': 0, 'rot3': 0, 'rot2': 0, 'state': 'normal', 'yaw': 165.41, 'datetime': '2018-10-09 11:35:45.528047', 'mgs': 0, 'volt': 0.0, 'depth': -12.5, 'time': 19, 'pitch': 3.53, 'roll': -0.46, 'pres': 0}
{'lipoC2': 7.65, 'lipoC3S1': 4.15, 'temp': 31.38, 'lipoC3S3': 12.54, 'lipoC3S2': 8.29, 'rot1': 0, 'rot0': 0, 'rot3': 0, 'rot2': 0, 'state': 'normal', 'yaw': 165.26, 'datetime': '2018-10-09 11:35:45.632655', 'mgs': 0, 'volt': 0.0, 'depth': -12.5, 'time': 19, 'pitch': 3.74, 'roll': -0.46, 'pres': 0}
{'lipoC2': 7.65, 'lipoC3S1': 4.15, 'temp': 31.38, 'lipoC3S3': 12.54, 'lipoC3S2': 8.29, 'rot1': 0, 'rot0': 0, 'rot3': 0, 'rot2': 0, 'state': 'normal', 'yaw': 165.09, 'datetime': '2018-10-09 11:35:45.735820', 'mgs': 0, 'volt': 0.0, 'depth': -12.5, 'time': 19, 'pitch': 4.1, 'roll': -0.37, 'pres': 0}
{'lipoC2': 7.65, 'lipoC3S1': 4.15, 'temp': 31.38, 'lipoC3S3': 12.54, 'lipoC3S2': 8.29, 'rot1': 0, 'rot0': 0, 'rot3': 0, 'rot2': 0, 'state': 'normal', 'yaw': 164.96, 'datetime': '2018-10-09 11:35:45.839169', 'mgs': 0, 'volt': 0.0, 'depth': -12.5, 'time': 20, 'pitch': 4.39, 'roll': -0.31, 'pres': 0}
{'lipoC2': 7.65, 'lipoC3S1': 4.15, 'temp': 31.38, 'lipoC3S3': 12.54, 'lipoC3S2': 8.3, 'rot1': 0, 'rot0': 0, 'rot3': 0, 'rot2': 0, 'state': 'normal', 'yaw': 164.85, 'datetime': '2018-10-09 11:35:45.942384', 'mgs': 0, 'volt': 0.0, 'depth': -12.5, 'time': 20, 'pitch': 4.59, 'roll': -0.3, 'pres': 0}
{'lipoC2': 7.65, 'lipoC3S1': 4.15, 'temp': 31.38, 'lipoC3S3': 12.54, 'lipoC3S2': 8.29, 'rot1': 0, 'rot0': 0, 'rot3': 0, 'rot2': 0, 'state': 'normal', 'yaw': 164.75, 'datetime': '2018-10-09 11:35:46.045865', 'mgs': 0, 'volt': 0.0, 'depth': -12.5, 'time': 20, 'pitch': 4.72, 'roll': -0.31, 'pres': 0}
{'lipoC2': 7.65, 'lipoC3S1': 4.15, 'temp': 31.38, 'lipoC3S3': 12.55, 'lipoC3S2': 8.3, 'rot1': 0, 'rot0': 0, 'rot3': 0, 'rot2': 0, 'state': 'normal', 'yaw': 164.66, 'datetime': '2018-10-09 11:35:46.149060', 'mgs': 0, 'volt': 0.0, 'depth': -12.5, 'time': 20, 'pitch': 4.79, 'roll': -0.44, 'pres': 0}
{'lipoC2': 7.65, 'lipoC3S1': 4.15, 'temp': 31.38, 'lipoC3S3': 12.55, 'lipoC3S2': 8.29, 'rot1': 0, 'rot0': 0, 'rot3': 0, 'rot2': 0, 'state': 'normal', 'yaw': 164.55, 'datetime': '2018-10-09 11:35:46.252233', 'mgs': 0, 'volt': 0.0, 'depth': -12.5, 'time': 20, 'pitch': 4.87, 'roll': -0.63, 'pres': 0}
{'lipoC2': 7.65, 'lipoC3S1': 4.15, 'temp': 31.38, 'lipoC3S3': 12.54, 'lipoC3S2': 8.29, 'rot1': 0, 'rot0': 0, 'rot3': 0, 'rot2': 0, 'state': 'normal', 'yaw': 164.41, 'datetime': '2018-10-09 11:35:46.356036', 'mgs': 0, 'volt': 0.0, 'depth': -12.5, 'time': 20, 'pitch': 4.96, 'roll': -0.75, 'pres': 0}
{'lipoC2': 7.65, 'lipoC3S1': 4.15, 'temp': 31.38, 'lipoC3S3': 12.54, 'lipoC3S2': 8.29, 'rot1': 0, 'rot0': 0, 'rot3': 0, 'rot2': 0, 'state': 'normal', 'yaw': 164.27, 'datetime': '2018-10-09 11:35:46.459184', 'mgs': 0, 'volt': 0.0, 'depth': -12.5, 'time': 20, 'pitch': 5.15, 'roll': -0.73, 'pres': 0}
{'lipoC2': 7.65, 'lipoC3S1': 4.15, 'temp': 31.38, 'lipoC3S3': 12.54, 'lipoC3S2': 8.29, 'rot1': 0, 'rot0': 0, 'rot3': 0, 'rot2': 0, 'state': 'normal', 'yaw': 164.15, 'datetime': '2018-10-09 11:35:46.562459', 'mgs': 0, 'volt': 0.0, 'depth': -12.5, 'time': 20, 'pitch': 5.37, 'roll': -0.58, 'pres': 0}
{'lipoC2': 7.65, 'lipoC3S1': 4.15, 'temp': 31.38, 'lipoC3S3': 12.55, 'lipoC3S2': 8.3, 'rot1': 0, 'rot0': 0, 'rot3': 0, 'rot2': 0, 'state': 'normal', 'yaw': 164.02, 'datetime': '2018-10-09 11:35:46.666567', 'mgs': 0, 'volt': 0.0, 'depth': -12.5, 'time': 20, 'pitch': 5.49, 'roll': -0.38, 'pres': 0}
{'lipoC2': 7.65, 'lipoC3S1': 4.15, 'temp': 31.38, 'lipoC3S3': 12.54, 'lipoC3S2': 8.29, 'rot1': 0, 'rot0': 0, 'rot3': 0, 'rot2': 0, 'state': 'normal', 'yaw': 163.88, 'datetime': '2018-10-09 11:35:46.769764', 'mgs': 0, 'volt': 0.0, 'depth': -12.5, 'time': 20, 'pitch': 5.44, 'roll': -0.12, 'pres': 0}
{'lipoC2': 7.65, 'lipoC3S1': 4.15, 'temp': 31.38, 'lipoC3S3': 12.54, 'lipoC3S2': 8.3, 'rot1': 0, 'rot0': 0, 'rot3': 0, 'rot2': 0, 'state': 'normal', 'yaw': 163.76, 'datetime': '2018-10-09 11:35:46.874038', 'mgs': 0, 'volt': 0.0, 'depth': -12.5, 'time': 21, 'pitch': 5.19, 'roll': 0.05, 'pres': 0}
{'lipoC2': 7.65, 'lipoC3S1': 4.15, 'temp': 31.38, 'lipoC3S3': 12.55, 'lipoC3S2': 8.29, 'rot1': 0, 'rot0': 0, 'rot3': 0, 'rot2': 0, 'state': 'normal', 'yaw': 163.61, 'datetime': '2018-10-09 11:35:46.977681', 'mgs': 0, 'volt': 0.0, 'depth': -12.5, 'time': 21, 'pitch': 4.79, 'roll': 0.13, 'pres': 0}
{'lipoC2': 7.65, 'lipoC3S1': 4.15, 'temp': 31.38, 'lipoC3S3': 12.54, 'lipoC3S2': 8.29, 'rot1': 0, 'rot0': 0, 'rot3': 0, 'rot2': 0, 'state': 'normal', 'yaw': 163.49, 'datetime': '2018-10-09 11:35:47.080863', 'mgs': 0, 'volt': 0.0, 'depth': -12.5, 'time': 21, 'pitch': 4.45, 'roll': 0.11, 'pres': 0}
{'lipoC2': 7.65, 'lipoC3S1': 4.15, 'temp': 31.38, 'lipoC3S3': 12.55, 'lipoC3S2': 8.29, 'rot1': 0, 'rot0': 0, 'rot3': 0, 'rot2': 0, 'state': 'normal', 'yaw': 163.35, 'datetime': '2018-10-09 11:35:47.185350', 'mgs': 0, 'volt': 0.0, 'depth': -12.5, 'time': 21, 'pitch': 4.22, 'roll': 0.06, 'pres': 0}
{'lipoC2': 7.65, 'lipoC3S1': 4.15, 'temp': 31.38, 'lipoC3S3': 12.55, 'lipoC3S2': 8.29, 'rot1': 0, 'rot0': 0, 'rot3': 0, 'rot2': 0, 'state': 'normal', 'yaw': 163.22, 'datetime': '2018-10-09 11:35:47.288596', 'mgs': 0, 'volt': 0.0, 'depth': -12.5, 'time': 21, 'pitch': 4.15, 'roll': 0.05, 'pres': 0}
{'lipoC2': 7.65, 'lipoC3S1': 4.15, 'temp': 31.38, 'lipoC3S3': 12.54, 'lipoC3S2': 8.29, 'rot1': 0, 'rot0': 0, 'rot3': 0, 'rot2': 0, 'state': 'normal', 'yaw': 163.13, 'datetime': '2018-10-09 11:35:47.391931', 'mgs': 0, 'volt': 0.0, 'depth': -12.5, 'time': 21, 'pitch': 4.21, 'roll': 0.04, 'pres': 0}
{'lipoC2': 7.65, 'lipoC3S1': 4.15, 'temp': 31.38, 'lipoC3S3': 12.55, 'lipoC3S2': 8.29, 'rot1': 0, 'rot0': 0, 'rot3': 0, 'rot2': 0, 'state': 'normal', 'yaw': 163.06, 'datetime': '2018-10-09 11:35:47.495199', 'mgs': 0, 'volt': 0.0, 'depth': -12.5, 'time': 21, 'pitch': 4.38, 'roll': -0.13, 'pres': 0}
{'lipoC2': 7.65, 'lipoC3S1': 4.15, 'temp': 31.38, 'lipoC3S3': 12.54, 'lipoC3S2': 8.29, 'rot1': 0, 'rot0': 0, 'rot3': 0, 'rot2': 0, 'state': 'normal', 'yaw': 163.07, 'datetime': '2018-10-09 11:35:47.598734', 'mgs': 0, 'volt': 0.0, 'depth': -12.5, 'time': 21, 'pitch': 4.61, 'roll': -0.48, 'pres': 0}
{'lipoC2': 7.65, 'lipoC3S1': 4.15, 'temp': 31.38, 'lipoC3S3': 12.55, 'lipoC3S2': 8.29, 'rot1': 0, 'rot0': 0, 'rot3': 0, 'rot2': 0, 'state': 'normal', 'yaw': 163.08, 'datetime': '2018-10-09 11:35:47.701900', 'mgs': 0, 'volt': 0.0, 'depth': -12.5, 'time': 21, 'pitch': 4.81, 'roll': -0.79, 'pres': 0}
{'lipoC2': 7.65, 'lipoC3S1': 4.15, 'temp': 31.38, 'lipoC3S3': 12.54, 'lipoC3S2': 8.29, 'rot1': 0, 'rot0': 0, 'rot3': 0, 'rot2': 0, 'state': 'normal', 'yaw': 163.08, 'datetime': '2018-10-09 11:35:47.805424', 'mgs': 0, 'volt': 0.0, 'depth': -12.5, 'time': 22, 'pitch': 4.96, 'roll': -0.87, 'pres': 0}
