{'lipoC2': 7.81, 'lipoC3S1': 3.89, 'temp': 28.69, 'lipoC3S3': 11.77, 'lipoC3S2': 7.78, 'rot1': 291, 'rot0': 278, 'rot3': 191, 'rot2': 164, 'state': 'normal', 'yaw': -3.05, 'datetime': '2018-10-05 19:50:54.830987', 'mgs': 0, 'volt': 0.791, 'depth': -0.14, 'time': 55, 'pitch': -24.85, 'roll': 1.1, 'pres': 162}
{'lipoC2': 7.81, 'lipoC3S1': 3.89, 'temp': 28.69, 'lipoC3S3': 11.77, 'lipoC3S2': 7.78, 'rot1': 291, 'rot0': 278, 'rot3': 191, 'rot2': 164, 'state': 'normal', 'yaw': -5.59, 'datetime': '2018-10-05 19:50:54.853838', 'mgs': 0, 'volt': 0.7861, 'depth': -0.217, 'time': 55, 'pitch': -28.39, 'roll': -1.72, 'pres': 161}
{'lipoC2': 7.81, 'lipoC3S1': 3.89, 'temp': 28.75, 'lipoC3S3': 11.77, 'lipoC3S2': 7.78, 'rot1': 291, 'rot0': 278, 'rot3': 191, 'rot2': 164, 'state': 'normal', 'yaw': -9.5, 'datetime': '2018-10-05 19:50:54.876738', 'mgs': 0, 'volt': 0.791, 'depth': -0.14, 'time': 55, 'pitch': -30.81, 'roll': -2.73, 'pres': 162}
{'lipoC2': 7.81, 'lipoC3S1': 3.89, 'temp': 28.75, 'lipoC3S3': 11.77, 'lipoC3S2': 7.78, 'rot1': 291, 'rot0': 278, 'rot3': 191, 'rot2': 164, 'state': 'normal', 'yaw': -15.44, 'datetime': '2018-10-05 19:50:54.899517', 'mgs': 0, 'volt': 0.791, 'depth': -0.14, 'time': 55, 'pitch': -31.33, 'roll': -1.95, 'pres': 162}
{'lipoC2': 7.81, 'lipoC3S1': 3.89, 'temp': 28.69, 'lipoC3S3': 11.77, 'lipoC3S2': 7.78, 'rot1': 291, 'rot0': 278, 'rot3': 191, 'rot2': 164, 'state': 'normal', 'yaw': -21.44, 'datetime': '2018-10-05 19:50:54.922270', 'mgs': 0, 'volt': 0.791, 'depth': -0.14, 'time': 55, 'pitch': -29.82, 'roll': -0.22, 'pres': 162}
{'lipoC2': 7.81, 'lipoC3S1': 3.89, 'temp': 28.69, 'lipoC3S3': 11.77, 'lipoC3S2': 7.78, 'rot1': 291, 'rot0': 278, 'rot3': 191, 'rot2': 164, 'state': 'normal', 'yaw': -27.74, 'datetime': '2018-10-05 19:50:54.935495', 'mgs': 0, 'volt': 0.7959, 'depth': -0.064, 'time': 56, 'pitch': -27.29, 'roll': 1.68, 'pres': 163}
{'lipoC2': 7.81, 'lipoC3S1': 3.89, 'temp': 28.69, 'lipoC3S3': 11.77, 'lipoC3S2': 7.78, 'rot1': 291, 'rot0': 278, 'rot3': 191, 'rot2': 164, 'state': 'normal', 'yaw': -32.42, 'datetime': '2018-10-05 19:50:54.945457', 'mgs': 0, 'volt': 0.8008, 'depth': 0.012, 'time': 56, 'pitch': -25.15, 'roll': 2.58, 'pres': 164}
{'lipoC2': 7.81, 'lipoC3S1': 3.89, 'temp': 28.69, 'lipoC3S3': 11.77, 'lipoC3S2': 7.78, 'rot1': 291, 'rot0': 278, 'rot3': 191, 'rot2': 164, 'state': 'normal', 'yaw': -36.02, 'datetime': '2018-10-05 19:50:54.955333', 'mgs': 0, 'volt': 0.8057, 'depth': 0.089, 'time': 56, 'pitch': -23.06, 'roll': 2.6, 'pres': 165}
{'lipoC2': 7.81, 'lipoC3S1': 3.89, 'temp': 28.69, 'lipoC3S3': 11.77, 'lipoC3S2': 7.78, 'rot1': 291, 'rot0': 278, 'rot3': 191, 'rot2': 164, 'state': 'normal', 'yaw': -38.74, 'datetime': '2018-10-05 19:50:54.965169', 'mgs': 0, 'volt': 0.8057, 'depth': 0.089, 'time': 56, 'pitch': -20.48, 'roll': 1.59, 'pres': 165}
{'lipoC2': 7.81, 'lipoC3S1': 3.89, 'temp': 28.75, 'lipoC3S3': 11.77, 'lipoC3S2': 7.78, 'rot1': 291, 'rot0': 278, 'rot3': 191, 'rot2': 164, 'state': 'normal', 'yaw': -39.5, 'datetime': '2018-10-05 19:50:54.975023', 'mgs': 0, 'volt': 0.8057, 'depth': 0.089, 'time': 56, 'pitch': -18.57, 'roll': -0.62, 'pres': 165}
{'lipoC2': 7.81, 'lipoC3S1': 3.89, 'temp': 28.75, 'lipoC3S3': 11.77, 'lipoC3S2': 7.78, 'rot1': 291, 'rot0': 278, 'rot3': 191, 'rot2': 164, 'state': 'normal', 'yaw': -39.48, 'datetime': '2018-10-05 19:50:54.984853', 'mgs': 0, 'volt': 0.8057, 'depth': 0.089, 'time': 56, 'pitch': -16.83, 'roll': -3.58, 'pres': 165}
{'lipoC2': 7.81, 'lipoC3S1': 3.89, 'temp': 28.75, 'lipoC3S3': 11.77, 'lipoC3S2': 7.78, 'rot1': 291, 'rot0': 278, 'rot3': 191, 'rot2': 164, 'state': 'normal', 'yaw': -39.01, 'datetime': '2018-10-05 19:50:54.994694', 'mgs': 0, 'volt': 0.8057, 'depth': 0.089, 'time': 56, 'pitch': -16.21, 'roll': -6.24, 'pres': 165}
{'lipoC2': 7.81, 'lipoC3S1': 3.89, 'temp': 28.75, 'lipoC3S3': 11.77, 'lipoC3S2': 7.78, 'rot1': 291, 'rot0': 278, 'rot3': 191, 'rot2': 164, 'state': 'normal', 'yaw': -38.54, 'datetime': '2018-10-05 19:50:55.004545', 'mgs': 0, 'volt': 0.8008, 'depth': 0.012, 'time': 56, 'pitch': -15.81, 'roll': -8.63, 'pres': 164}
{'lipoC2': 7.81, 'lipoC3S1': 3.89, 'temp': 28.75, 'lipoC3S3': 11.77, 'lipoC3S2': 7.78, 'rot1': 291, 'rot0': 278, 'rot3': 191, 'rot2': 164, 'state': 'normal', 'yaw': -38.8, 'datetime': '2018-10-05 19:50:55.014335', 'mgs': 0, 'volt': 0.8008, 'depth': 0.012, 'time': 56, 'pitch': -15.76, 'roll': -9.78, 'pres': 164}
{'lipoC2': 7.81, 'lipoC3S1': 3.89, 'temp': 28.75, 'lipoC3S3': 11.77, 'lipoC3S2': 7.78, 'rot1': 291, 'rot0': 278, 'rot3': 191, 'rot2': 164, 'state': 'normal', 'yaw': -39.27, 'datetime': '2018-10-05 19:50:55.024309', 'mgs': 0, 'volt': 0.8008, 'depth': 0.012, 'time': 56, 'pitch': -15.79, 'roll': -10.15, 'pres': 164}
{'lipoC2': 7.81, 'lipoC3S1': 3.89, 'temp': 28.75, 'lipoC3S3': 11.77, 'lipoC3S2': 7.78, 'rot1': 291, 'rot0': 278, 'rot3': 191, 'rot2': 164, 'state': 'normal', 'yaw': -39.75, 'datetime': '2018-10-05 19:50:55.034109', 'mgs': 0, 'volt': 0.8008, 'depth': 0.012, 'time': 57, 'pitch': -15.46, 'roll': -10.0, 'pres': 164}
{'lipoC2': 7.81, 'lipoC3S1': 3.89, 'temp': 28.69, 'lipoC3S3': 11.77, 'lipoC3S2': 7.78, 'rot1': 291, 'rot0': 278, 'rot3': 191, 'rot2': 164, 'state': 'normal', 'yaw': -40.16, 'datetime': '2018-10-05 19:50:55.043962', 'mgs': 0, 'volt': 0.8008, 'depth': 0.012, 'time': 57, 'pitch': -14.57, 'roll': -9.45, 'pres': 164}
{'lipoC2': 7.81, 'lipoC3S1': 3.89, 'temp': 28.69, 'lipoC3S3': 11.77, 'lipoC3S2': 7.78, 'rot1': 291, 'rot0': 278, 'rot3': 191, 'rot2': 164, 'state': 'normal', 'yaw': -40.17, 'datetime': '2018-10-05 19:50:55.057782', 'mgs': 0, 'volt': 0.8057, 'depth': 0.089, 'time': 57, 'pitch': -13.47, 'roll': -8.68, 'pres': 165}
{'lipoC2': 7.81, 'lipoC3S1': 3.89, 'temp': 28.69, 'lipoC3S3': 11.77, 'lipoC3S2': 7.78, 'rot1': 291, 'rot0': 278, 'rot3': 191, 'rot2': 164, 'state': 'normal', 'yaw': -39.82, 'datetime': '2018-10-05 19:50:55.161942', 'mgs': 0, 'volt': 0.8057, 'depth': 0.089, 'time': 57, 'pitch': -13.24, 'roll': -7.9, 'pres': 165}
{'lipoC2': 7.81, 'lipoC3S1': 3.89, 'temp': 28.69, 'lipoC3S3': 11.77, 'lipoC3S2': 7.78, 'rot1': 291, 'rot0': 278, 'rot3': 191, 'rot2': 164, 'state': 'normal', 'yaw': -39.28, 'datetime': '2018-10-05 19:50:55.266092', 'mgs': 0, 'volt': 0.8057, 'depth': 0.089, 'time': 57, 'pitch': -13.56, 'roll': -6.84, 'pres': 165}
{'lipoC2': 7.81, 'lipoC3S1': 3.89, 'temp': 28.69, 'lipoC3S3': 11.77, 'lipoC3S2': 7.78, 'rot1': 291, 'rot0': 278, 'rot3': 191, 'rot2': 164, 'state': 'normal', 'yaw': -38.96, 'datetime': '2018-10-05 19:50:55.370223', 'mgs': 0, 'volt': 0.8057, 'depth': 0.089, 'time': 57, 'pitch': -13.2, 'roll': -5.64, 'pres': 165}
{'lipoC2': 7.81, 'lipoC3S1': 3.89, 'temp': 28.69, 'lipoC3S3': 11.77, 'lipoC3S2': 7.78, 'rot1': 291, 'rot0': 278, 'rot3': 191, 'rot2': 164, 'state': 'normal', 'yaw': -38.85, 'datetime': '2018-10-05 19:50:55.474336', 'mgs': 0, 'volt': 0.8057, 'depth': 0.089, 'time': 57, 'pitch': -12.29, 'roll': -4.14, 'pres': 165}
{'lipoC2': 7.81, 'lipoC3S1': 3.89, 'temp': 28.69, 'lipoC3S3': 11.77, 'lipoC3S2': 7.78, 'rot1': 291, 'rot0': 278, 'rot3': 191, 'rot2': 164, 'state': 'normal', 'yaw': -38.62, 'datetime': '2018-10-05 19:50:55.578440', 'mgs': 0, 'volt': 0.8057, 'depth': 0.089, 'time': 57, 'pitch': -11.93, 'roll': -2.49, 'pres': 165}
{'lipoC2': 7.81, 'lipoC3S1': 3.89, 'temp': 28.69, 'lipoC3S3': 11.77, 'lipoC3S2': 7.78, 'rot1': 291, 'rot0': 278, 'rot3': 191, 'rot2': 164, 'state': 'normal', 'yaw': -38.03, 'datetime': '2018-10-05 19:50:55.683268', 'mgs': 0, 'volt': 0.8057, 'depth': 0.089, 'time': 57, 'pitch': -12.89, 'roll': -1.41, 'pres': 165}
{'lipoC2': 7.81, 'lipoC3S1': 3.89, 'temp': 28.69, 'lipoC3S3': 11.77, 'lipoC3S2': 7.78, 'rot1': 291, 'rot0': 278, 'rot3': 191, 'rot2': 164, 'state': 'normal', 'yaw': -37.38, 'datetime': '2018-10-05 19:50:55.787985', 'mgs': 0, 'volt': 0.8057, 'depth': 0.089, 'time': 58, 'pitch': -14.03, 'roll': -0.74, 'pres': 165}
{'lipoC2': 7.81, 'lipoC3S1': 3.89, 'temp': 28.69, 'lipoC3S3': 11.77, 'lipoC3S2': 7.78, 'rot1': 291, 'rot0': 278, 'rot3': 191, 'rot2': 164, 'state': 'normal', 'yaw': -36.67, 'datetime': '2018-10-05 19:50:55.892249', 'mgs': 0, 'volt': 0.8057, 'depth': 0.089, 'time': 58, 'pitch': -14.67, 'roll': -0.51, 'pres': 165}
{'lipoC2': 7.81, 'lipoC3S1': 3.89, 'temp': 28.69, 'lipoC3S3': 11.77, 'lipoC3S2': 7.78, 'rot1': 291, 'rot0': 278, 'rot3': 191, 'rot2': 164, 'state': 'normal', 'yaw': -36.2, 'datetime': '2018-10-05 19:50:55.997811', 'mgs': 0, 'volt': 0.8008, 'depth': 0.012, 'time': 58, 'pitch': -14.73, 'roll': -0.64, 'pres': 164}
{'lipoC2': 7.81, 'lipoC3S1': 3.89, 'temp': 28.69, 'lipoC3S3': 11.77, 'lipoC3S2': 7.78, 'rot1': 291, 'rot0': 278, 'rot3': 191, 'rot2': 164, 'state': 'normal', 'yaw': -35.9, 'datetime': '2018-10-05 19:50:56.101987', 'mgs': 0, 'volt': 0.8008, 'depth': 0.012, 'time': 58, 'pitch': -14.54, 'roll': -1.07, 'pres': 164}
{'lipoC2': 7.81, 'lipoC3S1': 3.89, 'temp': 28.69, 'lipoC3S3': 11.77, 'lipoC3S2': 7.78, 'rot1': 291, 'rot0': 278, 'rot3': 191, 'rot2': 164, 'state': 'normal', 'yaw': -35.9, 'datetime': '2018-10-05 19:50:56.207527', 'mgs': 0, 'volt': 0.8008, 'depth': 0.012, 'time': 58, 'pitch': -14.39, 'roll': -1.62, 'pres': 164}
{'lipoC2': 7.81, 'lipoC3S1': 3.89, 'temp': 28.69, 'lipoC3S3': 11.77, 'lipoC3S2': 7.78, 'rot1': 291, 'rot0': 278, 'rot3': 191, 'rot2': 164, 'state': 'normal', 'yaw': -36.15, 'datetime': '2018-10-05 19:50:56.311789', 'mgs': 0, 'volt': 0.7959, 'depth': -0.064, 'time': 58, 'pitch': -14.11, 'roll': -2.28, 'pres': 163}
{'lipoC2': 7.81, 'lipoC3S1': 3.89, 'temp': 28.69, 'lipoC3S3': 11.77, 'lipoC3S2': 7.78, 'rot1': 291, 'rot0': 278, 'rot3': 191, 'rot2': 164, 'state': 'normal', 'yaw': -36.61, 'datetime': '2018-10-05 19:50:56.415998', 'mgs': 0, 'volt': 0.7959, 'depth': -0.064, 'time': 58, 'pitch': -13.64, 'roll': -2.81, 'pres': 163}
{'lipoC2': 7.81, 'lipoC3S1': 3.89, 'temp': 28.69, 'lipoC3S3': 11.77, 'lipoC3S2': 7.78, 'rot1': 291, 'rot0': 278, 'rot3': 191, 'rot2': 164, 'state': 'normal', 'yaw': -37.2, 'datetime': '2018-10-05 19:50:56.520178', 'mgs': 0, 'volt': 0.7959, 'depth': -0.064, 'time': 58, 'pitch': -13.05, 'roll': -3.28, 'pres': 163}
{'lipoC2': 7.81, 'lipoC3S1': 3.89, 'temp': 28.69, 'lipoC3S3': 11.77, 'lipoC3S2': 7.78, 'rot1': 291, 'rot0': 278, 'rot3': 191, 'rot2': 164, 'state': 'normal', 'yaw': -37.69, 'datetime': '2018-10-05 19:50:56.624409', 'mgs': 0, 'volt': 0.7959, 'depth': -0.064, 'time': 58, 'pitch': -12.54, 'roll': -3.59, 'pres': 163}
{'lipoC2': 7.81, 'lipoC3S1': 3.89, 'temp': 28.69, 'lipoC3S3': 11.77, 'lipoC3S2': 7.78, 'rot1': 291, 'rot0': 278, 'rot3': 191, 'rot2': 164, 'state': 'normal', 'yaw': -38.17, 'datetime': '2018-10-05 19:50:56.728606', 'mgs': 0, 'volt': 0.7959, 'depth': -0.064, 'time': 58, 'pitch': -12.04, 'roll': -3.76, 'pres': 163}
{'lipoC2': 7.81, 'lipoC3S1': 3.89, 'temp': 28.69, 'lipoC3S3': 11.77, 'lipoC3S2': 7.78, 'rot1': 291, 'rot0': 278, 'rot3': 191, 'rot2': 164, 'state': 'normal', 'yaw': -38.56, 'datetime': '2018-10-05 19:50:56.832800', 'mgs': 0, 'volt': 0.791, 'depth': -0.14, 'time': 59, 'pitch': -11.88, 'roll': -3.96, 'pres': 162}
{'lipoC2': 7.81, 'lipoC3S1': 3.89, 'temp': 28.69, 'lipoC3S3': 11.77, 'lipoC3S2': 7.78, 'rot1': 291, 'rot0': 278, 'rot3': 191, 'rot2': 164, 'state': 'normal', 'yaw': -38.66, 'datetime': '2018-10-05 19:50:56.937082', 'mgs': 0, 'volt': 0.791, 'depth': -0.14, 'time': 59, 'pitch': -12.09, 'roll': -4.17, 'pres': 162}
{'lipoC2': 7.81, 'lipoC3S1': 3.89, 'temp': 28.69, 'lipoC3S3': 11.77, 'lipoC3S2': 7.78, 'rot1': 291, 'rot0': 278, 'rot3': 191, 'rot2': 164, 'state': 'normal', 'yaw': -38.51, 'datetime': '2018-10-05 19:50:57.041418', 'mgs': 0, 'volt': 0.791, 'depth': -0.14, 'time': 59, 'pitch': -12.45, 'roll': -4.3, 'pres': 162}
{'lipoC2': 7.81, 'lipoC3S1': 3.89, 'temp': 28.69, 'lipoC3S3': 11.77, 'lipoC3S2': 7.78, 'rot1': 291, 'rot0': 278, 'rot3': 191, 'rot2': 164, 'state': 'normal', 'yaw': -38.27, 'datetime': '2018-10-05 19:50:57.145598', 'mgs': 0, 'volt': 0.791, 'depth': -0.14, 'time': 59, 'pitch': -12.58, 'roll': -4.28, 'pres': 162}
{'lipoC2': 7.81, 'lipoC3S1': 3.89, 'temp': 28.69, 'lipoC3S3': 11.77, 'lipoC3S2': 7.78, 'rot1': 291, 'rot0': 278, 'rot3': 191, 'rot2': 164, 'state': 'normal', 'yaw': -37.94, 'datetime': '2018-10-05 19:50:57.251000', 'mgs': 0, 'volt': 0.791, 'depth': -0.14, 'time': 59, 'pitch': -12.53, 'roll': -4.11, 'pres': 162}
{'lipoC2': 7.81, 'lipoC3S1': 3.89, 'temp': 28.69, 'lipoC3S3': 11.77, 'lipoC3S2': 7.78, 'rot1': 291, 'rot0': 278, 'rot3': 191, 'rot2': 164, 'state': 'normal', 'yaw': -37.8, 'datetime': '2018-10-05 19:50:57.355235', 'mgs': 0, 'volt': 0.791, 'depth': -0.14, 'time': 59, 'pitch': -12.43, 'roll': -3.7, 'pres': 162}
{'lipoC2': 7.81, 'lipoC3S1': 3.89, 'temp': 28.69, 'lipoC3S3': 11.77, 'lipoC3S2': 7.78, 'rot1': 291, 'rot0': 278, 'rot3': 191, 'rot2': 164, 'state': 'normal', 'yaw': -37.88, 'datetime': '2018-10-05 19:50:57.460780', 'mgs': 0, 'volt': 0.7861, 'depth': -0.217, 'time': 59, 'pitch': -12.43, 'roll': -3.19, 'pres': 161}
{'lipoC2': 7.81, 'lipoC3S1': 3.89, 'temp': 28.75, 'lipoC3S3': 11.77, 'lipoC3S2': 7.78, 'rot1': 291, 'rot0': 278, 'rot3': 191, 'rot2': 164, 'state': 'normal', 'yaw': -38.14, 'datetime': '2018-10-05 19:50:57.564968', 'mgs': 0, 'volt': 0.791, 'depth': -0.14, 'time': 59, 'pitch': -12.37, 'roll': -2.53, 'pres': 162}
{'lipoC2': 7.81, 'lipoC3S1': 3.89, 'temp': 28.75, 'lipoC3S3': 11.77, 'lipoC3S2': 7.78, 'rot1': 291, 'rot0': 278, 'rot3': 191, 'rot2': 164, 'state': 'normal', 'yaw': -38.36, 'datetime': '2018-10-05 19:50:57.669170', 'mgs': 0, 'volt': 0.791, 'depth': -0.14, 'time': 59, 'pitch': -12.08, 'roll': -1.97, 'pres': 162}
{'lipoC2': 7.81, 'lipoC3S1': 3.89, 'temp': 28.75, 'lipoC3S3': 11.77, 'lipoC3S2': 7.78, 'rot1': 291, 'rot0': 278, 'rot3': 191, 'rot2': 164, 'state': 'normal', 'yaw': -38.61, 'datetime': '2018-10-05 19:50:57.773364', 'mgs': 0, 'volt': 0.7861, 'depth': -0.217, 'time': 59, 'pitch': -11.69, 'roll': -1.45, 'pres': 161}
{'lipoC2': 7.81, 'lipoC3S1': 3.89, 'temp': 28.69, 'lipoC3S3': 11.77, 'lipoC3S2': 7.78, 'rot1': 291, 'rot0': 278, 'rot3': 191, 'rot2': 164, 'state': 'normal', 'yaw': -38.71, 'datetime': '2018-10-05 19:50:57.877551', 'mgs': 0, 'volt': 0.7861, 'depth': -0.217, 'time': 60, 'pitch': -11.18, 'roll': -1.16, 'pres': 161}
{'lipoC2': 7.81, 'lipoC3S1': 3.89, 'temp': 28.69, 'lipoC3S3': 11.77, 'lipoC3S2': 7.78, 'rot1': 291, 'rot0': 278, 'rot3': 191, 'rot2': 164, 'state': 'normal', 'yaw': -38.8, 'datetime': '2018-10-05 19:50:57.981745', 'mgs': 0, 'volt': 0.7861, 'depth': -0.217, 'time': 60, 'pitch': -10.78, 'roll': -1.1, 'pres': 161}
{'lipoC2': 7.81, 'lipoC3S1': 3.89, 'temp': 28.69, 'lipoC3S3': 11.77, 'lipoC3S2': 7.78, 'rot1': 291, 'rot0': 278, 'rot3': 191, 'rot2': 164, 'state': 'normal', 'yaw': -38.96, 'datetime': '2018-10-05 19:50:58.085949', 'mgs': 0, 'volt': 0.7861, 'depth': -0.217, 'time': 60, 'pitch': -10.42, 'roll': -1.25, 'pres': 161}
{'lipoC2': 7.81, 'lipoC3S1': 3.89, 'temp': 28.69, 'lipoC3S3': 11.77, 'lipoC3S2': 7.78, 'rot1': 291, 'rot0': 278, 'rot3': 191, 'rot2': 164, 'state': 'normal', 'yaw': -39.26, 'datetime': '2018-10-05 19:50:58.190163', 'mgs': 0, 'volt': 0.7861, 'depth': -0.217, 'time': 60, 'pitch': -10.26, 'roll': -1.43, 'pres': 161}
{'lipoC2': 7.81, 'lipoC3S1': 3.89, 'temp': 28.69, 'lipoC3S3': 11.77, 'lipoC3S2': 7.78, 'rot1': 291, 'rot0': 278, 'rot3': 191, 'rot2': 164, 'state': 'normal', 'yaw': -39.69, 'datetime': '2018-10-05 19:50:58.294616', 'mgs': 0, 'volt': 0.791, 'depth': -0.14, 'time': 60, 'pitch': -10.37, 'roll': -1.63, 'pres': 162}
{'lipoC2': 7.81, 'lipoC3S1': 3.89, 'temp': 28.69, 'lipoC3S3': 11.77, 'lipoC3S2': 7.78, 'rot1': 291, 'rot0': 278, 'rot3': 191, 'rot2': 164, 'state': 'normal', 'yaw': -40.04, 'datetime': '2018-10-05 19:50:58.398792', 'mgs': 0, 'volt': 0.7861, 'depth': -0.217, 'time': 60, 'pitch': -10.64, 'roll': -1.85, 'pres': 161}
{'lipoC2': 7.81, 'lipoC3S1': 3.89, 'temp': 28.69, 'lipoC3S3': 11.77, 'lipoC3S2': 7.78, 'rot1': 291, 'rot0': 278, 'rot3': 191, 'rot2': 164, 'state': 'normal', 'yaw': -40.28, 'datetime': '2018-10-05 19:50:58.504239', 'mgs': 0, 'volt': 0.7861, 'depth': -0.217, 'time': 60, 'pitch': -10.84, 'roll': -2.14, 'pres': 161}
{'lipoC2': 7.81, 'lipoC3S1': 3.89, 'temp': 28.75, 'lipoC3S3': 11.77, 'lipoC3S2': 7.78, 'rot1': 291, 'rot0': 278, 'rot3': 191, 'rot2': 164, 'state': 'normal', 'yaw': -40.41, 'datetime': '2018-10-05 19:50:58.608453', 'mgs': 0, 'volt': 0.7861, 'depth': -0.217, 'time': 60, 'pitch': -10.89, 'roll': -2.53, 'pres': 161}
{'lipoC2': 7.81, 'lipoC3S1': 3.89, 'temp': 28.75, 'lipoC3S3': 11.77, 'lipoC3S2': 7.78, 'rot1': 291, 'rot0': 278, 'rot3': 191, 'rot2': 164, 'state': 'normal', 'yaw': -40.45, 'datetime': '2018-10-05 19:50:58.713933', 'mgs': 0, 'volt': 0.7861, 'depth': -0.217, 'time': 60, 'pitch': -10.94, 'roll': -2.82, 'pres': 161}
{'lipoC2': 7.81, 'lipoC3S1': 3.89, 'temp': 28.69, 'lipoC3S3': 11.77, 'lipoC3S2': 7.78, 'rot1': 291, 'rot0': 278, 'rot3': 191, 'rot2': 164, 'state': 'normal', 'yaw': -40.47, 'datetime': '2018-10-05 19:50:58.818114', 'mgs': 0, 'volt': 0.7861, 'depth': -0.217, 'time': 61, 'pitch': -11.01, 'roll': -2.93, 'pres': 161}
{'lipoC2': 7.81, 'lipoC3S1': 3.89, 'temp': 28.69, 'lipoC3S3': 11.77, 'lipoC3S2': 7.78, 'rot1': 291, 'rot0': 278, 'rot3': 191, 'rot2': 164, 'state': 'normal', 'yaw': -40.62, 'datetime': '2018-10-05 19:50:58.922351', 'mgs': 0, 'volt': 0.791, 'depth': -0.14, 'time': 61, 'pitch': -11.13, 'roll': -2.76, 'pres': 162}
{'lipoC2': 7.81, 'lipoC3S1': 3.89, 'temp': 28.75, 'lipoC3S3': 11.77, 'lipoC3S2': 7.79, 'rot1': 291, 'rot0': 278, 'rot3': 191, 'rot2': 164, 'state': 'normal', 'yaw': -40.81, 'datetime': '2018-10-05 19:50:59.026615', 'mgs': 0, 'volt': 0.7861, 'depth': -0.217, 'time': 61, 'pitch': -11.19, 'roll': -2.34, 'pres': 161}
{'lipoC2': 7.81, 'lipoC3S1': 3.89, 'temp': 28.75, 'lipoC3S3': 11.77, 'lipoC3S2': 7.78, 'rot1': 291, 'rot0': 278, 'rot3': 191, 'rot2': 164, 'state': 'normal', 'yaw': -40.87, 'datetime': '2018-10-05 19:50:59.130755', 'mgs': 0, 'volt': 0.791, 'depth': -0.14, 'time': 61, 'pitch': -11.22, 'roll': -1.88, 'pres': 162}
{'lipoC2': 7.81, 'lipoC3S1': 3.89, 'temp': 28.75, 'lipoC3S3': 11.77, 'lipoC3S2': 7.78, 'rot1': 291, 'rot0': 278, 'rot3': 191, 'rot2': 164, 'state': 'normal', 'yaw': -40.84, 'datetime': '2018-10-05 19:50:59.234883', 'mgs': 0, 'volt': 0.791, 'depth': -0.14, 'time': 61, 'pitch': -11.11, 'roll': -1.45, 'pres': 162}
{'lipoC2': 7.81, 'lipoC3S1': 3.89, 'temp': 28.69, 'lipoC3S3': 11.77, 'lipoC3S2': 7.78, 'rot1': 291, 'rot0': 278, 'rot3': 191, 'rot2': 164, 'state': 'normal', 'yaw': -40.76, 'datetime': '2018-10-05 19:50:59.339167', 'mgs': 0, 'volt': 0.791, 'depth': -0.14, 'time': 61, 'pitch': -10.94, 'roll': -1.05, 'pres': 162}
{'lipoC2': 7.81, 'lipoC3S1': 3.89, 'temp': 28.69, 'lipoC3S3': 11.77, 'lipoC3S2': 7.79, 'rot1': 291, 'rot0': 278, 'rot3': 191, 'rot2': 164, 'state': 'normal', 'yaw': -40.77, 'datetime': '2018-10-05 19:50:59.443363', 'mgs': 0, 'volt': 0.791, 'depth': -0.14, 'time': 61, 'pitch': -10.9, 'roll': -0.71, 'pres': 162}
{'lipoC2': 7.81, 'lipoC3S1': 3.9, 'temp': 28.69, 'lipoC3S3': 11.77, 'lipoC3S2': 7.78, 'rot1': 291, 'rot0': 278, 'rot3': 191, 'rot2': 164, 'state': 'normal', 'yaw': -40.93, 'datetime': '2018-10-05 19:50:59.556985', 'mgs': 0, 'volt': 0.791, 'depth': -0.14, 'time': 61, 'pitch': -10.96, 'roll': -0.34, 'pres': 162}
{'lipoC2': 7.81, 'lipoC3S1': 3.89, 'temp': 28.69, 'lipoC3S3': 11.77, 'lipoC3S2': 7.79, 'rot1': 291, 'rot0': 278, 'rot3': 191, 'rot2': 164, 'state': 'normal', 'yaw': -41.18, 'datetime': '2018-10-05 19:50:59.658262', 'mgs': 0, 'volt': 0.7959, 'depth': -0.064, 'time': 61, 'pitch': -11.11, 'roll': -0.12, 'pres': 163}
{'lipoC2': 7.81, 'lipoC3S1': 3.9, 'temp': 28.69, 'lipoC3S3': 11.77, 'lipoC3S2': 7.78, 'rot1': 291, 'rot0': 278, 'rot3': 191, 'rot2': 164, 'state': 'normal', 'yaw': -41.42, 'datetime': '2018-10-05 19:50:59.763704', 'mgs': 0, 'volt': 0.7959, 'depth': -0.064, 'time': 61, 'pitch': -11.24, 'roll': -0.1, 'pres': 163}
{'lipoC2': 7.81, 'lipoC3S1': 3.89, 'temp': 28.69, 'lipoC3S3': 11.77, 'lipoC3S2': 7.78, 'rot1': 291, 'rot0': 278, 'rot3': 191, 'rot2': 164, 'state': 'normal', 'yaw': -41.55, 'datetime': '2018-10-05 19:50:59.867775', 'mgs': 0, 'volt': 0.7959, 'depth': -0.064, 'time': 62, 'pitch': -11.34, 'roll': -0.36, 'pres': 163}
{'lipoC2': 7.81, 'lipoC3S1': 3.89, 'temp': 28.69, 'lipoC3S3': 11.77, 'lipoC3S2': 7.79, 'rot1': 291, 'rot0': 278, 'rot3': 191, 'rot2': 164, 'state': 'normal', 'yaw': -41.54, 'datetime': '2018-10-05 19:50:59.973364', 'mgs': 0, 'volt': 0.791, 'depth': -0.14, 'time': 62, 'pitch': -11.49, 'roll': -0.78, 'pres': 162}
{'lipoC2': 7.81, 'lipoC3S1': 3.89, 'temp': 28.75, 'lipoC3S3': 11.77, 'lipoC3S2': 7.79, 'rot1': 291, 'rot0': 278, 'rot3': 191, 'rot2': 164, 'state': 'normal', 'yaw': -41.55, 'datetime': '2018-10-05 19:51:00.077545', 'mgs': 0, 'volt': 0.7959, 'depth': -0.064, 'time': 62, 'pitch': -11.67, 'roll': -1.31, 'pres': 163}
{'lipoC2': 7.81, 'lipoC3S1': 3.89, 'temp': 28.75, 'lipoC3S3': 11.77, 'lipoC3S2': 7.78, 'rot1': 291, 'rot0': 278, 'rot3': 191, 'rot2': 164, 'state': 'normal', 'yaw': -41.63, 'datetime': '2018-10-05 19:51:00.181751', 'mgs': 0, 'volt': 0.791, 'depth': -0.14, 'time': 62, 'pitch': -11.61, 'roll': -1.77, 'pres': 162}
{'lipoC2': 7.81, 'lipoC3S1': 3.89, 'temp': 28.69, 'lipoC3S3': 11.77, 'lipoC3S2': 7.79, 'rot1': 291, 'rot0': 278, 'rot3': 191, 'rot2': 164, 'state': 'normal', 'yaw': -41.75, 'datetime': '2018-10-05 19:51:00.285980', 'mgs': 0, 'volt': 0.791, 'depth': -0.14, 'time': 62, 'pitch': -11.38, 'roll': -2.16, 'pres': 162}
{'lipoC2': 7.81, 'lipoC3S1': 3.89, 'temp': 28.69, 'lipoC3S3': 11.77, 'lipoC3S2': 7.79, 'rot1': 291, 'rot0': 278, 'rot3': 191, 'rot2': 164, 'state': 'normal', 'yaw': -41.82, 'datetime': '2018-10-05 19:51:00.390296', 'mgs': 0, 'volt': 0.7959, 'depth': -0.064, 'time': 62, 'pitch': -11.12, 'roll': -2.51, 'pres': 163}
{'lipoC2': 7.81, 'lipoC3S1': 3.89, 'temp': 28.69, 'lipoC3S3': 11.77, 'lipoC3S2': 7.79, 'rot1': 291, 'rot0': 278, 'rot3': 191, 'rot2': 164, 'state': 'normal', 'yaw': -41.82, 'datetime': '2018-10-05 19:51:00.495631', 'mgs': 0, 'volt': 0.7959, 'depth': -0.064, 'time': 62, 'pitch': -11.12, 'roll': -2.67, 'pres': 163}
{'lipoC2': 7.81, 'lipoC3S1': 3.89, 'temp': 28.69, 'lipoC3S3': 11.77, 'lipoC3S2': 7.79, 'rot1': 291, 'rot0': 278, 'rot3': 191, 'rot2': 164, 'state': 'normal', 'yaw': -41.85, 'datetime': '2018-10-05 19:51:00.599655', 'mgs': 0, 'volt': 0.7959, 'depth': -0.064, 'time': 62, 'pitch': -11.27, 'roll': -2.61, 'pres': 163}
{'lipoC2': 7.81, 'lipoC3S1': 3.89, 'temp': 28.69, 'lipoC3S3': 11.77, 'lipoC3S2': 7.78, 'rot1': 291, 'rot0': 278, 'rot3': 191, 'rot2': 164, 'state': 'normal', 'yaw': -41.95, 'datetime': '2018-10-05 19:51:00.704064', 'mgs': 1, 'volt': 0.7959, 'depth': -0.064, 'time': 62, 'pitch': -11.5, 'roll': -2.34, 'pres': 163}
{'lipoC2': 7.81, 'lipoC3S1': 3.89, 'temp': 28.69, 'lipoC3S3': 11.77, 'lipoC3S2': 7.79, 'rot1': 0, 'rot0': 0, 'rot3': 0, 'rot2': 0, 'state': 'normal', 'yaw': -0.04, 'datetime': '2018-10-05 19:51:06.735520', 'mgs': 0, 'volt': 0.7959, 'depth': -0.064, 'time': 1, 'pitch': -12.04, 'roll': -0.98, 'pres': 163}
{'lipoC2': 7.81, 'lipoC3S1': 3.9, 'temp': 28.69, 'lipoC3S3': 11.77, 'lipoC3S2': 7.79, 'rot1': 0, 'rot0': 0, 'rot3': 0, 'rot2': 0, 'state': 'normal', 'yaw': -0.45, 'datetime': '2018-10-05 19:51:09.777378', 'mgs': 0, 'volt': 0.7959, 'depth': -0.064, 'time': 1, 'pitch': -11.94, 'roll': -1.2, 'pres': 163}
{'lipoC2': 7.81, 'lipoC3S1': 3.9, 'temp': 28.69, 'lipoC3S3': 11.79, 'lipoC3S2': 7.79, 'rot1': 0, 'rot0': 0, 'rot3': 0, 'rot2': 0, 'state': 'normal', 'yaw': -0.85, 'datetime': '2018-10-05 19:51:09.813073', 'mgs': 0, 'volt': 0.7959, 'depth': -0.064, 'time': 1, 'pitch': -11.83, 'roll': -1.39, 'pres': 163}
{'lipoC2': 7.81, 'lipoC3S1': 3.9, 'temp': 28.69, 'lipoC3S3': 11.79, 'lipoC3S2': 7.79, 'rot1': 0, 'rot0': 0, 'rot3': 0, 'rot2': 0, 'state': 'normal', 'yaw': -1.29, 'datetime': '2018-10-05 19:51:09.824499', 'mgs': 0, 'volt': 0.7959, 'depth': -0.064, 'time': 1, 'pitch': -11.55, 'roll': -1.57, 'pres': 163}
{'lipoC2': 7.81, 'lipoC3S1': 3.9, 'temp': 28.69, 'lipoC3S3': 11.79, 'lipoC3S2': 7.79, 'rot1': 0, 'rot0': 0, 'rot3': 0, 'rot2': 0, 'state': 'normal', 'yaw': -1.7, 'datetime': '2018-10-05 19:51:09.840420', 'mgs': 0, 'volt': 0.7959, 'depth': -0.064, 'time': 1, 'pitch': -11.26, 'roll': -1.7, 'pres': 163}
{'lipoC2': 7.81, 'lipoC3S1': 3.9, 'temp': 28.75, 'lipoC3S3': 11.79, 'lipoC3S2': 7.79, 'rot1': 0, 'rot0': 0, 'rot3': 0, 'rot2': 0, 'state': 'normal', 'yaw': -2.13, 'datetime': '2018-10-05 19:51:09.856339', 'mgs': 0, 'volt': 0.7959, 'depth': -0.064, 'time': 1, 'pitch': -11.19, 'roll': -1.74, 'pres': 163}
{'lipoC2': 7.81, 'lipoC3S1': 3.9, 'temp': 28.75, 'lipoC3S3': 11.79, 'lipoC3S2': 7.79, 'rot1': 0, 'rot0': 0, 'rot3': 0, 'rot2': 0, 'state': 'normal', 'yaw': -2.37, 'datetime': '2018-10-05 19:51:09.866377', 'mgs': 0, 'volt': 0.7959, 'depth': -0.064, 'time': 1, 'pitch': -11.3, 'roll': -1.82, 'pres': 163}
{'lipoC2': 7.81, 'lipoC3S1': 3.9, 'temp': 28.69, 'lipoC3S3': 11.77, 'lipoC3S2': 7.78, 'rot1': 0, 'rot0': 0, 'rot3': 0, 'rot2': 0, 'state': 'normal', 'yaw': -2.37, 'datetime': '2018-10-05 19:51:09.882444', 'mgs': 0, 'volt': 0.791, 'depth': -0.14, 'time': 1, 'pitch': -11.33, 'roll': -1.92, 'pres': 162}
{'lipoC2': 7.81, 'lipoC3S1': 3.89, 'temp': 28.69, 'lipoC3S3': 11.77, 'lipoC3S2': 7.79, 'rot1': 0, 'rot0': 0, 'rot3': 0, 'rot2': 0, 'state': 'normal', 'yaw': -2.35, 'datetime': '2018-10-05 19:51:09.898402', 'mgs': 0, 'volt': 0.7959, 'depth': -0.064, 'time': 2, 'pitch': -11.14, 'roll': -1.85, 'pres': 163}
{'lipoC2': 7.81, 'lipoC3S1': 3.89, 'temp': 28.69, 'lipoC3S3': 11.77, 'lipoC3S2': 7.79, 'rot1': 0, 'rot0': 0, 'rot3': 0, 'rot2': 0, 'state': 'normal', 'yaw': -2.43, 'datetime': '2018-10-05 19:51:09.908430', 'mgs': 0, 'volt': 0.791, 'depth': -0.14, 'time': 2, 'pitch': -10.89, 'roll': -1.52, 'pres': 162}
{'lipoC2': 7.81, 'lipoC3S1': 3.89, 'temp': 28.69, 'lipoC3S3': 11.77, 'lipoC3S2': 7.79, 'rot1': 0, 'rot0': 0, 'rot3': 0, 'rot2': 0, 'state': 'normal', 'yaw': -2.56, 'datetime': '2018-10-05 19:51:09.924317', 'mgs': 0, 'volt': 0.791, 'depth': -0.14, 'time': 2, 'pitch': -10.72, 'roll': -1.07, 'pres': 162}
{'lipoC2': 7.81, 'lipoC3S1': 3.9, 'temp': 28.69, 'lipoC3S3': 11.77, 'lipoC3S2': 7.79, 'rot1': 0, 'rot0': 0, 'rot3': 0, 'rot2': 0, 'state': 'normal', 'yaw': -2.57, 'datetime': '2018-10-05 19:51:09.940203', 'mgs': 0, 'volt': 0.791, 'depth': -0.14, 'time': 2, 'pitch': -10.74, 'roll': -0.74, 'pres': 162}
{'lipoC2': 7.81, 'lipoC3S1': 3.9, 'temp': 28.69, 'lipoC3S3': 11.79, 'lipoC3S2': 7.79, 'rot1': 0, 'rot0': 0, 'rot3': 0, 'rot2': 0, 'state': 'normal', 'yaw': -2.47, 'datetime': '2018-10-05 19:51:09.950227', 'mgs': 0, 'volt': 0.7959, 'depth': -0.064, 'time': 2, 'pitch': -10.89, 'roll': -0.56, 'pres': 163}
{'lipoC2': 7.81, 'lipoC3S1': 3.9, 'temp': 28.69, 'lipoC3S3': 11.79, 'lipoC3S2': 7.79, 'rot1': 0, 'rot0': 0, 'rot3': 0, 'rot2': 0, 'state': 'normal', 'yaw': -2.48, 'datetime': '2018-10-05 19:51:09.966129', 'mgs': 0, 'volt': 0.7959, 'depth': -0.064, 'time': 2, 'pitch': -11.01, 'roll': -0.47, 'pres': 163}
{'lipoC2': 7.81, 'lipoC3S1': 3.9, 'temp': 28.69, 'lipoC3S3': 11.77, 'lipoC3S2': 7.79, 'rot1': 0, 'rot0': 0, 'rot3': 0, 'rot2': 0, 'state': 'normal', 'yaw': -2.68, 'datetime': '2018-10-05 19:51:09.982243', 'mgs': 0, 'volt': 0.7959, 'depth': -0.064, 'time': 2, 'pitch': -11.0, 'roll': -0.38, 'pres': 163}
{'lipoC2': 7.81, 'lipoC3S1': 3.9, 'temp': 28.69, 'lipoC3S3': 11.79, 'lipoC3S2': 7.79, 'rot1': 0, 'rot0': 0, 'rot3': 0, 'rot2': 0, 'state': 'normal', 'yaw': -2.95, 'datetime': '2018-10-05 19:51:09.992283', 'mgs': 0, 'volt': 0.7959, 'depth': -0.064, 'time': 2, 'pitch': -10.6, 'roll': -0.28, 'pres': 163}
{'lipoC2': 7.81, 'lipoC3S1': 3.9, 'temp': 28.75, 'lipoC3S3': 11.79, 'lipoC3S2': 7.79, 'rot1': 0, 'rot0': 0, 'rot3': 0, 'rot2': 0, 'state': 'normal', 'yaw': -3.13, 'datetime': '2018-10-05 19:51:10.008257', 'mgs': 0, 'volt': 0.8008, 'depth': 0.012, 'time': 2, 'pitch': -10.18, 'roll': -0.42, 'pres': 164}
{'lipoC2': 7.81, 'lipoC3S1': 3.89, 'temp': 28.75, 'lipoC3S3': 11.77, 'lipoC3S2': 7.79, 'rot1': 0, 'rot0': 0, 'rot3': 0, 'rot2': 0, 'state': 'normal', 'yaw': -3.33, 'datetime': '2018-10-05 19:51:10.024272', 'mgs': 0, 'volt': 0.7959, 'depth': -0.064, 'time': 3, 'pitch': -10.32, 'roll': -0.77, 'pres': 163}
{'lipoC2': 7.81, 'lipoC3S1': 3.9, 'temp': 28.75, 'lipoC3S3': 11.77, 'lipoC3S2': 7.79, 'rot1': 0, 'rot0': 0, 'rot3': 0, 'rot2': 0, 'state': 'normal', 'yaw': -3.38, 'datetime': '2018-10-05 19:51:10.034300', 'mgs': 0, 'volt': 0.7959, 'depth': -0.064, 'time': 3, 'pitch': -10.53, 'roll': -1.31, 'pres': 163}
{'lipoC2': 7.81, 'lipoC3S1': 3.9, 'temp': 28.69, 'lipoC3S3': 11.79, 'lipoC3S2': 7.79, 'rot1': 0, 'rot0': 0, 'rot3': 0, 'rot2': 0, 'state': 'normal', 'yaw': -3.28, 'datetime': '2018-10-05 19:51:10.050238', 'mgs': 0, 'volt': 0.8008, 'depth': 0.012, 'time': 3, 'pitch': -10.76, 'roll': -1.98, 'pres': 164}
{'lipoC2': 7.81, 'lipoC3S1': 3.9, 'temp': 28.69, 'lipoC3S3': 11.77, 'lipoC3S2': 7.79, 'rot1': 0, 'rot0': 0, 'rot3': 0, 'rot2': 0, 'state': 'normal', 'yaw': -3.25, 'datetime': '2018-10-05 19:51:10.066268', 'mgs': 0, 'volt': 0.7959, 'depth': -0.064, 'time': 3, 'pitch': -11.11, 'roll': -2.37, 'pres': 163}
{'lipoC2': 7.81, 'lipoC3S1': 3.9, 'temp': 28.75, 'lipoC3S3': 11.79, 'lipoC3S2': 7.79, 'rot1': 0, 'rot0': 0, 'rot3': 0, 'rot2': 0, 'state': 'normal', 'yaw': -3.24, 'datetime': '2018-10-05 19:51:10.076393', 'mgs': 0, 'volt': 0.8008, 'depth': 0.012, 'time': 3, 'pitch': -11.45, 'roll': -2.47, 'pres': 164}
{'lipoC2': 7.81, 'lipoC3S1': 3.9, 'temp': 28.75, 'lipoC3S3': 11.79, 'lipoC3S2': 7.79, 'rot1': 0, 'rot0': 0, 'rot3': 0, 'rot2': 0, 'state': 'normal', 'yaw': -3.24, 'datetime': '2018-10-05 19:51:10.092432', 'mgs': 0, 'volt': 0.8008, 'depth': 0.012, 'time': 3, 'pitch': -11.82, 'roll': -2.27, 'pres': 164}
{'lipoC2': 7.81, 'lipoC3S1': 3.9, 'temp': 28.69, 'lipoC3S3': 11.79, 'lipoC3S2': 7.79, 'rot1': 0, 'rot0': 0, 'rot3': 0, 'rot2': 0, 'state': 'normal', 'yaw': -3.2, 'datetime': '2018-10-05 19:51:10.108456', 'mgs': 0, 'volt': 0.8008, 'depth': 0.012, 'time': 3, 'pitch': -12.09, 'roll': -1.87, 'pres': 164}
{'lipoC2': 7.81, 'lipoC3S1': 3.9, 'temp': 28.69, 'lipoC3S3': 11.79, 'lipoC3S2': 7.79, 'rot1': 0, 'rot0': 0, 'rot3': 0, 'rot2': 0, 'state': 'normal', 'yaw': -3.04, 'datetime': '2018-10-05 19:51:10.118464', 'mgs': 0, 'volt': 0.8008, 'depth': 0.012, 'time': 3, 'pitch': -12.22, 'roll': -1.37, 'pres': 164}
{'lipoC2': 7.81, 'lipoC3S1': 3.9, 'temp': 28.69, 'lipoC3S3': 11.79, 'lipoC3S2': 7.79, 'rot1': 0, 'rot0': 0, 'rot3': 0, 'rot2': 0, 'state': 'normal', 'yaw': -2.79, 'datetime': '2018-10-05 19:51:10.134398', 'mgs': 0, 'volt': 0.8008, 'depth': 0.012, 'time': 3, 'pitch': -12.16, 'roll': -0.79, 'pres': 164}
{'lipoC2': 7.81, 'lipoC3S1': 3.9, 'temp': 28.69, 'lipoC3S3': 11.79, 'lipoC3S2': 7.79, 'rot1': 0, 'rot0': 0, 'rot3': 0, 'rot2': 0, 'state': 'normal', 'yaw': -2.58, 'datetime': '2018-10-05 19:51:10.150332', 'mgs': 0, 'volt': 0.8057, 'depth': 0.089, 'time': 3, 'pitch': -11.98, 'roll': -0.22, 'pres': 165}
{'lipoC2': 7.81, 'lipoC3S1': 3.9, 'temp': 28.69, 'lipoC3S3': 11.77, 'lipoC3S2': 7.79, 'rot1': 0, 'rot0': 0, 'rot3': 0, 'rot2': 0, 'state': 'normal', 'yaw': -2.46, 'datetime': '2018-10-05 19:51:10.160321', 'mgs': 0, 'volt': 0.8057, 'depth': 0.089, 'time': 4, 'pitch': -11.92, 'roll': 0.37, 'pres': 165}
{'lipoC2': 7.81, 'lipoC3S1': 3.89, 'temp': 28.75, 'lipoC3S3': 11.77, 'lipoC3S2': 7.79, 'rot1': 0, 'rot0': 0, 'rot3': 0, 'rot2': 0, 'state': 'normal', 'yaw': -2.34, 'datetime': '2018-10-05 19:51:10.176310', 'mgs': 0, 'volt': 0.8057, 'depth': 0.089, 'time': 4, 'pitch': -12.03, 'roll': 0.94, 'pres': 165}
{'lipoC2': 7.81, 'lipoC3S1': 3.9, 'temp': 28.75, 'lipoC3S3': 11.77, 'lipoC3S2': 7.79, 'rot1': 0, 'rot0': 0, 'rot3': 0, 'rot2': 0, 'state': 'normal', 'yaw': -2.23, 'datetime': '2018-10-05 19:51:10.192332', 'mgs': 0, 'volt': 0.8057, 'depth': 0.089, 'time': 4, 'pitch': -12.31, 'roll': 1.33, 'pres': 165}
{'lipoC2': 7.81, 'lipoC3S1': 3.9, 'temp': 28.69, 'lipoC3S3': 11.77, 'lipoC3S2': 7.79, 'rot1': 0, 'rot0': 0, 'rot3': 0, 'rot2': 0, 'state': 'normal', 'yaw': -2.13, 'datetime': '2018-10-05 19:51:10.202347', 'mgs': 0, 'volt': 0.8057, 'depth': 0.089, 'time': 4, 'pitch': -12.57, 'roll': 1.57, 'pres': 165}
{'lipoC2': 7.81, 'lipoC3S1': 3.9, 'temp': 28.69, 'lipoC3S3': 11.79, 'lipoC3S2': 7.79, 'rot1': 0, 'rot0': 0, 'rot3': 0, 'rot2': 0, 'state': 'normal', 'yaw': -2.11, 'datetime': '2018-10-05 19:51:10.218318', 'mgs': 0, 'volt': 0.8105, 'depth': 0.165, 'time': 4, 'pitch': -12.68, 'roll': 1.68, 'pres': 166}
{'lipoC2': 7.81, 'lipoC3S1': 3.9, 'temp': 28.69, 'lipoC3S3': 11.79, 'lipoC3S2': 7.79, 'rot1': 0, 'rot0': 0, 'rot3': 0, 'rot2': 0, 'state': 'normal', 'yaw': -2.17, 'datetime': '2018-10-05 19:51:10.234281', 'mgs': 0, 'volt': 0.8105, 'depth': 0.165, 'time': 4, 'pitch': -12.74, 'roll': 1.67, 'pres': 166}
{'lipoC2': 7.81, 'lipoC3S1': 3.9, 'temp': 28.69, 'lipoC3S3': 11.79, 'lipoC3S2': 7.79, 'rot1': 0, 'rot0': 0, 'rot3': 0, 'rot2': 0, 'state': 'normal', 'yaw': -2.3, 'datetime': '2018-10-05 19:51:10.244307', 'mgs': 0, 'volt': 0.8105, 'depth': 0.165, 'time': 4, 'pitch': -12.71, 'roll': 1.5, 'pres': 166}
{'lipoC2': 7.81, 'lipoC3S1': 3.9, 'temp': 28.69, 'lipoC3S3': 11.79, 'lipoC3S2': 7.79, 'rot1': 0, 'rot0': 0, 'rot3': 0, 'rot2': 0, 'state': 'normal', 'yaw': -2.48, 'datetime': '2018-10-05 19:51:10.260338', 'mgs': 0, 'volt': 0.8057, 'depth': 0.089, 'time': 4, 'pitch': -12.6, 'roll': 1.2, 'pres': 165}
{'lipoC2': 7.81, 'lipoC3S1': 3.9, 'temp': 28.75, 'lipoC3S3': 11.79, 'lipoC3S2': 7.79, 'rot1': 0, 'rot0': 0, 'rot3': 0, 'rot2': 0, 'state': 'normal', 'yaw': -2.69, 'datetime': '2018-10-05 19:51:10.276365', 'mgs': 0, 'volt': 0.8057, 'depth': 0.089, 'time': 4, 'pitch': -12.5, 'roll': 0.66, 'pres': 165}
{'lipoC2': 7.81, 'lipoC3S1': 3.9, 'temp': 28.75, 'lipoC3S3': 11.79, 'lipoC3S2': 7.79, 'rot1': 0, 'rot0': 0, 'rot3': 0, 'rot2': 0, 'state': 'normal', 'yaw': -2.8, 'datetime': '2018-10-05 19:51:10.286386', 'mgs': 0, 'volt': 0.8057, 'depth': 0.089, 'time': 4, 'pitch': -12.51, 'roll': 0.03, 'pres': 165}
{'lipoC2': 7.81, 'lipoC3S1': 3.9, 'temp': 28.75, 'lipoC3S3': 11.77, 'lipoC3S2': 7.79, 'rot1': 0, 'rot0': 0, 'rot3': 0, 'rot2': 0, 'state': 'normal', 'yaw': -2.81, 'datetime': '2018-10-05 19:51:10.302350', 'mgs': 0, 'volt': 0.8057, 'depth': 0.089, 'time': 5, 'pitch': -12.59, 'roll': -0.67, 'pres': 165}
{'lipoC2': 7.81, 'lipoC3S1': 3.9, 'temp': 28.75, 'lipoC3S3': 11.79, 'lipoC3S2': 7.79, 'rot1': 0, 'rot0': 0, 'rot3': 0, 'rot2': 0, 'state': 'normal', 'yaw': -2.82, 'datetime': '2018-10-05 19:51:10.318330', 'mgs': 0, 'volt': 0.8057, 'depth': 0.089, 'time': 5, 'pitch': -12.62, 'roll': -1.34, 'pres': 165}
{'lipoC2': 7.81, 'lipoC3S1': 3.9, 'temp': 28.75, 'lipoC3S3': 11.79, 'lipoC3S2': 7.79, 'rot1': 0, 'rot0': 0, 'rot3': 0, 'rot2': 0, 'state': 'normal', 'yaw': -2.94, 'datetime': '2018-10-05 19:51:10.328299', 'mgs': 0, 'volt': 0.8057, 'depth': 0.089, 'time': 5, 'pitch': -12.57, 'roll': -1.73, 'pres': 165}
{'lipoC2': 7.81, 'lipoC3S1': 3.9, 'temp': 28.69, 'lipoC3S3': 11.79, 'lipoC3S2': 7.79, 'rot1': 0, 'rot0': 0, 'rot3': 0, 'rot2': 0, 'state': 'normal', 'yaw': -3.09, 'datetime': '2018-10-05 19:51:10.344253', 'mgs': 0, 'volt': 0.8057, 'depth': 0.089, 'time': 5, 'pitch': -12.46, 'roll': -1.94, 'pres': 165}
{'lipoC2': 7.81, 'lipoC3S1': 3.9, 'temp': 28.69, 'lipoC3S3': 11.79, 'lipoC3S2': 7.79, 'rot1': 0, 'rot0': 0, 'rot3': 0, 'rot2': 0, 'state': 'normal', 'yaw': -3.18, 'datetime': '2018-10-05 19:51:10.360222', 'mgs': 0, 'volt': 0.8057, 'depth': 0.089, 'time': 5, 'pitch': -12.39, 'roll': -2.06, 'pres': 165}
{'lipoC2': 7.81, 'lipoC3S1': 3.9, 'temp': 28.63, 'lipoC3S3': 11.79, 'lipoC3S2': 7.79, 'rot1': 0, 'rot0': 0, 'rot3': 0, 'rot2': 0, 'state': 'normal', 'yaw': -3.17, 'datetime': '2018-10-05 19:51:10.370233', 'mgs': 0, 'volt': 0.8057, 'depth': 0.089, 'time': 5, 'pitch': -12.47, 'roll': -2.08, 'pres': 165}
{'lipoC2': 7.81, 'lipoC3S1': 3.9, 'temp': 28.63, 'lipoC3S3': 11.79, 'lipoC3S2': 7.79, 'rot1': 0, 'rot0': 0, 'rot3': 0, 'rot2': 0, 'state': 'normal', 'yaw': -3.17, 'datetime': '2018-10-05 19:51:10.386251', 'mgs': 0, 'volt': 0.8057, 'depth': 0.089, 'time': 5, 'pitch': -12.65, 'roll': -2.04, 'pres': 165}
{'lipoC2': 7.81, 'lipoC3S1': 3.9, 'temp': 28.75, 'lipoC3S3': 11.79, 'lipoC3S2': 7.79, 'rot1': 0, 'rot0': 0, 'rot3': 0, 'rot2': 0, 'state': 'normal', 'yaw': -3.18, 'datetime': '2018-10-05 19:51:10.402280', 'mgs': 0, 'volt': 0.8057, 'depth': 0.089, 'time': 5, 'pitch': -12.73, 'roll': -1.91, 'pres': 165}
{'lipoC2': 7.81, 'lipoC3S1': 3.9, 'temp': 28.75, 'lipoC3S3': 11.79, 'lipoC3S2': 7.79, 'rot1': 0, 'rot0': 0, 'rot3': 0, 'rot2': 0, 'state': 'normal', 'yaw': -3.19, 'datetime': '2018-10-05 19:51:10.412286', 'mgs': 0, 'volt': 0.8057, 'depth': 0.089, 'time': 5, 'pitch': -12.66, 'roll': -1.76, 'pres': 165}
{'lipoC2': 7.8, 'lipoC3S1': 3.85, 'temp': 28.75, 'lipoC3S3': 11.63, 'lipoC3S2': 7.73, 'rot1': 0, 'rot0': 0, 'rot3': 1, 'rot2': 0, 'state': 'normal', 'yaw': -3.3, 'datetime': '2018-10-05 19:51:10.428241', 'mgs': 0, 'volt': 0.8252, 'depth': 0.394, 'time': 6, 'pitch': -12.54, 'roll': -1.59, 'pres': 169}
{'lipoC2': 7.8, 'lipoC3S1': 3.88, 'temp': 28.75, 'lipoC3S3': 11.67, 'lipoC3S2': 7.74, 'rot1': 0, 'rot0': 0, 'rot3': 1, 'rot2': 1, 'state': 'normal', 'yaw': -3.54, 'datetime': '2018-10-05 19:51:10.444224', 'mgs': 0, 'volt': 0.8154, 'depth': 0.241, 'time': 6, 'pitch': -12.26, 'roll': -1.29, 'pres': 167}
{'lipoC2': 7.8, 'lipoC3S1': 3.88, 'temp': 28.75, 'lipoC3S3': 11.67, 'lipoC3S2': 7.71, 'rot1': 0, 'rot0': 0, 'rot3': 2, 'rot2': 2, 'state': 'normal', 'yaw': -3.77, 'datetime': '2018-10-05 19:51:10.454619', 'mgs': 0, 'volt': 0.8154, 'depth': 0.241, 'time': 6, 'pitch': -11.64, 'roll': -0.98, 'pres': 167}
{'lipoC2': 7.8, 'lipoC3S1': 3.88, 'temp': 28.69, 'lipoC3S3': 11.67, 'lipoC3S2': 7.71, 'rot1': 0, 'rot0': 0, 'rot3': 3, 'rot2': 2, 'state': 'normal', 'yaw': -3.91, 'datetime': '2018-10-05 19:51:10.470633', 'mgs': 0, 'volt': 0.8008, 'depth': 0.012, 'time': 6, 'pitch': -10.93, 'roll': -0.71, 'pres': 164}
{'lipoC2': 7.81, 'lipoC3S1': 3.85, 'temp': 28.69, 'lipoC3S3': 11.69, 'lipoC3S2': 7.71, 'rot1': 0, 'rot0': 0, 'rot3': 4, 'rot2': 3, 'state': 'normal', 'yaw': -3.93, 'datetime': '2018-10-05 19:51:10.486739', 'mgs': 0, 'volt': 0.7959, 'depth': -0.064, 'time': 6, 'pitch': -10.21, 'roll': -0.42, 'pres': 163}
{'lipoC2': 7.81, 'lipoC3S1': 3.85, 'temp': 28.69, 'lipoC3S3': 11.68, 'lipoC3S2': 7.71, 'rot1': 0, 'rot0': 0, 'rot3': 5, 'rot2': 4, 'state': 'normal', 'yaw': -3.92, 'datetime': '2018-10-05 19:51:10.496805', 'mgs': 0, 'volt': 0.7959, 'depth': -0.064, 'time': 6, 'pitch': -9.62, 'roll': -0.11, 'pres': 163}
{'lipoC2': 7.81, 'lipoC3S1': 3.85, 'temp': 28.63, 'lipoC3S3': 11.69, 'lipoC3S2': 7.72, 'rot1': 0, 'rot0': 0, 'rot3': 6, 'rot2': 5, 'state': 'normal', 'yaw': -3.94, 'datetime': '2018-10-05 19:51:10.512799', 'mgs': 0, 'volt': 0.791, 'depth': -0.14, 'time': 6, 'pitch': -9.06, 'roll': 0.3, 'pres': 162}
{'lipoC2': 7.81, 'lipoC3S1': 3.86, 'temp': 28.63, 'lipoC3S3': 11.69, 'lipoC3S2': 7.71, 'rot1': 0, 'rot0': 0, 'rot3': 7, 'rot2': 6, 'state': 'normal', 'yaw': -3.99, 'datetime': '2018-10-05 19:51:10.528870', 'mgs': 0, 'volt': 0.7959, 'depth': -0.064, 'time': 6, 'pitch': -8.51, 'roll': 0.67, 'pres': 163}
{'lipoC2': 7.81, 'lipoC3S1': 3.85, 'temp': 28.69, 'lipoC3S3': 11.71, 'lipoC3S2': 7.72, 'rot1': 0, 'rot0': 0, 'rot3': 9, 'rot2': 6, 'state': 'normal', 'yaw': -3.89, 'datetime': '2018-10-05 19:51:10.539023', 'mgs': 0, 'volt': 0.7861, 'depth': -0.217, 'time': 6, 'pitch': -8.27, 'roll': 0.6, 'pres': 161}
{'lipoC2': 7.81, 'lipoC3S1': 3.85, 'temp': 28.69, 'lipoC3S3': 11.72, 'lipoC3S2': 7.72, 'rot1': 0, 'rot0': 0, 'rot3': 10, 'rot2': 7, 'state': 'normal', 'yaw': -3.75, 'datetime': '2018-10-05 19:51:10.555042', 'mgs': 0, 'volt': 0.7813, 'depth': -0.293, 'time': 6, 'pitch': -8.17, 'roll': 0.18, 'pres': 160}
{'lipoC2': 7.8, 'lipoC3S1': 3.86, 'temp': 28.69, 'lipoC3S3': 11.71, 'lipoC3S2': 7.72, 'rot1': 0, 'rot0': 0, 'rot3': 11, 'rot2': 8, 'state': 'normal', 'yaw': -3.79, 'datetime': '2018-10-05 19:51:10.573762', 'mgs': 0, 'volt': 0.7813, 'depth': -0.293, 'time': 7, 'pitch': -8.0, 'roll': -0.13, 'pres': 160}
{'lipoC2': 7.8, 'lipoC3S1': 3.88, 'temp': 28.69, 'lipoC3S3': 11.69, 'lipoC3S2': 7.71, 'rot1': 0, 'rot0': 0, 'rot3': 12, 'rot2': 9, 'state': 'normal', 'yaw': -3.97, 'datetime': '2018-10-05 19:51:10.586955', 'mgs': 0, 'volt': 0.7861, 'depth': -0.217, 'time': 7, 'pitch': -7.86, 'roll': -0.19, 'pres': 161}
{'lipoC2': 7.81, 'lipoC3S1': 3.86, 'temp': 28.69, 'lipoC3S3': 11.73, 'lipoC3S2': 7.75, 'rot1': 0, 'rot0': 0, 'rot3': 13, 'rot2': 10, 'state': 'normal', 'yaw': -4.16, 'datetime': '2018-10-05 19:51:10.606273', 'mgs': 0, 'volt': 0.7959, 'depth': -0.064, 'time': 7, 'pitch': -7.86, 'roll': -0.14, 'pres': 163}
{'lipoC2': 7.8, 'lipoC3S1': 3.87, 'temp': 28.69, 'lipoC3S3': 11.72, 'lipoC3S2': 7.74, 'rot1': 0, 'rot0': 0, 'rot3': 14, 'rot2': 11, 'state': 'normal', 'yaw': -4.29, 'datetime': '2018-10-05 19:51:10.625618', 'mgs': 0, 'volt': 0.7959, 'depth': -0.064, 'time': 7, 'pitch': -7.96, 'roll': -0.13, 'pres': 163}
{'lipoC2': 7.81, 'lipoC3S1': 3.88, 'temp': 28.69, 'lipoC3S3': 11.68, 'lipoC3S2': 7.75, 'rot1': 0, 'rot0': 0, 'rot3': 16, 'rot2': 12, 'state': 'normal', 'yaw': -4.32, 'datetime': '2018-10-05 19:51:10.638812', 'mgs': 0, 'volt': 0.791, 'depth': -0.14, 'time': 7, 'pitch': -8.26, 'roll': -0.29, 'pres': 162}
{'lipoC2': 7.81, 'lipoC3S1': 3.88, 'temp': 28.69, 'lipoC3S3': 11.69, 'lipoC3S2': 7.73, 'rot1': 0, 'rot0': 0, 'rot3': 17, 'rot2': 13, 'state': 'normal', 'yaw': -4.42, 'datetime': '2018-10-05 19:51:10.656977', 'mgs': 0, 'volt': 0.7813, 'depth': -0.293, 'time': 7, 'pitch': -8.51, 'roll': -0.47, 'pres': 160}
{'lipoC2': 7.8, 'lipoC3S1': 3.87, 'temp': 28.69, 'lipoC3S3': 11.73, 'lipoC3S2': 7.75, 'rot1': 0, 'rot0': 0, 'rot3': 18, 'rot2': 13, 'state': 'normal', 'yaw': -4.64, 'datetime': '2018-10-05 19:51:10.676914', 'mgs': 0, 'volt': 0.7813, 'depth': -0.293, 'time': 7, 'pitch': -8.55, 'roll': -0.66, 'pres': 160}
{'lipoC2': 7.81, 'lipoC3S1': 3.86, 'temp': 28.69, 'lipoC3S3': 11.73, 'lipoC3S2': 7.74, 'rot1': 0, 'rot0': 0, 'rot3': 19, 'rot2': 14, 'state': 'normal', 'yaw': -4.93, 'datetime': '2018-10-05 19:51:10.690146', 'mgs': 0, 'volt': 0.7861, 'depth': -0.217, 'time': 7, 'pitch': -8.59, 'roll': -0.82, 'pres': 161}
{'lipoC2': 7.81, 'lipoC3S1': 3.88, 'temp': 28.69, 'lipoC3S3': 11.71, 'lipoC3S2': 7.75, 'rot1': 0, 'rot0': 0, 'rot3': 20, 'rot2': 15, 'state': 'normal', 'yaw': -5.27, 'datetime': '2018-10-05 19:51:10.709444', 'mgs': 0, 'volt': 0.7813, 'depth': -0.293, 'time': 7, 'pitch': -8.62, 'roll': -0.95, 'pres': 160}
{'lipoC2': 7.8, 'lipoC3S1': 3.86, 'temp': 28.69, 'lipoC3S3': 11.73, 'lipoC3S2': 7.74, 'rot1': 0, 'rot0': 0, 'rot3': 22, 'rot2': 16, 'state': 'normal', 'yaw': -5.57, 'datetime': '2018-10-05 19:51:10.728796', 'mgs': 0, 'volt': 0.7861, 'depth': -0.217, 'time': 7, 'pitch': -8.7, 'roll': -1.11, 'pres': 161}
{'lipoC2': 7.81, 'lipoC3S1': 3.85, 'temp': 28.69, 'lipoC3S3': 11.71, 'lipoC3S2': 7.72, 'rot1': 0, 'rot0': 0, 'rot3': 23, 'rot2': 17, 'state': 'normal', 'yaw': -5.71, 'datetime': '2018-10-05 19:51:10.742006', 'mgs': 0, 'volt': 0.7715, 'depth': -0.446, 'time': 8, 'pitch': -8.88, 'roll': -1.26, 'pres': 158}
{'lipoC2': 7.8, 'lipoC3S1': 3.88, 'temp': 28.69, 'lipoC3S3': 11.68, 'lipoC3S2': 7.75, 'rot1': 0, 'rot0': 0, 'rot3': 24, 'rot2': 18, 'state': 'normal', 'yaw': -5.74, 'datetime': '2018-10-05 19:51:10.761761', 'mgs': 0, 'volt': 0.7715, 'depth': -0.446, 'time': 8, 'pitch': -9.07, 'roll': -1.37, 'pres': 158}
{'lipoC2': 7.81, 'lipoC3S1': 3.86, 'temp': 28.69, 'lipoC3S3': 11.73, 'lipoC3S2': 7.73, 'rot1': 0, 'rot0': 0, 'rot3': 25, 'rot2': 19, 'state': 'normal', 'yaw': -5.7, 'datetime': '2018-10-05 19:51:10.780977', 'mgs': 0, 'volt': 0.7861, 'depth': -0.217, 'time': 8, 'pitch': -9.12, 'roll': -1.45, 'pres': 161}
{'lipoC2': 7.81, 'lipoC3S1': 3.86, 'temp': 28.69, 'lipoC3S3': 11.72, 'lipoC3S2': 7.73, 'rot1': 0, 'rot0': 0, 'rot3': 26, 'rot2': 20, 'state': 'normal', 'yaw': -5.69, 'datetime': '2018-10-05 19:51:10.790933', 'mgs': 0, 'volt': 0.7715, 'depth': -0.446, 'time': 8, 'pitch': -8.89, 'roll': -1.42, 'pres': 158}
{'lipoC2': 7.81, 'lipoC3S1': 3.87, 'temp': 28.69, 'lipoC3S3': 11.68, 'lipoC3S2': 7.74, 'rot1': 0, 'rot0': 0, 'rot3': 27, 'rot2': 20, 'state': 'normal', 'yaw': -5.66, 'datetime': '2018-10-05 19:51:10.806629', 'mgs': 0, 'volt': 0.7861, 'depth': -0.217, 'time': 8, 'pitch': -8.43, 'roll': -1.35, 'pres': 161}
{'lipoC2': 7.81, 'lipoC3S1': 3.86, 'temp': 28.69, 'lipoC3S3': 11.73, 'lipoC3S2': 7.73, 'rot1': 0, 'rot0': 0, 'rot3': 29, 'rot2': 21, 'state': 'normal', 'yaw': -5.7, 'datetime': '2018-10-05 19:51:10.822321', 'mgs': 0, 'volt': 0.7861, 'depth': -0.217, 'time': 8, 'pitch': -8.09, 'roll': -1.21, 'pres': 161}
{'lipoC2': 7.81, 'lipoC3S1': 3.87, 'temp': 28.69, 'lipoC3S3': 11.68, 'lipoC3S2': 7.75, 'rot1': 0, 'rot0': 0, 'rot3': 30, 'rot2': 22, 'state': 'normal', 'yaw': -5.79, 'datetime': '2018-10-05 19:51:10.831866', 'mgs': 0, 'volt': 0.7861, 'depth': -0.217, 'time': 8, 'pitch': -7.98, 'roll': -1.03, 'pres': 161}
{'lipoC2': 7.81, 'lipoC3S1': 3.86, 'temp': 28.69, 'lipoC3S3': 11.72, 'lipoC3S2': 7.73, 'rot1': 0, 'rot0': 0, 'rot3': 31, 'rot2': 23, 'state': 'normal', 'yaw': -6.0, 'datetime': '2018-10-05 19:51:10.847536', 'mgs': 0, 'volt': 0.791, 'depth': -0.14, 'time': 8, 'pitch': -8.0, 'roll': -0.78, 'pres': 162}
{'lipoC2': 7.8, 'lipoC3S1': 3.87, 'temp': 28.69, 'lipoC3S3': 11.68, 'lipoC3S2': 7.74, 'rot1': 0, 'rot0': 0, 'rot3': 32, 'rot2': 24, 'state': 'normal', 'yaw': -6.22, 'datetime': '2018-10-05 19:51:10.865095', 'mgs': 0, 'volt': 0.7861, 'depth': -0.217, 'time': 8, 'pitch': -7.99, 'roll': -0.58, 'pres': 161}
{'lipoC2': 7.81, 'lipoC3S1': 3.87, 'temp': 28.69, 'lipoC3S3': 11.73, 'lipoC3S2': 7.74, 'rot1': 0, 'rot0': 0, 'rot3': 33, 'rot2': 25, 'state': 'normal', 'yaw': -6.43, 'datetime': '2018-10-05 19:51:10.876512', 'mgs': 0, 'volt': 0.7959, 'depth': -0.064, 'time': 9, 'pitch': -7.74, 'roll': -0.5, 'pres': 163}
{'lipoC2': 7.79, 'lipoC3S1': 3.84, 'temp': 28.69, 'lipoC3S3': 11.61, 'lipoC3S2': 7.67, 'rot1': 0, 'rot0': 0, 'rot3': 33, 'rot2': 25, 'state': 'normal', 'yaw': -6.65, 'datetime': '2018-10-05 19:51:10.892384', 'mgs': 0, 'volt': 0.8203, 'depth': 0.317, 'time': 9, 'pitch': -7.14, 'roll': -0.52, 'pres': 168}
{'lipoC2': 7.8, 'lipoC3S1': 3.81, 'temp': 28.69, 'lipoC3S3': 11.64, 'lipoC3S2': 7.69, 'rot1': 1, 'rot0': 1, 'rot3': 34, 'rot2': 26, 'state': 'normal', 'yaw': -6.92, 'datetime': '2018-10-05 19:51:10.908100', 'mgs': 0, 'volt': 0.791, 'depth': -0.14, 'time': 9, 'pitch': -6.28, 'roll': -0.64, 'pres': 162}
{'lipoC2': 7.8, 'lipoC3S1': 3.85, 'temp': 28.69, 'lipoC3S3': 11.5, 'lipoC3S2': 7.67, 'rot1': 2, 'rot0': 2, 'rot3': 36, 'rot2': 27, 'state': 'normal', 'yaw': -7.24, 'datetime': '2018-10-05 19:51:10.917610', 'mgs': 0, 'volt': 0.8008, 'depth': 0.012, 'time': 9, 'pitch': -5.26, 'roll': -0.66, 'pres': 164}
{'lipoC2': 7.8, 'lipoC3S1': 3.85, 'temp': 28.69, 'lipoC3S3': 11.61, 'lipoC3S2': 7.67, 'rot1': 3, 'rot0': 3, 'rot3': 37, 'rot2': 28, 'state': 'normal', 'yaw': -7.65, 'datetime': '2018-10-05 19:51:10.933194', 'mgs': 0, 'volt': 0.835, 'depth': 0.546, 'time': 9, 'pitch': -4.13, 'roll': -0.6, 'pres': 171}
{'lipoC2': 7.8, 'lipoC3S1': 3.8, 'temp': 28.63, 'lipoC3S3': 11.61, 'lipoC3S2': 7.67, 'rot1': 4, 'rot0': 5, 'rot3': 38, 'rot2': 29, 'state': 'normal', 'yaw': -8.05, 'datetime': '2018-10-05 19:51:10.948815', 'mgs': 0, 'volt': 0.8154, 'depth': 0.241, 'time': 9, 'pitch': -3.12, 'roll': -0.64, 'pres': 167}
{'lipoC2': 7.8, 'lipoC3S1': 3.83, 'temp': 28.63, 'lipoC3S3': 11.44, 'lipoC3S2': 7.65, 'rot1': 5, 'rot0': 6, 'rot3': 39, 'rot2': 30, 'state': 'normal', 'yaw': -8.43, 'datetime': '2018-10-05 19:51:10.958338', 'mgs': 0, 'volt': 0.8203, 'depth': 0.317, 'time': 9, 'pitch': -2.2, 'roll': -0.67, 'pres': 168}
{'lipoC2': 7.81, 'lipoC3S1': 3.84, 'temp': 28.63, 'lipoC3S3': 11.6, 'lipoC3S2': 7.66, 'rot1': 6, 'rot0': 7, 'rot3': 41, 'rot2': 31, 'state': 'normal', 'yaw': -8.85, 'datetime': '2018-10-05 19:51:10.974044', 'mgs': 0, 'volt': 0.8594, 'depth': 0.928, 'time': 9, 'pitch': -1.26, 'roll': -0.84, 'pres': 176}
{'lipoC2': 7.8, 'lipoC3S1': 3.79, 'temp': 28.63, 'lipoC3S3': 11.6, 'lipoC3S2': 7.66, 'rot1': 7, 'rot0': 8, 'rot3': 42, 'rot2': 32, 'state': 'normal', 'yaw': -9.22, 'datetime': '2018-10-05 19:51:10.989813', 'mgs': 0, 'volt': 0.8301, 'depth': 0.47, 'time': 9, 'pitch': -0.53, 'roll': -1.01, 'pres': 170}
{'lipoC2': 7.8, 'lipoC3S1': 3.83, 'temp': 28.63, 'lipoC3S3': 11.48, 'lipoC3S2': 7.66, 'rot1': 8, 'rot0': 9, 'rot3': 43, 'rot2': 33, 'state': 'normal', 'yaw': -9.58, 'datetime': '2018-10-05 19:51:10.999320', 'mgs': 0, 'volt': 0.8252, 'depth': 0.394, 'time': 9, 'pitch': 0.17, 'roll': -1.28, 'pres': 169}
{'lipoC2': 7.8, 'lipoC3S1': 3.83, 'temp': 28.63, 'lipoC3S3': 11.6, 'lipoC3S2': 7.66, 'rot1': 9, 'rot0': 10, 'rot3': 44, 'rot2': 34, 'state': 'normal', 'yaw': -9.82, 'datetime': '2018-10-05 19:51:11.014950', 'mgs': 0, 'volt': 0.8594, 'depth': 0.928, 'time': 10, 'pitch': 0.71, 'roll': -1.69, 'pres': 176}
{'lipoC2': 7.79, 'lipoC3S1': 3.83, 'temp': 28.63, 'lipoC3S3': 11.59, 'lipoC3S2': 7.66, 'rot1': 11, 'rot0': 11, 'rot3': 45, 'rot2': 34, 'state': 'normal', 'yaw': -9.94, 'datetime': '2018-10-05 19:51:11.030752', 'mgs': 0, 'volt': 0.8154, 'depth': 0.241, 'time': 10, 'pitch': 1.11, 'roll': -2.23, 'pres': 167}
{'lipoC2': 7.8, 'lipoC3S1': 3.83, 'temp': 28.56, 'lipoC3S3': 11.56, 'lipoC3S2': 7.59, 'rot1': 12, 'rot0': 12, 'rot3': 47, 'rot2': 35, 'state': 'normal', 'yaw': -10.0, 'datetime': '2018-10-05 19:51:11.085042', 'mgs': 0, 'volt': 0.8447, 'depth': 0.699, 'time': 10, 'pitch': 1.41, 'roll': -2.87, 'pres': 173}
{'lipoC2': 7.8, 'lipoC3S1': 3.77, 'temp': 28.56, 'lipoC3S3': 11.6, 'lipoC3S2': 7.66, 'rot1': 13, 'rot0': 13, 'rot3': 48, 'rot2': 36, 'state': 'normal', 'yaw': -9.88, 'datetime': '2018-10-05 19:51:11.190057', 'mgs': 0, 'volt': 0.8496, 'depth': 0.775, 'time': 10, 'pitch': 1.53, 'roll': -3.36, 'pres': 174}
{'lipoC2': 7.81, 'lipoC3S1': 3.83, 'temp': 28.63, 'lipoC3S3': 11.59, 'lipoC3S2': 7.66, 'rot1': 14, 'rot0': 14, 'rot3': 49, 'rot2': 37, 'state': 'normal', 'yaw': -9.63, 'datetime': '2018-10-05 19:51:11.294034', 'mgs': 0, 'volt': 0.8838, 'depth': 1.309, 'time': 10, 'pitch': 1.43, 'roll': -3.72, 'pres': 181}
{'lipoC2': 7.8, 'lipoC3S1': 3.84, 'temp': 28.63, 'lipoC3S3': 11.51, 'lipoC3S2': 7.65, 'rot1': 15, 'rot0': 15, 'rot3': 50, 'rot2': 38, 'state': 'normal', 'yaw': -9.31, 'datetime': '2018-10-05 19:51:11.397982', 'mgs': 0, 'volt': 0.8545, 'depth': 0.851, 'time': 10, 'pitch': 1.05, 'roll': -3.9, 'pres': 175}
{'lipoC2': 7.8, 'lipoC3S1': 3.83, 'temp': 28.63, 'lipoC3S3': 11.6, 'lipoC3S2': 7.59, 'rot1': 16, 'rot0': 16, 'rot3': 51, 'rot2': 39, 'state': 'normal', 'yaw': -8.86, 'datetime': '2018-10-05 19:51:11.502054', 'mgs': 0, 'volt': 0.8594, 'depth': 0.928, 'time': 10, 'pitch': 0.49, 'roll': -3.98, 'pres': 176}
{'lipoC2': 7.81, 'lipoC3S1': 3.82, 'temp': 28.63, 'lipoC3S3': 11.6, 'lipoC3S2': 7.66, 'rot1': 18, 'rot0': 16, 'rot3': 53, 'rot2': 40, 'state': 'normal', 'yaw': -8.3, 'datetime': '2018-10-05 19:51:11.606063', 'mgs': 0, 'volt': 0.8887, 'depth': 1.385, 'time': 10, 'pitch': -0.28, 'roll': -4.02, 'pres': 182}
{'lipoC2': 7.79, 'lipoC3S1': 3.82, 'temp': 28.63, 'lipoC3S3': 11.6, 'lipoC3S2': 7.65, 'rot1': 19, 'rot0': 17, 'rot3': 54, 'rot2': 41, 'state': 'normal', 'yaw': -7.74, 'datetime': '2018-10-05 19:51:11.709993', 'mgs': 0, 'volt': 0.8691, 'depth': 1.08, 'time': 10, 'pitch': -1.05, 'roll': -4.04, 'pres': 178}
{'lipoC2': 7.8, 'lipoC3S1': 3.83, 'temp': 28.63, 'lipoC3S3': 11.51, 'lipoC3S2': 7.65, 'rot1': 20, 'rot0': 18, 'rot3': 55, 'rot2': 42, 'state': 'normal', 'yaw': -7.2, 'datetime': '2018-10-05 19:51:11.814230', 'mgs': 0, 'volt': 0.874, 'depth': 1.157, 'time': 10, 'pitch': -1.88, 'roll': -4.08, 'pres': 179}
{'lipoC2': 7.8, 'lipoC3S1': 3.83, 'temp': 28.63, 'lipoC3S3': 11.6, 'lipoC3S2': 7.59, 'rot1': 21, 'rot0': 19, 'rot3': 56, 'rot2': 43, 'state': 'normal', 'yaw': -6.51, 'datetime': '2018-10-05 19:51:11.918233', 'mgs': 0, 'volt': 0.8838, 'depth': 1.309, 'time': 11, 'pitch': -2.8, 'roll': -4.25, 'pres': 181}
{'lipoC2': 7.81, 'lipoC3S1': 3.82, 'temp': 28.69, 'lipoC3S3': 11.6, 'lipoC3S2': 7.65, 'rot1': 22, 'rot0': 20, 'rot3': 57, 'rot2': 44, 'state': 'normal', 'yaw': -5.95, 'datetime': '2018-10-05 19:51:12.028974', 'mgs': 0, 'volt': 0.9131, 'depth': 1.767, 'time': 11, 'pitch': -3.51, 'roll': -4.44, 'pres': 187}
{'lipoC2': 7.8, 'lipoC3S1': 3.86, 'temp': 28.69, 'lipoC3S3': 11.64, 'lipoC3S2': 7.69, 'rot1': 23, 'rot0': 21, 'rot3': 58, 'rot2': 44, 'state': 'normal', 'yaw': -5.36, 'datetime': '2018-10-05 19:51:12.133734', 'mgs': 0, 'volt': 0.8691, 'depth': 1.08, 'time': 11, 'pitch': -4.11, 'roll': -4.68, 'pres': 178}
{'lipoC2': 7.81, 'lipoC3S1': 3.83, 'temp': 28.69, 'lipoC3S3': 11.63, 'lipoC3S2': 7.65, 'rot1': 24, 'rot0': 22, 'rot3': 59, 'rot2': 45, 'state': 'normal', 'yaw': -4.9, 'datetime': '2018-10-05 19:51:12.237205', 'mgs': 0, 'volt': 0.8643, 'depth': 1.004, 'time': 11, 'pitch': -4.35, 'roll': -4.83, 'pres': 177}
{'lipoC2': 7.8, 'lipoC3S1': 3.83, 'temp': 28.69, 'lipoC3S3': 11.55, 'lipoC3S2': 7.66, 'rot1': 25, 'rot0': 23, 'rot3': 60, 'rot2': 46, 'state': 'normal', 'yaw': -4.49, 'datetime': '2018-10-05 19:51:12.342363', 'mgs': 0, 'volt': 0.8838, 'depth': 1.309, 'time': 11, 'pitch': -4.38, 'roll': -4.83, 'pres': 181}
{'lipoC2': 7.8, 'lipoC3S1': 3.78, 'temp': 28.69, 'lipoC3S3': 11.59, 'lipoC3S2': 7.6, 'rot1': 26, 'rot0': 24, 'rot3': 61, 'rot2': 47, 'state': 'normal', 'yaw': -4.07, 'datetime': '2018-10-05 19:51:12.446602', 'mgs': 0, 'volt': 0.9082, 'depth': 1.691, 'time': 11, 'pitch': -4.22, 'roll': -4.74, 'pres': 186}
{'lipoC2': 7.81, 'lipoC3S1': 3.82, 'temp': 28.69, 'lipoC3S3': 11.59, 'lipoC3S2': 7.56, 'rot1': 28, 'rot0': 25, 'rot3': 62, 'rot2': 48, 'state': 'normal', 'yaw': -3.75, 'datetime': '2018-10-05 19:51:12.551805', 'mgs': 0, 'volt': 0.9082, 'depth': 1.691, 'time': 11, 'pitch': -4.1, 'roll': -4.67, 'pres': 186}
{'lipoC2': 7.8, 'lipoC3S1': 3.8, 'temp': 28.69, 'lipoC3S3': 11.6, 'lipoC3S2': 7.65, 'rot1': 29, 'rot0': 26, 'rot3': 63, 'rot2': 49, 'state': 'normal', 'yaw': -3.52, 'datetime': '2018-10-05 19:51:12.655587', 'mgs': 0, 'volt': 0.9033, 'depth': 1.614, 'time': 11, 'pitch': -3.87, 'roll': -4.65, 'pres': 185}
{'lipoC2': 7.79, 'lipoC3S1': 3.87, 'temp': 28.69, 'lipoC3S3': 11.6, 'lipoC3S2': 7.65, 'rot1': 30, 'rot0': 27, 'rot3': 65, 'rot2': 49, 'state': 'normal', 'yaw': -3.42, 'datetime': '2018-10-05 19:51:12.759869', 'mgs': 0, 'volt': 0.918, 'depth': 1.843, 'time': 11, 'pitch': -3.63, 'roll': -4.66, 'pres': 188}
{'lipoC2': 7.79, 'lipoC3S1': 3.87, 'temp': 28.69, 'lipoC3S3': 11.61, 'lipoC3S2': 7.66, 'rot1': 31, 'rot0': 28, 'rot3': 66, 'rot2': 50, 'state': 'normal', 'yaw': -3.47, 'datetime': '2018-10-05 19:51:12.864115', 'mgs': 0, 'volt': 0.918, 'depth': 1.843, 'time': 12, 'pitch': -3.3, 'roll': -4.59, 'pres': 188}
{'lipoC2': 7.81, 'lipoC3S1': 3.82, 'temp': 28.69, 'lipoC3S3': 11.58, 'lipoC3S2': 7.54, 'rot1': 32, 'rot0': 29, 'rot3': 67, 'rot2': 51, 'state': 'normal', 'yaw': -3.64, 'datetime': '2018-10-05 19:51:12.967916', 'mgs': 0, 'volt': 0.9375, 'depth': 2.148, 'time': 12, 'pitch': -2.9, 'roll': -4.41, 'pres': 192}
{'lipoC2': 7.81, 'lipoC3S1': 3.79, 'temp': 28.69, 'lipoC3S3': 11.68, 'lipoC3S2': 7.72, 'rot1': 33, 'rot0': 30, 'rot3': 67, 'rot2': 52, 'state': 'normal', 'yaw': -3.87, 'datetime': '2018-10-05 19:51:13.072105', 'mgs': 0, 'volt': 0.9473, 'depth': 2.301, 'time': 12, 'pitch': -2.43, 'roll': -4.24, 'pres': 194}
{'lipoC2': 7.81, 'lipoC3S1': 3.87, 'temp': 28.63, 'lipoC3S3': 11.67, 'lipoC3S2': 7.71, 'rot1': 34, 'rot0': 32, 'rot3': 68, 'rot2': 53, 'state': 'normal', 'yaw': -4.23, 'datetime': '2018-10-05 19:51:13.176012', 'mgs': 0, 'volt': 0.9814, 'depth': 2.835, 'time': 12, 'pitch': -1.73, 'roll': -3.9, 'pres': 201}
{'lipoC2': 7.81, 'lipoC3S1': 3.86, 'temp': 28.63, 'lipoC3S3': 11.5, 'lipoC3S2': 7.66, 'rot1': 35, 'rot0': 33, 'rot3': 69, 'rot2': 53, 'state': 'normal', 'yaw': -4.58, 'datetime': '2018-10-05 19:51:13.280087', 'mgs': 0, 'volt': 0.9375, 'depth': 2.148, 'time': 12, 'pitch': -1.0, 'roll': -3.52, 'pres': 192}
{'lipoC2': 7.81, 'lipoC3S1': 3.89, 'temp': 28.63, 'lipoC3S3': 11.68, 'lipoC3S2': 7.66, 'rot1': 36, 'rot0': 34, 'rot3': 69, 'rot2': 54, 'state': 'normal', 'yaw': -4.96, 'datetime': '2018-10-05 19:51:13.383981', 'mgs': 0, 'volt': 0.9473, 'depth': 2.301, 'time': 12, 'pitch': -0.26, 'roll': -3.11, 'pres': 194}
{'lipoC2': 7.8, 'lipoC3S1': 3.87, 'temp': 28.69, 'lipoC3S3': 11.68, 'lipoC3S2': 7.71, 'rot1': 37, 'rot0': 35, 'rot3': 70, 'rot2': 54, 'state': 'normal', 'yaw': -5.41, 'datetime': '2018-10-05 19:51:13.487996', 'mgs': 0, 'volt': 0.9717, 'depth': 2.682, 'time': 12, 'pitch': 0.49, 'roll': -2.68, 'pres': 199}
{'lipoC2': 7.81, 'lipoC3S1': 3.86, 'temp': 28.69, 'lipoC3S3': 11.58, 'lipoC3S2': 7.67, 'rot1': 38, 'rot0': 36, 'rot3': 71, 'rot2': 55, 'state': 'normal', 'yaw': -5.68, 'datetime': '2018-10-05 19:51:13.592691', 'mgs': 0, 'volt': 0.957, 'depth': 2.454, 'time': 12, 'pitch': 1.01, 'roll': -2.31, 'pres': 196}
{'lipoC2': 7.81, 'lipoC3S1': 3.86, 'temp': 28.69, 'lipoC3S3': 11.69, 'lipoC3S2': 7.62, 'rot1': 40, 'rot0': 37, 'rot3': 71, 'rot2': 55, 'state': 'normal', 'yaw': -5.84, 'datetime': '2018-10-05 19:51:13.696958', 'mgs': 0, 'volt': 0.9619, 'depth': 2.53, 'time': 12, 'pitch': 1.4, 'roll': -1.91, 'pres': 197}
{'lipoC2': 7.81, 'lipoC3S1': 3.83, 'temp': 28.69, 'lipoC3S3': 11.69, 'lipoC3S2': 7.73, 'rot1': 41, 'rot0': 38, 'rot3': 72, 'rot2': 56, 'state': 'normal', 'yaw': -5.84, 'datetime': '2018-10-05 19:51:13.794064', 'mgs': 0, 'volt': 0.9668, 'depth': 2.606, 'time': 12, 'pitch': 1.69, 'roll': -1.59, 'pres': 198}
{'lipoC2': 7.81, 'lipoC3S1': 3.8, 'temp': 28.69, 'lipoC3S3': 11.69, 'lipoC3S2': 7.72, 'rot1': 42, 'rot0': 39, 'rot3': 72, 'rot2': 56, 'state': 'normal', 'yaw': -5.7, 'datetime': '2018-10-05 19:51:13.899342', 'mgs': 0, 'volt': 0.9717, 'depth': 2.682, 'time': 13, 'pitch': 1.91, 'roll': -1.33, 'pres': 199}
{'lipoC2': 7.79, 'lipoC3S1': 3.87, 'temp': 28.69, 'lipoC3S3': 11.69, 'lipoC3S2': 7.73, 'rot1': 43, 'rot0': 40, 'rot3': 72, 'rot2': 57, 'state': 'normal', 'yaw': -5.45, 'datetime': '2018-10-05 19:51:14.015441', 'mgs': 0, 'volt': 0.9961, 'depth': 3.064, 'time': 13, 'pitch': 2.09, 'roll': -1.14, 'pres': 204}
{'lipoC2': 7.81, 'lipoC3S1': 3.87, 'temp': 28.69, 'lipoC3S3': 11.6, 'lipoC3S2': 7.72, 'rot1': 44, 'rot0': 41, 'rot3': 72, 'rot2': 57, 'state': 'normal', 'yaw': -5.12, 'datetime': '2018-10-05 19:51:14.107310', 'mgs': 0, 'volt': 0.9766, 'depth': 2.759, 'time': 13, 'pitch': 2.21, 'roll': -1.03, 'pres': 200}
{'lipoC2': 7.81, 'lipoC3S1': 3.84, 'temp': 28.63, 'lipoC3S3': 11.71, 'lipoC3S2': 7.7, 'rot1': 45, 'rot0': 42, 'rot3': 73, 'rot2': 57, 'state': 'normal', 'yaw': -4.67, 'datetime': '2018-10-05 19:51:14.211593', 'mgs': 0, 'volt': 0.9766, 'depth': 2.759, 'time': 13, 'pitch': 2.28, 'roll': -0.98, 'pres': 200}
{'lipoC2': 7.81, 'lipoC3S1': 3.87, 'temp': 28.63, 'lipoC3S3': 11.71, 'lipoC3S2': 7.73, 'rot1': 47, 'rot0': 43, 'rot3': 73, 'rot2': 57, 'state': 'normal', 'yaw': -4.18, 'datetime': '2018-10-05 19:51:14.315443', 'mgs': 0, 'volt': 0.9424, 'depth': 2.225, 'time': 13, 'pitch': 2.27, 'roll': -1.03, 'pres': 193}
{'lipoC2': 7.8, 'lipoC3S1': 3.87, 'temp': 28.63, 'lipoC3S3': 11.68, 'lipoC3S2': 7.72, 'rot1': 48, 'rot0': 44, 'rot3': 73, 'rot2': 57, 'state': 'normal', 'yaw': -3.65, 'datetime': '2018-10-05 19:51:14.419415', 'mgs': 0, 'volt': 0.9766, 'depth': 2.759, 'time': 13, 'pitch': 2.26, 'roll': -1.14, 'pres': 200}
{'lipoC2': 7.81, 'lipoC3S1': 3.87, 'temp': 28.63, 'lipoC3S3': 11.65, 'lipoC3S2': 7.61, 'rot1': 49, 'rot0': 45, 'rot3': 73, 'rot2': 57, 'state': 'normal', 'yaw': -3.17, 'datetime': '2018-10-05 19:51:14.529669', 'mgs': 0, 'volt': 0.9814, 'depth': 2.835, 'time': 13, 'pitch': 2.25, 'roll': -1.28, 'pres': 201}
{'lipoC2': 7.81, 'lipoC3S1': 3.81, 'temp': 28.63, 'lipoC3S3': 11.71, 'lipoC3S2': 7.73, 'rot1': 50, 'rot0': 46, 'rot3': 73, 'rot2': 57, 'state': 'normal', 'yaw': -2.84, 'datetime': '2018-10-05 19:51:14.634293', 'mgs': 0, 'volt': 0.9814, 'depth': 2.835, 'time': 13, 'pitch': 2.29, 'roll': -1.41, 'pres': 201}
