{'lipoC2': 7.28, 'lipoC3S1': 3.81, 'temp': 30.31, 'lipoC3S3': 11.5, 'lipoC3S2': 7.62, 'rot1': 0, 'rot0': 0, 'rot3': 0, 'rot2': 0, 'state': 'normal', 'yaw': -0.87, 'datetime': '2018-10-09 23:47:50.553124', 'mgs': 0, 'volt': 0.8643, 'depth': 1.004, 'time': 1, 'pitch': 9.09, 'roll': -0.37, 'pres': 177}
{'lipoC2': 7.28, 'lipoC3S1': 3.81, 'temp': 30.31, 'lipoC3S3': 11.5, 'lipoC3S2': 7.62, 'rot1': 0, 'rot0': 0, 'rot3': 0, 'rot2': 0, 'state': 'normal', 'yaw': -1.63, 'datetime': '2018-10-09 23:47:55.083047', 'mgs': 0, 'volt': 0.8691, 'depth': 1.08, 'time': 1, 'pitch': 10.1, 'roll': 0.89, 'pres': 178}
{'lipoC2': 7.28, 'lipoC3S1': 3.81, 'temp': 30.31, 'lipoC3S3': 11.5, 'lipoC3S2': 7.62, 'rot1': 0, 'rot0': 0, 'rot3': 0, 'rot2': 0, 'state': 'normal', 'yaw': -1.87, 'datetime': '2018-10-09 23:47:58.136818', 'mgs': 0, 'volt': 0.8643, 'depth': 1.004, 'time': 1, 'pitch': 10.76, 'roll': 1.52, 'pres': 177}
{'lipoC2': 7.28, 'lipoC3S1': 3.81, 'temp': 30.31, 'lipoC3S3': 11.5, 'lipoC3S2': 7.62, 'rot1': 0, 'rot0': 0, 'rot3': 0, 'rot2': 0, 'state': 'normal', 'yaw': -1.92, 'datetime': '2018-10-09 23:47:58.170216', 'mgs': 0, 'volt': 0.8643, 'depth': 1.004, 'time': 1, 'pitch': 10.74, 'roll': 1.87, 'pres': 177}
{'lipoC2': 7.28, 'lipoC3S1': 3.81, 'temp': 30.31, 'lipoC3S3': 11.5, 'lipoC3S2': 7.62, 'rot1': 0, 'rot0': 0, 'rot3': 0, 'rot2': 0, 'state': 'normal', 'yaw': -1.46, 'datetime': '2018-10-09 23:47:58.184870', 'mgs': 0, 'volt': 0.8643, 'depth': 1.004, 'time': 1, 'pitch': 10.12, 'roll': 2.17, 'pres': 177}
{'lipoC2': 7.28, 'lipoC3S1': 3.81, 'temp': 30.31, 'lipoC3S3': 11.5, 'lipoC3S2': 7.62, 'rot1': 0, 'rot0': 0, 'rot3': 0, 'rot2': 0, 'state': 'normal', 'yaw': -0.6, 'datetime': '2018-10-09 23:47:58.201204', 'mgs': 0, 'volt': 0.8594, 'depth': 0.928, 'time': 1, 'pitch': 9.31, 'roll': 2.32, 'pres': 176}
{'lipoC2': 7.28, 'lipoC3S1': 3.81, 'temp': 30.38, 'lipoC3S3': 11.5, 'lipoC3S2': 7.62, 'rot1': 0, 'rot0': 0, 'rot3': 0, 'rot2': 0, 'state': 'normal', 'yaw': 0.43, 'datetime': '2018-10-09 23:47:58.217371', 'mgs': 0, 'volt': 0.8545, 'depth': 0.851, 'time': 1, 'pitch': 7.67, 'roll': 2.41, 'pres': 175}
{'lipoC2': 7.28, 'lipoC3S1': 3.81, 'temp': 30.38, 'lipoC3S3': 11.5, 'lipoC3S2': 7.62, 'rot1': 0, 'rot0': 0, 'rot3': 0, 'rot2': 0, 'state': 'normal', 'yaw': 1.19, 'datetime': '2018-10-09 23:47:58.227697', 'mgs': 0, 'volt': 0.8545, 'depth': 0.851, 'time': 2, 'pitch': 5.23, 'roll': 2.35, 'pres': 175}
{'lipoC2': 7.28, 'lipoC3S1': 3.81, 'temp': 30.31, 'lipoC3S3': 11.5, 'lipoC3S2': 7.62, 'rot1': 0, 'rot0': 0, 'rot3': 0, 'rot2': 0, 'state': 'normal', 'yaw': 2.03, 'datetime': '2018-10-09 23:47:58.243812', 'mgs': 0, 'volt': 0.8545, 'depth': 0.851, 'time': 2, 'pitch': 3.05, 'roll': 1.99, 'pres': 175}
{'lipoC2': 7.28, 'lipoC3S1': 3.81, 'temp': 30.31, 'lipoC3S3': 11.5, 'lipoC3S2': 7.62, 'rot1': 0, 'rot0': 0, 'rot3': 0, 'rot2': 0, 'state': 'normal', 'yaw': 0.01, 'datetime': '2018-10-09 23:47:58.259905', 'mgs': 0, 'volt': 0.8496, 'depth': 0.775, 'time': 1, 'pitch': 0.96, 'roll': 0.91, 'pres': 174}
{'lipoC2': 7.28, 'lipoC3S1': 3.81, 'temp': 30.31, 'lipoC3S3': 11.5, 'lipoC3S2': 7.62, 'rot1': 0, 'rot0': 0, 'rot3': 0, 'rot2': 0, 'state': 'normal', 'yaw': 0.12, 'datetime': '2018-10-09 23:47:58.270201', 'mgs': 0, 'volt': 0.8496, 'depth': 0.775, 'time': 1, 'pitch': -1.74, 'roll': 0.82, 'pres': 174}
{'lipoC2': 7.28, 'lipoC3S1': 3.81, 'temp': 30.31, 'lipoC3S3': 11.5, 'lipoC3S2': 7.62, 'rot1': 0, 'rot0': 0, 'rot3': 0, 'rot2': 0, 'state': 'normal', 'yaw': 0.19, 'datetime': '2018-10-09 23:47:58.289936', 'mgs': 0, 'volt': 0.8496, 'depth': 0.775, 'time': 1, 'pitch': -3.14, 'roll': 1.09, 'pres': 174}
{'lipoC2': 7.28, 'lipoC3S1': 3.81, 'temp': 30.31, 'lipoC3S3': 11.5, 'lipoC3S2': 7.62, 'rot1': 0, 'rot0': 0, 'rot3': 0, 'rot2': 0, 'state': 'normal', 'yaw': 0.15, 'datetime': '2018-10-09 23:47:58.306217', 'mgs': 0, 'volt': 0.8447, 'depth': 0.699, 'time': 1, 'pitch': -2.99, 'roll': 1.22, 'pres': 173}
{'lipoC2': 7.28, 'lipoC3S1': 3.81, 'temp': 30.31, 'lipoC3S3': 11.5, 'lipoC3S2': 7.62, 'rot1': 0, 'rot0': 0, 'rot3': 0, 'rot2': 0, 'state': 'normal', 'yaw': 0.16, 'datetime': '2018-10-09 23:47:58.317386', 'mgs': 0, 'volt': 0.8496, 'depth': 0.775, 'time': 1, 'pitch': -1.64, 'roll': 0.96, 'pres': 174}
{'lipoC2': 7.28, 'lipoC3S1': 3.81, 'temp': 30.38, 'lipoC3S3': 11.5, 'lipoC3S2': 7.62, 'rot1': 0, 'rot0': 0, 'rot3': 0, 'rot2': 0, 'state': 'normal', 'yaw': 0.72, 'datetime': '2018-10-09 23:47:58.336833', 'mgs': 0, 'volt': 0.8447, 'depth': 0.699, 'time': 1, 'pitch': 0.51, 'roll': 0.07, 'pres': 173}
{'lipoC2': 7.28, 'lipoC3S1': 3.81, 'temp': 30.38, 'lipoC3S3': 11.5, 'lipoC3S2': 7.62, 'rot1': 0, 'rot0': 0, 'rot3': 0, 'rot2': 0, 'state': 'normal', 'yaw': 1.62, 'datetime': '2018-10-09 23:47:58.356054', 'mgs': 0, 'volt': 0.8447, 'depth': 0.699, 'time': 1, 'pitch': 3.0, 'roll': -1.09, 'pres': 173}
{'lipoC2': 7.28, 'lipoC3S1': 3.81, 'temp': 30.31, 'lipoC3S3': 11.5, 'lipoC3S2': 7.62, 'rot1': 0, 'rot0': 0, 'rot3': 0, 'rot2': 0, 'state': 'normal', 'yaw': 2.58, 'datetime': '2018-10-09 23:47:58.369406', 'mgs': 0, 'volt': 0.8398, 'depth': 0.623, 'time': 1, 'pitch': 5.05, 'roll': -2.59, 'pres': 172}
{'lipoC2': 7.28, 'lipoC3S1': 3.81, 'temp': 30.31, 'lipoC3S3': 11.5, 'lipoC3S2': 7.62, 'rot1': 0, 'rot0': 0, 'rot3': 0, 'rot2': 0, 'state': 'normal', 'yaw': 3.24, 'datetime': '2018-10-09 23:47:58.390021', 'mgs': 0, 'volt': 0.8398, 'depth': 0.623, 'time': 2, 'pitch': 6.28, 'roll': -4.23, 'pres': 172}
{'lipoC2': 7.28, 'lipoC3S1': 3.81, 'temp': 30.31, 'lipoC3S3': 11.5, 'lipoC3S2': 7.63, 'rot1': 0, 'rot0': 0, 'rot3': 0, 'rot2': 0, 'state': 'normal', 'yaw': 3.24, 'datetime': '2018-10-09 23:47:58.409499', 'mgs': 0, 'volt': 0.835, 'depth': 0.546, 'time': 2, 'pitch': 6.61, 'roll': -5.13, 'pres': 171}
{'lipoC2': 7.28, 'lipoC3S1': 3.81, 'temp': 30.31, 'lipoC3S3': 11.51, 'lipoC3S2': 7.62, 'rot1': 0, 'rot0': 0, 'rot3': 0, 'rot2': 0, 'state': 'normal', 'yaw': 2.75, 'datetime': '2018-10-09 23:47:58.422847', 'mgs': 0, 'volt': 0.835, 'depth': 0.546, 'time': 2, 'pitch': 6.58, 'roll': -5.31, 'pres': 171}
{'lipoC2': 7.28, 'lipoC3S1': 3.81, 'temp': 30.31, 'lipoC3S3': 11.5, 'lipoC3S2': 7.62, 'rot1': 0, 'rot0': 0, 'rot3': 0, 'rot2': 0, 'state': 'normal', 'yaw': 1.75, 'datetime': '2018-10-09 23:47:58.442102', 'mgs': 0, 'volt': 0.835, 'depth': 0.546, 'time': 2, 'pitch': 7.11, 'roll': -4.98, 'pres': 171}
{'lipoC2': 7.28, 'lipoC3S1': 3.81, 'temp': 30.31, 'lipoC3S3': 11.5, 'lipoC3S2': 7.62, 'rot1': 0, 'rot0': 0, 'rot3': 0, 'rot2': 0, 'state': 'normal', 'yaw': 0.73, 'datetime': '2018-10-09 23:47:58.461253', 'mgs': 0, 'volt': 0.8398, 'depth': 0.623, 'time': 2, 'pitch': 8.03, 'roll': -4.67, 'pres': 172}
{'lipoC2': 7.28, 'lipoC3S1': 3.81, 'temp': 30.31, 'lipoC3S3': 11.5, 'lipoC3S2': 7.62, 'rot1': 0, 'rot0': 0, 'rot3': 0, 'rot2': 0, 'state': 'normal', 'yaw': 0.19, 'datetime': '2018-10-09 23:47:58.474617', 'mgs': 0, 'volt': 0.8398, 'depth': 0.623, 'time': 2, 'pitch': 8.67, 'roll': -4.33, 'pres': 172}
{'lipoC2': 7.28, 'lipoC3S1': 3.81, 'temp': 30.31, 'lipoC3S3': 11.5, 'lipoC3S2': 7.62, 'rot1': 0, 'rot0': 0, 'rot3': 0, 'rot2': 0, 'state': 'normal', 'yaw': -0.02, 'datetime': '2018-10-09 23:47:58.495034', 'mgs': 0, 'volt': 0.835, 'depth': 0.546, 'time': 2, 'pitch': 8.76, 'roll': -3.96, 'pres': 171}
{'lipoC2': 7.28, 'lipoC3S1': 3.81, 'temp': 30.31, 'lipoC3S3': 11.5, 'lipoC3S2': 7.62, 'rot1': 0, 'rot0': 0, 'rot3': 0, 'rot2': 0, 'state': 'normal', 'yaw': 0.13, 'datetime': '2018-10-09 23:47:58.511322', 'mgs': 0, 'volt': 0.835, 'depth': 0.546, 'time': 2, 'pitch': 7.71, 'roll': -3.31, 'pres': 171}
{'lipoC2': 7.28, 'lipoC3S1': 3.81, 'temp': 30.38, 'lipoC3S3': 11.5, 'lipoC3S2': 7.62, 'rot1': 0, 'rot0': 0, 'rot3': 0, 'rot2': 0, 'state': 'normal', 'yaw': 0.43, 'datetime': '2018-10-09 23:47:58.524615', 'mgs': 0, 'volt': 0.8301, 'depth': 0.47, 'time': 2, 'pitch': 5.7, 'roll': -2.37, 'pres': 170}
{'lipoC2': 7.28, 'lipoC3S1': 3.81, 'temp': 30.38, 'lipoC3S3': 11.51, 'lipoC3S2': 7.62, 'rot1': 0, 'rot0': 0, 'rot3': 0, 'rot2': 0, 'state': 'normal', 'yaw': 0.54, 'datetime': '2018-10-09 23:47:58.543865', 'mgs': 0, 'volt': 0.8301, 'depth': 0.47, 'time': 3, 'pitch': 3.04, 'roll': -1.04, 'pres': 170}
{'lipoC2': 7.28, 'lipoC3S1': 3.81, 'temp': 30.38, 'lipoC3S3': 11.5, 'lipoC3S2': 7.62, 'rot1': 0, 'rot0': 0, 'rot3': 0, 'rot2': 0, 'state': 'normal', 'yaw': 0.18, 'datetime': '2018-10-09 23:47:58.563055', 'mgs': 0, 'volt': 0.8252, 'depth': 0.394, 'time': 3, 'pitch': 0.35, 'roll': 0.27, 'pres': 169}
{'lipoC2': 7.29, 'lipoC3S1': 3.81, 'temp': 30.38, 'lipoC3S3': 11.5, 'lipoC3S2': 7.62, 'rot1': 0, 'rot0': 0, 'rot3': 0, 'rot2': 0, 'state': 'normal', 'yaw': -0.68, 'datetime': '2018-10-09 23:47:58.576573', 'mgs': 0, 'volt': 0.8203, 'depth': 0.317, 'time': 3, 'pitch': -1.88, 'roll': 1.3, 'pres': 168}
{'lipoC2': 7.28, 'lipoC3S1': 3.81, 'temp': 30.38, 'lipoC3S3': 11.5, 'lipoC3S2': 7.62, 'rot1': 0, 'rot0': 0, 'rot3': 0, 'rot2': 0, 'state': 'normal', 'yaw': -2.34, 'datetime': '2018-10-09 23:47:58.594891', 'mgs': 0, 'volt': 0.8203, 'depth': 0.317, 'time': 3, 'pitch': -4.01, 'roll': 2.56, 'pres': 168}
{'lipoC2': 7.28, 'lipoC3S1': 3.81, 'temp': 30.38, 'lipoC3S3': 11.51, 'lipoC3S2': 7.62, 'rot1': 0, 'rot0': 0, 'rot3': 0, 'rot2': 0, 'state': 'normal', 'yaw': -4.32, 'datetime': '2018-10-09 23:47:58.614666', 'mgs': 0, 'volt': 0.8203, 'depth': 0.317, 'time': 3, 'pitch': -4.54, 'roll': 3.74, 'pres': 168}
{'lipoC2': 7.28, 'lipoC3S1': 3.81, 'temp': 30.38, 'lipoC3S3': 11.5, 'lipoC3S2': 7.62, 'rot1': 0, 'rot0': 0, 'rot3': 0, 'rot2': 0, 'state': 'normal', 'yaw': -6.07, 'datetime': '2018-10-09 23:47:58.627988', 'mgs': 0, 'volt': 0.8203, 'depth': 0.317, 'time': 3, 'pitch': -3.96, 'roll': 4.47, 'pres': 168}
{'lipoC2': 7.28, 'lipoC3S1': 3.81, 'temp': 30.38, 'lipoC3S3': 11.5, 'lipoC3S2': 7.62, 'rot1': 0, 'rot0': 0, 'rot3': 0, 'rot2': 0, 'state': 'normal', 'yaw': -7.11, 'datetime': '2018-10-09 23:47:58.647242', 'mgs': 0, 'volt': 0.8252, 'depth': 0.394, 'time': 3, 'pitch': -2.8, 'roll': 4.7, 'pres': 169}
{'lipoC2': 7.28, 'lipoC3S1': 3.81, 'temp': 30.31, 'lipoC3S3': 11.5, 'lipoC3S2': 7.62, 'rot1': 0, 'rot0': 0, 'rot3': 0, 'rot2': 0, 'state': 'normal', 'yaw': -7.7, 'datetime': '2018-10-09 23:47:58.666419', 'mgs': 0, 'volt': 0.8252, 'depth': 0.394, 'time': 3, 'pitch': -1.43, 'roll': 4.69, 'pres': 169}
{'lipoC2': 7.28, 'lipoC3S1': 3.81, 'temp': 30.31, 'lipoC3S3': 11.5, 'lipoC3S2': 7.62, 'rot1': 0, 'rot0': 0, 'rot3': 0, 'rot2': 0, 'state': 'normal', 'yaw': -8.01, 'datetime': '2018-10-09 23:47:58.679762', 'mgs': 0, 'volt': 0.8252, 'depth': 0.394, 'time': 3, 'pitch': -0.29, 'roll': 4.73, 'pres': 169}
{'lipoC2': 7.28, 'lipoC3S1': 3.81, 'temp': 30.31, 'lipoC3S3': 11.5, 'lipoC3S2': 7.62, 'rot1': 0, 'rot0': 0, 'rot3': 0, 'rot2': 0, 'state': 'normal', 'yaw': -8.3, 'datetime': '2018-10-09 23:47:58.700290', 'mgs': 0, 'volt': 0.8252, 'depth': 0.394, 'time': 3, 'pitch': 0.46, 'roll': 4.63, 'pres': 169}
{'lipoC2': 7.29, 'lipoC3S1': 3.81, 'temp': 30.31, 'lipoC3S3': 11.5, 'lipoC3S2': 7.62, 'rot1': 0, 'rot0': 0, 'rot3': 0, 'rot2': 0, 'state': 'normal', 'yaw': -8.47, 'datetime': '2018-10-09 23:47:58.718995', 'mgs': 0, 'volt': 0.8301, 'depth': 0.47, 'time': 4, 'pitch': 1.16, 'roll': 4.53, 'pres': 170}
{'lipoC2': 7.28, 'lipoC3S1': 3.81, 'temp': 30.38, 'lipoC3S3': 11.51, 'lipoC3S2': 7.62, 'rot1': 0, 'rot0': 0, 'rot3': 0, 'rot2': 0, 'state': 'normal', 'yaw': -8.49, 'datetime': '2018-10-09 23:47:58.732324', 'mgs': 0, 'volt': 0.835, 'depth': 0.546, 'time': 4, 'pitch': 2.15, 'roll': 4.28, 'pres': 171}
{'lipoC2': 7.28, 'lipoC3S1': 3.81, 'temp': 30.38, 'lipoC3S3': 11.51, 'lipoC3S2': 7.62, 'rot1': 0, 'rot0': 0, 'rot3': 0, 'rot2': 0, 'state': 'normal', 'yaw': -8.33, 'datetime': '2018-10-09 23:47:58.748559', 'mgs': 0, 'volt': 0.835, 'depth': 0.546, 'time': 4, 'pitch': 3.09, 'roll': 3.73, 'pres': 171}
{'lipoC2': 7.29, 'lipoC3S1': 3.81, 'temp': 30.38, 'lipoC3S3': 11.5, 'lipoC3S2': 7.62, 'rot1': 0, 'rot0': 0, 'rot3': 0, 'rot2': 0, 'state': 'normal', 'yaw': -7.95, 'datetime': '2018-10-09 23:47:58.764615', 'mgs': 0, 'volt': 0.8447, 'depth': 0.699, 'time': 4, 'pitch': 3.85, 'roll': 3.01, 'pres': 173}
{'lipoC2': 7.28, 'lipoC3S1': 3.81, 'temp': 30.38, 'lipoC3S3': 11.5, 'lipoC3S2': 7.62, 'rot1': 0, 'rot0': 0, 'rot3': 0, 'rot2': 0, 'state': 'normal', 'yaw': -7.44, 'datetime': '2018-10-09 23:47:58.774799', 'mgs': 0, 'volt': 0.8398, 'depth': 0.623, 'time': 4, 'pitch': 4.35, 'roll': 2.69, 'pres': 172}
{'lipoC2': 7.27, 'lipoC3S1': 3.77, 'temp': 30.38, 'lipoC3S3': 11.46, 'lipoC3S2': 7.58, 'rot1': 0, 'rot0': 0, 'rot3': 1, 'rot2': 0, 'state': 'normal', 'yaw': -7.03, 'datetime': '2018-10-09 23:47:58.791048', 'mgs': 0, 'volt': 0.8643, 'depth': 1.004, 'time': 4, 'pitch': 4.45, 'roll': 2.33, 'pres': 177}
{'lipoC2': 7.28, 'lipoC3S1': 3.77, 'temp': 30.31, 'lipoC3S3': 11.43, 'lipoC3S2': 7.57, 'rot1': 0, 'rot0': 0, 'rot3': 2, 'rot2': 1, 'state': 'normal', 'yaw': -7.03, 'datetime': '2018-10-09 23:47:58.807188', 'mgs': 0, 'volt': 0.8398, 'depth': 0.623, 'time': 4, 'pitch': 4.44, 'roll': 2.3, 'pres': 172}
{'lipoC2': 7.28, 'lipoC3S1': 3.78, 'temp': 30.31, 'lipoC3S3': 11.47, 'lipoC3S2': 7.6, 'rot1': 0, 'rot0': 0, 'rot3': 3, 'rot2': 2, 'state': 'normal', 'yaw': -7.42, 'datetime': '2018-10-09 23:47:58.817373', 'mgs': 0, 'volt': 0.8496, 'depth': 0.775, 'time': 4, 'pitch': 4.48, 'roll': 2.94, 'pres': 174}
{'lipoC2': 7.28, 'lipoC3S1': 3.8, 'temp': 30.31, 'lipoC3S3': 11.42, 'lipoC3S2': 7.6, 'rot1': 0, 'rot0': 0, 'rot3': 4, 'rot2': 2, 'state': 'normal', 'yaw': -8.01, 'datetime': '2018-10-09 23:47:58.833419', 'mgs': 0, 'volt': 0.8496, 'depth': 0.775, 'time': 4, 'pitch': 4.17, 'roll': 3.8, 'pres': 174}
{'lipoC2': 7.28, 'lipoC3S1': 3.8, 'temp': 30.31, 'lipoC3S3': 11.44, 'lipoC3S2': 7.58, 'rot1': 0, 'rot0': 0, 'rot3': 5, 'rot2': 3, 'state': 'normal', 'yaw': -9.04, 'datetime': '2018-10-09 23:47:58.849451', 'mgs': 0, 'volt': 0.8398, 'depth': 0.623, 'time': 4, 'pitch': 3.5, 'roll': 4.52, 'pres': 172}
{'lipoC2': 7.28, 'lipoC3S1': 3.79, 'temp': 30.31, 'lipoC3S3': 11.48, 'lipoC3S2': 7.59, 'rot1': 0, 'rot0': 0, 'rot3': 6, 'rot2': 4, 'state': 'normal', 'yaw': -10.35, 'datetime': '2018-10-09 23:47:58.859643', 'mgs': 0, 'volt': 0.8545, 'depth': 0.851, 'time': 5, 'pitch': 2.8, 'roll': 4.92, 'pres': 175}
{'lipoC2': 7.28, 'lipoC3S1': 3.8, 'temp': 30.31, 'lipoC3S3': 11.43, 'lipoC3S2': 7.57, 'rot1': 0, 'rot0': 0, 'rot3': 7, 'rot2': 4, 'state': 'normal', 'yaw': -11.71, 'datetime': '2018-10-09 23:47:58.875684', 'mgs': 0, 'volt': 0.8398, 'depth': 0.623, 'time': 5, 'pitch': 2.43, 'roll': 5.17, 'pres': 172}
{'lipoC2': 7.28, 'lipoC3S1': 3.78, 'temp': 30.31, 'lipoC3S3': 11.48, 'lipoC3S2': 7.59, 'rot1': 0, 'rot0': 0, 'rot3': 8, 'rot2': 5, 'state': 'normal', 'yaw': -12.93, 'datetime': '2018-10-09 23:47:58.891717', 'mgs': 0, 'volt': 0.8447, 'depth': 0.699, 'time': 5, 'pitch': 2.68, 'roll': 5.06, 'pres': 173}
{'lipoC2': 7.28, 'lipoC3S1': 3.8, 'temp': 30.31, 'lipoC3S3': 11.44, 'lipoC3S2': 7.57, 'rot1': 0, 'rot0': 0, 'rot3': 9, 'rot2': 6, 'state': 'normal', 'yaw': -14.09, 'datetime': '2018-10-09 23:47:58.901922', 'mgs': 0, 'volt': 0.835, 'depth': 0.546, 'time': 5, 'pitch': 3.35, 'roll': 4.56, 'pres': 171}
{'lipoC2': 7.28, 'lipoC3S1': 3.78, 'temp': 30.31, 'lipoC3S3': 11.47, 'lipoC3S2': 7.59, 'rot1': 0, 'rot0': 0, 'rot3': 11, 'rot2': 7, 'state': 'normal', 'yaw': -15.04, 'datetime': '2018-10-09 23:47:58.918043', 'mgs': 0, 'volt': 0.8496, 'depth': 0.775, 'time': 5, 'pitch': 3.91, 'roll': 4.17, 'pres': 174}
{'lipoC2': 7.28, 'lipoC3S1': 3.79, 'temp': 30.38, 'lipoC3S3': 11.43, 'lipoC3S2': 7.6, 'rot1': 0, 'rot0': 0, 'rot3': 12, 'rot2': 8, 'state': 'normal', 'yaw': -15.89, 'datetime': '2018-10-09 23:47:58.934142', 'mgs': 0, 'volt': 0.8398, 'depth': 0.623, 'time': 5, 'pitch': 4.17, 'roll': 4.03, 'pres': 172}
{'lipoC2': 7.28, 'lipoC3S1': 3.8, 'temp': 30.38, 'lipoC3S3': 11.44, 'lipoC3S2': 7.57, 'rot1': 0, 'rot0': 0, 'rot3': 13, 'rot2': 8, 'state': 'normal', 'yaw': -16.69, 'datetime': '2018-10-09 23:47:58.944367', 'mgs': 0, 'volt': 0.8252, 'depth': 0.394, 'time': 5, 'pitch': 4.03, 'roll': 4.28, 'pres': 169}
{'lipoC2': 7.28, 'lipoC3S1': 3.78, 'temp': 30.38, 'lipoC3S3': 11.46, 'lipoC3S2': 7.58, 'rot1': 0, 'rot0': 0, 'rot3': 14, 'rot2': 9, 'state': 'normal', 'yaw': -17.44, 'datetime': '2018-10-09 23:47:58.960469', 'mgs': 0, 'volt': 0.8398, 'depth': 0.623, 'time': 5, 'pitch': 3.56, 'roll': 4.82, 'pres': 172}
{'lipoC2': 7.28, 'lipoC3S1': 3.79, 'temp': 30.38, 'lipoC3S3': 11.47, 'lipoC3S2': 7.61, 'rot1': 0, 'rot0': 0, 'rot3': 15, 'rot2': 10, 'state': 'normal', 'yaw': -18.01, 'datetime': '2018-10-09 23:47:58.976565', 'mgs': 0, 'volt': 0.8447, 'depth': 0.699, 'time': 5, 'pitch': 3.01, 'roll': 5.23, 'pres': 173}
{'lipoC2': 7.28, 'lipoC3S1': 3.8, 'temp': 30.38, 'lipoC3S3': 11.46, 'lipoC3S2': 7.6, 'rot1': 0, 'rot0': 0, 'rot3': 16, 'rot2': 11, 'state': 'normal', 'yaw': -18.58, 'datetime': '2018-10-09 23:47:58.986956', 'mgs': 0, 'volt': 0.835, 'depth': 0.546, 'time': 5, 'pitch': 2.28, 'roll': 5.25, 'pres': 171}
{'lipoC2': 7.28, 'lipoC3S1': 3.8, 'temp': 30.31, 'lipoC3S3': 11.43, 'lipoC3S2': 7.6, 'rot1': 0, 'rot0': 0, 'rot3': 17, 'rot2': 11, 'state': 'normal', 'yaw': -19.25, 'datetime': '2018-10-09 23:47:59.003092', 'mgs': 0, 'volt': 0.835, 'depth': 0.546, 'time': 6, 'pitch': 1.09, 'roll': 4.82, 'pres': 171}
{'lipoC2': 7.28, 'lipoC3S1': 3.8, 'temp': 30.31, 'lipoC3S3': 11.43, 'lipoC3S2': 7.57, 'rot1': 0, 'rot0': 0, 'rot3': 18, 'rot2': 12, 'state': 'normal', 'yaw': -19.89, 'datetime': '2018-10-09 23:47:59.019266', 'mgs': 0, 'volt': 0.8301, 'depth': 0.47, 'time': 6, 'pitch': -0.4, 'roll': 4.09, 'pres': 170}
{'lipoC2': 7.28, 'lipoC3S1': 3.79, 'temp': 30.38, 'lipoC3S3': 11.47, 'lipoC3S2': 7.61, 'rot1': 0, 'rot0': 0, 'rot3': 20, 'rot2': 13, 'state': 'normal', 'yaw': -20.52, 'datetime': '2018-10-09 23:47:59.029556', 'mgs': 0, 'volt': 0.835, 'depth': 0.546, 'time': 6, 'pitch': -2.02, 'roll': 3.33, 'pres': 171}
{'lipoC2': 7.28, 'lipoC3S1': 3.79, 'temp': 30.38, 'lipoC3S3': 11.42, 'lipoC3S2': 7.6, 'rot1': 0, 'rot0': 0, 'rot3': 21, 'rot2': 14, 'state': 'normal', 'yaw': -21.22, 'datetime': '2018-10-09 23:47:59.045681', 'mgs': 0, 'volt': 0.835, 'depth': 0.546, 'time': 6, 'pitch': -3.39, 'roll': 2.83, 'pres': 171}
{'lipoC2': 7.27, 'lipoC3S1': 3.8, 'temp': 30.38, 'lipoC3S3': 11.43, 'lipoC3S2': 7.6, 'rot1': 0, 'rot0': 0, 'rot3': 22, 'rot2': 15, 'state': 'normal', 'yaw': -21.71, 'datetime': '2018-10-09 23:47:59.061830', 'mgs': 0, 'volt': 0.8301, 'depth': 0.47, 'time': 6, 'pitch': -3.33, 'roll': 2.77, 'pres': 170}
{'lipoC2': 7.28, 'lipoC3S1': 3.79, 'temp': 30.31, 'lipoC3S3': 11.47, 'lipoC3S2': 7.61, 'rot1': 0, 'rot0': 0, 'rot3': 23, 'rot2': 15, 'state': 'normal', 'yaw': -21.95, 'datetime': '2018-10-09 23:47:59.072071', 'mgs': 0, 'volt': 0.835, 'depth': 0.546, 'time': 6, 'pitch': -1.99, 'roll': 2.99, 'pres': 171}
{'lipoC2': 7.28, 'lipoC3S1': 3.79, 'temp': 30.31, 'lipoC3S3': 11.43, 'lipoC3S2': 7.6, 'rot1': 0, 'rot0': 0, 'rot3': 24, 'rot2': 16, 'state': 'normal', 'yaw': -21.96, 'datetime': '2018-10-09 23:47:59.088214', 'mgs': 0, 'volt': 0.8252, 'depth': 0.394, 'time': 6, 'pitch': 0.03, 'roll': 3.29, 'pres': 169}
{'lipoC2': 7.28, 'lipoC3S1': 3.8, 'temp': 30.38, 'lipoC3S3': 11.44, 'lipoC3S2': 7.6, 'rot1': 0, 'rot0': 0, 'rot3': 25, 'rot2': 17, 'state': 'normal', 'yaw': -21.96, 'datetime': '2018-10-09 23:47:59.103847', 'mgs': 0, 'volt': 0.8252, 'depth': 0.394, 'time': 6, 'pitch': 1.24, 'roll': 3.29, 'pres': 169}
{'lipoC2': 7.28, 'lipoC3S1': 3.8, 'temp': 30.38, 'lipoC3S3': 11.43, 'lipoC3S2': 7.56, 'rot1': 0, 'rot0': 0, 'rot3': 27, 'rot2': 18, 'state': 'normal', 'yaw': -22.11, 'datetime': '2018-10-09 23:47:59.113593', 'mgs': 0, 'volt': 0.8252, 'depth': 0.394, 'time': 6, 'pitch': 1.18, 'roll': 2.78, 'pres': 169}
{'lipoC2': 7.28, 'lipoC3S1': 3.79, 'temp': 30.38, 'lipoC3S3': 11.42, 'lipoC3S2': 7.6, 'rot1': 0, 'rot0': 0, 'rot3': 28, 'rot2': 19, 'state': 'normal', 'yaw': -22.46, 'datetime': '2018-10-09 23:47:59.129187', 'mgs': 0, 'volt': 0.8301, 'depth': 0.47, 'time': 7, 'pitch': -0.34, 'roll': 2.76, 'pres': 170}
{'lipoC2': 7.28, 'lipoC3S1': 3.8, 'temp': 30.38, 'lipoC3S3': 11.42, 'lipoC3S2': 7.61, 'rot1': 0, 'rot0': 0, 'rot3': 29, 'rot2': 19, 'state': 'normal', 'yaw': -22.9, 'datetime': '2018-10-09 23:47:59.144722', 'mgs': 0, 'volt': 0.8301, 'depth': 0.47, 'time': 7, 'pitch': -2.54, 'roll': 3.15, 'pres': 170}
{'lipoC2': 7.28, 'lipoC3S1': 3.8, 'temp': 30.38, 'lipoC3S3': 11.44, 'lipoC3S2': 7.58, 'rot1': 0, 'rot0': 0, 'rot3': 30, 'rot2': 20, 'state': 'normal', 'yaw': -23.24, 'datetime': '2018-10-09 23:47:59.154430', 'mgs': 0, 'volt': 0.8301, 'depth': 0.47, 'time': 7, 'pitch': -4.02, 'roll': 3.92, 'pres': 170}
{'lipoC2': 7.28, 'lipoC3S1': 3.8, 'temp': 30.38, 'lipoC3S3': 11.44, 'lipoC3S2': 7.57, 'rot1': 0, 'rot0': 0, 'rot3': 31, 'rot2': 21, 'state': 'normal', 'yaw': -23.41, 'datetime': '2018-10-09 23:47:59.169978', 'mgs': 0, 'volt': 0.8154, 'depth': 0.241, 'time': 7, 'pitch': -4.31, 'roll': 4.82, 'pres': 167}
{'lipoC2': 7.28, 'lipoC3S1': 3.78, 'temp': 30.38, 'lipoC3S3': 11.44, 'lipoC3S2': 7.56, 'rot1': 0, 'rot0': 0, 'rot3': 32, 'rot2': 22, 'state': 'normal', 'yaw': -23.33, 'datetime': '2018-10-09 23:47:59.185677', 'mgs': 0, 'volt': 0.8154, 'depth': 0.241, 'time': 7, 'pitch': -3.21, 'roll': 5.42, 'pres': 167}
{'lipoC2': 7.28, 'lipoC3S1': 3.81, 'temp': 30.31, 'lipoC3S3': 11.5, 'lipoC3S2': 7.61, 'rot1': 0, 'rot0': 0, 'rot3': 33, 'rot2': 22, 'state': 'normal', 'yaw': -23.15, 'datetime': '2018-10-09 23:47:59.195445', 'mgs': 0, 'volt': 0.8203, 'depth': 0.317, 'time': 7, 'pitch': -1.55, 'roll': 5.28, 'pres': 168}
{'lipoC2': 7.26, 'lipoC3S1': 3.8, 'temp': 30.31, 'lipoC3S3': 11.46, 'lipoC3S2': 7.6, 'rot1': 0, 'rot0': 0, 'rot3': 33, 'rot2': 23, 'state': 'normal', 'yaw': -22.94, 'datetime': '2018-10-09 23:47:59.211113', 'mgs': 0, 'volt': 0.8447, 'depth': 0.699, 'time': 7, 'pitch': -0.07, 'roll': 4.57, 'pres': 173}
{'lipoC2': 7.27, 'lipoC3S1': 3.8, 'temp': 30.31, 'lipoC3S3': 11.46, 'lipoC3S2': 7.6, 'rot1': 1, 'rot0': 1, 'rot3': 33, 'rot2': 23, 'state': 'normal', 'yaw': -22.9, 'datetime': '2018-10-09 23:47:59.226853', 'mgs': 0, 'volt': 0.8203, 'depth': 0.317, 'time': 7, 'pitch': 1.18, 'roll': 3.74, 'pres': 168}
{'lipoC2': 7.27, 'lipoC3S1': 3.8, 'temp': 30.31, 'lipoC3S3': 11.4, 'lipoC3S2': 7.6, 'rot1': 2, 'rot0': 2, 'rot3': 33, 'rot2': 23, 'state': 'normal', 'yaw': -23.06, 'datetime': '2018-10-09 23:47:59.236592', 'mgs': 0, 'volt': 0.8203, 'depth': 0.317, 'time': 7, 'pitch': 1.91, 'roll': 3.14, 'pres': 168}
{'lipoC2': 7.27, 'lipoC3S1': 3.8, 'temp': 30.31, 'lipoC3S3': 11.47, 'lipoC3S2': 7.6, 'rot1': 3, 'rot0': 3, 'rot3': 33, 'rot2': 23, 'state': 'normal', 'yaw': -23.41, 'datetime': '2018-10-09 23:47:59.252262', 'mgs': 0, 'volt': 0.8545, 'depth': 0.851, 'time': 7, 'pitch': 2.1, 'roll': 2.68, 'pres': 175}
{'lipoC2': 7.27, 'lipoC3S1': 3.8, 'temp': 30.25, 'lipoC3S3': 11.46, 'lipoC3S2': 7.6, 'rot1': 4, 'rot0': 4, 'rot3': 33, 'rot2': 23, 'state': 'normal', 'yaw': -23.96, 'datetime': '2018-10-09 23:47:59.267929', 'mgs': 0, 'volt': 0.835, 'depth': 0.546, 'time': 8, 'pitch': 1.82, 'roll': 2.35, 'pres': 171}
{'lipoC2': 7.27, 'lipoC3S1': 3.8, 'temp': 30.25, 'lipoC3S3': 11.46, 'lipoC3S2': 7.61, 'rot1': 5, 'rot0': 5, 'rot3': 33, 'rot2': 23, 'state': 'normal', 'yaw': -24.38, 'datetime': '2018-10-09 23:47:59.277728', 'mgs': 0, 'volt': 0.8301, 'depth': 0.47, 'time': 8, 'pitch': 1.49, 'roll': 2.23, 'pres': 170}
{'lipoC2': 7.28, 'lipoC3S1': 3.8, 'temp': 30.31, 'lipoC3S3': 11.47, 'lipoC3S2': 7.61, 'rot1': 6, 'rot0': 6, 'rot3': 33, 'rot2': 23, 'state': 'normal', 'yaw': -24.46, 'datetime': '2018-10-09 23:47:59.293416', 'mgs': 0, 'volt': 0.8789, 'depth': 1.233, 'time': 8, 'pitch': 1.53, 'roll': 2.13, 'pres': 180}
{'lipoC2': 7.28, 'lipoC3S1': 3.8, 'temp': 30.31, 'lipoC3S3': 11.47, 'lipoC3S2': 7.61, 'rot1': 8, 'rot0': 7, 'rot3': 33, 'rot2': 23, 'state': 'normal', 'yaw': -24.19, 'datetime': '2018-10-09 23:47:59.309291', 'mgs': 0, 'volt': 0.8643, 'depth': 1.004, 'time': 8, 'pitch': 2.35, 'roll': 1.85, 'pres': 177}
{'lipoC2': 7.27, 'lipoC3S1': 3.8, 'temp': 30.31, 'lipoC3S3': 11.47, 'lipoC3S2': 7.61, 'rot1': 9, 'rot0': 8, 'rot3': 33, 'rot2': 23, 'state': 'normal', 'yaw': -23.55, 'datetime': '2018-10-09 23:47:59.319183', 'mgs': 0, 'volt': 0.835, 'depth': 0.546, 'time': 8, 'pitch': 3.57, 'roll': 1.55, 'pres': 171}
{'lipoC2': 7.27, 'lipoC3S1': 3.8, 'temp': 30.31, 'lipoC3S3': 11.38, 'lipoC3S2': 7.6, 'rot1': 10, 'rot0': 9, 'rot3': 33, 'rot2': 23, 'state': 'normal', 'yaw': -22.63, 'datetime': '2018-10-09 23:47:59.334981', 'mgs': 0, 'volt': 0.8301, 'depth': 0.47, 'time': 8, 'pitch': 4.77, 'roll': 1.38, 'pres': 170}
{'lipoC2': 7.27, 'lipoC3S1': 3.8, 'temp': 30.31, 'lipoC3S3': 11.46, 'lipoC3S2': 7.6, 'rot1': 11, 'rot0': 9, 'rot3': 33, 'rot2': 23, 'state': 'normal', 'yaw': -21.47, 'datetime': '2018-10-09 23:47:59.350718', 'mgs': 0, 'volt': 0.835, 'depth': 0.546, 'time': 8, 'pitch': 5.33, 'roll': 1.45, 'pres': 171}
{'lipoC2': 7.28, 'lipoC3S1': 3.8, 'temp': 30.31, 'lipoC3S3': 11.47, 'lipoC3S2': 7.61, 'rot1': 12, 'rot0': 10, 'rot3': 33, 'rot2': 23, 'state': 'normal', 'yaw': -20.34, 'datetime': '2018-10-09 23:47:59.433775', 'mgs': 0, 'volt': 0.8594, 'depth': 0.928, 'time': 8, 'pitch': 4.88, 'roll': 1.88, 'pres': 176}
{'lipoC2': 7.28, 'lipoC3S1': 3.77, 'temp': 30.31, 'lipoC3S3': 11.48, 'lipoC3S2': 7.61, 'rot1': 13, 'rot0': 10, 'rot3': 33, 'rot2': 23, 'state': 'normal', 'yaw': -19.09, 'datetime': '2018-10-09 23:47:59.537288', 'mgs': 0, 'volt': 0.8398, 'depth': 0.623, 'time': 8, 'pitch': 3.72, 'roll': 2.47, 'pres': 172}
{'lipoC2': 7.28, 'lipoC3S1': 3.8, 'temp': 30.31, 'lipoC3S3': 11.48, 'lipoC3S2': 7.56, 'rot1': 14, 'rot0': 11, 'rot3': 33, 'rot2': 23, 'state': 'normal', 'yaw': -17.53, 'datetime': '2018-10-09 23:47:59.640814', 'mgs': 0, 'volt': 0.8447, 'depth': 0.699, 'time': 8, 'pitch': 2.2, 'roll': 2.89, 'pres': 173}
{'lipoC2': 7.27, 'lipoC3S1': 3.8, 'temp': 30.31, 'lipoC3S3': 11.39, 'lipoC3S2': 7.6, 'rot1': 16, 'rot0': 11, 'rot3': 33, 'rot2': 23, 'state': 'normal', 'yaw': -15.94, 'datetime': '2018-10-09 23:47:59.744694', 'mgs': 0, 'volt': 0.8447, 'depth': 0.699, 'time': 9, 'pitch': 1.26, 'roll': 2.87, 'pres': 173}
{'lipoC2': 7.28, 'lipoC3S1': 3.8, 'temp': 30.31, 'lipoC3S3': 11.47, 'lipoC3S2': 7.61, 'rot1': 17, 'rot0': 12, 'rot3': 33, 'rot2': 23, 'state': 'normal', 'yaw': -14.09, 'datetime': '2018-10-09 23:47:59.847840', 'mgs': 0, 'volt': 0.8936, 'depth': 1.462, 'time': 9, 'pitch': 1.37, 'roll': 2.6, 'pres': 183}
{'lipoC2': 7.28, 'lipoC3S1': 3.75, 'temp': 30.31, 'lipoC3S3': 11.48, 'lipoC3S2': 7.61, 'rot1': 18, 'rot0': 13, 'rot3': 33, 'rot2': 23, 'state': 'normal', 'yaw': -11.78, 'datetime': '2018-10-09 23:47:59.951367', 'mgs': 0, 'volt': 0.8496, 'depth': 0.775, 'time': 9, 'pitch': 2.31, 'roll': 2.35, 'pres': 174}
{'lipoC2': 7.28, 'lipoC3S1': 3.8, 'temp': 30.31, 'lipoC3S3': 11.46, 'lipoC3S2': 7.55, 'rot1': 19, 'rot0': 14, 'rot3': 33, 'rot2': 23, 'state': 'normal', 'yaw': -9.67, 'datetime': '2018-10-09 23:48:00.054870', 'mgs': 0, 'volt': 0.8447, 'depth': 0.699, 'time': 9, 'pitch': 3.41, 'roll': 2.3, 'pres': 173}
{'lipoC2': 7.28, 'lipoC3S1': 3.79, 'temp': 30.25, 'lipoC3S3': 11.47, 'lipoC3S2': 7.61, 'rot1': 20, 'rot0': 14, 'rot3': 33, 'rot2': 23, 'state': 'normal', 'yaw': -7.74, 'datetime': '2018-10-09 23:48:00.159727', 'mgs': 0, 'volt': 0.8838, 'depth': 1.309, 'time': 9, 'pitch': 4.11, 'roll': 2.33, 'pres': 181}
{'lipoC2': 7.28, 'lipoC3S1': 3.82, 'temp': 30.25, 'lipoC3S3': 11.47, 'lipoC3S2': 7.55, 'rot1': 21, 'rot0': 15, 'rot3': 33, 'rot2': 23, 'state': 'normal', 'yaw': -5.89, 'datetime': '2018-10-09 23:48:00.263253', 'mgs': 0, 'volt': 0.8496, 'depth': 0.775, 'time': 9, 'pitch': 4.09, 'roll': 2.31, 'pres': 174}
{'lipoC2': 7.27, 'lipoC3S1': 3.8, 'temp': 30.31, 'lipoC3S3': 11.36, 'lipoC3S2': 7.6, 'rot1': 22, 'rot0': 16, 'rot3': 33, 'rot2': 23, 'state': 'normal', 'yaw': -4.49, 'datetime': '2018-10-09 23:48:00.367614', 'mgs': 0, 'volt': 0.8496, 'depth': 0.775, 'time': 9, 'pitch': 3.46, 'roll': 2.13, 'pres': 174}
{'lipoC2': 7.28, 'lipoC3S1': 3.75, 'temp': 30.31, 'lipoC3S3': 11.47, 'lipoC3S2': 7.6, 'rot1': 23, 'rot0': 17, 'rot3': 33, 'rot2': 23, 'state': 'normal', 'yaw': -3.25, 'datetime': '2018-10-09 23:48:00.472293', 'mgs': 0, 'volt': 0.8545, 'depth': 0.851, 'time': 9, 'pitch': 2.59, 'roll': 1.71, 'pres': 175}
{'lipoC2': 7.28, 'lipoC3S1': 3.79, 'temp': 30.31, 'lipoC3S3': 11.44, 'lipoC3S2': 7.49, 'rot1': 24, 'rot0': 18, 'rot3': 33, 'rot2': 23, 'state': 'normal', 'yaw': -1.89, 'datetime': '2018-10-09 23:48:00.575848', 'mgs': 0, 'volt': 0.8594, 'depth': 0.928, 'time': 9, 'pitch': 2.1, 'roll': 1.04, 'pres': 176}
{'lipoC2': 7.27, 'lipoC3S1': 3.8, 'temp': 30.31, 'lipoC3S3': 11.48, 'lipoC3S2': 7.6, 'rot1': 25, 'rot0': 19, 'rot3': 33, 'rot2': 23, 'state': 'normal', 'yaw': -0.68, 'datetime': '2018-10-09 23:48:00.679565', 'mgs': 0, 'volt': 0.8545, 'depth': 0.851, 'time': 10, 'pitch': 2.57, 'roll': 0.43, 'pres': 175}
{'lipoC2': 7.28, 'lipoC3S1': 3.79, 'temp': 30.31, 'lipoC3S3': 11.47, 'lipoC3S2': 7.52, 'rot1': 26, 'rot0': 21, 'rot3': 33, 'rot2': 23, 'state': 'normal', 'yaw': 0.57, 'datetime': '2018-10-09 23:48:00.783520', 'mgs': 0, 'volt': 0.8545, 'depth': 0.851, 'time': 10, 'pitch': 3.91, 'roll': -0.02, 'pres': 175}
{'lipoC2': 7.27, 'lipoC3S1': 3.8, 'temp': 30.38, 'lipoC3S3': 11.46, 'lipoC3S2': 7.6, 'rot1': 27, 'rot0': 22, 'rot3': 33, 'rot2': 23, 'state': 'normal', 'yaw': 1.59, 'datetime': '2018-10-09 23:48:00.887244', 'mgs': 0, 'volt': 0.8594, 'depth': 0.928, 'time': 10, 'pitch': 5.27, 'roll': -0.19, 'pres': 176}
{'lipoC2': 7.28, 'lipoC3S1': 3.71, 'temp': 30.38, 'lipoC3S3': 11.47, 'lipoC3S2': 7.58, 'rot1': 29, 'rot0': 23, 'rot3': 33, 'rot2': 23, 'state': 'normal', 'yaw': 2.46, 'datetime': '2018-10-09 23:48:00.990942', 'mgs': 0, 'volt': 0.8594, 'depth': 0.928, 'time': 10, 'pitch': 6.19, 'roll': -0.19, 'pres': 176}
{'lipoC2': 7.27, 'lipoC3S1': 3.8, 'temp': 30.31, 'lipoC3S3': 11.31, 'lipoC3S2': 7.6, 'rot1': 30, 'rot0': 24, 'rot3': 33, 'rot2': 23, 'state': 'normal', 'yaw': 3.13, 'datetime': '2018-10-09 23:48:01.094629', 'mgs': 0, 'volt': 0.8545, 'depth': 0.851, 'time': 10, 'pitch': 6.33, 'roll': -0.22, 'pres': 175}
{'lipoC2': 7.28, 'lipoC3S1': 3.77, 'temp': 30.31, 'lipoC3S3': 11.47, 'lipoC3S2': 7.6, 'rot1': 31, 'rot0': 25, 'rot3': 33, 'rot2': 23, 'state': 'normal', 'yaw': 3.65, 'datetime': '2018-10-09 23:48:01.198334', 'mgs': 0, 'volt': 0.8594, 'depth': 0.928, 'time': 10, 'pitch': 5.48, 'roll': -0.45, 'pres': 176}
{'lipoC2': 7.28, 'lipoC3S1': 3.8, 'temp': 30.31, 'lipoC3S3': 11.36, 'lipoC3S2': 7.58, 'rot1': 32, 'rot0': 26, 'rot3': 33, 'rot2': 23, 'state': 'normal', 'yaw': 3.96, 'datetime': '2018-10-09 23:48:01.302077', 'mgs': 0, 'volt': 0.8594, 'depth': 0.928, 'time': 10, 'pitch': 4.0, 'roll': -0.76, 'pres': 176}
{'lipoC2': 7.28, 'lipoC3S1': 3.8, 'temp': 30.31, 'lipoC3S3': 11.47, 'lipoC3S2': 7.6, 'rot1': 33, 'rot0': 27, 'rot3': 33, 'rot2': 23, 'state': 'normal', 'yaw': 4.22, 'datetime': '2018-10-09 23:48:01.405944', 'mgs': 0, 'volt': 0.9326, 'depth': 2.072, 'time': 10, 'pitch': 2.39, 'roll': -0.83, 'pres': 191}
{'lipoC2': 7.28, 'lipoC3S1': 3.8, 'temp': 30.31, 'lipoC3S3': 11.42, 'lipoC3S2': 7.55, 'rot1': 34, 'rot0': 29, 'rot3': 33, 'rot2': 23, 'state': 'normal', 'yaw': 4.47, 'datetime': '2018-10-09 23:48:01.509542', 'mgs': 0, 'volt': 0.8594, 'depth': 0.928, 'time': 10, 'pitch': 1.71, 'roll': -0.62, 'pres': 176}
{'lipoC2': 7.28, 'lipoC3S1': 3.81, 'temp': 30.31, 'lipoC3S3': 11.47, 'lipoC3S2': 7.55, 'rot1': 35, 'rot0': 30, 'rot3': 33, 'rot2': 23, 'state': 'normal', 'yaw': 4.83, 'datetime': '2018-10-09 23:48:01.614552', 'mgs': 0, 'volt': 0.8643, 'depth': 1.004, 'time': 10, 'pitch': 2.04, 'roll': -0.36, 'pres': 177}
{'lipoC2': 7.27, 'lipoC3S1': 3.8, 'temp': 30.31, 'lipoC3S3': 11.44, 'lipoC3S2': 7.6, 'rot1': 36, 'rot0': 31, 'rot3': 33, 'rot2': 23, 'state': 'normal', 'yaw': 5.37, 'datetime': '2018-10-09 23:48:01.718226', 'mgs': 0, 'volt': 0.8643, 'depth': 1.004, 'time': 11, 'pitch': 3.38, 'roll': -0.2, 'pres': 177}
{'lipoC2': 7.28, 'lipoC3S1': 3.8, 'temp': 30.25, 'lipoC3S3': 11.38, 'lipoC3S2': 7.59, 'rot1': 37, 'rot0': 32, 'rot3': 33, 'rot2': 23, 'state': 'normal', 'yaw': 5.97, 'datetime': '2018-10-09 23:48:01.823237', 'mgs': 0, 'volt': 0.8594, 'depth': 0.928, 'time': 11, 'pitch': 4.92, 'roll': -0.25, 'pres': 176}
{'lipoC2': 7.28, 'lipoC3S1': 3.8, 'temp': 30.25, 'lipoC3S3': 11.47, 'lipoC3S2': 7.6, 'rot1': 38, 'rot0': 33, 'rot3': 33, 'rot2': 23, 'state': 'normal', 'yaw': 6.57, 'datetime': '2018-10-09 23:48:01.926938', 'mgs': 0, 'volt': 0.9229, 'depth': 1.92, 'time': 11, 'pitch': 6.05, 'roll': -0.28, 'pres': 189}
{'lipoC2': 7.28, 'lipoC3S1': 3.75, 'temp': 30.31, 'lipoC3S3': 11.4, 'lipoC3S2': 7.49, 'rot1': 39, 'rot0': 34, 'rot3': 33, 'rot2': 23, 'state': 'normal', 'yaw': 6.91, 'datetime': '2018-10-09 23:48:02.030651', 'mgs': 0, 'volt': 0.8594, 'depth': 0.928, 'time': 11, 'pitch': 6.18, 'roll': -0.16, 'pres': 176}
{'lipoC2': 7.28, 'lipoC3S1': 3.8, 'temp': 30.31, 'lipoC3S3': 11.44, 'lipoC3S2': 7.59, 'rot1': 40, 'rot0': 35, 'rot3': 34, 'rot2': 23, 'state': 'normal', 'yaw': 7.0, 'datetime': '2018-10-09 23:48:02.134456', 'mgs': 0, 'volt': 0.9033, 'depth': 1.614, 'time': 11, 'pitch': 5.57, 'roll': 0.31, 'pres': 185}
{'lipoC2': 7.28, 'lipoC3S1': 3.77, 'temp': 30.31, 'lipoC3S3': 11.46, 'lipoC3S2': 7.52, 'rot1': 41, 'rot0': 36, 'rot3': 35, 'rot2': 24, 'state': 'normal', 'yaw': 6.91, 'datetime': '2018-10-09 23:48:02.238034', 'mgs': 0, 'volt': 0.8594, 'depth': 0.928, 'time': 11, 'pitch': 4.39, 'roll': 1.25, 'pres': 176}
{'lipoC2': 7.27, 'lipoC3S1': 3.8, 'temp': 30.38, 'lipoC3S3': 11.46, 'lipoC3S2': 7.6, 'rot1': 42, 'rot0': 38, 'rot3': 35, 'rot2': 24, 'state': 'normal', 'yaw': 6.72, 'datetime': '2018-10-09 23:48:02.341825', 'mgs': 0, 'volt': 0.8594, 'depth': 0.928, 'time': 11, 'pitch': 3.28, 'roll': 2.18, 'pres': 176}
{'lipoC2': 7.28, 'lipoC3S1': 3.74, 'temp': 30.38, 'lipoC3S3': 11.47, 'lipoC3S2': 7.6, 'rot1': 43, 'rot0': 39, 'rot3': 35, 'rot2': 24, 'state': 'normal', 'yaw': 6.55, 'datetime': '2018-10-09 23:48:02.445486', 'mgs': 0, 'volt': 0.8594, 'depth': 0.928, 'time': 11, 'pitch': 2.43, 'roll': 2.82, 'pres': 176}
{'lipoC2': 7.27, 'lipoC3S1': 3.8, 'temp': 30.31, 'lipoC3S3': 11.38, 'lipoC3S2': 7.6, 'rot1': 44, 'rot0': 40, 'rot3': 35, 'rot2': 24, 'state': 'normal', 'yaw': 6.41, 'datetime': '2018-10-09 23:48:02.549188', 'mgs': 0, 'volt': 0.8594, 'depth': 0.928, 'time': 11, 'pitch': 2.01, 'roll': 3.08, 'pres': 176}
{'lipoC2': 7.28, 'lipoC3S1': 3.76, 'temp': 30.31, 'lipoC3S3': 11.47, 'lipoC3S2': 7.6, 'rot1': 45, 'rot0': 41, 'rot3': 35, 'rot2': 24, 'state': 'normal', 'yaw': 6.36, 'datetime': '2018-10-09 23:48:02.652925', 'mgs': 0, 'volt': 0.8594, 'depth': 0.928, 'time': 11, 'pitch': 2.09, 'roll': 2.89, 'pres': 176}
{'lipoC2': 7.28, 'lipoC3S1': 3.79, 'temp': 30.31, 'lipoC3S3': 11.47, 'lipoC3S2': 7.53, 'rot1': 46, 'rot0': 42, 'rot3': 35, 'rot2': 24, 'state': 'normal', 'yaw': 6.35, 'datetime': '2018-10-09 23:48:02.757339', 'mgs': 0, 'volt': 0.8594, 'depth': 0.928, 'time': 12, 'pitch': 2.48, 'roll': 2.42, 'pres': 176}
{'lipoC2': 7.26, 'lipoC3S1': 3.8, 'temp': 30.31, 'lipoC3S3': 11.46, 'lipoC3S2': 7.6, 'rot1': 47, 'rot0': 43, 'rot3': 35, 'rot2': 24, 'state': 'normal', 'yaw': 6.34, 'datetime': '2018-10-09 23:48:02.861010', 'mgs': 0, 'volt': 0.8594, 'depth': 0.928, 'time': 12, 'pitch': 3.14, 'roll': 1.78, 'pres': 176}
{'lipoC2': 7.28, 'lipoC3S1': 3.8, 'temp': 30.31, 'lipoC3S3': 11.34, 'lipoC3S2': 7.59, 'rot1': 48, 'rot0': 44, 'rot3': 35, 'rot2': 24, 'state': 'normal', 'yaw': 6.26, 'datetime': '2018-10-09 23:48:02.966062', 'mgs': 0, 'volt': 0.8594, 'depth': 0.928, 'time': 12, 'pitch': 3.83, 'roll': 1.29, 'pres': 176}
{'lipoC2': 7.28, 'lipoC3S1': 3.77, 'temp': 30.38, 'lipoC3S3': 11.47, 'lipoC3S2': 7.6, 'rot1': 49, 'rot0': 45, 'rot3': 35, 'rot2': 24, 'state': 'normal', 'yaw': 6.03, 'datetime': '2018-10-09 23:48:03.069799', 'mgs': 0, 'volt': 0.8398, 'depth': 0.623, 'time': 12, 'pitch': 4.38, 'roll': 0.92, 'pres': 172}
{'lipoC2': 7.28, 'lipoC3S1': 3.8, 'temp': 30.38, 'lipoC3S3': 11.38, 'lipoC3S2': 7.59, 'rot1': 50, 'rot0': 47, 'rot3': 35, 'rot2': 24, 'state': 'normal', 'yaw': 5.69, 'datetime': '2018-10-09 23:48:03.173579', 'mgs': 0, 'volt': 0.8594, 'depth': 0.928, 'time': 12, 'pitch': 4.47, 'roll': 0.68, 'pres': 176}
{'lipoC2': 7.28, 'lipoC3S1': 3.79, 'temp': 30.31, 'lipoC3S3': 11.4, 'lipoC3S2': 7.53, 'rot1': 51, 'rot0': 48, 'rot3': 35, 'rot2': 24, 'state': 'normal', 'yaw': 5.29, 'datetime': '2018-10-09 23:48:03.278646', 'mgs': 0, 'volt': 0.8594, 'depth': 0.928, 'time': 12, 'pitch': 4.22, 'roll': 0.52, 'pres': 176}
{'lipoC2': 7.28, 'lipoC3S1': 3.8, 'temp': 30.31, 'lipoC3S3': 11.46, 'lipoC3S2': 7.6, 'rot1': 52, 'rot0': 49, 'rot3': 35, 'rot2': 24, 'state': 'normal', 'yaw': 4.84, 'datetime': '2018-10-09 23:48:03.382346', 'mgs': 0, 'volt': 0.9033, 'depth': 1.614, 'time': 12, 'pitch': 3.85, 'roll': 0.48, 'pres': 185}
{'lipoC2': 7.28, 'lipoC3S1': 3.79, 'temp': 30.38, 'lipoC3S3': 11.47, 'lipoC3S2': 7.5, 'rot1': 53, 'rot0': 50, 'rot3': 35, 'rot2': 24, 'state': 'normal', 'yaw': 4.4, 'datetime': '2018-10-09 23:48:03.486107', 'mgs': 0, 'volt': 0.8594, 'depth': 0.928, 'time': 12, 'pitch': 3.67, 'roll': 0.57, 'pres': 176}
{'lipoC2': 7.28, 'lipoC3S1': 3.77, 'temp': 30.38, 'lipoC3S3': 11.47, 'lipoC3S2': 7.6, 'rot1': 54, 'rot0': 51, 'rot3': 35, 'rot2': 24, 'state': 'normal', 'yaw': 3.93, 'datetime': '2018-10-09 23:48:03.590049', 'mgs': 0, 'volt': 0.8496, 'depth': 0.775, 'time': 12, 'pitch': 3.52, 'roll': 0.77, 'pres': 174}
{'lipoC2': 7.28, 'lipoC3S1': 3.79, 'temp': 30.38, 'lipoC3S3': 11.38, 'lipoC3S2': 7.58, 'rot1': 55, 'rot0': 52, 'rot3': 35, 'rot2': 24, 'state': 'normal', 'yaw': 3.36, 'datetime': '2018-10-09 23:48:03.693827', 'mgs': 0, 'volt': 0.8545, 'depth': 0.851, 'time': 13, 'pitch': 3.46, 'roll': 1.03, 'pres': 175}
{'lipoC2': 7.28, 'lipoC3S1': 3.8, 'temp': 30.38, 'lipoC3S3': 11.46, 'lipoC3S2': 7.6, 'rot1': 56, 'rot0': 53, 'rot3': 35, 'rot2': 24, 'state': 'normal', 'yaw': 2.87, 'datetime': '2018-10-09 23:48:03.797463', 'mgs': 0, 'volt': 0.9229, 'depth': 1.92, 'time': 13, 'pitch': 3.64, 'roll': 1.24, 'pres': 189}
{'lipoC2': 7.28, 'lipoC3S1': 3.75, 'temp': 30.38, 'lipoC3S3': 11.42, 'lipoC3S2': 7.52, 'rot1': 57, 'rot0': 54, 'rot3': 35, 'rot2': 25, 'state': 'normal', 'yaw': 2.44, 'datetime': '2018-10-09 23:48:03.901234', 'mgs': 0, 'volt': 0.8594, 'depth': 0.928, 'time': 13, 'pitch': 4.05, 'roll': 1.5, 'pres': 176}
{'lipoC2': 7.28, 'lipoC3S1': 3.79, 'temp': 30.31, 'lipoC3S3': 11.44, 'lipoC3S2': 7.59, 'rot1': 58, 'rot0': 56, 'rot3': 36, 'rot2': 25, 'state': 'normal', 'yaw': 2.2, 'datetime': '2018-10-09 23:48:04.004945', 'mgs': 0, 'volt': 0.9082, 'depth': 1.691, 'time': 13, 'pitch': 4.37, 'roll': 1.74, 'pres': 186}
{'lipoC2': 7.27, 'lipoC3S1': 3.79, 'temp': 30.31, 'lipoC3S3': 11.23, 'lipoC3S2': 7.54, 'rot1': 59, 'rot0': 57, 'rot3': 36, 'rot2': 26, 'state': 'normal', 'yaw': 2.1, 'datetime': '2018-10-09 23:48:04.109885', 'mgs': 0, 'volt': 0.8594, 'depth': 0.928, 'time': 13, 'pitch': 4.43, 'roll': 1.79, 'pres': 176}
{'lipoC2': 7.28, 'lipoC3S1': 3.77, 'temp': 30.31, 'lipoC3S3': 11.46, 'lipoC3S2': 7.6, 'rot1': 60, 'rot0': 58, 'rot3': 37, 'rot2': 26, 'state': 'normal', 'yaw': 2.1, 'datetime': '2018-10-09 23:48:04.213626', 'mgs': 0, 'volt': 0.8398, 'depth': 0.623, 'time': 13, 'pitch': 4.17, 'roll': 1.55, 'pres': 172}
{'lipoC2': 7.28, 'lipoC3S1': 3.79, 'temp': 30.31, 'lipoC3S3': 11.43, 'lipoC3S2': 7.47, 'rot1': 61, 'rot0': 59, 'rot3': 37, 'rot2': 26, 'state': 'normal', 'yaw': 2.22, 'datetime': '2018-10-09 23:48:04.318176', 'mgs': 0, 'volt': 0.8643, 'depth': 1.004, 'time': 13, 'pitch': 3.79, 'roll': 1.15, 'pres': 177}
{'lipoC2': 7.28, 'lipoC3S1': 3.76, 'temp': 30.31, 'lipoC3S3': 11.47, 'lipoC3S2': 7.6, 'rot1': 62, 'rot0': 60, 'rot3': 37, 'rot2': 26, 'state': 'normal', 'yaw': 2.35, 'datetime': '2018-10-09 23:48:04.422069', 'mgs': 0, 'volt': 0.8691, 'depth': 1.08, 'time': 13, 'pitch': 3.65, 'roll': 0.83, 'pres': 178}
{'lipoC2': 7.28, 'lipoC3S1': 3.79, 'temp': 30.31, 'lipoC3S3': 11.36, 'lipoC3S2': 7.58, 'rot1': 63, 'rot0': 61, 'rot3': 37, 'rot2': 26, 'state': 'normal', 'yaw': 2.34, 'datetime': '2018-10-09 23:48:04.525783', 'mgs': 0, 'volt': 0.8643, 'depth': 1.004, 'time': 13, 'pitch': 4.01, 'roll': 0.81, 'pres': 177}
{'lipoC2': 7.28, 'lipoC3S1': 3.79, 'temp': 30.31, 'lipoC3S3': 11.47, 'lipoC3S2': 7.53, 'rot1': 64, 'rot0': 63, 'rot3': 37, 'rot2': 26, 'state': 'normal', 'yaw': 2.21, 'datetime': '2018-10-09 23:48:04.630744', 'mgs': 0, 'volt': 0.8643, 'depth': 1.004, 'time': 13, 'pitch': 4.77, 'roll': 1.19, 'pres': 177}
{'lipoC2': 7.27, 'lipoC3S1': 3.8, 'temp': 30.38, 'lipoC3S3': 11.44, 'lipoC3S2': 7.6, 'rot1': 65, 'rot0': 64, 'rot3': 37, 'rot2': 26, 'state': 'normal', 'yaw': 2.02, 'datetime': '2018-10-09 23:48:04.734510', 'mgs': 0, 'volt': 0.8594, 'depth': 0.928, 'time': 14, 'pitch': 5.63, 'roll': 1.82, 'pres': 176}
{'lipoC2': 7.28, 'lipoC3S1': 3.74, 'temp': 30.38, 'lipoC3S3': 11.47, 'lipoC3S2': 7.6, 'rot1': 66, 'rot0': 65, 'rot3': 37, 'rot2': 26, 'state': 'normal', 'yaw': 1.82, 'datetime': '2018-10-09 23:48:04.838172', 'mgs': 0, 'volt': 0.8643, 'depth': 1.004, 'time': 14, 'pitch': 6.1, 'roll': 2.18, 'pres': 177}
{'lipoC2': 7.28, 'lipoC3S1': 3.8, 'temp': 30.31, 'lipoC3S3': 11.34, 'lipoC3S2': 7.59, 'rot1': 68, 'rot0': 66, 'rot3': 37, 'rot2': 26, 'state': 'normal', 'yaw': 1.67, 'datetime': '2018-10-09 23:48:04.941841', 'mgs': 0, 'volt': 0.8643, 'depth': 1.004, 'time': 14, 'pitch': 6.15, 'roll': 2.2, 'pres': 177}
{'lipoC2': 7.28, 'lipoC3S1': 3.78, 'temp': 30.31, 'lipoC3S3': 11.46, 'lipoC3S2': 7.6, 'rot1': 69, 'rot0': 67, 'rot3': 37, 'rot2': 26, 'state': 'normal', 'yaw': 1.67, 'datetime': '2018-10-09 23:48:05.045510', 'mgs': 0, 'volt': 0.9326, 'depth': 2.072, 'time': 14, 'pitch': 5.81, 'roll': 1.8, 'pres': 191}
{'lipoC2': 7.28, 'lipoC3S1': 3.75, 'temp': 30.31, 'lipoC3S3': 11.38, 'lipoC3S2': 7.43, 'rot1': 70, 'rot0': 68, 'rot3': 37, 'rot2': 26, 'state': 'normal', 'yaw': 1.78, 'datetime': '2018-10-09 23:48:05.149218', 'mgs': 0, 'volt': 0.8643, 'depth': 1.004, 'time': 14, 'pitch': 5.29, 'roll': 1.26, 'pres': 177}
{'lipoC2': 7.28, 'lipoC3S1': 3.75, 'temp': 30.31, 'lipoC3S3': 11.44, 'lipoC3S2': 7.59, 'rot1': 71, 'rot0': 69, 'rot3': 38, 'rot2': 27, 'state': 'normal', 'yaw': 1.91, 'datetime': '2018-10-09 23:48:05.253084', 'mgs': 0, 'volt': 0.8887, 'depth': 1.385, 'time': 14, 'pitch': 4.8, 'roll': 1.02, 'pres': 182}
{'lipoC2': 7.28, 'lipoC3S1': 3.79, 'temp': 30.31, 'lipoC3S3': 11.34, 'lipoC3S2': 7.53, 'rot1': 72, 'rot0': 70, 'rot3': 38, 'rot2': 27, 'state': 'normal', 'yaw': 1.87, 'datetime': '2018-10-09 23:48:05.356776', 'mgs': 0, 'volt': 0.8643, 'depth': 1.004, 'time': 14, 'pitch': 4.49, 'roll': 1.29, 'pres': 177}
{'lipoC2': 7.28, 'lipoC3S1': 3.8, 'temp': 30.31, 'lipoC3S3': 11.46, 'lipoC3S2': 7.6, 'rot1': 73, 'rot0': 72, 'rot3': 39, 'rot2': 28, 'state': 'normal', 'yaw': 1.7, 'datetime': '2018-10-09 23:48:05.460471', 'mgs': 0, 'volt': 0.9131, 'depth': 1.767, 'time': 14, 'pitch': 4.39, 'roll': 1.99, 'pres': 187}
{'lipoC2': 7.27, 'lipoC3S1': 3.79, 'temp': 30.31, 'lipoC3S3': 11.48, 'lipoC3S2': 7.59, 'rot1': 74, 'rot0': 73, 'rot3': 39, 'rot2': 28, 'state': 'normal', 'yaw': 1.48, 'datetime': '2018-10-09 23:48:05.564465', 'mgs': 0, 'volt': 0.8643, 'depth': 1.004, 'time': 14, 'pitch': 4.43, 'roll': 3.04, 'pres': 177}
{'lipoC2': 7.28, 'lipoC3S1': 3.75, 'temp': 30.38, 'lipoC3S3': 11.46, 'lipoC3S2': 7.6, 'rot1': 75, 'rot0': 74, 'rot3': 39, 'rot2': 28, 'state': 'normal', 'yaw': 1.29, 'datetime': '2018-10-09 23:48:05.668137', 'mgs': 0, 'volt': 0.8691, 'depth': 1.08, 'time': 15, 'pitch': 4.52, 'roll': 3.82, 'pres': 178}
{'lipoC2': 7.28, 'lipoC3S1': 3.8, 'temp': 30.38, 'lipoC3S3': 11.46, 'lipoC3S2': 7.6, 'rot1': 76, 'rot0': 75, 'rot3': 39, 'rot2': 28, 'state': 'normal', 'yaw': 1.17, 'datetime': '2018-10-09 23:48:05.773133', 'mgs': 0, 'volt': 0.9131, 'depth': 1.767, 'time': 15, 'pitch': 4.54, 'roll': 4.28, 'pres': 187}
{'lipoC2': 7.28, 'lipoC3S1': 3.79, 'temp': 30.38, 'lipoC3S3': 11.47, 'lipoC3S2': 7.53, 'rot1': 77, 'rot0': 76, 'rot3': 39, 'rot2': 28, 'state': 'normal', 'yaw': 1.17, 'datetime': '2018-10-09 23:48:05.876803', 'mgs': 0, 'volt': 0.8643, 'depth': 1.004, 'time': 15, 'pitch': 4.67, 'roll': 4.29, 'pres': 177}
{'lipoC2': 7.28, 'lipoC3S1': 3.8, 'temp': 30.31, 'lipoC3S3': 11.46, 'lipoC3S2': 7.59, 'rot1': 78, 'rot0': 77, 'rot3': 39, 'rot2': 28, 'state': 'normal', 'yaw': 1.35, 'datetime': '2018-10-09 23:48:05.980656', 'mgs': 0, 'volt': 0.9082, 'depth': 1.691, 'time': 15, 'pitch': 4.81, 'roll': 3.85, 'pres': 186}
{'lipoC2': 7.28, 'lipoC3S1': 3.75, 'temp': 30.31, 'lipoC3S3': 11.42, 'lipoC3S2': 7.42, 'rot1': 79, 'rot0': 78, 'rot3': 39, 'rot2': 28, 'state': 'normal', 'yaw': 1.64, 'datetime': '2018-10-09 23:48:06.085362', 'mgs': 0, 'volt': 0.8691, 'depth': 1.08, 'time': 15, 'pitch': 4.8, 'roll': 3.09, 'pres': 178}
{'lipoC2': 7.26, 'lipoC3S1': 3.79, 'temp': 30.25, 'lipoC3S3': 11.4, 'lipoC3S2': 7.59, 'rot1': 80, 'rot0': 79, 'rot3': 39, 'rot2': 28, 'state': 'normal', 'yaw': 1.99, 'datetime': '2018-10-09 23:48:06.189071', 'mgs': 0, 'volt': 0.8984, 'depth': 1.538, 'time': 15, 'pitch': 4.62, 'roll': 2.41, 'pres': 184}
{'lipoC2': 7.28, 'lipoC3S1': 3.7, 'temp': 30.25, 'lipoC3S3': 11.46, 'lipoC3S2': 7.56, 'rot1': 82, 'rot0': 81, 'rot3': 40, 'rot2': 29, 'state': 'normal', 'yaw': 2.13, 'datetime': '2018-10-09 23:48:06.292721', 'mgs': 0, 'volt': 0.8691, 'depth': 1.08, 'time': 15, 'pitch': 4.55, 'roll': 2.16, 'pres': 178}
{'lipoC2': 7.27, 'lipoC3S1': 3.79, 'temp': 30.38, 'lipoC3S3': 11.46, 'lipoC3S2': 7.59, 'rot1': 83, 'rot0': 82, 'rot3': 40, 'rot2': 29, 'state': 'normal', 'yaw': 2.05, 'datetime': '2018-10-09 23:48:06.396479', 'mgs': 0, 'volt': 0.8691, 'depth': 1.08, 'time': 15, 'pitch': 4.67, 'roll': 2.34, 'pres': 178}
{'lipoC2': 7.28, 'lipoC3S1': 3.75, 'temp': 30.38, 'lipoC3S3': 11.46, 'lipoC3S2': 7.6, 'rot1': 84, 'rot0': 83, 'rot3': 40, 'rot2': 29, 'state': 'normal', 'yaw': 1.82, 'datetime': '2018-10-09 23:48:06.500160', 'mgs': 0, 'volt': 0.874, 'depth': 1.157, 'time': 15, 'pitch': 4.84, 'roll': 2.65, 'pres': 179}
{'lipoC2': 7.28, 'lipoC3S1': 3.79, 'temp': 30.38, 'lipoC3S3': 11.36, 'lipoC3S2': 7.58, 'rot1': 85, 'rot0': 84, 'rot3': 40, 'rot2': 29, 'state': 'normal', 'yaw': 1.53, 'datetime': '2018-10-09 23:48:06.603886', 'mgs': 0, 'volt': 0.8643, 'depth': 1.004, 'time': 15, 'pitch': 4.86, 'roll': 2.87, 'pres': 177}
{'lipoC2': 7.28, 'lipoC3S1': 3.8, 'temp': 30.31, 'lipoC3S3': 11.46, 'lipoC3S2': 7.59, 'rot1': 86, 'rot0': 85, 'rot3': 40, 'rot2': 29, 'state': 'normal', 'yaw': 1.24, 'datetime': '2018-10-09 23:48:06.707560', 'mgs': 0, 'volt': 0.9326, 'depth': 2.072, 'time': 16, 'pitch': 4.77, 'roll': 2.95, 'pres': 191}
{'lipoC2': 7.28, 'lipoC3S1': 3.79, 'temp': 30.31, 'lipoC3S3': 11.44, 'lipoC3S2': 7.48, 'rot1': 87, 'rot0': 86, 'rot3': 40, 'rot2': 29, 'state': 'normal', 'yaw': 1.07, 'datetime': '2018-10-09 23:48:06.811260', 'mgs': 0, 'volt': 0.8643, 'depth': 1.004, 'time': 16, 'pitch': 4.79, 'roll': 2.87, 'pres': 177}
{'lipoC2': 7.27, 'lipoC3S1': 3.8, 'temp': 30.31, 'lipoC3S3': 11.44, 'lipoC3S2': 7.59, 'rot1': 88, 'rot0': 87, 'rot3': 40, 'rot2': 29, 'state': 'normal', 'yaw': 1.04, 'datetime': '2018-10-09 23:48:06.914998', 'mgs': 0, 'volt': 0.8838, 'depth': 1.309, 'time': 16, 'pitch': 5.05, 'roll': 2.67, 'pres': 181}
{'lipoC2': 7.28, 'lipoC3S1': 3.73, 'temp': 30.31, 'lipoC3S3': 11.46, 'lipoC3S2': 7.58, 'rot1': 89, 'rot0': 88, 'rot3': 40, 'rot2': 29, 'state': 'normal', 'yaw': 1.05, 'datetime': '2018-10-09 23:48:07.018655', 'mgs': 0, 'volt': 0.8643, 'depth': 1.004, 'time': 16, 'pitch': 5.6, 'roll': 2.42, 'pres': 177}
{'lipoC2': 7.27, 'lipoC3S1': 3.79, 'temp': 30.38, 'lipoC3S3': 11.29, 'lipoC3S2': 7.59, 'rot1': 90, 'rot0': 89, 'rot3': 40, 'rot2': 29, 'state': 'normal', 'yaw': 1.11, 'datetime': '2018-10-09 23:48:07.122338', 'mgs': 0, 'volt': 0.8643, 'depth': 1.004, 'time': 16, 'pitch': 6.22, 'roll': 2.26, 'pres': 177}
{'lipoC2': 7.28, 'lipoC3S1': 3.79, 'temp': 30.38, 'lipoC3S3': 11.47, 'lipoC3S2': 7.49, 'rot1': 91, 'rot0': 91, 'rot3': 40, 'rot2': 29, 'state': 'normal', 'yaw': 1.09, 'datetime': '2018-10-09 23:48:07.231147', 'mgs': 0, 'volt': 0.8643, 'depth': 1.004, 'time': 16, 'pitch': 6.68, 'roll': 2.14, 'pres': 177}
{'lipoC2': 7.27, 'lipoC3S1': 3.79, 'temp': 30.38, 'lipoC3S3': 11.44, 'lipoC3S2': 7.59, 'rot1': 92, 'rot0': 92, 'rot3': 40, 'rot2': 29, 'state': 'normal', 'yaw': 0.86, 'datetime': '2018-10-09 23:48:07.337369', 'mgs': 0, 'volt': 0.8936, 'depth': 1.462, 'time': 16, 'pitch': 6.65, 'roll': 1.99, 'pres': 183}
{'lipoC2': 7.28, 'lipoC3S1': 3.79, 'temp': 30.31, 'lipoC3S3': 11.38, 'lipoC3S2': 7.58, 'rot1': 93, 'rot0': 93, 'rot3': 40, 'rot2': 29, 'state': 'normal', 'yaw': 0.56, 'datetime': '2018-10-09 23:48:07.442225', 'mgs': 0, 'volt': 0.8691, 'depth': 1.08, 'time': 16, 'pitch': 5.99, 'roll': 1.84, 'pres': 178}
{'lipoC2': 7.28, 'lipoC3S1': 3.8, 'temp': 30.31, 'lipoC3S3': 11.46, 'lipoC3S2': 7.6, 'rot1': 94, 'rot0': 94, 'rot3': 40, 'rot2': 29, 'state': 'normal', 'yaw': 0.22, 'datetime': '2018-10-09 23:48:07.545961', 'mgs': 0, 'volt': 0.9131, 'depth': 1.767, 'time': 16, 'pitch': 4.81, 'roll': 1.76, 'pres': 187}
{'lipoC2': 7.28, 'lipoC3S1': 3.75, 'temp': 30.31, 'lipoC3S3': 11.46, 'lipoC3S2': 7.48, 'rot1': 95, 'rot0': 95, 'rot3': 40, 'rot2': 29, 'state': 'normal', 'yaw': -0.05, 'datetime': '2018-10-09 23:48:07.649529', 'mgs': 0, 'volt': 0.8691, 'depth': 1.08, 'time': 16, 'pitch': 3.8, 'roll': 1.81, 'pres': 178}
{'lipoC2': 7.26, 'lipoC3S1': 3.79, 'temp': 30.31, 'lipoC3S3': 11.38, 'lipoC3S2': 7.58, 'rot1': 96, 'rot0': 96, 'rot3': 41, 'rot2': 30, 'state': 'normal', 'yaw': -0.28, 'datetime': '2018-10-09 23:48:07.753154', 'mgs': 0, 'volt': 0.8594, 'depth': 0.928, 'time': 17, 'pitch': 3.31, 'roll': 2.0, 'pres': 176}
{'lipoC2': 7.28, 'lipoC3S1': 3.71, 'temp': 30.31, 'lipoC3S3': 11.44, 'lipoC3S2': 7.59, 'rot1': 97, 'rot0': 97, 'rot3': 42, 'rot2': 30, 'state': 'normal', 'yaw': -0.48, 'datetime': '2018-10-09 23:48:07.857013', 'mgs': 0, 'volt': 0.8936, 'depth': 1.462, 'time': 17, 'pitch': 3.54, 'roll': 2.35, 'pres': 183}
{'lipoC2': 7.28, 'lipoC3S1': 3.79, 'temp': 30.31, 'lipoC3S3': 11.27, 'lipoC3S2': 7.53, 'rot1': 98, 'rot0': 98, 'rot3': 42, 'rot2': 31, 'state': 'normal', 'yaw': -0.53, 'datetime': '2018-10-09 23:48:07.960548', 'mgs': 0, 'volt': 0.8643, 'depth': 1.004, 'time': 17, 'pitch': 4.38, 'roll': 2.61, 'pres': 177}
{'lipoC2': 7.28, 'lipoC3S1': 3.76, 'temp': 30.31, 'lipoC3S3': 11.44, 'lipoC3S2': 7.59, 'rot1': 99, 'rot0': 99, 'rot3': 43, 'rot2': 31, 'state': 'normal', 'yaw': -0.49, 'datetime': '2018-10-09 23:48:08.064409', 'mgs': 0, 'volt': 0.8545, 'depth': 0.851, 'time': 17, 'pitch': 5.46, 'roll': 2.66, 'pres': 175}
{'lipoC2': 7.28, 'lipoC3S1': 3.79, 'temp': 30.25, 'lipoC3S3': 11.39, 'lipoC3S2': 7.43, 'rot1': 101, 'rot0': 101, 'rot3': 43, 'rot2': 32, 'state': 'normal', 'yaw': -0.49, 'datetime': '2018-10-09 23:48:08.168285', 'mgs': 0, 'volt': 0.8643, 'depth': 1.004, 'time': 17, 'pitch': 6.48, 'roll': 2.49, 'pres': 177}
{'lipoC2': 7.28, 'lipoC3S1': 3.75, 'temp': 30.25, 'lipoC3S3': 11.46, 'lipoC3S2': 7.6, 'rot1': 102, 'rot0': 102, 'rot3': 44, 'rot2': 32, 'state': 'normal', 'yaw': -0.6, 'datetime': '2018-10-09 23:48:08.272048', 'mgs': 0, 'volt': 0.8691, 'depth': 1.08, 'time': 17, 'pitch': 7.1, 'roll': 2.14, 'pres': 178}
{'lipoC2': 7.28, 'lipoC3S1': 3.79, 'temp': 30.38, 'lipoC3S3': 11.31, 'lipoC3S2': 7.59, 'rot1': 103, 'rot0': 103, 'rot3': 44, 'rot2': 32, 'state': 'normal', 'yaw': -0.85, 'datetime': '2018-10-09 23:48:08.376971', 'mgs': 0, 'volt': 0.8643, 'depth': 1.004, 'time': 17, 'pitch': 7.3, 'roll': 1.66, 'pres': 177}
{'lipoC2': 7.28, 'lipoC3S1': 3.72, 'temp': 30.38, 'lipoC3S3': 11.46, 'lipoC3S2': 7.56, 'rot1': 104, 'rot0': 104, 'rot3': 44, 'rot2': 32, 'state': 'normal', 'yaw': -1.3, 'datetime': '2018-10-09 23:48:08.480764', 'mgs': 0, 'volt': 0.8643, 'depth': 1.004, 'time': 17, 'pitch': 7.16, 'roll': 1.19, 'pres': 177}
{'lipoC2': 7.28, 'lipoC3S1': 3.71, 'temp': 30.31, 'lipoC3S3': 11.46, 'lipoC3S2': 7.56, 'rot1': 106, 'rot0': 105, 'rot3': 44, 'rot2': 32, 'state': 'normal', 'yaw': -1.8, 'datetime': '2018-10-09 23:48:08.585910', 'mgs': 0, 'volt': 0.8594, 'depth': 0.928, 'time': 17, 'pitch': 7.04, 'roll': 0.91, 'pres': 176}
{'lipoC2': 7.28, 'lipoC3S1': 3.8, 'temp': 30.31, 'lipoC3S3': 11.46, 'lipoC3S2': 7.59, 'rot1': 107, 'rot0': 106, 'rot3': 44, 'rot2': 32, 'state': 'normal', 'yaw': -2.32, 'datetime': '2018-10-09 23:48:08.689860', 'mgs': 0, 'volt': 0.9033, 'depth': 1.614, 'time': 18, 'pitch': 7.05, 'roll': 0.85, 'pres': 185}
{'lipoC2': 7.28, 'lipoC3S1': 3.71, 'temp': 30.31, 'lipoC3S3': 11.46, 'lipoC3S2': 7.56, 'rot1': 108, 'rot0': 108, 'rot3': 44, 'rot2': 32, 'state': 'normal', 'yaw': -2.7, 'datetime': '2018-10-09 23:48:08.794423', 'mgs': 0, 'volt': 0.8594, 'depth': 0.928, 'time': 18, 'pitch': 7.03, 'roll': 0.94, 'pres': 176}
{'lipoC2': 7.28, 'lipoC3S1': 3.79, 'temp': 30.31, 'lipoC3S3': 11.4, 'lipoC3S2': 7.47, 'rot1': 109, 'rot0': 109, 'rot3': 44, 'rot2': 32, 'state': 'normal', 'yaw': -3.02, 'datetime': '2018-10-09 23:48:08.898849', 'mgs': 0, 'volt': 0.8594, 'depth': 0.928, 'time': 18, 'pitch': 6.79, 'roll': 1.06, 'pres': 176}
{'lipoC2': 7.28, 'lipoC3S1': 3.76, 'temp': 30.31, 'lipoC3S3': 11.46, 'lipoC3S2': 7.6, 'rot1': 110, 'rot0': 110, 'rot3': 44, 'rot2': 32, 'state': 'normal', 'yaw': -3.36, 'datetime': '2018-10-09 23:48:09.002760', 'mgs': 0, 'volt': 0.8643, 'depth': 1.004, 'time': 18, 'pitch': 6.42, 'roll': 1.29, 'pres': 177}
{'lipoC2': 7.27, 'lipoC3S1': 3.79, 'temp': 30.31, 'lipoC3S3': 11.44, 'lipoC3S2': 7.59, 'rot1': 111, 'rot0': 111, 'rot3': 44, 'rot2': 32, 'state': 'normal', 'yaw': -3.67, 'datetime': '2018-10-09 23:48:09.106694', 'mgs': 0, 'volt': 0.8594, 'depth': 0.928, 'time': 18, 'pitch': 6.15, 'roll': 1.63, 'pres': 176}
{'lipoC2': 7.28, 'lipoC3S1': 3.79, 'temp': 30.31, 'lipoC3S3': 11.44, 'lipoC3S2': 7.49, 'rot1': 112, 'rot0': 112, 'rot3': 44, 'rot2': 32, 'state': 'normal', 'yaw': -4.0, 'datetime': '2018-10-09 23:48:09.210577', 'mgs': 0, 'volt': 0.8594, 'depth': 0.928, 'time': 18, 'pitch': 6.01, 'roll': 2.14, 'pres': 176}
{'lipoC2': 7.28, 'lipoC3S1': 3.77, 'temp': 30.31, 'lipoC3S3': 11.46, 'lipoC3S2': 7.6, 'rot1': 113, 'rot0': 113, 'rot3': 44, 'rot2': 32, 'state': 'normal', 'yaw': -4.28, 'datetime': '2018-10-09 23:48:09.314492', 'mgs': 0, 'volt': 0.835, 'depth': 0.546, 'time': 18, 'pitch': 5.81, 'roll': 2.61, 'pres': 171}
{'lipoC2': 7.27, 'lipoC3S1': 3.79, 'temp': 30.31, 'lipoC3S3': 11.43, 'lipoC3S2': 7.59, 'rot1': 114, 'rot0': 114, 'rot3': 44, 'rot2': 32, 'state': 'normal', 'yaw': -4.52, 'datetime': '2018-10-09 23:48:09.418448', 'mgs': 0, 'volt': 0.8594, 'depth': 0.928, 'time': 18, 'pitch': 5.42, 'roll': 3.06, 'pres': 176}
{'lipoC2': 7.28, 'lipoC3S1': 3.79, 'temp': 30.31, 'lipoC3S3': 11.46, 'lipoC3S2': 7.51, 'rot1': 115, 'rot0': 115, 'rot3': 44, 'rot2': 32, 'state': 'normal', 'yaw': -4.78, 'datetime': '2018-10-09 23:48:09.522187', 'mgs': 0, 'volt': 0.8594, 'depth': 0.928, 'time': 18, 'pitch': 4.91, 'roll': 3.5, 'pres': 176}
{'lipoC2': 7.28, 'lipoC3S1': 3.8, 'temp': 30.31, 'lipoC3S3': 11.46, 'lipoC3S2': 7.59, 'rot1': 116, 'rot0': 116, 'rot3': 44, 'rot2': 32, 'state': 'normal', 'yaw': -4.97, 'datetime': '2018-10-09 23:48:09.626186', 'mgs': 0, 'volt': 0.9229, 'depth': 1.92, 'time': 18, 'pitch': 4.38, 'roll': 3.76, 'pres': 189}
{'lipoC2': 7.28, 'lipoC3S1': 3.76, 'temp': 30.31, 'lipoC3S3': 11.46, 'lipoC3S2': 7.56, 'rot1': 117, 'rot0': 117, 'rot3': 44, 'rot2': 32, 'state': 'normal', 'yaw': -4.98, 'datetime': '2018-10-09 23:48:09.730911', 'mgs': 0, 'volt': 0.8643, 'depth': 1.004, 'time': 19, 'pitch': 3.96, 'roll': 3.76, 'pres': 177}
{'lipoC2': 7.28, 'lipoC3S1': 3.8, 'temp': 30.38, 'lipoC3S3': 11.46, 'lipoC3S2': 7.6, 'rot1': 118, 'rot0': 118, 'rot3': 44, 'rot2': 32, 'state': 'normal', 'yaw': -4.77, 'datetime': '2018-10-09 23:48:09.834728', 'mgs': 0, 'volt': 0.9082, 'depth': 1.691, 'time': 19, 'pitch': 3.74, 'roll': 3.46, 'pres': 186}
{'lipoC2': 7.28, 'lipoC3S1': 3.8, 'temp': 30.38, 'lipoC3S3': 11.46, 'lipoC3S2': 7.59, 'rot1': 120, 'rot0': 119, 'rot3': 44, 'rot2': 32, 'state': 'normal', 'yaw': -4.42, 'datetime': '2018-10-09 23:48:09.939768', 'mgs': 0, 'volt': 0.9131, 'depth': 1.767, 'time': 19, 'pitch': 3.64, 'roll': 3.05, 'pres': 187}
{'lipoC2': 7.28, 'lipoC3S1': 3.79, 'temp': 30.31, 'lipoC3S3': 11.35, 'lipoC3S2': 7.59, 'rot1': 121, 'rot0': 120, 'rot3': 44, 'rot2': 32, 'state': 'normal', 'yaw': -3.91, 'datetime': '2018-10-09 23:48:10.043632', 'mgs': 0, 'volt': 0.8691, 'depth': 1.08, 'time': 19, 'pitch': 3.33, 'roll': 2.62, 'pres': 178}
{'lipoC2': 7.28, 'lipoC3S1': 3.75, 'temp': 30.31, 'lipoC3S3': 11.46, 'lipoC3S2': 7.56, 'rot1': 122, 'rot0': 121, 'rot3': 44, 'rot2': 32, 'state': 'normal', 'yaw': -3.37, 'datetime': '2018-10-09 23:48:10.148502', 'mgs': 0, 'volt': 0.874, 'depth': 1.157, 'time': 19, 'pitch': 2.84, 'roll': 2.33, 'pres': 179}
{'lipoC2': 7.28, 'lipoC3S1': 3.8, 'temp': 30.31, 'lipoC3S3': 11.46, 'lipoC3S2': 7.59, 'rot1': 123, 'rot0': 122, 'rot3': 44, 'rot2': 32, 'state': 'normal', 'yaw': -2.71, 'datetime': '2018-10-09 23:48:10.252493', 'mgs': 0, 'volt': 0.9277, 'depth': 1.996, 'time': 19, 'pitch': 2.17, 'roll': 1.92, 'pres': 190}
{'lipoC2': 7.28, 'lipoC3S1': 3.79, 'temp': 30.31, 'lipoC3S3': 11.31, 'lipoC3S2': 7.58, 'rot1': 124, 'rot0': 123, 'rot3': 44, 'rot2': 32, 'state': 'normal', 'yaw': -2.2, 'datetime': '2018-10-09 23:48:10.356361', 'mgs': 0, 'volt': 0.8789, 'depth': 1.233, 'time': 19, 'pitch': 1.76, 'roll': 1.52, 'pres': 180}
{'lipoC2': 7.28, 'lipoC3S1': 3.71, 'temp': 30.31, 'lipoC3S3': 11.46, 'lipoC3S2': 7.56, 'rot1': 125, 'rot0': 124, 'rot3': 44, 'rot2': 32, 'state': 'normal', 'yaw': -1.82, 'datetime': '2018-10-09 23:48:10.460319', 'mgs': 0, 'volt': 0.8789, 'depth': 1.233, 'time': 19, 'pitch': 1.71, 'roll': 1.12, 'pres': 180}
{'lipoC2': 7.29, 'lipoC3S1': 3.79, 'temp': 30.44, 'lipoC3S3': 11.46, 'lipoC3S2': 7.59, 'rot1': 126, 'rot0': 125, 'rot3': 44, 'rot2': 32, 'state': 'normal', 'yaw': -1.54, 'datetime': '2018-10-09 23:48:10.564184', 'mgs': 0, 'volt': 0.9229, 'depth': 1.92, 'time': 19, 'pitch': 2.05, 'roll': 0.79, 'pres': 189}
{'lipoC2': 7.28, 'lipoC3S1': 3.79, 'temp': 30.44, 'lipoC3S3': 11.35, 'lipoC3S2': 7.58, 'rot1': 127, 'rot0': 127, 'rot3': 44, 'rot2': 32, 'state': 'normal', 'yaw': -1.4, 'datetime': '2018-10-09 23:48:10.668108', 'mgs': 0, 'volt': 0.8887, 'depth': 1.385, 'time': 19, 'pitch': 2.41, 'roll': 0.63, 'pres': 182}
{'lipoC2': 7.28, 'lipoC3S1': 3.71, 'temp': 30.38, 'lipoC3S3': 11.44, 'lipoC3S2': 7.6, 'rot1': 128, 'rot0': 128, 'rot3': 44, 'rot2': 32, 'state': 'normal', 'yaw': -1.3, 'datetime': '2018-10-09 23:48:10.771856', 'mgs': 0, 'volt': 0.8838, 'depth': 1.309, 'time': 20, 'pitch': 2.71, 'roll': 0.51, 'pres': 181}
{'lipoC2': 7.26, 'lipoC3S1': 3.79, 'temp': 30.38, 'lipoC3S3': 11.43, 'lipoC3S2': 7.58, 'rot1': 129, 'rot0': 129, 'rot3': 44, 'rot2': 33, 'state': 'normal', 'yaw': -1.29, 'datetime': '2018-10-09 23:48:10.875841', 'mgs': 0, 'volt': 0.9229, 'depth': 1.92, 'time': 20, 'pitch': 2.95, 'roll': 0.44, 'pres': 189}
{'lipoC2': 7.28, 'lipoC3S1': 3.79, 'temp': 30.38, 'lipoC3S3': 11.36, 'lipoC3S2': 7.59, 'rot1': 130, 'rot0': 130, 'rot3': 45, 'rot2': 33, 'state': 'normal', 'yaw': -1.39, 'datetime': '2018-10-09 23:48:10.979768', 'mgs': 0, 'volt': 0.8936, 'depth': 1.462, 'time': 20, 'pitch': 3.2, 'roll': 0.3, 'pres': 183}
{'lipoC2': 7.28, 'lipoC3S1': 3.78, 'temp': 30.31, 'lipoC3S3': 11.34, 'lipoC3S2': 7.53, 'rot1': 131, 'rot0': 131, 'rot3': 46, 'rot2': 34, 'state': 'normal', 'yaw': -1.64, 'datetime': '2018-10-09 23:48:11.084017', 'mgs': 0, 'volt': 0.8984, 'depth': 1.538, 'time': 20, 'pitch': 3.5, 'roll': 0.26, 'pres': 184}
{'lipoC2': 7.28, 'lipoC3S1': 3.72, 'temp': 30.31, 'lipoC3S3': 11.44, 'lipoC3S2': 7.59, 'rot1': 132, 'rot0': 132, 'rot3': 46, 'rot2': 34, 'state': 'normal', 'yaw': -1.95, 'datetime': '2018-10-09 23:48:11.187885', 'mgs': 0, 'volt': 0.9277, 'depth': 1.996, 'time': 20, 'pitch': 4.04, 'roll': 0.35, 'pres': 190}
{'lipoC2': 7.28, 'lipoC3S1': 3.73, 'temp': 30.31, 'lipoC3S3': 11.44, 'lipoC3S2': 7.59, 'rot1': 134, 'rot0': 133, 'rot3': 47, 'rot2': 35, 'state': 'normal', 'yaw': -2.22, 'datetime': '2018-10-09 23:48:11.293070', 'mgs': 0, 'volt': 0.9277, 'depth': 1.996, 'time': 20, 'pitch': 4.84, 'roll': 0.54, 'pres': 190}
