{'lipoC2': 7.26, 'lipoC3S1': 3.82, 'temp': 26.19, 'lipoC3S3': 11.55, 'lipoC3S2': 7.65, 'rot1': 0, 'rot0': 0, 'rot3': 0, 'rot2': 0, 'state': 'normal', 'yaw': 6.0, 'datetime': '2018-10-09 20:29:25.138193', 'mgs': 0, 'volt': 0.7861, 'depth': -0.217, 'time': 31, 'pitch': -0.38, 'roll': -0.25, 'pres': 161}
{'lipoC2': 7.27, 'lipoC3S1': 3.82, 'temp': 26.19, 'lipoC3S3': 11.55, 'lipoC3S2': 7.65, 'rot1': 0, 'rot0': 0, 'rot3': 0, 'rot2': 0, 'state': 'normal', 'yaw': 6.0, 'datetime': '2018-10-09 20:29:28.165839', 'mgs': 0, 'volt': 0.7861, 'depth': -0.217, 'time': 31, 'pitch': -0.38, 'roll': -0.25, 'pres': 161}
{'lipoC2': 7.27, 'lipoC3S1': 3.82, 'temp': 26.25, 'lipoC3S3': 11.55, 'lipoC3S2': 7.65, 'rot1': 0, 'rot0': 0, 'rot3': 0, 'rot2': 0, 'state': 'normal', 'yaw': 6.0, 'datetime': '2018-10-09 20:29:28.188993', 'mgs': 0, 'volt': 0.7813, 'depth': -0.293, 'time': 31, 'pitch': -0.38, 'roll': -0.25, 'pres': 160}
{'lipoC2': 7.27, 'lipoC3S1': 3.82, 'temp': 26.25, 'lipoC3S3': 11.55, 'lipoC3S2': 7.65, 'rot1': 0, 'rot0': 0, 'rot3': 0, 'rot2': 0, 'state': 'normal', 'yaw': 6.0, 'datetime': '2018-10-09 20:29:28.219308', 'mgs': 0, 'volt': 0.7861, 'depth': -0.217, 'time': 31, 'pitch': -0.38, 'roll': -0.25, 'pres': 161}
{'lipoC2': 7.27, 'lipoC3S1': 3.82, 'temp': 26.25, 'lipoC3S3': 11.55, 'lipoC3S2': 7.65, 'rot1': 0, 'rot0': 0, 'rot3': 0, 'rot2': 0, 'state': 'normal', 'yaw': 6.0, 'datetime': '2018-10-09 20:29:28.249363', 'mgs': 0, 'volt': 0.7861, 'depth': -0.217, 'time': 31, 'pitch': -0.38, 'roll': -0.25, 'pres': 161}
{'lipoC2': 7.27, 'lipoC3S1': 3.82, 'temp': 26.25, 'lipoC3S3': 11.55, 'lipoC3S2': 7.65, 'rot1': 0, 'rot0': 0, 'rot3': 0, 'rot2': 0, 'state': 'normal', 'yaw': 6.0, 'datetime': '2018-10-09 20:29:28.265296', 'mgs': 0, 'volt': 0.7861, 'depth': -0.217, 'time': 31, 'pitch': -0.38, 'roll': -0.25, 'pres': 161}
{'lipoC2': 7.27, 'lipoC3S1': 3.82, 'temp': 26.31, 'lipoC3S3': 11.55, 'lipoC3S2': 7.65, 'rot1': 0, 'rot0': 0, 'rot3': 0, 'rot2': 0, 'state': 'normal', 'yaw': 6.0, 'datetime': '2018-10-09 20:29:28.281243', 'mgs': 0, 'volt': 0.7861, 'depth': -0.217, 'time': 31, 'pitch': -0.38, 'roll': -0.25, 'pres': 161}
{'lipoC2': 7.27, 'lipoC3S1': 3.82, 'temp': 26.31, 'lipoC3S3': 11.55, 'lipoC3S2': 7.65, 'rot1': 0, 'rot0': 0, 'rot3': 0, 'rot2': 0, 'state': 'normal', 'yaw': 6.0, 'datetime': '2018-10-09 20:29:28.297162', 'mgs': 0, 'volt': 0.7861, 'depth': -0.217, 'time': 32, 'pitch': -0.38, 'roll': -0.25, 'pres': 161}
{'lipoC2': 7.27, 'lipoC3S1': 3.82, 'temp': 26.31, 'lipoC3S3': 11.55, 'lipoC3S2': 7.65, 'rot1': 0, 'rot0': 0, 'rot3': 0, 'rot2': 0, 'state': 'normal', 'yaw': 6.0, 'datetime': '2018-10-09 20:29:28.313063', 'mgs': 0, 'volt': 0.7861, 'depth': -0.217, 'time': 32, 'pitch': -0.38, 'roll': -0.25, 'pres': 161}
{'lipoC2': 7.26, 'lipoC3S1': 3.82, 'temp': 26.31, 'lipoC3S3': 11.55, 'lipoC3S2': 7.65, 'rot1': 0, 'rot0': 0, 'rot3': 0, 'rot2': 0, 'state': 'normal', 'yaw': 6.0, 'datetime': '2018-10-09 20:29:28.328964', 'mgs': 0, 'volt': 0.7861, 'depth': -0.217, 'time': 32, 'pitch': -0.38, 'roll': -0.25, 'pres': 161}
{'lipoC2': 7.27, 'lipoC3S1': 3.82, 'temp': 26.31, 'lipoC3S3': 11.55, 'lipoC3S2': 7.65, 'rot1': 0, 'rot0': 0, 'rot3': 0, 'rot2': 0, 'state': 'normal', 'yaw': 6.0, 'datetime': '2018-10-09 20:29:28.344914', 'mgs': 0, 'volt': 0.7813, 'depth': -0.293, 'time': 32, 'pitch': -0.38, 'roll': -0.25, 'pres': 160}
{'lipoC2': 7.27, 'lipoC3S1': 3.82, 'temp': 26.25, 'lipoC3S3': 11.55, 'lipoC3S2': 7.64, 'rot1': 0, 'rot0': 0, 'rot3': 0, 'rot2': 0, 'state': 'normal', 'yaw': 6.0, 'datetime': '2018-10-09 20:29:28.360800', 'mgs': 0, 'volt': 0.7813, 'depth': -0.293, 'time': 32, 'pitch': -0.38, 'roll': -0.25, 'pres': 160}
{'lipoC2': 7.27, 'lipoC3S1': 3.82, 'temp': 26.25, 'lipoC3S3': 11.55, 'lipoC3S2': 7.65, 'rot1': 0, 'rot0': 0, 'rot3': 0, 'rot2': 0, 'state': 'normal', 'yaw': 6.0, 'datetime': '2018-10-09 20:29:28.376718', 'mgs': 0, 'volt': 0.7813, 'depth': -0.293, 'time': 32, 'pitch': -0.38, 'roll': -0.25, 'pres': 160}
{'lipoC2': 7.27, 'lipoC3S1': 3.82, 'temp': 26.25, 'lipoC3S3': 11.55, 'lipoC3S2': 7.65, 'rot1': 0, 'rot0': 0, 'rot3': 0, 'rot2': 0, 'state': 'normal', 'yaw': 6.0, 'datetime': '2018-10-09 20:29:28.392643', 'mgs': 0, 'volt': 0.7813, 'depth': -0.293, 'time': 32, 'pitch': -0.38, 'roll': -0.25, 'pres': 160}
{'lipoC2': 7.26, 'lipoC3S1': 3.82, 'temp': 26.25, 'lipoC3S3': 11.55, 'lipoC3S2': 7.65, 'rot1': 0, 'rot0': 0, 'rot3': 0, 'rot2': 0, 'state': 'normal', 'yaw': 6.0, 'datetime': '2018-10-09 20:29:28.408718', 'mgs': 0, 'volt': 0.7813, 'depth': -0.293, 'time': 32, 'pitch': -0.38, 'roll': -0.25, 'pres': 160}
{'lipoC2': 7.26, 'lipoC3S1': 3.82, 'temp': 26.25, 'lipoC3S3': 11.55, 'lipoC3S2': 7.64, 'rot1': 0, 'rot0': 0, 'rot3': 0, 'rot2': 0, 'state': 'normal', 'yaw': 6.0, 'datetime': '2018-10-09 20:29:28.424658', 'mgs': 0, 'volt': 0.7813, 'depth': -0.293, 'time': 32, 'pitch': -0.38, 'roll': -0.25, 'pres': 160}
{'lipoC2': 7.27, 'lipoC3S1': 3.82, 'temp': 26.31, 'lipoC3S3': 11.55, 'lipoC3S2': 7.65, 'rot1': 0, 'rot0': 0, 'rot3': 0, 'rot2': 0, 'state': 'normal', 'yaw': 6.0, 'datetime': '2018-10-09 20:29:28.440026', 'mgs': 0, 'volt': 0.7813, 'depth': -0.293, 'time': 32, 'pitch': -0.38, 'roll': -0.25, 'pres': 160}
{'lipoC2': 7.26, 'lipoC3S1': 3.82, 'temp': 26.31, 'lipoC3S3': 11.55, 'lipoC3S2': 7.65, 'rot1': 0, 'rot0': 0, 'rot3': 0, 'rot2': 0, 'state': 'normal', 'yaw': 6.0, 'datetime': '2018-10-09 20:29:28.455445', 'mgs': 0, 'volt': 0.7813, 'depth': -0.293, 'time': 33, 'pitch': -0.38, 'roll': -0.25, 'pres': 160}
{'lipoC2': 7.27, 'lipoC3S1': 3.82, 'temp': 26.31, 'lipoC3S3': 11.55, 'lipoC3S2': 7.65, 'rot1': 0, 'rot0': 0, 'rot3': 0, 'rot2': 0, 'state': 'normal', 'yaw': 0.0, 'datetime': '2018-10-09 20:29:28.470821', 'mgs': 0, 'volt': 0.7861, 'depth': -0.217, 'time': 1, 'pitch': -4.44, 'roll': -0.38, 'pres': 161}
{'lipoC2': 7.27, 'lipoC3S1': 3.82, 'temp': 26.31, 'lipoC3S3': 11.55, 'lipoC3S2': 7.65, 'rot1': 0, 'rot0': 0, 'rot3': 0, 'rot2': 0, 'state': 'normal', 'yaw': 0.0, 'datetime': '2018-10-09 20:29:28.486149', 'mgs': 0, 'volt': 0.7861, 'depth': -0.217, 'time': 1, 'pitch': -4.44, 'roll': -0.38, 'pres': 161}
{'lipoC2': 7.27, 'lipoC3S1': 3.82, 'temp': 26.31, 'lipoC3S3': 11.55, 'lipoC3S2': 7.65, 'rot1': 0, 'rot0': 0, 'rot3': 0, 'rot2': 0, 'state': 'normal', 'yaw': 0.0, 'datetime': '2018-10-09 20:29:28.501483', 'mgs': 0, 'volt': 0.7813, 'depth': -0.293, 'time': 2, 'pitch': -4.44, 'roll': -0.38, 'pres': 160}
{'lipoC2': 7.27, 'lipoC3S1': 3.82, 'temp': 26.31, 'lipoC3S3': 11.55, 'lipoC3S2': 7.64, 'rot1': 0, 'rot0': 0, 'rot3': 0, 'rot2': 0, 'state': 'normal', 'yaw': 0.0, 'datetime': '2018-10-09 20:29:28.516834', 'mgs': 0, 'volt': 0.7861, 'depth': -0.217, 'time': 2, 'pitch': -4.44, 'roll': -0.38, 'pres': 161}
{'lipoC2': 7.27, 'lipoC3S1': 3.82, 'temp': 26.25, 'lipoC3S3': 11.55, 'lipoC3S2': 7.65, 'rot1': 0, 'rot0': 0, 'rot3': 0, 'rot2': 0, 'state': 'normal', 'yaw': 0.0, 'datetime': '2018-10-09 20:29:28.532255', 'mgs': 0, 'volt': 0.7813, 'depth': -0.293, 'time': 2, 'pitch': -4.44, 'roll': -0.38, 'pres': 160}
{'lipoC2': 7.27, 'lipoC3S1': 3.82, 'temp': 26.25, 'lipoC3S3': 11.55, 'lipoC3S2': 7.64, 'rot1': 0, 'rot0': 0, 'rot3': 0, 'rot2': 0, 'state': 'normal', 'yaw': 0.0, 'datetime': '2018-10-09 20:29:28.547926', 'mgs': 0, 'volt': 0.7861, 'depth': -0.217, 'time': 2, 'pitch': -4.44, 'roll': -0.38, 'pres': 161}
{'lipoC2': 7.27, 'lipoC3S1': 3.82, 'temp': 26.25, 'lipoC3S3': 11.55, 'lipoC3S2': 7.65, 'rot1': 0, 'rot0': 0, 'rot3': 0, 'rot2': 0, 'state': 'normal', 'yaw': 0.0, 'datetime': '2018-10-09 20:29:28.563334', 'mgs': 0, 'volt': 0.7861, 'depth': -0.217, 'time': 2, 'pitch': -4.44, 'roll': -0.38, 'pres': 161}
{'lipoC2': 7.27, 'lipoC3S1': 3.82, 'temp': 26.25, 'lipoC3S3': 11.55, 'lipoC3S2': 7.65, 'rot1': 0, 'rot0': 0, 'rot3': 0, 'rot2': 0, 'state': 'normal', 'yaw': 0.0, 'datetime': '2018-10-09 20:29:28.578842', 'mgs': 0, 'volt': 0.7861, 'depth': -0.217, 'time': 2, 'pitch': -4.44, 'roll': -0.38, 'pres': 161}
{'lipoC2': 7.27, 'lipoC3S1': 3.82, 'temp': 26.25, 'lipoC3S3': 11.55, 'lipoC3S2': 7.65, 'rot1': 0, 'rot0': 0, 'rot3': 0, 'rot2': 0, 'state': 'normal', 'yaw': 0.0, 'datetime': '2018-10-09 20:29:28.594276', 'mgs': 0, 'volt': 0.7861, 'depth': -0.217, 'time': 2, 'pitch': -4.44, 'roll': -0.38, 'pres': 161}
{'lipoC2': 7.27, 'lipoC3S1': 3.82, 'temp': 26.31, 'lipoC3S3': 11.55, 'lipoC3S2': 7.65, 'rot1': 0, 'rot0': 0, 'rot3': 0, 'rot2': 0, 'state': 'normal', 'yaw': 0.0, 'datetime': '2018-10-09 20:29:28.609652', 'mgs': 0, 'volt': 0.7861, 'depth': -0.217, 'time': 2, 'pitch': -4.44, 'roll': -0.38, 'pres': 161}
{'lipoC2': 7.27, 'lipoC3S1': 3.82, 'temp': 26.31, 'lipoC3S3': 11.55, 'lipoC3S2': 7.65, 'rot1': 0, 'rot0': 0, 'rot3': 0, 'rot2': 0, 'state': 'normal', 'yaw': 0.0, 'datetime': '2018-10-09 20:29:28.625110', 'mgs': 0, 'volt': 0.7861, 'depth': -0.217, 'time': 2, 'pitch': -4.44, 'roll': -0.38, 'pres': 161}
{'lipoC2': 7.26, 'lipoC3S1': 3.82, 'temp': 26.31, 'lipoC3S3': 11.55, 'lipoC3S2': 7.64, 'rot1': 0, 'rot0': 0, 'rot3': 0, 'rot2': 0, 'state': 'normal', 'yaw': 0.0, 'datetime': '2018-10-09 20:29:28.640485', 'mgs': 0, 'volt': 0.7813, 'depth': -0.293, 'time': 2, 'pitch': -4.44, 'roll': -0.38, 'pres': 160}
{'lipoC2': 7.26, 'lipoC3S1': 3.82, 'temp': 26.31, 'lipoC3S3': 11.55, 'lipoC3S2': 7.64, 'rot1': 0, 'rot0': 0, 'rot3': 0, 'rot2': 0, 'state': 'normal', 'yaw': 0.0, 'datetime': '2018-10-09 20:29:28.655806', 'mgs': 0, 'volt': 0.7813, 'depth': -0.293, 'time': 3, 'pitch': -4.44, 'roll': -0.38, 'pres': 160}
{'lipoC2': 7.26, 'lipoC3S1': 3.82, 'temp': 26.31, 'lipoC3S3': 11.54, 'lipoC3S2': 7.64, 'rot1': 0, 'rot0': 0, 'rot3': 0, 'rot2': 0, 'state': 'normal', 'yaw': 0.0, 'datetime': '2018-10-09 20:29:28.671145', 'mgs': 0, 'volt': 0.7813, 'depth': -0.293, 'time': 3, 'pitch': -4.44, 'roll': -0.38, 'pres': 160}
{'lipoC2': 7.26, 'lipoC3S1': 3.82, 'temp': 26.31, 'lipoC3S3': 11.55, 'lipoC3S2': 7.64, 'rot1': 0, 'rot0': 0, 'rot3': 0, 'rot2': 0, 'state': 'normal', 'yaw': 0.0, 'datetime': '2018-10-09 20:29:28.686571', 'mgs': 0, 'volt': 0.7861, 'depth': -0.217, 'time': 3, 'pitch': -4.44, 'roll': -0.38, 'pres': 161}
{'lipoC2': 7.26, 'lipoC3S1': 3.82, 'temp': 26.31, 'lipoC3S3': 11.54, 'lipoC3S2': 7.64, 'rot1': 0, 'rot0': 0, 'rot3': 0, 'rot2': 0, 'state': 'normal', 'yaw': 0.0, 'datetime': '2018-10-09 20:29:28.701899', 'mgs': 0, 'volt': 0.7813, 'depth': -0.293, 'time': 3, 'pitch': -4.44, 'roll': -0.38, 'pres': 160}
{'lipoC2': 7.26, 'lipoC3S1': 3.82, 'temp': 26.19, 'lipoC3S3': 11.54, 'lipoC3S2': 7.64, 'rot1': 0, 'rot0': 0, 'rot3': 0, 'rot2': 0, 'state': 'normal', 'yaw': 0.0, 'datetime': '2018-10-09 20:29:28.717269', 'mgs': 0, 'volt': 0.7813, 'depth': -0.293, 'time': 3, 'pitch': -4.44, 'roll': -0.38, 'pres': 160}
{'lipoC2': 7.26, 'lipoC3S1': 3.82, 'temp': 26.19, 'lipoC3S3': 11.54, 'lipoC3S2': 7.64, 'rot1': 0, 'rot0': 0, 'rot3': 0, 'rot2': 0, 'state': 'normal', 'yaw': 0.0, 'datetime': '2018-10-09 20:29:28.788113', 'mgs': 0, 'volt': 0.7861, 'depth': -0.217, 'time': 3, 'pitch': -4.44, 'roll': -0.38, 'pres': 161}
{'lipoC2': 7.26, 'lipoC3S1': 3.82, 'temp': 26.25, 'lipoC3S3': 11.54, 'lipoC3S2': 7.64, 'rot1': 0, 'rot0': 1, 'rot3': 0, 'rot2': 0, 'state': 'normal', 'yaw': 0.0, 'datetime': '2018-10-09 20:29:28.890534', 'mgs': 0, 'volt': 0.7813, 'depth': -0.293, 'time': 3, 'pitch': -4.44, 'roll': -0.38, 'pres': 160}
{'lipoC2': 7.26, 'lipoC3S1': 3.82, 'temp': 26.25, 'lipoC3S3': 11.54, 'lipoC3S2': 7.64, 'rot1': 1, 'rot0': 1, 'rot3': 0, 'rot2': 0, 'state': 'normal', 'yaw': 0.0, 'datetime': '2018-10-09 20:29:28.997900', 'mgs': 0, 'volt': 0.7813, 'depth': -0.293, 'time': 3, 'pitch': -4.44, 'roll': -0.38, 'pres': 160}
{'lipoC2': 7.26, 'lipoC3S1': 3.82, 'temp': 26.25, 'lipoC3S3': 11.54, 'lipoC3S2': 7.64, 'rot1': 1, 'rot0': 1, 'rot3': 0, 'rot2': 0, 'state': 'normal', 'yaw': 0.0, 'datetime': '2018-10-09 20:29:29.103018', 'mgs': 0, 'volt': 0.7861, 'depth': -0.217, 'time': 3, 'pitch': -4.44, 'roll': -0.38, 'pres': 161}
{'lipoC2': 7.26, 'lipoC3S1': 3.82, 'temp': 26.25, 'lipoC3S3': 11.54, 'lipoC3S2': 7.64, 'rot1': 1, 'rot0': 1, 'rot3': 0, 'rot2': 0, 'state': 'normal', 'yaw': 0.0, 'datetime': '2018-10-09 20:29:29.206344', 'mgs': 0, 'volt': 0.7813, 'depth': -0.293, 'time': 3, 'pitch': -4.44, 'roll': -0.38, 'pres': 160}
{'lipoC2': 7.26, 'lipoC3S1': 3.82, 'temp': 26.25, 'lipoC3S3': 11.5, 'lipoC3S2': 7.64, 'rot1': 1, 'rot0': 2, 'rot3': 0, 'rot2': 0, 'state': 'normal', 'yaw': 0.0, 'datetime': '2018-10-09 20:29:29.308735', 'mgs': 0, 'volt': 0.7813, 'depth': -0.293, 'time': 4, 'pitch': -4.44, 'roll': -0.38, 'pres': 160}
{'lipoC2': 7.26, 'lipoC3S1': 3.82, 'temp': 26.31, 'lipoC3S3': 11.54, 'lipoC3S2': 7.64, 'rot1': 2, 'rot0': 2, 'rot3': 0, 'rot2': 0, 'state': 'normal', 'yaw': 0.0, 'datetime': '2018-10-09 20:29:29.412004', 'mgs': 0, 'volt': 0.7813, 'depth': -0.293, 'time': 4, 'pitch': -4.44, 'roll': -0.38, 'pres': 160}
{'lipoC2': 7.26, 'lipoC3S1': 3.82, 'temp': 26.31, 'lipoC3S3': 11.54, 'lipoC3S2': 7.63, 'rot1': 2, 'rot0': 2, 'rot3': 0, 'rot2': 0, 'state': 'normal', 'yaw': 0.0, 'datetime': '2018-10-09 20:29:29.515465', 'mgs': 0, 'volt': 0.7813, 'depth': -0.293, 'time': 4, 'pitch': -4.44, 'roll': -0.38, 'pres': 160}
{'lipoC2': 7.26, 'lipoC3S1': 3.82, 'temp': 26.25, 'lipoC3S3': 11.5, 'lipoC3S2': 7.64, 'rot1': 2, 'rot0': 2, 'rot3': 0, 'rot2': 0, 'state': 'normal', 'yaw': 0.0, 'datetime': '2018-10-09 20:29:29.618108', 'mgs': 0, 'volt': 0.7813, 'depth': -0.293, 'time': 4, 'pitch': -4.44, 'roll': -0.38, 'pres': 160}
{'lipoC2': 7.26, 'lipoC3S1': 3.82, 'temp': 26.25, 'lipoC3S3': 11.54, 'lipoC3S2': 7.64, 'rot1': 3, 'rot0': 3, 'rot3': 0, 'rot2': 0, 'state': 'normal', 'yaw': 0.0, 'datetime': '2018-10-09 20:29:29.720548', 'mgs': 0, 'volt': 0.7813, 'depth': -0.293, 'time': 4, 'pitch': -4.44, 'roll': -0.38, 'pres': 160}
{'lipoC2': 7.26, 'lipoC3S1': 3.82, 'temp': 26.25, 'lipoC3S3': 11.54, 'lipoC3S2': 7.64, 'rot1': 3, 'rot0': 3, 'rot3': 0, 'rot2': 0, 'state': 'normal', 'yaw': 0.0, 'datetime': '2018-10-09 20:29:29.823901', 'mgs': 0, 'volt': 0.7813, 'depth': -0.293, 'time': 4, 'pitch': -4.44, 'roll': -0.38, 'pres': 160}
{'lipoC2': 7.26, 'lipoC3S1': 3.82, 'temp': 26.25, 'lipoC3S3': 11.54, 'lipoC3S2': 7.64, 'rot1': 3, 'rot0': 3, 'rot3': 0, 'rot2': 0, 'state': 'normal', 'yaw': 0.0, 'datetime': '2018-10-09 20:29:29.927372', 'mgs': 0, 'volt': 0.7861, 'depth': -0.217, 'time': 4, 'pitch': -4.44, 'roll': -0.38, 'pres': 161}
{'lipoC2': 7.26, 'lipoC3S1': 3.82, 'temp': 26.25, 'lipoC3S3': 11.54, 'lipoC3S2': 7.64, 'rot1': 3, 'rot0': 3, 'rot3': 0, 'rot2': 0, 'state': 'normal', 'yaw': 0.0, 'datetime': '2018-10-09 20:29:30.029696', 'mgs': 0, 'volt': 0.7813, 'depth': -0.293, 'time': 4, 'pitch': -4.44, 'roll': -0.38, 'pres': 160}
{'lipoC2': 7.26, 'lipoC3S1': 3.82, 'temp': 26.25, 'lipoC3S3': 11.54, 'lipoC3S2': 7.64, 'rot1': 4, 'rot0': 4, 'rot3': 0, 'rot2': 0, 'state': 'normal', 'yaw': 0.0, 'datetime': '2018-10-09 20:29:30.132217', 'mgs': 0, 'volt': 0.7813, 'depth': -0.293, 'time': 4, 'pitch': -4.44, 'roll': -0.38, 'pres': 160}
{'lipoC2': 7.26, 'lipoC3S1': 3.82, 'temp': 26.25, 'lipoC3S3': 11.54, 'lipoC3S2': 7.61, 'rot1': 4, 'rot0': 4, 'rot3': 0, 'rot2': 0, 'state': 'normal', 'yaw': 0.0, 'datetime': '2018-10-09 20:29:30.235600', 'mgs': 0, 'volt': 0.7813, 'depth': -0.293, 'time': 5, 'pitch': -4.44, 'roll': -0.38, 'pres': 160}
{'lipoC2': 7.26, 'lipoC3S1': 3.82, 'temp': 26.25, 'lipoC3S3': 11.54, 'lipoC3S2': 7.6, 'rot1': 4, 'rot0': 4, 'rot3': 0, 'rot2': 0, 'state': 'normal', 'yaw': 0.0, 'datetime': '2018-10-09 20:29:30.339066', 'mgs': 0, 'volt': 0.7861, 'depth': -0.217, 'time': 5, 'pitch': -4.44, 'roll': -0.38, 'pres': 161}
{'lipoC2': 7.26, 'lipoC3S1': 3.82, 'temp': 26.25, 'lipoC3S3': 11.54, 'lipoC3S2': 7.64, 'rot1': 4, 'rot0': 4, 'rot3': 0, 'rot2': 0, 'state': 'normal', 'yaw': 0.0, 'datetime': '2018-10-09 20:29:30.441493', 'mgs': 0, 'volt': 0.7813, 'depth': -0.293, 'time': 5, 'pitch': -4.44, 'roll': -0.38, 'pres': 160}
{'lipoC2': 7.26, 'lipoC3S1': 3.83, 'temp': 26.31, 'lipoC3S3': 11.54, 'lipoC3S2': 7.64, 'rot1': 5, 'rot0': 5, 'rot3': 0, 'rot2': 0, 'state': 'normal', 'yaw': 0.0, 'datetime': '2018-10-09 20:29:30.543820', 'mgs': 0, 'volt': 0.7813, 'depth': -0.293, 'time': 5, 'pitch': -4.44, 'roll': -0.38, 'pres': 160}
{'lipoC2': 7.26, 'lipoC3S1': 3.82, 'temp': 26.31, 'lipoC3S3': 11.54, 'lipoC3S2': 7.64, 'rot1': 5, 'rot0': 5, 'rot3': 0, 'rot2': 0, 'state': 'normal', 'yaw': 0.0, 'datetime': '2018-10-09 20:29:30.646245', 'mgs': 0, 'volt': 0.7813, 'depth': -0.293, 'time': 5, 'pitch': -4.44, 'roll': -0.38, 'pres': 160}
{'lipoC2': 7.26, 'lipoC3S1': 3.82, 'temp': 26.31, 'lipoC3S3': 11.54, 'lipoC3S2': 7.64, 'rot1': 5, 'rot0': 5, 'rot3': 0, 'rot2': 0, 'state': 'normal', 'yaw': 0.0, 'datetime': '2018-10-09 20:29:30.745575', 'mgs': 0, 'volt': 0.7813, 'depth': -0.293, 'time': 5, 'pitch': -4.44, 'roll': -0.38, 'pres': 160}
{'lipoC2': 7.26, 'lipoC3S1': 3.82, 'temp': 26.31, 'lipoC3S3': 11.54, 'lipoC3S2': 7.64, 'rot1': 6, 'rot0': 5, 'rot3': 0, 'rot2': 0, 'state': 'normal', 'yaw': 0.0, 'datetime': '2018-10-09 20:29:30.852071', 'mgs': 0, 'volt': 0.7813, 'depth': -0.293, 'time': 5, 'pitch': -4.44, 'roll': -0.38, 'pres': 160}
{'lipoC2': 7.26, 'lipoC3S1': 3.82, 'temp': 26.31, 'lipoC3S3': 11.54, 'lipoC3S2': 7.64, 'rot1': 6, 'rot0': 6, 'rot3': 0, 'rot2': 0, 'state': 'normal', 'yaw': 0.0, 'datetime': '2018-10-09 20:29:30.954480', 'mgs': 0, 'volt': 0.7764, 'depth': -0.369, 'time': 5, 'pitch': -4.44, 'roll': -0.38, 'pres': 159}
{'lipoC2': 7.26, 'lipoC3S1': 3.82, 'temp': 26.31, 'lipoC3S3': 11.54, 'lipoC3S2': 7.64, 'rot1': 6, 'rot0': 6, 'rot3': 0, 'rot2': 0, 'state': 'normal', 'yaw': 0.0, 'datetime': '2018-10-09 20:29:31.057952', 'mgs': 0, 'volt': 0.7813, 'depth': -0.293, 'time': 5, 'pitch': -4.44, 'roll': -0.38, 'pres': 160}
{'lipoC2': 7.26, 'lipoC3S1': 3.82, 'temp': 26.31, 'lipoC3S3': 11.54, 'lipoC3S2': 7.64, 'rot1': 6, 'rot0': 6, 'rot3': 0, 'rot2': 0, 'state': 'normal', 'yaw': 0.0, 'datetime': '2018-10-09 20:29:31.161433', 'mgs': 0, 'volt': 0.7861, 'depth': -0.217, 'time': 5, 'pitch': -4.44, 'roll': -0.38, 'pres': 161}
{'lipoC2': 7.26, 'lipoC3S1': 3.82, 'temp': 26.31, 'lipoC3S3': 11.54, 'lipoC3S2': 7.64, 'rot1': 7, 'rot0': 7, 'rot3': 0, 'rot2': 0, 'state': 'normal', 'yaw': 0.0, 'datetime': '2018-10-09 20:29:31.263841', 'mgs': 0, 'volt': 0.7813, 'depth': -0.293, 'time': 6, 'pitch': -4.44, 'roll': -0.38, 'pres': 160}
{'lipoC2': 7.26, 'lipoC3S1': 3.82, 'temp': 26.31, 'lipoC3S3': 11.54, 'lipoC3S2': 7.64, 'rot1': 7, 'rot0': 7, 'rot3': 0, 'rot2': 0, 'state': 'normal', 'yaw': 0.0, 'datetime': '2018-10-09 20:29:31.366749', 'mgs': 0, 'volt': 0.7813, 'depth': -0.293, 'time': 6, 'pitch': -4.44, 'roll': -0.38, 'pres': 160}
{'lipoC2': 7.26, 'lipoC3S1': 3.81, 'temp': 26.31, 'lipoC3S3': 11.54, 'lipoC3S2': 7.64, 'rot1': 7, 'rot0': 7, 'rot3': 0, 'rot2': 0, 'state': 'normal', 'yaw': 0.0, 'datetime': '2018-10-09 20:29:31.470155', 'mgs': 0, 'volt': 0.7813, 'depth': -0.293, 'time': 6, 'pitch': -4.44, 'roll': -0.38, 'pres': 160}
{'lipoC2': 7.26, 'lipoC3S1': 3.82, 'temp': 26.31, 'lipoC3S3': 11.54, 'lipoC3S2': 7.64, 'rot1': 7, 'rot0': 7, 'rot3': 0, 'rot2': 0, 'state': 'normal', 'yaw': 0.0, 'datetime': '2018-10-09 20:29:31.567184', 'mgs': 0, 'volt': 0.8057, 'depth': 0.089, 'time': 6, 'pitch': -4.44, 'roll': -0.38, 'pres': 165}
{'lipoC2': 7.27, 'lipoC3S1': 3.82, 'temp': 26.31, 'lipoC3S3': 11.54, 'lipoC3S2': 7.64, 'rot1': 8, 'rot0': 8, 'rot3': 0, 'rot2': 0, 'state': 'normal', 'yaw': 0.0, 'datetime': '2018-10-09 20:29:31.673396', 'mgs': 0, 'volt': 0.7813, 'depth': -0.293, 'time': 6, 'pitch': -4.44, 'roll': -0.38, 'pres': 160}
{'lipoC2': 7.26, 'lipoC3S1': 3.82, 'temp': 26.25, 'lipoC3S3': 11.54, 'lipoC3S2': 7.64, 'rot1': 8, 'rot0': 8, 'rot3': 0, 'rot2': 0, 'state': 'normal', 'yaw': 0.0, 'datetime': '2018-10-09 20:29:31.779006', 'mgs': 0, 'volt': 0.7813, 'depth': -0.293, 'time': 6, 'pitch': -4.44, 'roll': -0.38, 'pres': 160}
{'lipoC2': 7.26, 'lipoC3S1': 3.82, 'temp': 26.25, 'lipoC3S3': 11.54, 'lipoC3S2': 7.64, 'rot1': 8, 'rot0': 8, 'rot3': 0, 'rot2': 0, 'state': 'normal', 'yaw': 0.0, 'datetime': '2018-10-09 20:29:31.882423', 'mgs': 0, 'volt': 0.7813, 'depth': -0.293, 'time': 6, 'pitch': -4.44, 'roll': -0.38, 'pres': 160}
{'lipoC2': 7.26, 'lipoC3S1': 3.82, 'temp': 26.25, 'lipoC3S3': 11.54, 'lipoC3S2': 7.64, 'rot1': 8, 'rot0': 8, 'rot3': 0, 'rot2': 0, 'state': 'normal', 'yaw': 0.0, 'datetime': '2018-10-09 20:29:31.984859', 'mgs': 0, 'volt': 0.7813, 'depth': -0.293, 'time': 6, 'pitch': -4.44, 'roll': -0.38, 'pres': 160}
{'lipoC2': 7.26, 'lipoC3S1': 3.82, 'temp': 26.31, 'lipoC3S3': 11.54, 'lipoC3S2': 7.64, 'rot1': 9, 'rot0': 9, 'rot3': 0, 'rot2': 0, 'state': 'normal', 'yaw': 0.0, 'datetime': '2018-10-09 20:29:32.087247', 'mgs': 0, 'volt': 0.7813, 'depth': -0.293, 'time': 6, 'pitch': -4.44, 'roll': -0.38, 'pres': 160}
{'lipoC2': 7.26, 'lipoC3S1': 3.82, 'temp': 26.31, 'lipoC3S3': 11.54, 'lipoC3S2': 7.64, 'rot1': 9, 'rot0': 9, 'rot3': 0, 'rot2': 0, 'state': 'normal', 'yaw': 0.0, 'datetime': '2018-10-09 20:29:32.190684', 'mgs': 0, 'volt': 0.7813, 'depth': -0.293, 'time': 6, 'pitch': -4.44, 'roll': -0.38, 'pres': 160}
{'lipoC2': 7.26, 'lipoC3S1': 3.82, 'temp': 26.31, 'lipoC3S3': 11.54, 'lipoC3S2': 7.64, 'rot1': 9, 'rot0': 9, 'rot3': 0, 'rot2': 0, 'state': 'normal', 'yaw': 0.0, 'datetime': '2018-10-09 20:29:32.294179', 'mgs': 0, 'volt': 0.7813, 'depth': -0.293, 'time': 7, 'pitch': -4.44, 'roll': -0.38, 'pres': 160}
{'lipoC2': 7.26, 'lipoC3S1': 3.82, 'temp': 26.31, 'lipoC3S3': 11.54, 'lipoC3S2': 7.64, 'rot1': 10, 'rot0': 9, 'rot3': 0, 'rot2': 0, 'state': 'normal', 'yaw': 0.0, 'datetime': '2018-10-09 20:29:32.396784', 'mgs': 0, 'volt': 0.7813, 'depth': -0.293, 'time': 7, 'pitch': -4.44, 'roll': -0.38, 'pres': 160}
{'lipoC2': 7.26, 'lipoC3S1': 3.82, 'temp': 26.31, 'lipoC3S3': 11.54, 'lipoC3S2': 7.64, 'rot1': 10, 'rot0': 10, 'rot3': 0, 'rot2': 0, 'state': 'normal', 'yaw': 0.0, 'datetime': '2018-10-09 20:29:32.499436', 'mgs': 0, 'volt': 0.7813, 'depth': -0.293, 'time': 7, 'pitch': -4.44, 'roll': -0.38, 'pres': 160}
{'lipoC2': 7.26, 'lipoC3S1': 3.82, 'temp': 26.31, 'lipoC3S3': 11.54, 'lipoC3S2': 7.64, 'rot1': 10, 'rot0': 10, 'rot3': 0, 'rot2': 0, 'state': 'normal', 'yaw': 0.0, 'datetime': '2018-10-09 20:29:32.602217', 'mgs': 0, 'volt': 0.7813, 'depth': -0.293, 'time': 7, 'pitch': -4.44, 'roll': -0.38, 'pres': 160}
{'lipoC2': 7.26, 'lipoC3S1': 3.82, 'temp': 26.31, 'lipoC3S3': 11.54, 'lipoC3S2': 7.64, 'rot1': 10, 'rot0': 10, 'rot3': 0, 'rot2': 0, 'state': 'normal', 'yaw': 0.0, 'datetime': '2018-10-09 20:29:32.706084', 'mgs': 0, 'volt': 0.7813, 'depth': -0.293, 'time': 7, 'pitch': -4.44, 'roll': -0.38, 'pres': 160}
{'lipoC2': 7.26, 'lipoC3S1': 3.82, 'temp': 26.31, 'lipoC3S3': 11.54, 'lipoC3S2': 7.64, 'rot1': 11, 'rot0': 11, 'rot3': 0, 'rot2': 0, 'state': 'normal', 'yaw': 0.0, 'datetime': '2018-10-09 20:29:32.808751', 'mgs': 0, 'volt': 0.7861, 'depth': -0.217, 'time': 7, 'pitch': -4.44, 'roll': -0.38, 'pres': 161}
{'lipoC2': 7.26, 'lipoC3S1': 3.82, 'temp': 26.31, 'lipoC3S3': 11.54, 'lipoC3S2': 7.64, 'rot1': 11, 'rot0': 11, 'rot3': 0, 'rot2': 0, 'state': 'normal', 'yaw': 0.0, 'datetime': '2018-10-09 20:29:32.912483', 'mgs': 0, 'volt': 0.7813, 'depth': -0.293, 'time': 7, 'pitch': -4.44, 'roll': -0.38, 'pres': 160}
{'lipoC2': 7.26, 'lipoC3S1': 3.82, 'temp': 26.31, 'lipoC3S3': 11.54, 'lipoC3S2': 7.62, 'rot1': 11, 'rot0': 11, 'rot3': 0, 'rot2': 0, 'state': 'normal', 'yaw': 0.0, 'datetime': '2018-10-09 20:29:33.016220', 'mgs': 0, 'volt': 0.7813, 'depth': -0.293, 'time': 7, 'pitch': -4.44, 'roll': -0.38, 'pres': 160}
{'lipoC2': 7.26, 'lipoC3S1': 3.82, 'temp': 26.31, 'lipoC3S3': 11.56, 'lipoC3S2': 7.64, 'rot1': 11, 'rot0': 11, 'rot3': 0, 'rot2': 0, 'state': 'normal', 'yaw': 0.0, 'datetime': '2018-10-09 20:29:33.119129', 'mgs': 0, 'volt': 0.7813, 'depth': -0.293, 'time': 7, 'pitch': -4.44, 'roll': -0.38, 'pres': 160}
{'lipoC2': 7.26, 'lipoC3S1': 3.82, 'temp': 26.31, 'lipoC3S3': 11.54, 'lipoC3S2': 7.64, 'rot1': 12, 'rot0': 12, 'rot3': 0, 'rot2': 0, 'state': 'normal', 'yaw': 0.0, 'datetime': '2018-10-09 20:29:33.222282', 'mgs': 0, 'volt': 0.7813, 'depth': -0.293, 'time': 7, 'pitch': -4.44, 'roll': -0.38, 'pres': 160}
{'lipoC2': 7.26, 'lipoC3S1': 3.82, 'temp': 26.31, 'lipoC3S3': 11.54, 'lipoC3S2': 7.64, 'rot1': 12, 'rot0': 12, 'rot3': 0, 'rot2': 0, 'state': 'normal', 'yaw': 0.0, 'datetime': '2018-10-09 20:29:33.326037', 'mgs': 0, 'volt': 0.7861, 'depth': -0.217, 'time': 8, 'pitch': -4.44, 'roll': -0.38, 'pres': 161}
{'lipoC2': 7.26, 'lipoC3S1': 3.82, 'temp': 26.31, 'lipoC3S3': 11.54, 'lipoC3S2': 7.64, 'rot1': 12, 'rot0': 12, 'rot3': 0, 'rot2': 0, 'state': 'normal', 'yaw': 0.0, 'datetime': '2018-10-09 20:29:33.428780', 'mgs': 0, 'volt': 0.7861, 'depth': -0.217, 'time': 8, 'pitch': -4.44, 'roll': -0.38, 'pres': 161}
{'lipoC2': 7.26, 'lipoC3S1': 3.82, 'temp': 26.25, 'lipoC3S3': 11.54, 'lipoC3S2': 7.64, 'rot1': 13, 'rot0': 12, 'rot3': 0, 'rot2': 0, 'state': 'normal', 'yaw': 0.0, 'datetime': '2018-10-09 20:29:33.531478', 'mgs': 0, 'volt': 0.7813, 'depth': -0.293, 'time': 8, 'pitch': -4.44, 'roll': -0.38, 'pres': 160}
{'lipoC2': 7.26, 'lipoC3S1': 3.82, 'temp': 26.25, 'lipoC3S3': 11.54, 'lipoC3S2': 7.64, 'rot1': 13, 'rot0': 13, 'rot3': 0, 'rot2': 0, 'state': 'normal', 'yaw': 0.0, 'datetime': '2018-10-09 20:29:33.635303', 'mgs': 0, 'volt': 0.7813, 'depth': -0.293, 'time': 8, 'pitch': -4.44, 'roll': -0.38, 'pres': 160}
{'lipoC2': 7.26, 'lipoC3S1': 3.82, 'temp': 26.25, 'lipoC3S3': 11.54, 'lipoC3S2': 7.64, 'rot1': 13, 'rot0': 13, 'rot3': 0, 'rot2': 0, 'state': 'normal', 'yaw': 0.0, 'datetime': '2018-10-09 20:29:33.738966', 'mgs': 0, 'volt': 0.7861, 'depth': -0.217, 'time': 8, 'pitch': -4.44, 'roll': -0.38, 'pres': 161}
{'lipoC2': 7.26, 'lipoC3S1': 3.81, 'temp': 26.25, 'lipoC3S3': 11.54, 'lipoC3S2': 7.64, 'rot1': 13, 'rot0': 13, 'rot3': 0, 'rot2': 0, 'state': 'normal', 'yaw': 0.0, 'datetime': '2018-10-09 20:29:33.841648', 'mgs': 0, 'volt': 0.7813, 'depth': -0.293, 'time': 8, 'pitch': -4.44, 'roll': -0.38, 'pres': 160}
{'lipoC2': 7.26, 'lipoC3S1': 3.82, 'temp': 26.31, 'lipoC3S3': 11.54, 'lipoC3S2': 7.64, 'rot1': 14, 'rot0': 13, 'rot3': 0, 'rot2': 0, 'state': 'normal', 'yaw': 0.0, 'datetime': '2018-10-09 20:29:33.945349', 'mgs': 0, 'volt': 0.7813, 'depth': -0.293, 'time': 8, 'pitch': -4.44, 'roll': -0.38, 'pres': 160}
{'lipoC2': 7.26, 'lipoC3S1': 3.82, 'temp': 26.31, 'lipoC3S3': 11.54, 'lipoC3S2': 7.64, 'rot1': 14, 'rot0': 14, 'rot3': 0, 'rot2': 0, 'state': 'normal', 'yaw': 0.0, 'datetime': '2018-10-09 20:29:34.049098', 'mgs': 0, 'volt': 0.7861, 'depth': -0.217, 'time': 8, 'pitch': -4.44, 'roll': -0.38, 'pres': 161}
{'lipoC2': 7.26, 'lipoC3S1': 3.82, 'temp': 26.31, 'lipoC3S3': 11.54, 'lipoC3S2': 7.64, 'rot1': 14, 'rot0': 14, 'rot3': 0, 'rot2': 0, 'state': 'normal', 'yaw': 0.0, 'datetime': '2018-10-09 20:29:34.152436', 'mgs': 0, 'volt': 0.7813, 'depth': -0.293, 'time': 8, 'pitch': -4.44, 'roll': -0.38, 'pres': 160}
{'lipoC2': 7.26, 'lipoC3S1': 3.82, 'temp': 26.31, 'lipoC3S3': 11.54, 'lipoC3S2': 7.64, 'rot1': 14, 'rot0': 14, 'rot3': 0, 'rot2': 0, 'state': 'normal', 'yaw': 0.0, 'datetime': '2018-10-09 20:29:34.254531', 'mgs': 0, 'volt': 0.7813, 'depth': -0.293, 'time': 9, 'pitch': -4.44, 'roll': -0.38, 'pres': 160}
{'lipoC2': 7.26, 'lipoC3S1': 3.82, 'temp': 26.31, 'lipoC3S3': 11.54, 'lipoC3S2': 7.64, 'rot1': 15, 'rot0': 15, 'rot3': 0, 'rot2': 0, 'state': 'normal', 'yaw': 0.0, 'datetime': '2018-10-09 20:29:34.357440', 'mgs': 0, 'volt': 0.7813, 'depth': -0.293, 'time': 9, 'pitch': -4.44, 'roll': -0.38, 'pres': 160}
{'lipoC2': 7.26, 'lipoC3S1': 3.82, 'temp': 26.31, 'lipoC3S3': 11.54, 'lipoC3S2': 7.64, 'rot1': 15, 'rot0': 15, 'rot3': 0, 'rot2': 0, 'state': 'normal', 'yaw': 0.0, 'datetime': '2018-10-09 20:29:34.460971', 'mgs': 0, 'volt': 0.7861, 'depth': -0.217, 'time': 9, 'pitch': -4.44, 'roll': -0.38, 'pres': 161}
{'lipoC2': 7.26, 'lipoC3S1': 3.82, 'temp': 26.31, 'lipoC3S3': 11.54, 'lipoC3S2': 7.64, 'rot1': 15, 'rot0': 15, 'rot3': 0, 'rot2': 0, 'state': 'normal', 'yaw': 0.0, 'datetime': '2018-10-09 20:29:34.560953', 'mgs': 0, 'volt': 0.7813, 'depth': -0.293, 'time': 9, 'pitch': -4.44, 'roll': -0.38, 'pres': 160}
{'lipoC2': 7.26, 'lipoC3S1': 3.82, 'temp': 26.19, 'lipoC3S3': 11.54, 'lipoC3S2': 7.64, 'rot1': 15, 'rot0': 15, 'rot3': 0, 'rot2': 0, 'state': 'normal', 'yaw': 0.0, 'datetime': '2018-10-09 20:29:34.663771', 'mgs': 0, 'volt': 0.7813, 'depth': -0.293, 'time': 9, 'pitch': -4.44, 'roll': -0.38, 'pres': 160}
{'lipoC2': 7.26, 'lipoC3S1': 3.82, 'temp': 26.19, 'lipoC3S3': 11.54, 'lipoC3S2': 7.64, 'rot1': 16, 'rot0': 16, 'rot3': 0, 'rot2': 0, 'state': 'normal', 'yaw': 0.0, 'datetime': '2018-10-09 20:29:34.771244', 'mgs': 0, 'volt': 0.7813, 'depth': -0.293, 'time': 9, 'pitch': -4.44, 'roll': -0.38, 'pres': 160}
{'lipoC2': 7.26, 'lipoC3S1': 3.82, 'temp': 26.19, 'lipoC3S3': 11.54, 'lipoC3S2': 7.64, 'rot1': 16, 'rot0': 16, 'rot3': 0, 'rot2': 0, 'state': 'normal', 'yaw': 0.0, 'datetime': '2018-10-09 20:29:34.873969', 'mgs': 0, 'volt': 0.7813, 'depth': -0.293, 'time': 9, 'pitch': -4.44, 'roll': -0.38, 'pres': 160}
{'lipoC2': 7.26, 'lipoC3S1': 3.82, 'temp': 26.25, 'lipoC3S3': 11.54, 'lipoC3S2': 7.64, 'rot1': 16, 'rot0': 16, 'rot3': 0, 'rot2': 0, 'state': 'normal', 'yaw': 0.0, 'datetime': '2018-10-09 20:29:34.977431', 'mgs': 0, 'volt': 0.7813, 'depth': -0.293, 'time': 9, 'pitch': -4.44, 'roll': -0.38, 'pres': 160}
{'lipoC2': 7.26, 'lipoC3S1': 3.82, 'temp': 26.25, 'lipoC3S3': 11.54, 'lipoC3S2': 7.6, 'rot1': 17, 'rot0': 16, 'rot3': 0, 'rot2': 0, 'state': 'normal', 'yaw': 0.0, 'datetime': '2018-10-09 20:29:35.081122', 'mgs': 0, 'volt': 0.7813, 'depth': -0.293, 'time': 9, 'pitch': -4.44, 'roll': -0.38, 'pres': 160}
{'lipoC2': 7.26, 'lipoC3S1': 3.82, 'temp': 26.31, 'lipoC3S3': 11.54, 'lipoC3S2': 7.64, 'rot1': 17, 'rot0': 17, 'rot3': 0, 'rot2': 0, 'state': 'normal', 'yaw': 0.0, 'datetime': '2018-10-09 20:29:35.183890', 'mgs': 0, 'volt': 0.7813, 'depth': -0.293, 'time': 9, 'pitch': -4.44, 'roll': -0.38, 'pres': 160}
{'lipoC2': 7.26, 'lipoC3S1': 3.82, 'temp': 26.31, 'lipoC3S3': 11.54, 'lipoC3S2': 7.64, 'rot1': 17, 'rot0': 17, 'rot3': 0, 'rot2': 0, 'state': 'normal', 'yaw': 0.0, 'datetime': '2018-10-09 20:29:35.286751', 'mgs': 0, 'volt': 0.7861, 'depth': -0.217, 'time': 10, 'pitch': -4.44, 'roll': -0.38, 'pres': 161}
{'lipoC2': 7.26, 'lipoC3S1': 3.82, 'temp': 26.25, 'lipoC3S3': 11.54, 'lipoC3S2': 7.6, 'rot1': 17, 'rot0': 17, 'rot3': 0, 'rot2': 0, 'state': 'normal', 'yaw': 0.0, 'datetime': '2018-10-09 20:29:35.390694', 'mgs': 0, 'volt': 0.7861, 'depth': -0.217, 'time': 10, 'pitch': -4.44, 'roll': -0.38, 'pres': 161}
{'lipoC2': 7.26, 'lipoC3S1': 3.82, 'temp': 26.25, 'lipoC3S3': 11.54, 'lipoC3S2': 7.58, 'rot1': 18, 'rot0': 17, 'rot3': 0, 'rot2': 0, 'state': 'normal', 'yaw': 0.0, 'datetime': '2018-10-09 20:29:35.494043', 'mgs': 0, 'volt': 0.7813, 'depth': -0.293, 'time': 10, 'pitch': -4.44, 'roll': -0.38, 'pres': 160}
{'lipoC2': 7.26, 'lipoC3S1': 3.82, 'temp': 26.25, 'lipoC3S3': 11.54, 'lipoC3S2': 7.64, 'rot1': 18, 'rot0': 18, 'rot3': 0, 'rot2': 0, 'state': 'normal', 'yaw': 0.0, 'datetime': '2018-10-09 20:29:35.596911', 'mgs': 0, 'volt': 0.7813, 'depth': -0.293, 'time': 10, 'pitch': -4.44, 'roll': -0.38, 'pres': 160}
{'lipoC2': 7.26, 'lipoC3S1': 3.81, 'temp': 26.19, 'lipoC3S3': 11.54, 'lipoC3S2': 7.64, 'rot1': 18, 'rot0': 18, 'rot3': 0, 'rot2': 0, 'state': 'normal', 'yaw': 0.0, 'datetime': '2018-10-09 20:29:35.700812', 'mgs': 0, 'volt': 0.7813, 'depth': -0.293, 'time': 10, 'pitch': -4.44, 'roll': -0.38, 'pres': 160}
{'lipoC2': 7.26, 'lipoC3S1': 3.82, 'temp': 26.19, 'lipoC3S3': 11.54, 'lipoC3S2': 7.64, 'rot1': 18, 'rot0': 18, 'rot3': 0, 'rot2': 0, 'state': 'normal', 'yaw': 0.0, 'datetime': '2018-10-09 20:29:35.804787', 'mgs': 0, 'volt': 0.8057, 'depth': 0.089, 'time': 10, 'pitch': -4.44, 'roll': -0.38, 'pres': 165}
{'lipoC2': 7.26, 'lipoC3S1': 3.82, 'temp': 26.25, 'lipoC3S3': 11.54, 'lipoC3S2': 7.64, 'rot1': 19, 'rot0': 19, 'rot3': 0, 'rot2': 0, 'state': 'normal', 'yaw': 0.0, 'datetime': '2018-10-09 20:29:35.907651', 'mgs': 0, 'volt': 0.7861, 'depth': -0.217, 'time': 10, 'pitch': -4.44, 'roll': -0.38, 'pres': 161}
{'lipoC2': 7.26, 'lipoC3S1': 3.82, 'temp': 26.25, 'lipoC3S3': 11.54, 'lipoC3S2': 7.64, 'rot1': 19, 'rot0': 19, 'rot3': 0, 'rot2': 0, 'state': 'normal', 'yaw': 0.0, 'datetime': '2018-10-09 20:29:36.010496', 'mgs': 0, 'volt': 0.7813, 'depth': -0.293, 'time': 10, 'pitch': -4.44, 'roll': -0.38, 'pres': 160}
{'lipoC2': 7.26, 'lipoC3S1': 3.82, 'temp': 26.19, 'lipoC3S3': 11.54, 'lipoC3S2': 7.64, 'rot1': 19, 'rot0': 19, 'rot3': 0, 'rot2': 0, 'state': 'normal', 'yaw': 0.0, 'datetime': '2018-10-09 20:29:36.114250', 'mgs': 0, 'volt': 0.7813, 'depth': -0.293, 'time': 10, 'pitch': -4.44, 'roll': -0.38, 'pres': 160}
{'lipoC2': 7.26, 'lipoC3S1': 3.81, 'temp': 26.19, 'lipoC3S3': 11.54, 'lipoC3S2': 7.64, 'rot1': 20, 'rot0': 19, 'rot3': 0, 'rot2': 0, 'state': 'normal', 'yaw': 0.0, 'datetime': '2018-10-09 20:29:36.216967', 'mgs': 0, 'volt': 0.7813, 'depth': -0.293, 'time': 10, 'pitch': -4.44, 'roll': -0.38, 'pres': 160}
{'lipoC2': 7.26, 'lipoC3S1': 3.82, 'temp': 26.19, 'lipoC3S3': 11.54, 'lipoC3S2': 7.64, 'rot1': 20, 'rot0': 20, 'rot3': 0, 'rot2': 0, 'state': 'normal', 'yaw': 0.0, 'datetime': '2018-10-09 20:29:36.319872', 'mgs': 0, 'volt': 0.7861, 'depth': -0.217, 'time': 11, 'pitch': -4.44, 'roll': -0.38, 'pres': 161}
{'lipoC2': 7.26, 'lipoC3S1': 3.78, 'temp': 26.31, 'lipoC3S3': 11.54, 'lipoC3S2': 7.64, 'rot1': 20, 'rot0': 20, 'rot3': 0, 'rot2': 0, 'state': 'normal', 'yaw': 0.0, 'datetime': '2018-10-09 20:29:36.423900', 'mgs': 0, 'volt': 0.7813, 'depth': -0.293, 'time': 11, 'pitch': -4.44, 'roll': -0.38, 'pres': 160}
{'lipoC2': 7.26, 'lipoC3S1': 3.81, 'temp': 26.31, 'lipoC3S3': 11.54, 'lipoC3S2': 7.64, 'rot1': 20, 'rot0': 20, 'rot3': 0, 'rot2': 0, 'state': 'normal', 'yaw': 0.0, 'datetime': '2018-10-09 20:29:36.527157', 'mgs': 0, 'volt': 0.7813, 'depth': -0.293, 'time': 11, 'pitch': -4.44, 'roll': -0.38, 'pres': 160}
{'lipoC2': 7.26, 'lipoC3S1': 3.81, 'temp': 26.31, 'lipoC3S3': 11.54, 'lipoC3S2': 7.64, 'rot1': 21, 'rot0': 20, 'rot3': 0, 'rot2': 0, 'state': 'normal', 'yaw': 0.0, 'datetime': '2018-10-09 20:29:36.629966', 'mgs': 0, 'volt': 0.7861, 'depth': -0.217, 'time': 11, 'pitch': -4.44, 'roll': -0.38, 'pres': 161}
{'lipoC2': 7.26, 'lipoC3S1': 3.82, 'temp': 26.31, 'lipoC3S3': 11.54, 'lipoC3S2': 7.64, 'rot1': 21, 'rot0': 21, 'rot3': 0, 'rot2': 0, 'state': 'normal', 'yaw': 0.0, 'datetime': '2018-10-09 20:29:36.733901', 'mgs': 0, 'volt': 0.7861, 'depth': -0.217, 'time': 11, 'pitch': -4.44, 'roll': -0.38, 'pres': 161}
{'lipoC2': 7.26, 'lipoC3S1': 3.81, 'temp': 26.31, 'lipoC3S3': 11.54, 'lipoC3S2': 7.64, 'rot1': 21, 'rot0': 21, 'rot3': 0, 'rot2': 0, 'state': 'normal', 'yaw': 0.0, 'datetime': '2018-10-09 20:29:36.837553', 'mgs': 0, 'volt': 0.7813, 'depth': -0.293, 'time': 11, 'pitch': -4.44, 'roll': -0.38, 'pres': 160}
{'lipoC2': 7.26, 'lipoC3S1': 3.82, 'temp': 26.19, 'lipoC3S3': 11.54, 'lipoC3S2': 7.64, 'rot1': 21, 'rot0': 21, 'rot3': 0, 'rot2': 0, 'state': 'normal', 'yaw': 0.0, 'datetime': '2018-10-09 20:29:36.940415', 'mgs': 0, 'volt': 0.7813, 'depth': -0.293, 'time': 11, 'pitch': -4.44, 'roll': -0.38, 'pres': 160}
{'lipoC2': 7.26, 'lipoC3S1': 3.82, 'temp': 26.19, 'lipoC3S3': 11.54, 'lipoC3S2': 7.64, 'rot1': 22, 'rot0': 21, 'rot3': 0, 'rot2': 0, 'state': 'normal', 'yaw': 0.0, 'datetime': '2018-10-09 20:29:37.044282', 'mgs': 0, 'volt': 0.7813, 'depth': -0.293, 'time': 11, 'pitch': -4.44, 'roll': -0.38, 'pres': 160}
{'lipoC2': 7.26, 'lipoC3S1': 3.82, 'temp': 26.31, 'lipoC3S3': 11.54, 'lipoC3S2': 7.63, 'rot1': 22, 'rot0': 22, 'rot3': 0, 'rot2': 0, 'state': 'normal', 'yaw': 0.0, 'datetime': '2018-10-09 20:29:37.148291', 'mgs': 0, 'volt': 0.7813, 'depth': -0.293, 'time': 11, 'pitch': -4.44, 'roll': -0.38, 'pres': 160}
{'lipoC2': 7.26, 'lipoC3S1': 3.82, 'temp': 26.31, 'lipoC3S3': 11.54, 'lipoC3S2': 7.64, 'rot1': 22, 'rot0': 22, 'rot3': 0, 'rot2': 0, 'state': 'normal', 'yaw': 0.0, 'datetime': '2018-10-09 20:29:37.251050', 'mgs': 0, 'volt': 0.7813, 'depth': -0.293, 'time': 12, 'pitch': -4.44, 'roll': -0.38, 'pres': 160}
{'lipoC2': 7.26, 'lipoC3S1': 3.81, 'temp': 26.38, 'lipoC3S3': 11.54, 'lipoC3S2': 7.64, 'rot1': 22, 'rot0': 22, 'rot3': 0, 'rot2': 0, 'state': 'normal', 'yaw': 0.0, 'datetime': '2018-10-09 20:29:37.354978', 'mgs': 0, 'volt': 0.7861, 'depth': -0.217, 'time': 12, 'pitch': -4.44, 'roll': -0.38, 'pres': 161}
{'lipoC2': 7.26, 'lipoC3S1': 3.82, 'temp': 26.38, 'lipoC3S3': 11.54, 'lipoC3S2': 7.64, 'rot1': 23, 'rot0': 23, 'rot3': 0, 'rot2': 0, 'state': 'normal', 'yaw': 0.0, 'datetime': '2018-10-09 20:29:37.458959', 'mgs': 0, 'volt': 0.7813, 'depth': -0.293, 'time': 12, 'pitch': -4.44, 'roll': -0.38, 'pres': 160}
{'lipoC2': 7.26, 'lipoC3S1': 3.82, 'temp': 26.38, 'lipoC3S3': 11.54, 'lipoC3S2': 7.64, 'rot1': 23, 'rot0': 23, 'rot3': 0, 'rot2': 0, 'state': 'normal', 'yaw': 0.0, 'datetime': '2018-10-09 20:29:37.562388', 'mgs': 0, 'volt': 0.7813, 'depth': -0.293, 'time': 12, 'pitch': -4.44, 'roll': -0.38, 'pres': 160}
{'lipoC2': 7.27, 'lipoC3S1': 3.82, 'temp': 26.25, 'lipoC3S3': 11.54, 'lipoC3S2': 7.64, 'rot1': 23, 'rot0': 23, 'rot3': 0, 'rot2': 0, 'state': 'normal', 'yaw': 0.0, 'datetime': '2018-10-09 20:29:37.662437', 'mgs': 0, 'volt': 0.7813, 'depth': -0.293, 'time': 12, 'pitch': -4.44, 'roll': -0.38, 'pres': 160}
{'lipoC2': 7.26, 'lipoC3S1': 3.82, 'temp': 26.25, 'lipoC3S3': 11.54, 'lipoC3S2': 7.64, 'rot1': 24, 'rot0': 23, 'rot3': 0, 'rot2': 0, 'state': 'normal', 'yaw': 0.0, 'datetime': '2018-10-09 20:29:37.767634', 'mgs': 0, 'volt': 0.7813, 'depth': -0.293, 'time': 12, 'pitch': -4.44, 'roll': -0.38, 'pres': 160}
{'lipoC2': 7.26, 'lipoC3S1': 3.78, 'temp': 26.25, 'lipoC3S3': 11.54, 'lipoC3S2': 7.64, 'rot1': 24, 'rot0': 24, 'rot3': 0, 'rot2': 0, 'state': 'normal', 'yaw': 0.0, 'datetime': '2018-10-09 20:29:37.870862', 'mgs': 0, 'volt': 0.7813, 'depth': -0.293, 'time': 12, 'pitch': -4.44, 'roll': -0.38, 'pres': 160}
{'lipoC2': 7.26, 'lipoC3S1': 3.82, 'temp': 26.25, 'lipoC3S3': 11.48, 'lipoC3S2': 7.64, 'rot1': 24, 'rot0': 24, 'rot3': 0, 'rot2': 0, 'state': 'normal', 'yaw': 0.0, 'datetime': '2018-10-09 20:29:37.973673', 'mgs': 0, 'volt': 0.7813, 'depth': -0.293, 'time': 12, 'pitch': -4.44, 'roll': -0.38, 'pres': 160}
{'lipoC2': 7.26, 'lipoC3S1': 3.82, 'temp': 26.31, 'lipoC3S3': 11.54, 'lipoC3S2': 7.64, 'rot1': 24, 'rot0': 24, 'rot3': 0, 'rot2': 0, 'state': 'normal', 'yaw': 0.0, 'datetime': '2018-10-09 20:29:38.077555', 'mgs': 0, 'volt': 0.7861, 'depth': -0.217, 'time': 12, 'pitch': -4.44, 'roll': -0.38, 'pres': 161}
{'lipoC2': 7.26, 'lipoC3S1': 3.82, 'temp': 26.31, 'lipoC3S3': 11.54, 'lipoC3S2': 7.59, 'rot1': 25, 'rot0': 24, 'rot3': 0, 'rot2': 0, 'state': 'normal', 'yaw': 0.0, 'datetime': '2018-10-09 20:29:38.181334', 'mgs': 0, 'volt': 0.7813, 'depth': -0.293, 'time': 12, 'pitch': -4.44, 'roll': -0.38, 'pres': 160}
{'lipoC2': 7.26, 'lipoC3S1': 3.82, 'temp': 26.31, 'lipoC3S3': 11.54, 'lipoC3S2': 7.64, 'rot1': 25, 'rot0': 25, 'rot3': 0, 'rot2': 0, 'state': 'normal', 'yaw': 0.0, 'datetime': '2018-10-09 20:29:38.284193', 'mgs': 0, 'volt': 0.7861, 'depth': -0.217, 'time': 13, 'pitch': -4.44, 'roll': -0.38, 'pres': 161}
{'lipoC2': 7.26, 'lipoC3S1': 3.82, 'temp': 26.25, 'lipoC3S3': 11.54, 'lipoC3S2': 7.64, 'rot1': 25, 'rot0': 25, 'rot3': 0, 'rot2': 0, 'state': 'normal', 'yaw': 0.0, 'datetime': '2018-10-09 20:29:38.388057', 'mgs': 0, 'volt': 0.7813, 'depth': -0.293, 'time': 13, 'pitch': -4.44, 'roll': -0.38, 'pres': 160}
{'lipoC2': 7.26, 'lipoC3S1': 3.82, 'temp': 26.25, 'lipoC3S3': 11.54, 'lipoC3S2': 7.64, 'rot1': 25, 'rot0': 25, 'rot3': 0, 'rot2': 0, 'state': 'normal', 'yaw': 0.0, 'datetime': '2018-10-09 20:29:38.492109', 'mgs': 0, 'volt': 0.7813, 'depth': -0.293, 'time': 13, 'pitch': -4.44, 'roll': -0.38, 'pres': 160}
{'lipoC2': 7.26, 'lipoC3S1': 3.82, 'temp': 26.31, 'lipoC3S3': 11.54, 'lipoC3S2': 7.64, 'rot1': 26, 'rot0': 25, 'rot3': 0, 'rot2': 0, 'state': 'normal', 'yaw': 0.0, 'datetime': '2018-10-09 20:29:38.594937', 'mgs': 0, 'volt': 0.7813, 'depth': -0.293, 'time': 13, 'pitch': -4.44, 'roll': -0.38, 'pres': 160}
{'lipoC2': 7.26, 'lipoC3S1': 3.81, 'temp': 26.31, 'lipoC3S3': 11.51, 'lipoC3S2': 7.64, 'rot1': 26, 'rot0': 26, 'rot3': 0, 'rot2': 0, 'state': 'normal', 'yaw': 0.0, 'datetime': '2018-10-09 20:29:38.698689', 'mgs': 0, 'volt': 0.7813, 'depth': -0.293, 'time': 13, 'pitch': -4.44, 'roll': -0.38, 'pres': 160}
{'lipoC2': 7.26, 'lipoC3S1': 3.82, 'temp': 26.31, 'lipoC3S3': 11.54, 'lipoC3S2': 7.64, 'rot1': 26, 'rot0': 26, 'rot3': 0, 'rot2': 0, 'state': 'normal', 'yaw': 0.0, 'datetime': '2018-10-09 20:29:38.802533', 'mgs': 0, 'volt': 0.7813, 'depth': -0.293, 'time': 13, 'pitch': -4.44, 'roll': -0.38, 'pres': 160}
{'lipoC2': 7.26, 'lipoC3S1': 3.81, 'temp': 26.31, 'lipoC3S3': 11.54, 'lipoC3S2': 7.64, 'rot1': 27, 'rot0': 26, 'rot3': 0, 'rot2': 0, 'state': 'normal', 'yaw': 0.0, 'datetime': '2018-10-09 20:29:38.905341', 'mgs': 0, 'volt': 0.7813, 'depth': -0.293, 'time': 13, 'pitch': -4.44, 'roll': -0.38, 'pres': 160}
{'lipoC2': 7.26, 'lipoC3S1': 3.82, 'temp': 26.31, 'lipoC3S3': 11.54, 'lipoC3S2': 7.64, 'rot1': 27, 'rot0': 27, 'rot3': 0, 'rot2': 0, 'state': 'normal', 'yaw': 0.0, 'datetime': '2018-10-09 20:29:39.009268', 'mgs': 0, 'volt': 0.7861, 'depth': -0.217, 'time': 13, 'pitch': -4.44, 'roll': -0.38, 'pres': 161}
{'lipoC2': 7.26, 'lipoC3S1': 3.82, 'temp': 26.31, 'lipoC3S3': 11.54, 'lipoC3S2': 7.64, 'rot1': 27, 'rot0': 27, 'rot3': 0, 'rot2': 0, 'state': 'normal', 'yaw': 0.0, 'datetime': '2018-10-09 20:29:39.113213', 'mgs': 0, 'volt': 0.7813, 'depth': -0.293, 'time': 13, 'pitch': -4.44, 'roll': -0.38, 'pres': 160}
{'lipoC2': 7.26, 'lipoC3S1': 3.82, 'temp': 26.31, 'lipoC3S3': 11.54, 'lipoC3S2': 7.64, 'rot1': 27, 'rot0': 27, 'rot3': 0, 'rot2': 0, 'state': 'normal', 'yaw': 0.0, 'datetime': '2018-10-09 20:29:39.215958', 'mgs': 0, 'volt': 0.7813, 'depth': -0.293, 'time': 13, 'pitch': -4.44, 'roll': -0.38, 'pres': 160}
{'lipoC2': 7.26, 'lipoC3S1': 3.82, 'temp': 26.25, 'lipoC3S3': 11.54, 'lipoC3S2': 7.64, 'rot1': 28, 'rot0': 27, 'rot3': 0, 'rot2': 0, 'state': 'normal', 'yaw': 0.0, 'datetime': '2018-10-09 20:29:39.318796', 'mgs': 0, 'volt': 0.7813, 'depth': -0.293, 'time': 14, 'pitch': -4.44, 'roll': -0.38, 'pres': 160}
{'lipoC2': 7.26, 'lipoC3S1': 3.82, 'temp': 26.25, 'lipoC3S3': 11.54, 'lipoC3S2': 7.62, 'rot1': 28, 'rot0': 28, 'rot3': 0, 'rot2': 0, 'state': 'normal', 'yaw': 0.06, 'datetime': '2018-10-09 20:29:39.421680', 'mgs': 0, 'volt': 0.7813, 'depth': -0.293, 'time': 14, 'pitch': -4.44, 'roll': -0.38, 'pres': 160}
{'lipoC2': 7.26, 'lipoC3S1': 3.82, 'temp': 26.25, 'lipoC3S3': 11.55, 'lipoC3S2': 7.64, 'rot1': 28, 'rot0': 28, 'rot3': 0, 'rot2': 0, 'state': 'normal', 'yaw': 0.06, 'datetime': '2018-10-09 20:29:39.525268', 'mgs': 0, 'volt': 0.7861, 'depth': -0.217, 'time': 14, 'pitch': -4.44, 'roll': -0.38, 'pres': 161}
{'lipoC2': 7.26, 'lipoC3S1': 3.81, 'temp': 26.25, 'lipoC3S3': 11.54, 'lipoC3S2': 7.64, 'rot1': 28, 'rot0': 28, 'rot3': 0, 'rot2': 0, 'state': 'normal', 'yaw': 0.25, 'datetime': '2018-10-09 20:29:39.628026', 'mgs': 0, 'volt': 0.8057, 'depth': 0.089, 'time': 14, 'pitch': -4.44, 'roll': -0.38, 'pres': 165}
{'lipoC2': 7.26, 'lipoC3S1': 3.82, 'temp': 26.25, 'lipoC3S3': 11.54, 'lipoC3S2': 7.59, 'rot1': 29, 'rot0': 28, 'rot3': 0, 'rot2': 0, 'state': 'normal', 'yaw': 0.31, 'datetime': '2018-10-09 20:29:39.731992', 'mgs': 0, 'volt': 0.7813, 'depth': -0.293, 'time': 14, 'pitch': -4.44, 'roll': -0.38, 'pres': 160}
{'lipoC2': 7.26, 'lipoC3S1': 3.82, 'temp': 26.31, 'lipoC3S3': 11.54, 'lipoC3S2': 7.64, 'rot1': 29, 'rot0': 29, 'rot3': 0, 'rot2': 0, 'state': 'normal', 'yaw': 0.31, 'datetime': '2018-10-09 20:29:39.835829', 'mgs': 0, 'volt': 0.7813, 'depth': -0.293, 'time': 14, 'pitch': -4.38, 'roll': -0.44, 'pres': 160}
{'lipoC2': 7.26, 'lipoC3S1': 3.81, 'temp': 26.31, 'lipoC3S3': 11.54, 'lipoC3S2': 7.64, 'rot1': 29, 'rot0': 29, 'rot3': 0, 'rot2': 0, 'state': 'normal', 'yaw': 0.31, 'datetime': '2018-10-09 20:29:39.932833', 'mgs': 0, 'volt': 0.7813, 'depth': -0.293, 'time': 14, 'pitch': -4.38, 'roll': -0.44, 'pres': 160}
{'lipoC2': 7.26, 'lipoC3S1': 3.82, 'temp': 26.25, 'lipoC3S3': 11.54, 'lipoC3S2': 7.64, 'rot1': 30, 'rot0': 29, 'rot3': 0, 'rot2': 0, 'state': 'normal', 'yaw': 0.31, 'datetime': '2018-10-09 20:29:40.042712', 'mgs': 0, 'volt': 0.7813, 'depth': -0.293, 'time': 14, 'pitch': -4.38, 'roll': -0.44, 'pres': 160}
{'lipoC2': 7.26, 'lipoC3S1': 3.82, 'temp': 26.25, 'lipoC3S3': 11.54, 'lipoC3S2': 7.64, 'rot1': 30, 'rot0': 29, 'rot3': 0, 'rot2': 0, 'state': 'normal', 'yaw': 0.31, 'datetime': '2018-10-09 20:29:40.146641', 'mgs': 0, 'volt': 0.7813, 'depth': -0.293, 'time': 14, 'pitch': -4.38, 'roll': -0.44, 'pres': 160}
{'lipoC2': 7.26, 'lipoC3S1': 3.82, 'temp': 26.31, 'lipoC3S3': 11.54, 'lipoC3S2': 7.64, 'rot1': 30, 'rot0': 30, 'rot3': 0, 'rot2': 0, 'state': 'normal', 'yaw': 0.31, 'datetime': '2018-10-09 20:29:40.249488', 'mgs': 0, 'volt': 0.7813, 'depth': -0.293, 'time': 15, 'pitch': -4.44, 'roll': -0.38, 'pres': 160}
{'lipoC2': 7.26, 'lipoC3S1': 3.81, 'temp': 26.31, 'lipoC3S3': 11.54, 'lipoC3S2': 7.64, 'rot1': 31, 'rot0': 30, 'rot3': 0, 'rot2': 0, 'state': 'normal', 'yaw': 0.38, 'datetime': '2018-10-09 20:29:40.353437', 'mgs': 0, 'volt': 0.7813, 'depth': -0.293, 'time': 15, 'pitch': -4.44, 'roll': -0.38, 'pres': 160}
{'lipoC2': 7.26, 'lipoC3S1': 3.82, 'temp': 26.31, 'lipoC3S3': 11.54, 'lipoC3S2': 7.64, 'rot1': 31, 'rot0': 30, 'rot3': 0, 'rot2': 0, 'state': 'normal', 'yaw': 1.13, 'datetime': '2018-10-09 20:29:40.457376', 'mgs': 0, 'volt': 0.7813, 'depth': -0.293, 'time': 15, 'pitch': -4.19, 'roll': -0.5, 'pres': 160}
{'lipoC2': 7.26, 'lipoC3S1': 3.81, 'temp': 26.31, 'lipoC3S3': 11.54, 'lipoC3S2': 7.64, 'rot1': 31, 'rot0': 31, 'rot3': 0, 'rot2': 0, 'state': 'normal', 'yaw': 2.94, 'datetime': '2018-10-09 20:29:40.559648', 'mgs': 0, 'volt': 0.7813, 'depth': -0.293, 'time': 15, 'pitch': -4.13, 'roll': -0.69, 'pres': 160}
{'lipoC2': 7.26, 'lipoC3S1': 3.82, 'temp': 26.31, 'lipoC3S3': 11.54, 'lipoC3S2': 7.64, 'rot1': 31, 'rot0': 31, 'rot3': 0, 'rot2': 0, 'state': 'normal', 'yaw': 4.5, 'datetime': '2018-10-09 20:29:40.662406', 'mgs': 0, 'volt': 0.7813, 'depth': -0.293, 'time': 15, 'pitch': -4.19, 'roll': -0.75, 'pres': 160}
{'lipoC2': 7.26, 'lipoC3S1': 3.82, 'temp': 26.25, 'lipoC3S3': 11.56, 'lipoC3S2': 7.64, 'rot1': 31, 'rot0': 31, 'rot3': 0, 'rot2': 0, 'state': 'normal', 'yaw': 5.13, 'datetime': '2018-10-09 20:29:40.768333', 'mgs': 0, 'volt': 0.7813, 'depth': -0.293, 'time': 15, 'pitch': -4.19, 'roll': -0.81, 'pres': 160}
{'lipoC2': 7.26, 'lipoC3S1': 3.82, 'temp': 26.25, 'lipoC3S3': 11.54, 'lipoC3S2': 7.64, 'rot1': 32, 'rot0': 31, 'rot3': 0, 'rot2': 0, 'state': 'normal', 'yaw': 5.13, 'datetime': '2018-10-09 20:29:40.871325', 'mgs': 0, 'volt': 0.7861, 'depth': -0.217, 'time': 15, 'pitch': -4.13, 'roll': -0.81, 'pres': 161}
{'lipoC2': 7.26, 'lipoC3S1': 3.82, 'temp': 26.25, 'lipoC3S3': 11.54, 'lipoC3S2': 7.64, 'rot1': 32, 'rot0': 31, 'rot3': 0, 'rot2': 0, 'state': 'normal', 'yaw': 5.13, 'datetime': '2018-10-09 20:29:40.974186', 'mgs': 0, 'volt': 0.7861, 'depth': -0.217, 'time': 15, 'pitch': -4.19, 'roll': -0.81, 'pres': 161}
{'lipoC2': 7.26, 'lipoC3S1': 3.82, 'temp': 26.25, 'lipoC3S3': 11.54, 'lipoC3S2': 7.64, 'rot1': 32, 'rot0': 31, 'rot3': 0, 'rot2': 0, 'state': 'normal', 'yaw': 5.13, 'datetime': '2018-10-09 20:29:41.077978', 'mgs': 0, 'volt': 0.7813, 'depth': -0.293, 'time': 15, 'pitch': -4.19, 'roll': -0.81, 'pres': 160}
{'lipoC2': 7.26, 'lipoC3S1': 3.82, 'temp': 26.25, 'lipoC3S3': 11.54, 'lipoC3S2': 7.64, 'rot1': 32, 'rot0': 31, 'rot3': 0, 'rot2': 0, 'state': 'normal', 'yaw': 5.13, 'datetime': '2018-10-09 20:29:41.180853', 'mgs': 0, 'volt': 0.7813, 'depth': -0.293, 'time': 15, 'pitch': -4.19, 'roll': -0.81, 'pres': 160}
{'lipoC2': 7.26, 'lipoC3S1': 3.82, 'temp': 26.31, 'lipoC3S3': 11.54, 'lipoC3S2': 7.64, 'rot1': 32, 'rot0': 31, 'rot3': 0, 'rot2': 0, 'state': 'normal', 'yaw': 5.13, 'datetime': '2018-10-09 20:29:41.283776', 'mgs': 0, 'volt': 0.7861, 'depth': -0.217, 'time': 16, 'pitch': -4.25, 'roll': -0.75, 'pres': 161}
{'lipoC2': 7.26, 'lipoC3S1': 3.82, 'temp': 26.31, 'lipoC3S3': 11.54, 'lipoC3S2': 7.64, 'rot1': 32, 'rot0': 31, 'rot3': 0, 'rot2': 0, 'state': 'normal', 'yaw': 5.13, 'datetime': '2018-10-09 20:29:41.387696', 'mgs': 0, 'volt': 0.7861, 'depth': -0.217, 'time': 16, 'pitch': -4.25, 'roll': -0.75, 'pres': 161}
{'lipoC2': 7.26, 'lipoC3S1': 3.82, 'temp': 26.38, 'lipoC3S3': 11.54, 'lipoC3S2': 7.64, 'rot1': 32, 'rot0': 31, 'rot3': 0, 'rot2': 0, 'state': 'normal', 'yaw': 5.13, 'datetime': '2018-10-09 20:29:41.490695', 'mgs': 0, 'volt': 0.8008, 'depth': 0.012, 'time': 16, 'pitch': -4.25, 'roll': -0.75, 'pres': 164}
{'lipoC2': 7.26, 'lipoC3S1': 3.82, 'temp': 26.38, 'lipoC3S3': 11.54, 'lipoC3S2': 7.64, 'rot1': 32, 'rot0': 31, 'rot3': 0, 'rot2': 0, 'state': 'normal', 'yaw': 5.13, 'datetime': '2018-10-09 20:29:41.593720', 'mgs': 0, 'volt': 0.7861, 'depth': -0.217, 'time': 16, 'pitch': -4.25, 'roll': -0.75, 'pres': 161}
{'lipoC2': 7.26, 'lipoC3S1': 3.82, 'temp': 26.25, 'lipoC3S3': 11.54, 'lipoC3S2': 7.64, 'rot1': 32, 'rot0': 31, 'rot3': 0, 'rot2': 0, 'state': 'normal', 'yaw': 5.13, 'datetime': '2018-10-09 20:29:41.697657', 'mgs': 0, 'volt': 0.7861, 'depth': -0.217, 'time': 16, 'pitch': -4.25, 'roll': -0.69, 'pres': 161}
{'lipoC2': 7.26, 'lipoC3S1': 3.82, 'temp': 26.25, 'lipoC3S3': 11.54, 'lipoC3S2': 7.64, 'rot1': 32, 'rot0': 31, 'rot3': 0, 'rot2': 0, 'state': 'normal', 'yaw': 5.13, 'datetime': '2018-10-09 20:29:41.801262', 'mgs': 0, 'volt': 0.7813, 'depth': -0.293, 'time': 16, 'pitch': -4.31, 'roll': -0.69, 'pres': 160}
{'lipoC2': 7.26, 'lipoC3S1': 3.82, 'temp': 26.25, 'lipoC3S3': 11.54, 'lipoC3S2': 7.64, 'rot1': 32, 'rot0': 31, 'rot3': 0, 'rot2': 0, 'state': 'normal', 'yaw': 5.13, 'datetime': '2018-10-09 20:29:41.904187', 'mgs': 0, 'volt': 0.7813, 'depth': -0.293, 'time': 16, 'pitch': -4.31, 'roll': -0.69, 'pres': 160}
{'lipoC2': 7.26, 'lipoC3S1': 3.82, 'temp': 26.31, 'lipoC3S3': 11.54, 'lipoC3S2': 7.64, 'rot1': 32, 'rot0': 31, 'rot3': 0, 'rot2': 0, 'state': 'normal', 'yaw': 5.13, 'datetime': '2018-10-09 20:29:42.008008', 'mgs': 0, 'volt': 0.8057, 'depth': 0.089, 'time': 16, 'pitch': -4.31, 'roll': -0.69, 'pres': 165}
{'lipoC2': 7.26, 'lipoC3S1': 3.82, 'temp': 26.31, 'lipoC3S3': 11.54, 'lipoC3S2': 7.59, 'rot1': 32, 'rot0': 31, 'rot3': 0, 'rot2': 0, 'state': 'normal', 'yaw': 5.13, 'datetime': '2018-10-09 20:29:42.111992', 'mgs': 0, 'volt': 0.7861, 'depth': -0.217, 'time': 16, 'pitch': -4.31, 'roll': -0.69, 'pres': 161}
{'lipoC2': 7.26, 'lipoC3S1': 3.82, 'temp': 26.25, 'lipoC3S3': 11.54, 'lipoC3S2': 7.64, 'rot1': 32, 'rot0': 31, 'rot3': 0, 'rot2': 0, 'state': 'normal', 'yaw': 5.13, 'datetime': '2018-10-09 20:29:42.214759', 'mgs': 0, 'volt': 0.7813, 'depth': -0.293, 'time': 16, 'pitch': -4.31, 'roll': -0.69, 'pres': 160}
{'lipoC2': 7.26, 'lipoC3S1': 3.82, 'temp': 26.25, 'lipoC3S3': 11.54, 'lipoC3S2': 7.65, 'rot1': 32, 'rot0': 31, 'rot3': 0, 'rot2': 0, 'state': 'normal', 'yaw': 5.13, 'datetime': '2018-10-09 20:29:42.318756', 'mgs': 0, 'volt': 0.7861, 'depth': -0.217, 'time': 17, 'pitch': -4.31, 'roll': -0.69, 'pres': 161}
{'lipoC2': 7.26, 'lipoC3S1': 3.82, 'temp': 26.25, 'lipoC3S3': 11.54, 'lipoC3S2': 7.64, 'rot1': 32, 'rot0': 31, 'rot3': 0, 'rot2': 0, 'state': 'normal', 'yaw': 5.13, 'datetime': '2018-10-09 20:29:42.422971', 'mgs': 0, 'volt': 0.7813, 'depth': -0.293, 'time': 17, 'pitch': -4.31, 'roll': -0.69, 'pres': 160}
{'lipoC2': 7.26, 'lipoC3S1': 3.82, 'temp': 26.25, 'lipoC3S3': 11.55, 'lipoC3S2': 7.64, 'rot1': 32, 'rot0': 31, 'rot3': 0, 'rot2': 0, 'state': 'normal', 'yaw': 5.06, 'datetime': '2018-10-09 20:29:42.525760', 'mgs': 0, 'volt': 0.7813, 'depth': -0.293, 'time': 17, 'pitch': -4.31, 'roll': -0.69, 'pres': 160}
{'lipoC2': 7.26, 'lipoC3S1': 3.82, 'temp': 26.25, 'lipoC3S3': 11.54, 'lipoC3S2': 7.64, 'rot1': 32, 'rot0': 31, 'rot3': 0, 'rot2': 0, 'state': 'normal', 'yaw': 4.94, 'datetime': '2018-10-09 20:29:42.628880', 'mgs': 0, 'volt': 0.7813, 'depth': -0.293, 'time': 17, 'pitch': -4.31, 'roll': -0.69, 'pres': 160}
{'lipoC2': 7.26, 'lipoC3S1': 3.82, 'temp': 26.25, 'lipoC3S3': 11.54, 'lipoC3S2': 7.64, 'rot1': 32, 'rot0': 31, 'rot3': 0, 'rot2': 0, 'state': 'normal', 'yaw': 4.88, 'datetime': '2018-10-09 20:29:42.732845', 'mgs': 0, 'volt': 0.7813, 'depth': -0.293, 'time': 17, 'pitch': -4.31, 'roll': -0.69, 'pres': 160}
{'lipoC2': 7.26, 'lipoC3S1': 3.82, 'temp': 26.25, 'lipoC3S3': 11.54, 'lipoC3S2': 7.64, 'rot1': 32, 'rot0': 31, 'rot3': 0, 'rot2': 0, 'state': 'normal', 'yaw': 4.75, 'datetime': '2018-10-09 20:29:42.835582', 'mgs': 0, 'volt': 0.8057, 'depth': 0.089, 'time': 17, 'pitch': -4.25, 'roll': -0.69, 'pres': 165}
{'lipoC2': 7.26, 'lipoC3S1': 3.82, 'temp': 26.31, 'lipoC3S3': 11.54, 'lipoC3S2': 7.64, 'rot1': 32, 'rot0': 31, 'rot3': 0, 'rot2': 0, 'state': 'normal', 'yaw': 4.38, 'datetime': '2018-10-09 20:29:42.938375', 'mgs': 0, 'volt': 0.7813, 'depth': -0.293, 'time': 17, 'pitch': -4.25, 'roll': -0.69, 'pres': 160}
{'lipoC2': 7.26, 'lipoC3S1': 3.82, 'temp': 26.31, 'lipoC3S3': 11.54, 'lipoC3S2': 7.64, 'rot1': 32, 'rot0': 31, 'rot3': 0, 'rot2': 0, 'state': 'normal', 'yaw': 3.5, 'datetime': '2018-10-09 20:29:43.041286', 'mgs': 0, 'volt': 0.7813, 'depth': -0.293, 'time': 17, 'pitch': -4.25, 'roll': -0.63, 'pres': 160}
{'lipoC2': 7.26, 'lipoC3S1': 3.82, 'temp': 26.31, 'lipoC3S3': 11.54, 'lipoC3S2': 7.64, 'rot1': 32, 'rot0': 31, 'rot3': 0, 'rot2': 0, 'state': 'normal', 'yaw': 2.13, 'datetime': '2018-10-09 20:29:43.144451', 'mgs': 0, 'volt': 0.7813, 'depth': -0.293, 'time': 17, 'pitch': -4.38, 'roll': -0.5, 'pres': 160}
{'lipoC2': 7.26, 'lipoC3S1': 3.82, 'temp': 26.31, 'lipoC3S3': 11.54, 'lipoC3S2': 7.64, 'rot1': 32, 'rot0': 32, 'rot3': 0, 'rot2': 0, 'state': 'normal', 'yaw': 0.06, 'datetime': '2018-10-09 20:29:43.244517', 'mgs': 0, 'volt': 0.7813, 'depth': -0.293, 'time': 18, 'pitch': -4.38, 'roll': -0.44, 'pres': 160}
{'lipoC2': 7.26, 'lipoC3S1': 3.82, 'temp': 26.31, 'lipoC3S3': 11.54, 'lipoC3S2': 7.62, 'rot1': 32, 'rot0': 32, 'rot3': 0, 'rot2': 0, 'state': 'normal', 'yaw': -2.06, 'datetime': '2018-10-09 20:29:43.344433', 'mgs': 0, 'volt': 0.7861, 'depth': -0.217, 'time': 18, 'pitch': -4.56, 'roll': -0.25, 'pres': 161}
{'lipoC2': 7.26, 'lipoC3S1': 3.81, 'temp': 26.25, 'lipoC3S3': 11.54, 'lipoC3S2': 7.64, 'rot1': 32, 'rot0': 32, 'rot3': 0, 'rot2': 0, 'state': 'normal', 'yaw': -2.63, 'datetime': '2018-10-09 20:29:43.448366', 'mgs': 0, 'volt': 0.7813, 'depth': -0.293, 'time': 18, 'pitch': -4.69, 'roll': -0.13, 'pres': 160}
{'lipoC2': 7.26, 'lipoC3S1': 3.82, 'temp': 26.25, 'lipoC3S3': 11.54, 'lipoC3S2': 7.64, 'rot1': 33, 'rot0': 32, 'rot3': 0, 'rot2': 0, 'state': 'normal', 'yaw': -2.63, 'datetime': '2018-10-09 20:29:43.551278', 'mgs': 0, 'volt': 0.7861, 'depth': -0.217, 'time': 18, 'pitch': -4.69, 'roll': -0.13, 'pres': 161}
{'lipoC2': 7.26, 'lipoC3S1': 3.82, 'temp': 26.25, 'lipoC3S3': 11.54, 'lipoC3S2': 7.64, 'rot1': 33, 'rot0': 33, 'rot3': 0, 'rot2': 0, 'state': 'normal', 'yaw': -2.63, 'datetime': '2018-10-09 20:29:43.655203', 'mgs': 0, 'volt': 0.7813, 'depth': -0.293, 'time': 18, 'pitch': -4.75, 'roll': -0.13, 'pres': 160}
{'lipoC2': 7.26, 'lipoC3S1': 3.81, 'temp': 26.25, 'lipoC3S3': 11.54, 'lipoC3S2': 7.63, 'rot1': 33, 'rot0': 33, 'rot3': 0, 'rot2': 0, 'state': 'normal', 'yaw': -2.63, 'datetime': '2018-10-09 20:29:43.759155', 'mgs': 0, 'volt': 0.7861, 'depth': -0.217, 'time': 18, 'pitch': -4.75, 'roll': -0.13, 'pres': 161}
{'lipoC2': 7.26, 'lipoC3S1': 3.81, 'temp': 26.25, 'lipoC3S3': 11.54, 'lipoC3S2': 7.64, 'rot1': 34, 'rot0': 33, 'rot3': 0, 'rot2': 0, 'state': 'normal', 'yaw': -2.63, 'datetime': '2018-10-09 20:29:43.862042', 'mgs': 0, 'volt': 0.7813, 'depth': -0.293, 'time': 18, 'pitch': -4.75, 'roll': -0.13, 'pres': 160}
{'lipoC2': 7.26, 'lipoC3S1': 3.82, 'temp': 26.25, 'lipoC3S3': 11.54, 'lipoC3S2': 7.64, 'rot1': 34, 'rot0': 33, 'rot3': 0, 'rot2': 0, 'state': 'normal', 'yaw': -2.63, 'datetime': '2018-10-09 20:29:43.965977', 'mgs': 0, 'volt': 0.7813, 'depth': -0.293, 'time': 18, 'pitch': -4.81, 'roll': -0.13, 'pres': 160}
{'lipoC2': 7.26, 'lipoC3S1': 3.82, 'temp': 26.25, 'lipoC3S3': 11.54, 'lipoC3S2': 7.64, 'rot1': 34, 'rot0': 34, 'rot3': 0, 'rot2': 0, 'state': 'normal', 'yaw': -2.63, 'datetime': '2018-10-09 20:29:44.073585', 'mgs': 0, 'volt': 0.7813, 'depth': -0.293, 'time': 18, 'pitch': -4.81, 'roll': -0.13, 'pres': 160}
{'lipoC2': 7.26, 'lipoC3S1': 3.81, 'temp': 26.25, 'lipoC3S3': 11.54, 'lipoC3S2': 7.64, 'rot1': 34, 'rot0': 34, 'rot3': 0, 'rot2': 0, 'state': 'normal', 'yaw': -2.63, 'datetime': '2018-10-09 20:29:44.179489', 'mgs': 0, 'volt': 0.7813, 'depth': -0.293, 'time': 18, 'pitch': -4.81, 'roll': -0.13, 'pres': 160}
{'lipoC2': 7.26, 'lipoC3S1': 3.82, 'temp': 26.25, 'lipoC3S3': 11.54, 'lipoC3S2': 7.64, 'rot1': 35, 'rot0': 34, 'rot3': 0, 'rot2': 0, 'state': 'normal', 'yaw': -2.63, 'datetime': '2018-10-09 20:29:44.281999', 'mgs': 0, 'volt': 0.7813, 'depth': -0.293, 'time': 19, 'pitch': -4.81, 'roll': -0.13, 'pres': 160}
{'lipoC2': 7.26, 'lipoC3S1': 3.81, 'temp': 26.38, 'lipoC3S3': 11.54, 'lipoC3S2': 7.64, 'rot1': 35, 'rot0': 34, 'rot3': 0, 'rot2': 0, 'state': 'normal', 'yaw': -2.63, 'datetime': '2018-10-09 20:29:44.385344', 'mgs': 0, 'volt': 0.7813, 'depth': -0.293, 'time': 19, 'pitch': -4.81, 'roll': -0.13, 'pres': 160}
{'lipoC2': 7.26, 'lipoC3S1': 3.81, 'temp': 26.38, 'lipoC3S3': 11.54, 'lipoC3S2': 7.6, 'rot1': 35, 'rot0': 35, 'rot3': 0, 'rot2': 0, 'state': 'normal', 'yaw': -2.63, 'datetime': '2018-10-09 20:29:44.488793', 'mgs': 0, 'volt': 0.7813, 'depth': -0.293, 'time': 19, 'pitch': -4.81, 'roll': -0.13, 'pres': 160}
{'lipoC2': 7.26, 'lipoC3S1': 3.82, 'temp': 26.25, 'lipoC3S3': 11.54, 'lipoC3S2': 7.64, 'rot1': 35, 'rot0': 35, 'rot3': 0, 'rot2': 0, 'state': 'normal', 'yaw': -2.63, 'datetime': '2018-10-09 20:29:44.591947', 'mgs': 0, 'volt': 0.7813, 'depth': -0.293, 'time': 19, 'pitch': -4.81, 'roll': -0.13, 'pres': 160}
{'lipoC2': 7.26, 'lipoC3S1': 3.82, 'temp': 26.25, 'lipoC3S3': 11.54, 'lipoC3S2': 7.61, 'rot1': 36, 'rot0': 35, 'rot3': 0, 'rot2': 0, 'state': 'normal', 'yaw': -2.63, 'datetime': '2018-10-09 20:29:44.695588', 'mgs': 0, 'volt': 0.7861, 'depth': -0.217, 'time': 19, 'pitch': -4.81, 'roll': -0.13, 'pres': 161}
{'lipoC2': 7.26, 'lipoC3S1': 3.82, 'temp': 26.25, 'lipoC3S3': 11.54, 'lipoC3S2': 7.64, 'rot1': 36, 'rot0': 35, 'rot3': 0, 'rot2': 0, 'state': 'normal', 'yaw': -2.63, 'datetime': '2018-10-09 20:29:44.799352', 'mgs': 0, 'volt': 0.7813, 'depth': -0.293, 'time': 19, 'pitch': -4.81, 'roll': -0.13, 'pres': 160}
{'lipoC2': 7.26, 'lipoC3S1': 3.82, 'temp': 26.31, 'lipoC3S3': 11.54, 'lipoC3S2': 7.64, 'rot1': 36, 'rot0': 36, 'rot3': 0, 'rot2': 0, 'state': 'normal', 'yaw': -2.5, 'datetime': '2018-10-09 20:29:44.902313', 'mgs': 0, 'volt': 0.7861, 'depth': -0.217, 'time': 19, 'pitch': -4.75, 'roll': -0.13, 'pres': 161}
{'lipoC2': 7.26, 'lipoC3S1': 3.82, 'temp': 26.31, 'lipoC3S3': 11.54, 'lipoC3S2': 7.64, 'rot1': 37, 'rot0': 36, 'rot3': 0, 'rot2': 0, 'state': 'normal', 'yaw': -2.31, 'datetime': '2018-10-09 20:29:45.006101', 'mgs': 0, 'volt': 0.7813, 'depth': -0.293, 'time': 19, 'pitch': -4.75, 'roll': -0.13, 'pres': 160}
{'lipoC2': 7.26, 'lipoC3S1': 3.81, 'temp': 26.25, 'lipoC3S3': 11.54, 'lipoC3S2': 7.64, 'rot1': 37, 'rot0': 36, 'rot3': 0, 'rot2': 0, 'state': 'normal', 'yaw': -1.69, 'datetime': '2018-10-09 20:29:45.110142', 'mgs': 0, 'volt': 0.7813, 'depth': -0.293, 'time': 19, 'pitch': -4.63, 'roll': -0.06, 'pres': 160}
{'lipoC2': 7.26, 'lipoC3S1': 3.82, 'temp': 26.25, 'lipoC3S3': 11.54, 'lipoC3S2': 7.64, 'rot1': 37, 'rot0': 37, 'rot3': 0, 'rot2': 0, 'state': 'normal', 'yaw': -0.06, 'datetime': '2018-10-09 20:29:45.213012', 'mgs': 0, 'volt': 0.7813, 'depth': -0.293, 'time': 19, 'pitch': -4.56, 'roll': -0.25, 'pres': 160}
{'lipoC2': 7.26, 'lipoC3S1': 3.82, 'temp': 26.31, 'lipoC3S3': 11.54, 'lipoC3S2': 7.64, 'rot1': 37, 'rot0': 37, 'rot3': 0, 'rot2': 0, 'state': 'normal', 'yaw': 1.75, 'datetime': '2018-10-09 20:29:45.316922', 'mgs': 0, 'volt': 0.7861, 'depth': -0.217, 'time': 20, 'pitch': -4.56, 'roll': -0.31, 'pres': 161}
{'lipoC2': 7.26, 'lipoC3S1': 3.82, 'temp': 26.31, 'lipoC3S3': 11.54, 'lipoC3S2': 7.64, 'rot1': 38, 'rot0': 37, 'rot3': 0, 'rot2': 0, 'state': 'normal', 'yaw': 2.63, 'datetime': '2018-10-09 20:29:45.420890', 'mgs': 0, 'volt': 0.7813, 'depth': -0.293, 'time': 20, 'pitch': -4.5, 'roll': -0.38, 'pres': 160}
