{'lipoC2': 7.98, 'lipoC3S1': 4.17, 'temp': 26.0, 'lipoC3S3': 12.59, 'lipoC3S2': 8.33, 'rot1': 0, 'rot0': 0, 'rot3': 0, 'rot2': 0, 'state': 'normal', 'yaw': 0.0, 'datetime': '2018-10-05 15:22:14.786037', 'mgs': 1, 'volt': 0.7813, 'depth': -0.293, 'time': 1, 'pitch': -5.3, 'roll': -1.33, 'pres': 160}
{'lipoC2': 7.98, 'lipoC3S1': 4.17, 'temp': 26.0, 'lipoC3S3': 12.59, 'lipoC3S2': 8.33, 'rot1': 0, 'rot0': 0, 'rot3': 0, 'rot2': 0, 'state': 'normal', 'yaw': 0.0, 'datetime': '2018-10-05 15:22:20.819061', 'mgs': 1, 'volt': 0.7813, 'depth': -0.293, 'time': 1, 'pitch': -5.3, 'roll': -1.33, 'pres': 160}
{'lipoC2': 7.98, 'lipoC3S1': 4.17, 'temp': 26.0, 'lipoC3S3': 12.59, 'lipoC3S2': 8.33, 'rot1': 0, 'rot0': 0, 'rot3': 0, 'rot2': 0, 'state': 'normal', 'yaw': 0.0, 'datetime': '2018-10-05 15:22:20.851081', 'mgs': 1, 'volt': 0.7813, 'depth': -0.293, 'time': 1, 'pitch': -5.3, 'roll': -1.33, 'pres': 160}
{'lipoC2': 7.98, 'lipoC3S1': 4.17, 'temp': 25.94, 'lipoC3S3': 12.59, 'lipoC3S2': 8.33, 'rot1': 0, 'rot0': 0, 'rot3': 0, 'rot2': 0, 'state': 'normal', 'yaw': 0.0, 'datetime': '2018-10-05 15:22:20.875892', 'mgs': 1, 'volt': 0.7813, 'depth': -0.293, 'time': 1, 'pitch': -5.3, 'roll': -1.33, 'pres': 160}
{'lipoC2': 7.98, 'lipoC3S1': 4.17, 'temp': 25.94, 'lipoC3S3': 12.59, 'lipoC3S2': 8.33, 'rot1': 0, 'rot0': 0, 'rot3': 0, 'rot2': 0, 'state': 'normal', 'yaw': 0.0, 'datetime': '2018-10-05 15:22:20.886198', 'mgs': 1, 'volt': 0.7813, 'depth': -0.293, 'time': 1, 'pitch': -5.3, 'roll': -1.33, 'pres': 160}
{'lipoC2': 7.98, 'lipoC3S1': 4.17, 'temp': 25.94, 'lipoC3S3': 12.59, 'lipoC3S2': 8.33, 'rot1': 0, 'rot0': 0, 'rot3': 0, 'rot2': 0, 'state': 'normal', 'yaw': 0.0, 'datetime': '2018-10-05 15:22:20.911651', 'mgs': 1, 'volt': 0.7813, 'depth': -0.293, 'time': 1, 'pitch': -5.3, 'roll': -1.33, 'pres': 160}
{'lipoC2': 7.98, 'lipoC3S1': 4.17, 'temp': 25.94, 'lipoC3S3': 12.59, 'lipoC3S2': 8.33, 'rot1': 0, 'rot0': 0, 'rot3': 0, 'rot2': 0, 'state': 'normal', 'yaw': 0.0, 'datetime': '2018-10-05 15:22:20.924980', 'mgs': 1, 'volt': 0.7813, 'depth': -0.293, 'time': 2, 'pitch': -5.3, 'roll': -1.33, 'pres': 160}
{'lipoC2': 7.98, 'lipoC3S1': 4.17, 'temp': 25.94, 'lipoC3S3': 12.59, 'lipoC3S2': 8.33, 'rot1': 0, 'rot0': 0, 'rot3': 0, 'rot2': 0, 'state': 'normal', 'yaw': 0.0, 'datetime': '2018-10-05 15:22:20.950941', 'mgs': 1, 'volt': 0.7813, 'depth': -0.293, 'time': 2, 'pitch': -5.3, 'roll': -1.33, 'pres': 160}
{'lipoC2': 7.98, 'lipoC3S1': 4.17, 'temp': 25.94, 'lipoC3S3': 12.59, 'lipoC3S2': 8.33, 'rot1': 0, 'rot0': 0, 'rot3': 0, 'rot2': 0, 'state': 'normal', 'yaw': 0.0, 'datetime': '2018-10-05 15:22:20.964592', 'mgs': 1, 'volt': 0.7813, 'depth': -0.293, 'time': 2, 'pitch': -5.3, 'roll': -1.33, 'pres': 160}
{'lipoC2': 7.98, 'lipoC3S1': 4.17, 'temp': 25.94, 'lipoC3S3': 12.59, 'lipoC3S2': 8.33, 'rot1': 0, 'rot0': 0, 'rot3': 0, 'rot2': 0, 'state': 'normal', 'yaw': 0.0, 'datetime': '2018-10-05 15:22:20.987693', 'mgs': 1, 'volt': 0.7813, 'depth': -0.293, 'time': 2, 'pitch': -5.3, 'roll': -1.33, 'pres': 160}
{'lipoC2': 7.98, 'lipoC3S1': 4.17, 'temp': 25.94, 'lipoC3S3': 12.59, 'lipoC3S2': 8.33, 'rot1': 0, 'rot0': 0, 'rot3': 0, 'rot2': 0, 'state': 'normal', 'yaw': 0.0, 'datetime': '2018-10-05 15:22:20.998061', 'mgs': 1, 'volt': 0.7813, 'depth': -0.293, 'time': 2, 'pitch': -5.3, 'roll': -1.33, 'pres': 160}
{'lipoC2': 7.98, 'lipoC3S1': 4.17, 'temp': 25.94, 'lipoC3S3': 12.59, 'lipoC3S2': 8.33, 'rot1': 0, 'rot0': 0, 'rot3': 0, 'rot2': 0, 'state': 'normal', 'yaw': 0.0, 'datetime': '2018-10-05 15:22:21.023478', 'mgs': 1, 'volt': 0.7813, 'depth': -0.293, 'time': 2, 'pitch': -5.3, 'roll': -1.33, 'pres': 160}
{'lipoC2': 7.98, 'lipoC3S1': 4.17, 'temp': 26.0, 'lipoC3S3': 12.59, 'lipoC3S2': 8.33, 'rot1': 0, 'rot0': 0, 'rot3': 0, 'rot2': 0, 'state': 'normal', 'yaw': 0.0, 'datetime': '2018-10-05 15:22:21.036881', 'mgs': 1, 'volt': 0.7813, 'depth': -0.293, 'time': 2, 'pitch': -5.3, 'roll': -1.33, 'pres': 160}
{'lipoC2': 7.98, 'lipoC3S1': 4.17, 'temp': 26.0, 'lipoC3S3': 12.59, 'lipoC3S2': 8.33, 'rot1': 0, 'rot0': 0, 'rot3': 0, 'rot2': 0, 'state': 'normal', 'yaw': 0.0, 'datetime': '2018-10-05 15:22:21.062606', 'mgs': 1, 'volt': 0.7861, 'depth': -0.217, 'time': 2, 'pitch': -5.3, 'roll': -1.33, 'pres': 161}
{'lipoC2': 7.97, 'lipoC3S1': 4.17, 'temp': 25.94, 'lipoC3S3': 12.59, 'lipoC3S2': 8.33, 'rot1': 0, 'rot0': 0, 'rot3': 0, 'rot2': 0, 'state': 'normal', 'yaw': 0.0, 'datetime': '2018-10-05 15:22:21.087110', 'mgs': 1, 'volt': 0.7813, 'depth': -0.293, 'time': 2, 'pitch': -5.3, 'roll': -1.33, 'pres': 160}
{'lipoC2': 7.98, 'lipoC3S1': 4.17, 'temp': 25.94, 'lipoC3S3': 12.59, 'lipoC3S2': 8.33, 'rot1': 0, 'rot0': 0, 'rot3': 0, 'rot2': 0, 'state': 'normal', 'yaw': 0.0, 'datetime': '2018-10-05 15:22:21.112655', 'mgs': 1, 'volt': 0.7861, 'depth': -0.217, 'time': 1, 'pitch': -5.3, 'roll': -1.33, 'pres': 161}
{'lipoC2': 7.98, 'lipoC3S1': 4.17, 'temp': 25.94, 'lipoC3S3': 12.59, 'lipoC3S2': 8.33, 'rot1': 0, 'rot0': 0, 'rot3': 0, 'rot2': 0, 'state': 'normal', 'yaw': 0.0, 'datetime': '2018-10-05 15:22:21.125923', 'mgs': 1, 'volt': 0.7813, 'depth': -0.293, 'time': 1, 'pitch': -5.3, 'roll': -1.33, 'pres': 160}
{'lipoC2': 7.98, 'lipoC3S1': 4.17, 'temp': 25.94, 'lipoC3S3': 12.59, 'lipoC3S2': 8.33, 'rot1': 0, 'rot0': 0, 'rot3': 0, 'rot2': 0, 'state': 'normal', 'yaw': 0.0, 'datetime': '2018-10-05 15:22:21.151465', 'mgs': 1, 'volt': 0.7861, 'depth': -0.217, 'time': 1, 'pitch': -5.3, 'roll': -1.33, 'pres': 161}
{'lipoC2': 7.98, 'lipoC3S1': 4.17, 'temp': 25.94, 'lipoC3S3': 12.6, 'lipoC3S2': 8.33, 'rot1': 0, 'rot0': 0, 'rot3': 0, 'rot2': 0, 'state': 'normal', 'yaw': 0.0, 'datetime': '2018-10-05 15:22:21.164788', 'mgs': 1, 'volt': 0.7861, 'depth': -0.217, 'time': 1, 'pitch': -5.3, 'roll': -1.33, 'pres': 161}
{'lipoC2': 7.98, 'lipoC3S1': 4.17, 'temp': 25.94, 'lipoC3S3': 12.59, 'lipoC3S2': 8.33, 'rot1': 0, 'rot0': 0, 'rot3': 0, 'rot2': 0, 'state': 'normal', 'yaw': 0.0, 'datetime': '2018-10-05 15:22:21.190339', 'mgs': 1, 'volt': 0.7813, 'depth': -0.293, 'time': 1, 'pitch': -5.3, 'roll': -1.33, 'pres': 160}
{'lipoC2': 7.98, 'lipoC3S1': 4.17, 'temp': 25.94, 'lipoC3S3': 12.6, 'lipoC3S2': 8.33, 'rot1': 0, 'rot0': 0, 'rot3': 0, 'rot2': 0, 'state': 'normal', 'yaw': 0.0, 'datetime': '2018-10-05 15:22:21.203683', 'mgs': 1, 'volt': 0.7813, 'depth': -0.293, 'time': 1, 'pitch': -5.3, 'roll': -1.33, 'pres': 160}
{'lipoC2': 7.98, 'lipoC3S1': 4.17, 'temp': 25.94, 'lipoC3S3': 12.6, 'lipoC3S2': 8.33, 'rot1': 0, 'rot0': 0, 'rot3': 0, 'rot2': 0, 'state': 'normal', 'yaw': 0.0, 'datetime': '2018-10-05 15:22:21.229377', 'mgs': 1, 'volt': 0.7813, 'depth': -0.293, 'time': 1, 'pitch': -5.3, 'roll': -1.33, 'pres': 160}
{'lipoC2': 7.98, 'lipoC3S1': 4.17, 'temp': 25.94, 'lipoC3S3': 12.59, 'lipoC3S2': 8.33, 'rot1': 0, 'rot0': 0, 'rot3': 0, 'rot2': 0, 'state': 'normal', 'yaw': 0.0, 'datetime': '2018-10-05 15:22:21.242689', 'mgs': 1, 'volt': 0.7861, 'depth': -0.217, 'time': 1, 'pitch': -5.3, 'roll': -1.33, 'pres': 161}
{'lipoC2': 7.98, 'lipoC3S1': 4.17, 'temp': 25.94, 'lipoC3S3': 12.59, 'lipoC3S2': 8.33, 'rot1': 0, 'rot0': 0, 'rot3': 0, 'rot2': 0, 'state': 'normal', 'yaw': 0.0, 'datetime': '2018-10-05 15:22:21.268420', 'mgs': 1, 'volt': 0.7813, 'depth': -0.293, 'time': 2, 'pitch': -5.3, 'roll': -1.33, 'pres': 160}
{'lipoC2': 7.98, 'lipoC3S1': 4.17, 'temp': 26.0, 'lipoC3S3': 12.59, 'lipoC3S2': 8.33, 'rot1': 0, 'rot0': 0, 'rot3': 0, 'rot2': 0, 'state': 'normal', 'yaw': 0.0, 'datetime': '2018-10-05 15:22:21.281761', 'mgs': 1, 'volt': 0.7813, 'depth': -0.293, 'time': 2, 'pitch': -5.3, 'roll': -1.33, 'pres': 160}
{'lipoC2': 7.98, 'lipoC3S1': 4.17, 'temp': 26.0, 'lipoC3S3': 12.59, 'lipoC3S2': 8.33, 'rot1': 0, 'rot0': 0, 'rot3': 0, 'rot2': 0, 'state': 'normal', 'yaw': 0.0, 'datetime': '2018-10-05 15:22:21.304536', 'mgs': 1, 'volt': 0.7813, 'depth': -0.293, 'time': 2, 'pitch': -5.3, 'roll': -1.33, 'pres': 160}
{'lipoC2': 7.98, 'lipoC3S1': 4.17, 'temp': 26.0, 'lipoC3S3': 12.59, 'lipoC3S2': 8.33, 'rot1': 0, 'rot0': 0, 'rot3': 0, 'rot2': 0, 'state': 'normal', 'yaw': 0.0, 'datetime': '2018-10-05 15:22:21.314755', 'mgs': 1, 'volt': 0.7813, 'depth': -0.293, 'time': 2, 'pitch': -5.3, 'roll': -1.33, 'pres': 160}
{'lipoC2': 7.98, 'lipoC3S1': 4.17, 'temp': 25.94, 'lipoC3S3': 12.59, 'lipoC3S2': 8.33, 'rot1': 0, 'rot0': 0, 'rot3': 0, 'rot2': 0, 'state': 'normal', 'yaw': 0.0, 'datetime': '2018-10-05 15:22:21.339591', 'mgs': 1, 'volt': 0.7813, 'depth': -0.293, 'time': 2, 'pitch': -5.3, 'roll': -1.33, 'pres': 160}
{'lipoC2': 7.98, 'lipoC3S1': 4.17, 'temp': 25.94, 'lipoC3S3': 12.59, 'lipoC3S2': 8.33, 'rot1': 0, 'rot0': 0, 'rot3': 0, 'rot2': 0, 'state': 'normal', 'yaw': 0.0, 'datetime': '2018-10-05 15:22:21.353053', 'mgs': 1, 'volt': 0.7861, 'depth': -0.217, 'time': 2, 'pitch': -5.3, 'roll': -1.33, 'pres': 161}
{'lipoC2': 7.98, 'lipoC3S1': 4.17, 'temp': 25.94, 'lipoC3S3': 12.59, 'lipoC3S2': 8.33, 'rot1': 0, 'rot0': 0, 'rot3': 0, 'rot2': 0, 'state': 'normal', 'yaw': 0.0, 'datetime': '2018-10-05 15:22:21.379263', 'mgs': 1, 'volt': 0.7813, 'depth': -0.293, 'time': 2, 'pitch': -5.3, 'roll': -1.33, 'pres': 160}
{'lipoC2': 7.98, 'lipoC3S1': 4.17, 'temp': 25.94, 'lipoC3S3': 12.6, 'lipoC3S2': 8.33, 'rot1': 0, 'rot0': 0, 'rot3': 0, 'rot2': 0, 'state': 'normal', 'yaw': 0.0, 'datetime': '2018-10-05 15:22:21.393906', 'mgs': 1, 'volt': 0.7813, 'depth': -0.293, 'time': 2, 'pitch': -5.3, 'roll': -1.33, 'pres': 160}
{'lipoC2': 7.98, 'lipoC3S1': 4.17, 'temp': 26.0, 'lipoC3S3': 12.6, 'lipoC3S2': 8.33, 'rot1': 0, 'rot0': 0, 'rot3': 0, 'rot2': 0, 'state': 'normal', 'yaw': 0.0, 'datetime': '2018-10-05 15:22:21.414290', 'mgs': 1, 'volt': 0.7861, 'depth': -0.217, 'time': 2, 'pitch': -5.3, 'roll': -1.33, 'pres': 161}
{'lipoC2': 7.98, 'lipoC3S1': 4.17, 'temp': 26.0, 'lipoC3S3': 12.59, 'lipoC3S2': 8.33, 'rot1': 0, 'rot0': 0, 'rot3': 0, 'rot2': 0, 'state': 'normal', 'yaw': 0.0, 'datetime': '2018-10-05 15:22:21.424249', 'mgs': 1, 'volt': 0.7813, 'depth': -0.293, 'time': 3, 'pitch': -5.3, 'roll': -1.33, 'pres': 160}
{'lipoC2': 7.97, 'lipoC3S1': 4.17, 'temp': 26.0, 'lipoC3S3': 12.59, 'lipoC3S2': 8.33, 'rot1': 0, 'rot0': 0, 'rot3': 0, 'rot2': 0, 'state': 'normal', 'yaw': 0.0, 'datetime': '2018-10-05 15:22:21.444287', 'mgs': 1, 'volt': 0.7861, 'depth': -0.217, 'time': 3, 'pitch': -5.3, 'roll': -1.33, 'pres': 161}
{'lipoC2': 7.98, 'lipoC3S1': 4.17, 'temp': 25.94, 'lipoC3S3': 12.59, 'lipoC3S2': 8.33, 'rot1': 0, 'rot0': 0, 'rot3': 0, 'rot2': 0, 'state': 'normal', 'yaw': 0.0, 'datetime': '2018-10-05 15:22:21.454201', 'mgs': 1, 'volt': 0.7813, 'depth': -0.293, 'time': 3, 'pitch': -5.3, 'roll': -1.33, 'pres': 160}
{'lipoC2': 7.98, 'lipoC3S1': 4.17, 'temp': 25.94, 'lipoC3S3': 12.59, 'lipoC3S2': 8.33, 'rot1': 0, 'rot0': 0, 'rot3': 0, 'rot2': 0, 'state': 'normal', 'yaw': 0.0, 'datetime': '2018-10-05 15:22:21.474241', 'mgs': 1, 'volt': 0.7813, 'depth': -0.293, 'time': 3, 'pitch': -5.3, 'roll': -1.33, 'pres': 160}
{'lipoC2': 7.98, 'lipoC3S1': 4.17, 'temp': 25.94, 'lipoC3S3': 12.59, 'lipoC3S2': 8.33, 'rot1': 0, 'rot0': 0, 'rot3': 0, 'rot2': 0, 'state': 'normal', 'yaw': 0.0, 'datetime': '2018-10-05 15:22:21.484134', 'mgs': 1, 'volt': 0.7861, 'depth': -0.217, 'time': 3, 'pitch': -5.3, 'roll': -1.33, 'pres': 161}
{'lipoC2': 7.98, 'lipoC3S1': 4.17, 'temp': 25.94, 'lipoC3S3': 12.6, 'lipoC3S2': 8.33, 'rot1': 0, 'rot0': 0, 'rot3': 0, 'rot2': 0, 'state': 'normal', 'yaw': 0.0, 'datetime': '2018-10-05 15:22:21.504231', 'mgs': 1, 'volt': 0.7861, 'depth': -0.217, 'time': 3, 'pitch': -5.3, 'roll': -1.33, 'pres': 161}
{'lipoC2': 7.98, 'lipoC3S1': 4.17, 'temp': 25.94, 'lipoC3S3': 12.59, 'lipoC3S2': 8.33, 'rot1': 0, 'rot0': 0, 'rot3': 0, 'rot2': 0, 'state': 'normal', 'yaw': 0.0, 'datetime': '2018-10-05 15:22:21.514164', 'mgs': 1, 'volt': 0.7813, 'depth': -0.293, 'time': 3, 'pitch': -5.3, 'roll': -1.33, 'pres': 160}
{'lipoC2': 7.98, 'lipoC3S1': 4.17, 'temp': 25.94, 'lipoC3S3': 12.59, 'lipoC3S2': 8.33, 'rot1': 0, 'rot0': 0, 'rot3': 0, 'rot2': 0, 'state': 'normal', 'yaw': 0.0, 'datetime': '2018-10-05 15:22:21.534221', 'mgs': 1, 'volt': 0.7813, 'depth': -0.293, 'time': 3, 'pitch': -5.3, 'roll': -1.33, 'pres': 160}
{'lipoC2': 7.98, 'lipoC3S1': 4.17, 'temp': 25.94, 'lipoC3S3': 12.6, 'lipoC3S2': 8.33, 'rot1': 0, 'rot0': 0, 'rot3': 0, 'rot2': 0, 'state': 'normal', 'yaw': 0.0, 'datetime': '2018-10-05 15:22:21.544150', 'mgs': 1, 'volt': 0.7813, 'depth': -0.293, 'time': 3, 'pitch': -5.3, 'roll': -1.33, 'pres': 160}
{'lipoC2': 7.98, 'lipoC3S1': 4.17, 'temp': 25.94, 'lipoC3S3': 12.59, 'lipoC3S2': 8.33, 'rot1': 0, 'rot0': 0, 'rot3': 0, 'rot2': 0, 'state': 'normal', 'yaw': 0.0, 'datetime': '2018-10-05 15:22:21.564342', 'mgs': 1, 'volt': 0.7861, 'depth': -0.217, 'time': 3, 'pitch': -5.3, 'roll': -1.33, 'pres': 161}
{'lipoC2': 7.97, 'lipoC3S1': 4.17, 'temp': 25.94, 'lipoC3S3': 12.59, 'lipoC3S2': 8.33, 'rot1': 0, 'rot0': 0, 'rot3': 0, 'rot2': 0, 'state': 'normal', 'yaw': 0.0, 'datetime': '2018-10-05 15:22:21.574283', 'mgs': 1, 'volt': 0.7813, 'depth': -0.293, 'time': 4, 'pitch': -5.3, 'roll': -1.33, 'pres': 160}
{'lipoC2': 7.98, 'lipoC3S1': 4.17, 'temp': 25.94, 'lipoC3S3': 12.59, 'lipoC3S2': 8.33, 'rot1': 0, 'rot0': 0, 'rot3': 0, 'rot2': 0, 'state': 'normal', 'yaw': 0.0, 'datetime': '2018-10-05 15:22:21.594321', 'mgs': 1, 'volt': 0.7861, 'depth': -0.217, 'time': 4, 'pitch': -5.3, 'roll': -1.33, 'pres': 161}
{'lipoC2': 7.98, 'lipoC3S1': 4.17, 'temp': 25.94, 'lipoC3S3': 12.59, 'lipoC3S2': 8.33, 'rot1': 0, 'rot0': 0, 'rot3': 0, 'rot2': 0, 'state': 'normal', 'yaw': 0.0, 'datetime': '2018-10-05 15:22:21.604250', 'mgs': 1, 'volt': 0.7813, 'depth': -0.293, 'time': 4, 'pitch': -5.3, 'roll': -1.33, 'pres': 160}
{'lipoC2': 7.98, 'lipoC3S1': 4.17, 'temp': 25.94, 'lipoC3S3': 12.59, 'lipoC3S2': 8.33, 'rot1': 0, 'rot0': 0, 'rot3': 0, 'rot2': 0, 'state': 'normal', 'yaw': 0.0, 'datetime': '2018-10-05 15:22:21.624333', 'mgs': 1, 'volt': 0.7813, 'depth': -0.293, 'time': 4, 'pitch': -5.3, 'roll': -1.33, 'pres': 160}
{'lipoC2': 7.98, 'lipoC3S1': 4.17, 'temp': 25.94, 'lipoC3S3': 12.59, 'lipoC3S2': 8.33, 'rot1': 0, 'rot0': 0, 'rot3': 0, 'rot2': 0, 'state': 'normal', 'yaw': 0.0, 'datetime': '2018-10-05 15:22:21.634257', 'mgs': 1, 'volt': 0.7861, 'depth': -0.217, 'time': 4, 'pitch': -5.3, 'roll': -1.33, 'pres': 161}
{'lipoC2': 7.98, 'lipoC3S1': 4.17, 'temp': 25.94, 'lipoC3S3': 12.59, 'lipoC3S2': 8.34, 'rot1': 0, 'rot0': 0, 'rot3': 0, 'rot2': 0, 'state': 'normal', 'yaw': 0.0, 'datetime': '2018-10-05 15:22:21.654295', 'mgs': 1, 'volt': 0.7861, 'depth': -0.217, 'time': 4, 'pitch': -5.3, 'roll': -1.33, 'pres': 161}
{'lipoC2': 7.98, 'lipoC3S1': 4.17, 'temp': 26.0, 'lipoC3S3': 12.59, 'lipoC3S2': 8.33, 'rot1': 0, 'rot0': 0, 'rot3': 0, 'rot2': 0, 'state': 'normal', 'yaw': 0.0, 'datetime': '2018-10-05 15:22:21.664191', 'mgs': 1, 'volt': 0.7813, 'depth': -0.293, 'time': 4, 'pitch': -5.3, 'roll': -1.33, 'pres': 160}
{'lipoC2': 7.98, 'lipoC3S1': 4.17, 'temp': 26.0, 'lipoC3S3': 12.59, 'lipoC3S2': 8.33, 'rot1': 0, 'rot0': 0, 'rot3': 0, 'rot2': 0, 'state': 'normal', 'yaw': 0.0, 'datetime': '2018-10-05 15:22:21.684242', 'mgs': 1, 'volt': 0.7861, 'depth': -0.217, 'time': 4, 'pitch': -5.3, 'roll': -1.33, 'pres': 161}
{'lipoC2': 7.98, 'lipoC3S1': 4.17, 'temp': 25.94, 'lipoC3S3': 12.59, 'lipoC3S2': 8.33, 'rot1': 0, 'rot0': 0, 'rot3': 0, 'rot2': 0, 'state': 'normal', 'yaw': 0.0, 'datetime': '2018-10-05 15:22:21.694183', 'mgs': 1, 'volt': 0.7861, 'depth': -0.217, 'time': 4, 'pitch': -5.3, 'roll': -1.33, 'pres': 161}
{'lipoC2': 7.97, 'lipoC3S1': 4.17, 'temp': 25.94, 'lipoC3S3': 12.59, 'lipoC3S2': 8.33, 'rot1': 0, 'rot0': 0, 'rot3': 0, 'rot2': 0, 'state': 'normal', 'yaw': 0.0, 'datetime': '2018-10-05 15:22:21.714238', 'mgs': 1, 'volt': 0.7813, 'depth': -0.293, 'time': 4, 'pitch': -5.3, 'roll': -1.33, 'pres': 160}
{'lipoC2': 7.97, 'lipoC3S1': 4.17, 'temp': 26.0, 'lipoC3S3': 12.59, 'lipoC3S2': 8.33, 'rot1': 0, 'rot0': 0, 'rot3': 0, 'rot2': 0, 'state': 'normal', 'yaw': 0.0, 'datetime': '2018-10-05 15:22:21.724184', 'mgs': 1, 'volt': 0.7813, 'depth': -0.293, 'time': 5, 'pitch': -5.3, 'roll': -1.33, 'pres': 160}
{'lipoC2': 7.98, 'lipoC3S1': 4.17, 'temp': 26.0, 'lipoC3S3': 12.59, 'lipoC3S2': 8.33, 'rot1': 0, 'rot0': 0, 'rot3': 0, 'rot2': 0, 'state': 'normal', 'yaw': 0.0, 'datetime': '2018-10-05 15:22:21.744244', 'mgs': 1, 'volt': 0.7813, 'depth': -0.293, 'time': 5, 'pitch': -5.3, 'roll': -1.33, 'pres': 160}
{'lipoC2': 7.97, 'lipoC3S1': 4.17, 'temp': 26.0, 'lipoC3S3': 12.59, 'lipoC3S2': 8.33, 'rot1': 0, 'rot0': 0, 'rot3': 0, 'rot2': 0, 'state': 'normal', 'yaw': 0.0, 'datetime': '2018-10-05 15:22:21.753653', 'mgs': 1, 'volt': 0.7861, 'depth': -0.217, 'time': 5, 'pitch': -5.3, 'roll': -1.33, 'pres': 161}
{'lipoC2': 7.98, 'lipoC3S1': 4.17, 'temp': 25.94, 'lipoC3S3': 12.59, 'lipoC3S2': 8.33, 'rot1': 0, 'rot0': 0, 'rot3': 0, 'rot2': 0, 'state': 'normal', 'yaw': 0.0, 'datetime': '2018-10-05 15:22:21.773296', 'mgs': 1, 'volt': 0.7813, 'depth': -0.293, 'time': 5, 'pitch': -5.3, 'roll': -1.33, 'pres': 160}
{'lipoC2': 7.98, 'lipoC3S1': 4.17, 'temp': 25.94, 'lipoC3S3': 12.59, 'lipoC3S2': 8.33, 'rot1': 0, 'rot0': 0, 'rot3': 0, 'rot2': 0, 'state': 'normal', 'yaw': 0.0, 'datetime': '2018-10-05 15:22:21.782650', 'mgs': 1, 'volt': 0.7813, 'depth': -0.293, 'time': 5, 'pitch': -5.3, 'roll': -1.33, 'pres': 160}
{'lipoC2': 7.98, 'lipoC3S1': 4.17, 'temp': 25.94, 'lipoC3S3': 12.6, 'lipoC3S2': 8.33, 'rot1': 0, 'rot0': 0, 'rot3': 0, 'rot2': 0, 'state': 'normal', 'yaw': 0.0, 'datetime': '2018-10-05 15:22:21.802201', 'mgs': 1, 'volt': 0.7861, 'depth': -0.217, 'time': 5, 'pitch': -5.3, 'roll': -1.33, 'pres': 161}
{'lipoC2': 7.98, 'lipoC3S1': 4.17, 'temp': 25.94, 'lipoC3S3': 12.59, 'lipoC3S2': 8.33, 'rot1': 0, 'rot0': 0, 'rot3': 0, 'rot2': 0, 'state': 'normal', 'yaw': 0.0, 'datetime': '2018-10-05 15:22:21.811595', 'mgs': 1, 'volt': 0.7861, 'depth': -0.217, 'time': 5, 'pitch': -5.3, 'roll': -1.33, 'pres': 161}
{'lipoC2': 7.98, 'lipoC3S1': 4.17, 'temp': 26.0, 'lipoC3S3': 12.6, 'lipoC3S2': 8.33, 'rot1': 0, 'rot0': 0, 'rot3': 0, 'rot2': 0, 'state': 'normal', 'yaw': 0.0, 'datetime': '2018-10-05 15:22:21.831297', 'mgs': 1, 'volt': 0.7813, 'depth': -0.293, 'time': 5, 'pitch': -5.3, 'roll': -1.33, 'pres': 160}
{'lipoC2': 7.98, 'lipoC3S1': 4.17, 'temp': 26.0, 'lipoC3S3': 12.6, 'lipoC3S2': 8.33, 'rot1': 0, 'rot0': 0, 'rot3': 0, 'rot2': 0, 'state': 'normal', 'yaw': 0.0, 'datetime': '2018-10-05 15:22:21.840659', 'mgs': 1, 'volt': 0.7813, 'depth': -0.293, 'time': 5, 'pitch': -5.3, 'roll': -1.33, 'pres': 160}
{'lipoC2': 7.97, 'lipoC3S1': 4.17, 'temp': 26.0, 'lipoC3S3': 12.59, 'lipoC3S2': 8.32, 'rot1': 0, 'rot0': 0, 'rot3': 0, 'rot2': 0, 'state': 'normal', 'yaw': 0.0, 'datetime': '2018-10-05 15:22:21.860210', 'mgs': 1, 'volt': 0.7813, 'depth': -0.293, 'time': 6, 'pitch': -5.3, 'roll': -1.33, 'pres': 160}
{'lipoC2': 7.97, 'lipoC3S1': 4.17, 'temp': 25.94, 'lipoC3S3': 12.59, 'lipoC3S2': 8.32, 'rot1': 0, 'rot0': 0, 'rot3': 0, 'rot2': 0, 'state': 'normal', 'yaw': 0.0, 'datetime': '2018-10-05 15:22:21.869600', 'mgs': 1, 'volt': 0.7813, 'depth': -0.293, 'time': 6, 'pitch': -5.3, 'roll': -1.33, 'pres': 160}
{'lipoC2': 7.97, 'lipoC3S1': 4.16, 'temp': 25.94, 'lipoC3S3': 12.59, 'lipoC3S2': 8.32, 'rot1': 0, 'rot0': 0, 'rot3': 0, 'rot2': 0, 'state': 'normal', 'yaw': 0.0, 'datetime': '2018-10-05 15:22:21.889151', 'mgs': 1, 'volt': 0.7813, 'depth': -0.293, 'time': 6, 'pitch': -5.3, 'roll': -1.33, 'pres': 160}
{'lipoC2': 7.97, 'lipoC3S1': 4.16, 'temp': 25.94, 'lipoC3S3': 12.59, 'lipoC3S2': 8.32, 'rot1': 0, 'rot0': 0, 'rot3': 0, 'rot2': 0, 'state': 'normal', 'yaw': 0.0, 'datetime': '2018-10-05 15:22:21.898582', 'mgs': 1, 'volt': 0.7813, 'depth': -0.293, 'time': 6, 'pitch': -5.3, 'roll': -1.33, 'pres': 160}
{'lipoC2': 7.97, 'lipoC3S1': 4.17, 'temp': 25.94, 'lipoC3S3': 12.59, 'lipoC3S2': 8.33, 'rot1': 0, 'rot0': 0, 'rot3': 0, 'rot2': 0, 'state': 'normal', 'yaw': 0.0, 'datetime': '2018-10-05 15:22:21.918173', 'mgs': 1, 'volt': 0.7813, 'depth': -0.293, 'time': 6, 'pitch': -5.3, 'roll': -1.33, 'pres': 160}
{'lipoC2': 7.97, 'lipoC3S1': 4.16, 'temp': 26.0, 'lipoC3S3': 12.59, 'lipoC3S2': 8.32, 'rot1': 0, 'rot0': 0, 'rot3': 0, 'rot2': 0, 'state': 'normal', 'yaw': 0.0, 'datetime': '2018-10-05 15:22:21.927555', 'mgs': 1, 'volt': 0.7813, 'depth': -0.293, 'time': 6, 'pitch': -5.3, 'roll': -1.33, 'pres': 160}
{'lipoC2': 7.97, 'lipoC3S1': 4.16, 'temp': 26.0, 'lipoC3S3': 12.59, 'lipoC3S2': 8.32, 'rot1': 0, 'rot0': 0, 'rot3': 0, 'rot2': 0, 'state': 'normal', 'yaw': 0.0, 'datetime': '2018-10-05 15:22:21.947109', 'mgs': 1, 'volt': 0.7813, 'depth': -0.293, 'time': 6, 'pitch': -5.3, 'roll': -1.33, 'pres': 160}
{'lipoC2': 7.97, 'lipoC3S1': 4.16, 'temp': 26.0, 'lipoC3S3': 12.59, 'lipoC3S2': 8.32, 'rot1': 0, 'rot0': 0, 'rot3': 0, 'rot2': 0, 'state': 'normal', 'yaw': 0.0, 'datetime': '2018-10-05 15:22:21.956562', 'mgs': 1, 'volt': 0.7813, 'depth': -0.293, 'time': 6, 'pitch': -5.3, 'roll': -1.33, 'pres': 160}
{'lipoC2': 7.97, 'lipoC3S1': 4.16, 'temp': 25.94, 'lipoC3S3': 12.58, 'lipoC3S2': 8.32, 'rot1': 0, 'rot0': 0, 'rot3': 0, 'rot2': 0, 'state': 'normal', 'yaw': 0.0, 'datetime': '2018-10-05 15:22:21.976242', 'mgs': 1, 'volt': 0.7813, 'depth': -0.293, 'time': 6, 'pitch': -5.3, 'roll': -1.33, 'pres': 160}
{'lipoC2': 7.97, 'lipoC3S1': 4.17, 'temp': 25.94, 'lipoC3S3': 12.59, 'lipoC3S2': 8.32, 'rot1': 0, 'rot0': 0, 'rot3': 0, 'rot2': 0, 'state': 'normal', 'yaw': 0.0, 'datetime': '2018-10-05 15:22:21.985605', 'mgs': 1, 'volt': 0.7813, 'depth': -0.293, 'time': 6, 'pitch': -5.3, 'roll': -1.33, 'pres': 160}
{'lipoC2': 7.97, 'lipoC3S1': 4.17, 'temp': 25.94, 'lipoC3S3': 12.59, 'lipoC3S2': 8.32, 'rot1': 0, 'rot0': 0, 'rot3': 0, 'rot2': 0, 'state': 'normal', 'yaw': 0.0, 'datetime': '2018-10-05 15:22:22.005193', 'mgs': 1, 'volt': 0.7813, 'depth': -0.293, 'time': 7, 'pitch': -5.3, 'roll': -1.33, 'pres': 160}
{'lipoC2': 7.97, 'lipoC3S1': 4.16, 'temp': 25.94, 'lipoC3S3': 12.59, 'lipoC3S2': 8.32, 'rot1': 0, 'rot0': 0, 'rot3': 0, 'rot2': 0, 'state': 'normal', 'yaw': 0.0, 'datetime': '2018-10-05 15:22:22.017810', 'mgs': 1, 'volt': 0.7813, 'depth': -0.293, 'time': 7, 'pitch': -5.3, 'roll': -1.33, 'pres': 160}
{'lipoC2': 7.97, 'lipoC3S1': 4.16, 'temp': 25.94, 'lipoC3S3': 12.58, 'lipoC3S2': 8.32, 'rot1': 0, 'rot0': 0, 'rot3': 0, 'rot2': 0, 'state': 'normal', 'yaw': 0.0, 'datetime': '2018-10-05 15:22:22.121178', 'mgs': 1, 'volt': 0.7813, 'depth': -0.293, 'time': 7, 'pitch': -5.3, 'roll': -1.33, 'pres': 160}
{'lipoC2': 7.97, 'lipoC3S1': 4.16, 'temp': 25.94, 'lipoC3S3': 12.59, 'lipoC3S2': 8.32, 'rot1': 0, 'rot0': 0, 'rot3': 0, 'rot2': 0, 'state': 'normal', 'yaw': 0.0, 'datetime': '2018-10-05 15:22:22.225608', 'mgs': 1, 'volt': 0.7813, 'depth': -0.293, 'time': 7, 'pitch': -5.3, 'roll': -1.33, 'pres': 160}
{'lipoC2': 7.97, 'lipoC3S1': 4.16, 'temp': 25.94, 'lipoC3S3': 12.59, 'lipoC3S2': 8.32, 'rot1': 0, 'rot0': 0, 'rot3': 0, 'rot2': 0, 'state': 'normal', 'yaw': 0.0, 'datetime': '2018-10-05 15:22:22.329734', 'mgs': 1, 'volt': 0.7813, 'depth': -0.293, 'time': 7, 'pitch': -5.3, 'roll': -1.33, 'pres': 160}
{'lipoC2': 7.97, 'lipoC3S1': 4.16, 'temp': 25.94, 'lipoC3S3': 12.59, 'lipoC3S2': 8.32, 'rot1': 0, 'rot0': 0, 'rot3': 0, 'rot2': 0, 'state': 'normal', 'yaw': 0.0, 'datetime': '2018-10-05 15:22:22.432896', 'mgs': 1, 'volt': 0.7813, 'depth': -0.293, 'time': 7, 'pitch': -5.3, 'roll': -1.33, 'pres': 160}
{'lipoC2': 7.97, 'lipoC3S1': 4.16, 'temp': 25.94, 'lipoC3S3': 12.58, 'lipoC3S2': 8.32, 'rot1': 0, 'rot0': 0, 'rot3': 0, 'rot2': 0, 'state': 'normal', 'yaw': 0.0, 'datetime': '2018-10-05 15:22:22.536242', 'mgs': 1, 'volt': 0.7813, 'depth': -0.293, 'time': 7, 'pitch': -5.3, 'roll': -1.33, 'pres': 160}
{'lipoC2': 7.97, 'lipoC3S1': 4.16, 'temp': 26.0, 'lipoC3S3': 12.59, 'lipoC3S2': 8.32, 'rot1': 0, 'rot0': 0, 'rot3': 0, 'rot2': 0, 'state': 'normal', 'yaw': 0.0, 'datetime': '2018-10-05 15:22:22.639966', 'mgs': 1, 'volt': 0.7813, 'depth': -0.293, 'time': 7, 'pitch': -5.3, 'roll': -1.33, 'pres': 160}
{'lipoC2': 7.97, 'lipoC3S1': 4.16, 'temp': 26.0, 'lipoC3S3': 12.59, 'lipoC3S2': 8.32, 'rot1': 0, 'rot0': 0, 'rot3': 0, 'rot2': 0, 'state': 'normal', 'yaw': 0.0, 'datetime': '2018-10-05 15:22:22.743278', 'mgs': 1, 'volt': 0.7813, 'depth': -0.293, 'time': 7, 'pitch': -5.3, 'roll': -1.33, 'pres': 160}
{'lipoC2': 7.97, 'lipoC3S1': 4.16, 'temp': 26.0, 'lipoC3S3': 12.59, 'lipoC3S2': 8.32, 'rot1': 0, 'rot0': 0, 'rot3': 0, 'rot2': 0, 'state': 'normal', 'yaw': 0.0, 'datetime': '2018-10-05 15:22:22.847694', 'mgs': 1, 'volt': 0.7813, 'depth': -0.293, 'time': 7, 'pitch': -5.3, 'roll': -1.33, 'pres': 160}
{'lipoC2': 7.97, 'lipoC3S1': 4.16, 'temp': 26.0, 'lipoC3S3': 12.59, 'lipoC3S2': 8.32, 'rot1': 0, 'rot0': 0, 'rot3': 0, 'rot2': 0, 'state': 'normal', 'yaw': 0.0, 'datetime': '2018-10-05 15:22:22.951260', 'mgs': 1, 'volt': 0.7813, 'depth': -0.293, 'time': 8, 'pitch': -5.3, 'roll': -1.33, 'pres': 160}
{'lipoC2': 7.97, 'lipoC3S1': 4.16, 'temp': 26.0, 'lipoC3S3': 12.59, 'lipoC3S2': 8.32, 'rot1': 0, 'rot0': 0, 'rot3': 0, 'rot2': 0, 'state': 'normal', 'yaw': 0.0, 'datetime': '2018-10-05 15:22:23.054438', 'mgs': 1, 'volt': 0.7813, 'depth': -0.293, 'time': 8, 'pitch': -5.3, 'roll': -1.33, 'pres': 160}
{'lipoC2': 7.97, 'lipoC3S1': 4.16, 'temp': 26.0, 'lipoC3S3': 12.59, 'lipoC3S2': 8.32, 'rot1': 0, 'rot0': 0, 'rot3': 0, 'rot2': 0, 'state': 'normal', 'yaw': 0.0, 'datetime': '2018-10-05 15:22:23.158989', 'mgs': 1, 'volt': 0.7813, 'depth': -0.293, 'time': 8, 'pitch': -5.3, 'roll': -1.33, 'pres': 160}
{'lipoC2': 7.97, 'lipoC3S1': 4.17, 'temp': 26.0, 'lipoC3S3': 12.59, 'lipoC3S2': 8.32, 'rot1': 0, 'rot0': 0, 'rot3': 0, 'rot2': 0, 'state': 'normal', 'yaw': 0.0, 'datetime': '2018-10-05 15:22:23.262295', 'mgs': 1, 'volt': 0.7813, 'depth': -0.293, 'time': 8, 'pitch': -5.3, 'roll': -1.33, 'pres': 160}
{'lipoC2': 7.97, 'lipoC3S1': 4.16, 'temp': 26.0, 'lipoC3S3': 12.59, 'lipoC3S2': 8.32, 'rot1': 0, 'rot0': 0, 'rot3': 0, 'rot2': 0, 'state': 'normal', 'yaw': 0.07, 'datetime': '2018-10-05 15:22:23.365738', 'mgs': 1, 'volt': 0.7813, 'depth': -0.293, 'time': 8, 'pitch': -5.25, 'roll': -1.34, 'pres': 160}
{'lipoC2': 7.97, 'lipoC3S1': 4.16, 'temp': 26.0, 'lipoC3S3': 12.58, 'lipoC3S2': 8.32, 'rot1': 0, 'rot0': 0, 'rot3': 0, 'rot2': 0, 'state': 'normal', 'yaw': 0.2, 'datetime': '2018-10-05 15:22:23.470138', 'mgs': 1, 'volt': 0.7813, 'depth': -0.293, 'time': 8, 'pitch': -5.16, 'roll': -1.35, 'pres': 160}
{'lipoC2': 7.97, 'lipoC3S1': 4.16, 'temp': 26.0, 'lipoC3S3': 12.59, 'lipoC3S2': 8.32, 'rot1': 0, 'rot0': 0, 'rot3': 0, 'rot2': 0, 'state': 'normal', 'yaw': 0.37, 'datetime': '2018-10-05 15:22:23.573464', 'mgs': 1, 'volt': 0.7813, 'depth': -0.293, 'time': 8, 'pitch': -5.03, 'roll': -1.36, 'pres': 160}
{'lipoC2': 7.97, 'lipoC3S1': 4.16, 'temp': 25.94, 'lipoC3S3': 12.59, 'lipoC3S2': 8.32, 'rot1': 0, 'rot0': 0, 'rot3': 0, 'rot2': 0, 'state': 'normal', 'yaw': 0.65, 'datetime': '2018-10-05 15:22:23.676683', 'mgs': 1, 'volt': 0.7813, 'depth': -0.293, 'time': 8, 'pitch': -4.99, 'roll': -1.37, 'pres': 160}
{'lipoC2': 7.97, 'lipoC3S1': 4.16, 'temp': 25.94, 'lipoC3S3': 12.59, 'lipoC3S2': 8.32, 'rot1': 0, 'rot0': 0, 'rot3': 0, 'rot2': 0, 'state': 'normal', 'yaw': 2.13, 'datetime': '2018-10-05 15:22:23.781324', 'mgs': 1, 'volt': 0.7813, 'depth': -0.293, 'time': 8, 'pitch': -5.19, 'roll': -1.47, 'pres': 160}
{'lipoC2': 7.98, 'lipoC3S1': 4.16, 'temp': 25.94, 'lipoC3S3': 12.59, 'lipoC3S2': 8.32, 'rot1': 0, 'rot0': 0, 'rot3': 0, 'rot2': 0, 'state': 'normal', 'yaw': 4.67, 'datetime': '2018-10-05 15:22:23.884598', 'mgs': 1, 'volt': 0.7813, 'depth': -0.293, 'time': 9, 'pitch': -5.27, 'roll': -1.33, 'pres': 160}
{'lipoC2': 7.97, 'lipoC3S1': 4.17, 'temp': 25.94, 'lipoC3S3': 12.58, 'lipoC3S2': 8.32, 'rot1': 0, 'rot0': 0, 'rot3': 0, 'rot2': 0, 'state': 'normal', 'yaw': 7.73, 'datetime': '2018-10-05 15:22:23.987939', 'mgs': 1, 'volt': 0.7813, 'depth': -0.293, 'time': 9, 'pitch': -5.19, 'roll': -1.36, 'pres': 160}
{'lipoC2': 7.97, 'lipoC3S1': 4.16, 'temp': 25.94, 'lipoC3S3': 12.58, 'lipoC3S2': 8.32, 'rot1': 0, 'rot0': 0, 'rot3': 0, 'rot2': 0, 'state': 'normal', 'yaw': 11.63, 'datetime': '2018-10-05 15:22:24.091232', 'mgs': 1, 'volt': 0.7813, 'depth': -0.293, 'time': 9, 'pitch': -5.14, 'roll': -1.32, 'pres': 160}
{'lipoC2': 7.97, 'lipoC3S1': 4.16, 'temp': 25.94, 'lipoC3S3': 12.58, 'lipoC3S2': 8.32, 'rot1': 0, 'rot0': 0, 'rot3': 0, 'rot2': 0, 'state': 'normal', 'yaw': 16.3, 'datetime': '2018-10-05 15:22:24.194722', 'mgs': 1, 'volt': 0.7813, 'depth': -0.293, 'time': 9, 'pitch': -5.4, 'roll': -1.19, 'pres': 160}
{'lipoC2': 7.97, 'lipoC3S1': 4.16, 'temp': 25.94, 'lipoC3S3': 12.58, 'lipoC3S2': 8.31, 'rot1': 0, 'rot0': 0, 'rot3': 0, 'rot2': 0, 'state': 'normal', 'yaw': 21.62, 'datetime': '2018-10-05 15:22:24.297959', 'mgs': 1, 'volt': 0.7813, 'depth': -0.293, 'time': 9, 'pitch': -5.47, 'roll': -1.14, 'pres': 160}
{'lipoC2': 7.97, 'lipoC3S1': 4.16, 'temp': 25.94, 'lipoC3S3': 12.58, 'lipoC3S2': 8.32, 'rot1': 0, 'rot0': 0, 'rot3': 0, 'rot2': 0, 'state': 'normal', 'yaw': 26.66, 'datetime': '2018-10-05 15:22:24.401266', 'mgs': 1, 'volt': 0.7813, 'depth': -0.293, 'time': 9, 'pitch': -5.44, 'roll': -1.08, 'pres': 160}
{'lipoC2': 7.97, 'lipoC3S1': 4.16, 'temp': 25.94, 'lipoC3S3': 12.58, 'lipoC3S2': 8.32, 'rot1': 1, 'rot0': 1, 'rot3': 0, 'rot2': 0, 'state': 'normal', 'yaw': 31.62, 'datetime': '2018-10-05 15:22:24.504605', 'mgs': 1, 'volt': 0.7813, 'depth': -0.293, 'time': 9, 'pitch': -5.35, 'roll': -0.97, 'pres': 160}
{'lipoC2': 7.97, 'lipoC3S1': 4.16, 'temp': 26.0, 'lipoC3S3': 12.58, 'lipoC3S2': 8.31, 'rot1': 2, 'rot0': 2, 'rot3': 0, 'rot2': 0, 'state': 'normal', 'yaw': 37.0, 'datetime': '2018-10-05 15:22:24.607729', 'mgs': 1, 'volt': 0.8008, 'depth': 0.012, 'time': 9, 'pitch': -5.28, 'roll': -0.96, 'pres': 164}
{'lipoC2': 7.97, 'lipoC3S1': 4.16, 'temp': 26.0, 'lipoC3S3': 12.46, 'lipoC3S2': 8.3, 'rot1': 3, 'rot0': 3, 'rot3': 0, 'rot2': 0, 'state': 'normal', 'yaw': 41.57, 'datetime': '2018-10-05 15:22:24.711044', 'mgs': 1, 'volt': 0.7813, 'depth': -0.293, 'time': 9, 'pitch': -5.34, 'roll': -0.86, 'pres': 160}
{'lipoC2': 7.97, 'lipoC3S1': 4.16, 'temp': 26.0, 'lipoC3S3': 12.56, 'lipoC3S2': 8.23, 'rot1': 4, 'rot0': 4, 'rot3': 0, 'rot2': 0, 'state': 'normal', 'yaw': 44.97, 'datetime': '2018-10-05 15:22:24.814261', 'mgs': 1, 'volt': 0.7813, 'depth': -0.293, 'time': 9, 'pitch': -5.41, 'roll': -0.72, 'pres': 160}
{'lipoC2': 7.97, 'lipoC3S1': 4.09, 'temp': 26.0, 'lipoC3S3': 12.56, 'lipoC3S2': 8.32, 'rot1': 6, 'rot0': 6, 'rot3': 0, 'rot2': 0, 'state': 'normal', 'yaw': 46.55, 'datetime': '2018-10-05 15:22:24.917725', 'mgs': 1, 'volt': 0.7813, 'depth': -0.293, 'time': 10, 'pitch': -5.31, 'roll': -0.73, 'pres': 160}
{'lipoC2': 7.97, 'lipoC3S1': 4.11, 'temp': 26.0, 'lipoC3S3': 12.56, 'lipoC3S2': 8.31, 'rot1': 7, 'rot0': 7, 'rot3': 0, 'rot2': 0, 'state': 'normal', 'yaw': 46.13, 'datetime': '2018-10-05 15:22:25.021117', 'mgs': 1, 'volt': 0.7813, 'depth': -0.293, 'time': 10, 'pitch': -5.05, 'roll': -0.77, 'pres': 160}
{'lipoC2': 7.97, 'lipoC3S1': 4.16, 'temp': 25.94, 'lipoC3S3': 12.55, 'lipoC3S2': 8.31, 'rot1': 9, 'rot0': 9, 'rot3': 0, 'rot2': 0, 'state': 'normal', 'yaw': 44.1, 'datetime': '2018-10-05 15:22:25.125847', 'mgs': 1, 'volt': 0.7813, 'depth': -0.293, 'time': 10, 'pitch': -4.93, 'roll': -0.79, 'pres': 160}
{'lipoC2': 7.97, 'lipoC3S1': 4.16, 'temp': 25.94, 'lipoC3S3': 12.58, 'lipoC3S2': 8.21, 'rot1': 10, 'rot0': 11, 'rot3': 0, 'rot2': 0, 'state': 'normal', 'yaw': 39.77, 'datetime': '2018-10-05 15:22:25.229575', 'mgs': 1, 'volt': 0.7813, 'depth': -0.293, 'time': 10, 'pitch': -4.94, 'roll': -0.85, 'pres': 160}
{'lipoC2': 7.97, 'lipoC3S1': 4.16, 'temp': 26.0, 'lipoC3S3': 12.56, 'lipoC3S2': 8.31, 'rot1': 12, 'rot0': 12, 'rot3': 0, 'rot2': 0, 'state': 'normal', 'yaw': 34.04, 'datetime': '2018-10-05 15:22:25.333299', 'mgs': 1, 'volt': 0.7813, 'depth': -0.293, 'time': 10, 'pitch': -4.9, 'roll': -0.98, 'pres': 160}
{'lipoC2': 7.97, 'lipoC3S1': 4.16, 'temp': 26.0, 'lipoC3S3': 12.56, 'lipoC3S2': 8.31, 'rot1': 13, 'rot0': 13, 'rot3': 0, 'rot2': 0, 'state': 'normal', 'yaw': 26.99, 'datetime': '2018-10-05 15:22:25.438371', 'mgs': 1, 'volt': 0.7813, 'depth': -0.293, 'time': 10, 'pitch': -4.77, 'roll': -1.14, 'pres': 160}
{'lipoC2': 7.96, 'lipoC3S1': 4.16, 'temp': 25.94, 'lipoC3S3': 12.58, 'lipoC3S2': 8.31, 'rot1': 14, 'rot0': 14, 'rot3': 0, 'rot2': 0, 'state': 'normal', 'yaw': 18.32, 'datetime': '2018-10-05 15:22:25.542132', 'mgs': 1, 'volt': 0.7813, 'depth': -0.293, 'time': 10, 'pitch': -4.69, 'roll': -1.31, 'pres': 160}
{'lipoC2': 7.97, 'lipoC3S1': 4.16, 'temp': 25.94, 'lipoC3S3': 12.58, 'lipoC3S2': 8.32, 'rot1': 15, 'rot0': 15, 'rot3': 0, 'rot2': 0, 'state': 'normal', 'yaw': 9.96, 'datetime': '2018-10-05 15:22:25.645870', 'mgs': 1, 'volt': 0.7813, 'depth': -0.293, 'time': 10, 'pitch': -4.71, 'roll': -1.46, 'pres': 160}
{'lipoC2': 7.97, 'lipoC3S1': 4.16, 'temp': 25.94, 'lipoC3S3': 12.59, 'lipoC3S2': 8.32, 'rot1': 15, 'rot0': 16, 'rot3': 0, 'rot2': 0, 'state': 'normal', 'yaw': 1.47, 'datetime': '2018-10-05 15:22:25.749745', 'mgs': 1, 'volt': 0.7813, 'depth': -0.293, 'time': 10, 'pitch': -4.81, 'roll': -1.65, 'pres': 160}
{'lipoC2': 7.97, 'lipoC3S1': 4.16, 'temp': 25.94, 'lipoC3S3': 12.58, 'lipoC3S2': 8.32, 'rot1': 15, 'rot0': 16, 'rot3': 0, 'rot2': 0, 'state': 'normal', 'yaw': -7.69, 'datetime': '2018-10-05 15:22:25.853415', 'mgs': 1, 'volt': 0.7813, 'depth': -0.293, 'time': 10, 'pitch': -4.99, 'roll': -1.75, 'pres': 160}
{'lipoC2': 7.97, 'lipoC3S1': 4.16, 'temp': 25.94, 'lipoC3S3': 12.58, 'lipoC3S2': 8.32, 'rot1': 15, 'rot0': 16, 'rot3': 0, 'rot2': 0, 'state': 'normal', 'yaw': -15.47, 'datetime': '2018-10-05 15:22:25.957170', 'mgs': 1, 'volt': 0.7813, 'depth': -0.293, 'time': 11, 'pitch': -5.05, 'roll': -1.9, 'pres': 160}
{'lipoC2': 7.97, 'lipoC3S1': 4.16, 'temp': 25.94, 'lipoC3S3': 12.58, 'lipoC3S2': 8.31, 'rot1': 16, 'rot0': 16, 'rot3': 0, 'rot2': 0, 'state': 'normal', 'yaw': -22.58, 'datetime': '2018-10-05 15:22:26.060912', 'mgs': 1, 'volt': 0.7813, 'depth': -0.293, 'time': 11, 'pitch': -5.19, 'roll': -1.93, 'pres': 160}
{'lipoC2': 7.97, 'lipoC3S1': 4.16, 'temp': 25.94, 'lipoC3S3': 12.56, 'lipoC3S2': 8.31, 'rot1': 16, 'rot0': 17, 'rot3': 0, 'rot2': 0, 'state': 'normal', 'yaw': -29.82, 'datetime': '2018-10-05 15:22:26.164651', 'mgs': 1, 'volt': 0.7813, 'depth': -0.293, 'time': 11, 'pitch': -5.33, 'roll': -1.97, 'pres': 160}
{'lipoC2': 7.97, 'lipoC3S1': 4.16, 'temp': 26.0, 'lipoC3S3': 12.56, 'lipoC3S2': 8.31, 'rot1': 17, 'rot0': 18, 'rot3': 0, 'rot2': 0, 'state': 'normal', 'yaw': -35.63, 'datetime': '2018-10-05 15:22:26.268259', 'mgs': 1, 'volt': 0.8154, 'depth': 0.241, 'time': 11, 'pitch': -5.38, 'roll': -2.08, 'pres': 167}
{'lipoC2': 7.97, 'lipoC3S1': 4.15, 'temp': 26.0, 'lipoC3S3': 12.56, 'lipoC3S2': 8.31, 'rot1': 18, 'rot0': 19, 'rot3': 0, 'rot2': 0, 'state': 'normal', 'yaw': -41.0, 'datetime': '2018-10-05 15:22:26.371968', 'mgs': 1, 'volt': 0.7813, 'depth': -0.293, 'time': 11, 'pitch': -5.46, 'roll': -1.99, 'pres': 160}
{'lipoC2': 7.97, 'lipoC3S1': 4.16, 'temp': 26.0, 'lipoC3S3': 12.56, 'lipoC3S2': 8.26, 'rot1': 19, 'rot0': 20, 'rot3': 0, 'rot2': 0, 'state': 'normal', 'yaw': -44.94, 'datetime': '2018-10-05 15:22:26.475751', 'mgs': 1, 'volt': 0.7813, 'depth': -0.293, 'time': 11, 'pitch': -5.6, 'roll': -2.08, 'pres': 160}
{'lipoC2': 7.97, 'lipoC3S1': 4.18, 'temp': 26.0, 'lipoC3S3': 12.56, 'lipoC3S2': 8.3, 'rot1': 20, 'rot0': 21, 'rot3': 0, 'rot2': 0, 'state': 'normal', 'yaw': -48.09, 'datetime': '2018-10-05 15:22:26.580736', 'mgs': 1, 'volt': 0.7764, 'depth': -0.369, 'time': 11, 'pitch': -5.7, 'roll': -2.04, 'pres': 159}
{'lipoC2': 7.97, 'lipoC3S1': 4.15, 'temp': 26.0, 'lipoC3S3': 12.56, 'lipoC3S2': 8.27, 'rot1': 22, 'rot0': 23, 'rot3': 0, 'rot2': 0, 'state': 'normal', 'yaw': -50.96, 'datetime': '2018-10-05 15:22:26.684542', 'mgs': 1, 'volt': 0.7813, 'depth': -0.293, 'time': 11, 'pitch': -5.74, 'roll': -2.0, 'pres': 160}
{'lipoC2': 7.97, 'lipoC3S1': 4.16, 'temp': 26.0, 'lipoC3S3': 12.55, 'lipoC3S2': 8.3, 'rot1': 24, 'rot0': 24, 'rot3': 0, 'rot2': 0, 'state': 'normal', 'yaw': -53.11, 'datetime': '2018-10-05 15:22:26.788400', 'mgs': 1, 'volt': 0.8057, 'depth': 0.089, 'time': 11, 'pitch': -5.73, 'roll': -2.05, 'pres': 165}
{'lipoC2': 7.97, 'lipoC3S1': 4.16, 'temp': 26.0, 'lipoC3S3': 12.55, 'lipoC3S2': 8.3, 'rot1': 25, 'rot0': 26, 'rot3': 0, 'rot2': 0, 'state': 'normal', 'yaw': -54.87, 'datetime': '2018-10-05 15:22:26.893052', 'mgs': 1, 'volt': 0.7813, 'depth': -0.293, 'time': 12, 'pitch': -5.73, 'roll': -1.97, 'pres': 160}
{'lipoC2': 7.97, 'lipoC3S1': 4.15, 'temp': 26.0, 'lipoC3S3': 12.55, 'lipoC3S2': 8.26, 'rot1': 27, 'rot0': 28, 'rot3': 0, 'rot2': 0, 'state': 'normal', 'yaw': -56.13, 'datetime': '2018-10-05 15:22:26.996793', 'mgs': 1, 'volt': 0.7813, 'depth': -0.293, 'time': 12, 'pitch': -5.74, 'roll': -2.04, 'pres': 160}
{'lipoC2': 7.98, 'lipoC3S1': 4.15, 'temp': 26.0, 'lipoC3S3': 12.46, 'lipoC3S2': 8.3, 'rot1': 29, 'rot0': 29, 'rot3': 0, 'rot2': 0, 'state': 'normal', 'yaw': -56.45, 'datetime': '2018-10-05 15:22:27.100501', 'mgs': 1, 'volt': 0.7813, 'depth': -0.293, 'time': 12, 'pitch': -5.74, 'roll': -2.01, 'pres': 160}
{'lipoC2': 7.97, 'lipoC3S1': 4.15, 'temp': 26.0, 'lipoC3S3': 12.55, 'lipoC3S2': 8.3, 'rot1': 31, 'rot0': 31, 'rot3': 0, 'rot2': 0, 'state': 'normal', 'yaw': -55.7, 'datetime': '2018-10-05 15:22:27.204772', 'mgs': 1, 'volt': 0.7764, 'depth': -0.369, 'time': 12, 'pitch': -5.68, 'roll': -2.06, 'pres': 159}
{'lipoC2': 7.97, 'lipoC3S1': 4.15, 'temp': 26.0, 'lipoC3S3': 12.66, 'lipoC3S2': 8.24, 'rot1': 33, 'rot0': 33, 'rot3': 0, 'rot2': 0, 'state': 'normal', 'yaw': -53.98, 'datetime': '2018-10-05 15:22:27.312957', 'mgs': 1, 'volt': 0.7813, 'depth': -0.293, 'time': 12, 'pitch': -5.58, 'roll': -2.05, 'pres': 160}
{'lipoC2': 7.97, 'lipoC3S1': 4.16, 'temp': 26.0, 'lipoC3S3': 12.6, 'lipoC3S2': 8.3, 'rot1': 34, 'rot0': 35, 'rot3': 0, 'rot2': 0, 'state': 'normal', 'yaw': -51.21, 'datetime': '2018-10-05 15:22:27.417687', 'mgs': 1, 'volt': 0.7813, 'depth': -0.293, 'time': 12, 'pitch': -5.52, 'roll': -2.02, 'pres': 160}
{'lipoC2': 7.97, 'lipoC3S1': 4.16, 'temp': 25.94, 'lipoC3S3': 12.55, 'lipoC3S2': 8.3, 'rot1': 36, 'rot0': 37, 'rot3': 0, 'rot2': 0, 'state': 'normal', 'yaw': -47.39, 'datetime': '2018-10-05 15:22:27.521283', 'mgs': 1, 'volt': 0.8105, 'depth': 0.165, 'time': 12, 'pitch': -5.44, 'roll': -1.98, 'pres': 166}
{'lipoC2': 7.97, 'lipoC3S1': 4.13, 'temp': 25.94, 'lipoC3S3': 12.56, 'lipoC3S2': 8.31, 'rot1': 38, 'rot0': 39, 'rot3': 0, 'rot2': 0, 'state': 'normal', 'yaw': -42.16, 'datetime': '2018-10-05 15:22:27.625413', 'mgs': 1, 'volt': 0.7813, 'depth': -0.293, 'time': 12, 'pitch': -5.43, 'roll': -1.9, 'pres': 160}
{'lipoC2': 7.97, 'lipoC3S1': 4.16, 'temp': 26.0, 'lipoC3S3': 12.59, 'lipoC3S2': 8.2, 'rot1': 39, 'rot0': 40, 'rot3': 0, 'rot2': 0, 'state': 'normal', 'yaw': -36.94, 'datetime': '2018-10-05 15:22:27.728762', 'mgs': 1, 'volt': 0.7813, 'depth': -0.293, 'time': 12, 'pitch': -5.4, 'roll': -1.81, 'pres': 160}
{'lipoC2': 7.97, 'lipoC3S1': 4.16, 'temp': 26.0, 'lipoC3S3': 12.56, 'lipoC3S2': 8.31, 'rot1': 41, 'rot0': 41, 'rot3': 0, 'rot2': 0, 'state': 'normal', 'yaw': -31.06, 'datetime': '2018-10-05 15:22:27.835644', 'mgs': 1, 'volt': 0.7813, 'depth': -0.293, 'time': 12, 'pitch': -5.39, 'roll': -1.73, 'pres': 160}
{'lipoC2': 7.97, 'lipoC3S1': 4.16, 'temp': 26.0, 'lipoC3S3': 12.56, 'lipoC3S2': 8.31, 'rot1': 42, 'rot0': 42, 'rot3': 0, 'rot2': 0, 'state': 'normal', 'yaw': -25.66, 'datetime': '2018-10-05 15:22:27.936199', 'mgs': 1, 'volt': 0.7813, 'depth': -0.293, 'time': 13, 'pitch': -5.24, 'roll': -1.65, 'pres': 160}
{'lipoC2': 7.97, 'lipoC3S1': 4.16, 'temp': 25.94, 'lipoC3S3': 12.56, 'lipoC3S2': 8.31, 'rot1': 43, 'rot0': 43, 'rot3': 0, 'rot2': 0, 'state': 'normal', 'yaw': -20.11, 'datetime': '2018-10-05 15:22:28.041152', 'mgs': 1, 'volt': 0.7813, 'depth': -0.293, 'time': 13, 'pitch': -5.01, 'roll': -1.56, 'pres': 160}
{'lipoC2': 7.97, 'lipoC3S1': 4.16, 'temp': 25.94, 'lipoC3S3': 12.58, 'lipoC3S2': 8.31, 'rot1': 43, 'rot0': 44, 'rot3': 0, 'rot2': 0, 'state': 'normal', 'yaw': -14.1, 'datetime': '2018-10-05 15:22:28.144797', 'mgs': 1, 'volt': 0.8057, 'depth': 0.089, 'time': 13, 'pitch': -5.14, 'roll': -1.45, 'pres': 165}
{'lipoC2': 7.97, 'lipoC3S1': 4.16, 'temp': 26.0, 'lipoC3S3': 12.58, 'lipoC3S2': 8.32, 'rot1': 44, 'rot0': 44, 'rot3': 0, 'rot2': 0, 'state': 'normal', 'yaw': -9.38, 'datetime': '2018-10-05 15:22:28.248835', 'mgs': 1, 'volt': 0.7813, 'depth': -0.293, 'time': 13, 'pitch': -5.26, 'roll': -1.32, 'pres': 160}
{'lipoC2': 7.97, 'lipoC3S1': 4.16, 'temp': 26.0, 'lipoC3S3': 12.58, 'lipoC3S2': 8.32, 'rot1': 44, 'rot0': 45, 'rot3': 0, 'rot2': 0, 'state': 'normal', 'yaw': -5.25, 'datetime': '2018-10-05 15:22:28.353429', 'mgs': 1, 'volt': 0.7813, 'depth': -0.293, 'time': 13, 'pitch': -5.06, 'roll': -1.3, 'pres': 160}
{'lipoC2': 7.97, 'lipoC3S1': 4.16, 'temp': 26.0, 'lipoC3S3': 12.58, 'lipoC3S2': 8.32, 'rot1': 44, 'rot0': 45, 'rot3': 0, 'rot2': 0, 'state': 'normal', 'yaw': -0.99, 'datetime': '2018-10-05 15:22:28.457192', 'mgs': 1, 'volt': 0.7813, 'depth': -0.293, 'time': 13, 'pitch': -4.9, 'roll': -1.26, 'pres': 160}
{'lipoC2': 7.97, 'lipoC3S1': 4.16, 'temp': 26.0, 'lipoC3S3': 12.58, 'lipoC3S2': 8.32, 'rot1': 44, 'rot0': 45, 'rot3': 0, 'rot2': 0, 'state': 'normal', 'yaw': 3.17, 'datetime': '2018-10-05 15:22:28.560675', 'mgs': 1, 'volt': 0.7813, 'depth': -0.293, 'time': 13, 'pitch': -5.13, 'roll': -1.25, 'pres': 160}
{'lipoC2': 7.97, 'lipoC3S1': 4.16, 'temp': 26.0, 'lipoC3S3': 12.58, 'lipoC3S2': 8.32, 'rot1': 44, 'rot0': 45, 'rot3': 0, 'rot2': 0, 'state': 'normal', 'yaw': 8.06, 'datetime': '2018-10-05 15:22:28.663418', 'mgs': 1, 'volt': 0.7813, 'depth': -0.293, 'time': 13, 'pitch': -5.39, 'roll': -1.17, 'pres': 160}
{'lipoC2': 7.97, 'lipoC3S1': 4.16, 'temp': 26.0, 'lipoC3S3': 12.58, 'lipoC3S2': 8.32, 'rot1': 44, 'rot0': 45, 'rot3': 0, 'rot2': 0, 'state': 'normal', 'yaw': 12.56, 'datetime': '2018-10-05 15:22:28.768218', 'mgs': 1, 'volt': 0.7813, 'depth': -0.293, 'time': 13, 'pitch': -5.27, 'roll': -1.08, 'pres': 160}
{'lipoC2': 7.97, 'lipoC3S1': 4.16, 'temp': 26.0, 'lipoC3S3': 12.58, 'lipoC3S2': 8.32, 'rot1': 44, 'rot0': 45, 'rot3': 0, 'rot2': 0, 'state': 'normal', 'yaw': 16.96, 'datetime': '2018-10-05 15:22:28.872097', 'mgs': 1, 'volt': 0.7813, 'depth': -0.293, 'time': 13, 'pitch': -5.04, 'roll': -1.04, 'pres': 160}
{'lipoC2': 7.97, 'lipoC3S1': 4.16, 'temp': 25.94, 'lipoC3S3': 12.58, 'lipoC3S2': 8.3, 'rot1': 45, 'rot0': 45, 'rot3': 0, 'rot2': 0, 'state': 'normal', 'yaw': 21.12, 'datetime': '2018-10-05 15:22:28.975823', 'mgs': 1, 'volt': 0.7813, 'depth': -0.293, 'time': 14, 'pitch': -5.17, 'roll': -0.95, 'pres': 160}
{'lipoC2': 7.97, 'lipoC3S1': 4.16, 'temp': 25.94, 'lipoC3S3': 12.58, 'lipoC3S2': 8.31, 'rot1': 45, 'rot0': 46, 'rot3': 0, 'rot2': 0, 'state': 'normal', 'yaw': 25.12, 'datetime': '2018-10-05 15:22:29.079613', 'mgs': 1, 'volt': 0.7813, 'depth': -0.293, 'time': 14, 'pitch': -5.32, 'roll': -0.9, 'pres': 160}
{'lipoC2': 7.97, 'lipoC3S1': 4.16, 'temp': 26.0, 'lipoC3S3': 12.56, 'lipoC3S2': 8.31, 'rot1': 46, 'rot0': 47, 'rot3': 0, 'rot2': 0, 'state': 'normal', 'yaw': 28.02, 'datetime': '2018-10-05 15:22:29.183206', 'mgs': 1, 'volt': 0.791, 'depth': -0.14, 'time': 14, 'pitch': -5.24, 'roll': -0.86, 'pres': 162}
{'lipoC2': 7.97, 'lipoC3S1': 4.14, 'temp': 26.0, 'lipoC3S3': 12.58, 'lipoC3S2': 8.31, 'rot1': 46, 'rot0': 47, 'rot3': 0, 'rot2': 0, 'state': 'normal', 'yaw': 30.28, 'datetime': '2018-10-05 15:22:29.286953', 'mgs': 1, 'volt': 0.7813, 'depth': -0.293, 'time': 14, 'pitch': -5.11, 'roll': -0.86, 'pres': 160}
{'lipoC2': 7.97, 'lipoC3S1': 4.16, 'temp': 26.0, 'lipoC3S3': 12.56, 'lipoC3S2': 8.24, 'rot1': 47, 'rot0': 48, 'rot3': 0, 'rot2': 0, 'state': 'normal', 'yaw': 31.23, 'datetime': '2018-10-05 15:22:29.390801', 'mgs': 1, 'volt': 0.7813, 'depth': -0.293, 'time': 14, 'pitch': -5.04, 'roll': -0.84, 'pres': 160}
{'lipoC2': 7.97, 'lipoC3S1': 4.16, 'temp': 26.0, 'lipoC3S3': 12.56, 'lipoC3S2': 8.31, 'rot1': 48, 'rot0': 49, 'rot3': 0, 'rot2': 0, 'state': 'normal', 'yaw': 30.83, 'datetime': '2018-10-05 15:22:29.495595', 'mgs': 1, 'volt': 0.8105, 'depth': 0.165, 'time': 14, 'pitch': -5.0, 'roll': -0.83, 'pres': 166}
{'lipoC2': 7.97, 'lipoC3S1': 4.12, 'temp': 26.0, 'lipoC3S3': 12.56, 'lipoC3S2': 8.31, 'rot1': 49, 'rot0': 50, 'rot3': 0, 'rot2': 0, 'state': 'normal', 'yaw': 29.1, 'datetime': '2018-10-05 15:22:29.599307', 'mgs': 1, 'volt': 0.7813, 'depth': -0.293, 'time': 14, 'pitch': -4.9, 'roll': -0.91, 'pres': 160}
{'lipoC2': 7.97, 'lipoC3S1': 4.16, 'temp': 25.94, 'lipoC3S3': 12.56, 'lipoC3S2': 8.31, 'rot1': 50, 'rot0': 51, 'rot3': 0, 'rot2': 0, 'state': 'normal', 'yaw': 26.67, 'datetime': '2018-10-05 15:22:29.703560', 'mgs': 1, 'volt': 0.7813, 'depth': -0.293, 'time': 14, 'pitch': -4.91, 'roll': -0.95, 'pres': 160}
{'lipoC2': 7.97, 'lipoC3S1': 4.17, 'temp': 25.94, 'lipoC3S3': 12.56, 'lipoC3S2': 8.31, 'rot1': 51, 'rot0': 52, 'rot3': 0, 'rot2': 0, 'state': 'normal', 'yaw': 23.56, 'datetime': '2018-10-05 15:22:29.808038', 'mgs': 1, 'volt': 0.7813, 'depth': -0.293, 'time': 14, 'pitch': -4.88, 'roll': -1.0, 'pres': 160}
{'lipoC2': 7.97, 'lipoC3S1': 4.16, 'temp': 26.0, 'lipoC3S3': 12.58, 'lipoC3S2': 8.25, 'rot1': 52, 'rot0': 53, 'rot3': 0, 'rot2': 0, 'state': 'normal', 'yaw': 19.28, 'datetime': '2018-10-05 15:22:29.906051', 'mgs': 1, 'volt': 0.7813, 'depth': -0.293, 'time': 15, 'pitch': -4.76, 'roll': -1.06, 'pres': 160}
{'lipoC2': 7.98, 'lipoC3S1': 4.17, 'temp': 26.0, 'lipoC3S3': 12.58, 'lipoC3S2': 8.32, 'rot1': 53, 'rot0': 54, 'rot3': 0, 'rot2': 0, 'state': 'normal', 'yaw': 14.88, 'datetime': '2018-10-05 15:22:30.014031', 'mgs': 1, 'volt': 0.7813, 'depth': -0.293, 'time': 15, 'pitch': -4.7, 'roll': -1.15, 'pres': 160}
{'lipoC2': 7.97, 'lipoC3S1': 4.16, 'temp': 26.0, 'lipoC3S3': 12.59, 'lipoC3S2': 8.32, 'rot1': 54, 'rot0': 55, 'rot3': 0, 'rot2': 0, 'state': 'normal', 'yaw': 10.18, 'datetime': '2018-10-05 15:22:30.119322', 'mgs': 1, 'volt': 0.7813, 'depth': -0.293, 'time': 15, 'pitch': -4.67, 'roll': -1.21, 'pres': 160}
{'lipoC2': 7.97, 'lipoC3S1': 4.16, 'temp': 26.0, 'lipoC3S3': 12.58, 'lipoC3S2': 8.32, 'rot1': 54, 'rot0': 55, 'rot3': 0, 'rot2': 0, 'state': 'normal', 'yaw': 4.74, 'datetime': '2018-10-05 15:22:30.223363', 'mgs': 1, 'volt': 0.7813, 'depth': -0.293, 'time': 15, 'pitch': -4.74, 'roll': -1.3, 'pres': 160}
{'lipoC2': 7.97, 'lipoC3S1': 4.16, 'temp': 26.0, 'lipoC3S3': 12.58, 'lipoC3S2': 8.32, 'rot1': 54, 'rot0': 55, 'rot3': 0, 'rot2': 0, 'state': 'normal', 'yaw': -0.3, 'datetime': '2018-10-05 15:22:30.327394', 'mgs': 1, 'volt': 0.7813, 'depth': -0.293, 'time': 15, 'pitch': -4.83, 'roll': -1.39, 'pres': 160}
{'lipoC2': 7.97, 'lipoC3S1': 4.16, 'temp': 26.0, 'lipoC3S3': 12.58, 'lipoC3S2': 8.32, 'rot1': 54, 'rot0': 55, 'rot3': 0, 'rot2': 0, 'state': 'normal', 'yaw': -5.64, 'datetime': '2018-10-05 15:22:30.430358', 'mgs': 1, 'volt': 0.7813, 'depth': -0.293, 'time': 15, 'pitch': -4.75, 'roll': -1.49, 'pres': 160}
{'lipoC2': 7.97, 'lipoC3S1': 4.16, 'temp': 26.0, 'lipoC3S3': 12.58, 'lipoC3S2': 8.32, 'rot1': 54, 'rot0': 55, 'rot3': 0, 'rot2': 0, 'state': 'normal', 'yaw': -9.96, 'datetime': '2018-10-05 15:22:30.533883', 'mgs': 1, 'volt': 0.7813, 'depth': -0.293, 'time': 15, 'pitch': -4.69, 'roll': -1.57, 'pres': 160}
{'lipoC2': 7.97, 'lipoC3S1': 4.16, 'temp': 26.0, 'lipoC3S3': 12.58, 'lipoC3S2': 8.32, 'rot1': 54, 'rot0': 55, 'rot3': 0, 'rot2': 0, 'state': 'normal', 'yaw': -13.46, 'datetime': '2018-10-05 15:22:30.635234', 'mgs': 1, 'volt': 0.7813, 'depth': -0.293, 'time': 15, 'pitch': -4.73, 'roll': -1.6, 'pres': 160}
{'lipoC2': 7.97, 'lipoC3S1': 4.16, 'temp': 26.0, 'lipoC3S3': 12.51, 'lipoC3S2': 8.31, 'rot1': 54, 'rot0': 55, 'rot3': 0, 'rot2': 0, 'state': 'normal', 'yaw': -16.37, 'datetime': '2018-10-05 15:22:30.741483', 'mgs': 1, 'volt': 0.7813, 'depth': -0.293, 'time': 15, 'pitch': -4.96, 'roll': -1.63, 'pres': 160}
{'lipoC2': 7.97, 'lipoC3S1': 4.16, 'temp': 26.0, 'lipoC3S3': 12.58, 'lipoC3S2': 8.31, 'rot1': 55, 'rot0': 55, 'rot3': 0, 'rot2': 0, 'state': 'normal', 'yaw': -18.58, 'datetime': '2018-10-05 15:22:30.848260', 'mgs': 1, 'volt': 0.7813, 'depth': -0.293, 'time': 15, 'pitch': -5.21, 'roll': -1.64, 'pres': 160}
{'lipoC2': 7.97, 'lipoC3S1': 4.16, 'temp': 26.0, 'lipoC3S3': 12.51, 'lipoC3S2': 8.31, 'rot1': 55, 'rot0': 56, 'rot3': 0, 'rot2': 0, 'state': 'normal', 'yaw': -20.24, 'datetime': '2018-10-05 15:22:30.950602', 'mgs': 1, 'volt': 0.7813, 'depth': -0.293, 'time': 16, 'pitch': -5.31, 'roll': -1.73, 'pres': 160}
{'lipoC2': 7.97, 'lipoC3S1': 4.16, 'temp': 26.0, 'lipoC3S3': 12.56, 'lipoC3S2': 8.32, 'rot1': 55, 'rot0': 56, 'rot3': 0, 'rot2': 0, 'state': 'normal', 'yaw': -21.79, 'datetime': '2018-10-05 15:22:31.054057', 'mgs': 1, 'volt': 0.7813, 'depth': -0.293, 'time': 16, 'pitch': -5.2, 'roll': -1.66, 'pres': 160}
{'lipoC2': 7.97, 'lipoC3S1': 4.16, 'temp': 26.0, 'lipoC3S3': 12.58, 'lipoC3S2': 8.31, 'rot1': 56, 'rot0': 57, 'rot3': 0, 'rot2': 0, 'state': 'normal', 'yaw': -22.93, 'datetime': '2018-10-05 15:22:31.159076', 'mgs': 1, 'volt': 0.7813, 'depth': -0.293, 'time': 16, 'pitch': -5.12, 'roll': -1.72, 'pres': 160}
{'lipoC2': 7.97, 'lipoC3S1': 4.16, 'temp': 26.0, 'lipoC3S3': 12.56, 'lipoC3S2': 8.31, 'rot1': 56, 'rot0': 58, 'rot3': 0, 'rot2': 0, 'state': 'normal', 'yaw': -23.64, 'datetime': '2018-10-05 15:22:31.262931', 'mgs': 1, 'volt': 0.7813, 'depth': -0.293, 'time': 16, 'pitch': -5.25, 'roll': -1.72, 'pres': 160}
{'lipoC2': 7.97, 'lipoC3S1': 4.16, 'temp': 25.94, 'lipoC3S3': 12.58, 'lipoC3S2': 8.31, 'rot1': 57, 'rot0': 58, 'rot3': 0, 'rot2': 0, 'state': 'normal', 'yaw': -22.88, 'datetime': '2018-10-05 15:22:31.366528', 'mgs': 1, 'volt': 0.7861, 'depth': -0.217, 'time': 16, 'pitch': -5.36, 'roll': -1.8, 'pres': 161}
{'lipoC2': 7.97, 'lipoC3S1': 4.16, 'temp': 25.94, 'lipoC3S3': 12.58, 'lipoC3S2': 8.31, 'rot1': 58, 'rot0': 59, 'rot3': 0, 'rot2': 0, 'state': 'normal', 'yaw': -19.76, 'datetime': '2018-10-05 15:22:31.470364', 'mgs': 1, 'volt': 0.7813, 'depth': -0.293, 'time': 16, 'pitch': -5.35, 'roll': -1.88, 'pres': 160}
{'lipoC2': 7.97, 'lipoC3S1': 4.16, 'temp': 25.94, 'lipoC3S3': 12.59, 'lipoC3S2': 8.31, 'rot1': 58, 'rot0': 60, 'rot3': 0, 'rot2': 0, 'state': 'normal', 'yaw': -14.53, 'datetime': '2018-10-05 15:22:31.572804', 'mgs': 1, 'volt': 0.7813, 'depth': -0.293, 'time': 16, 'pitch': -5.12, 'roll': -1.58, 'pres': 160}
{'lipoC2': 7.97, 'lipoC3S1': 4.16, 'temp': 26.0, 'lipoC3S3': 12.58, 'lipoC3S2': 8.32, 'rot1': 59, 'rot0': 60, 'rot3': 0, 'rot2': 0, 'state': 'normal', 'yaw': -9.65, 'datetime': '2018-10-05 15:22:31.677742', 'mgs': 1, 'volt': 0.7959, 'depth': -0.064, 'time': 16, 'pitch': -4.91, 'roll': -1.49, 'pres': 163}
{'lipoC2': 7.97, 'lipoC3S1': 4.16, 'temp': 26.0, 'lipoC3S3': 12.58, 'lipoC3S2': 8.32, 'rot1': 59, 'rot0': 60, 'rot3': 0, 'rot2': 0, 'state': 'normal', 'yaw': -5.82, 'datetime': '2018-10-05 15:22:31.781391', 'mgs': 1, 'volt': 0.7813, 'depth': -0.293, 'time': 16, 'pitch': -4.77, 'roll': -1.38, 'pres': 160}
{'lipoC2': 7.97, 'lipoC3S1': 4.16, 'temp': 26.0, 'lipoC3S3': 12.58, 'lipoC3S2': 8.32, 'rot1': 59, 'rot0': 60, 'rot3': 0, 'rot2': 0, 'state': 'normal', 'yaw': -4.3, 'datetime': '2018-10-05 15:22:31.885190', 'mgs': 1, 'volt': 0.7813, 'depth': -0.293, 'time': 17, 'pitch': -4.63, 'roll': -1.22, 'pres': 160}
{'lipoC2': 7.97, 'lipoC3S1': 4.16, 'temp': 26.0, 'lipoC3S3': 12.58, 'lipoC3S2': 8.32, 'rot1': 59, 'rot0': 60, 'rot3': 0, 'rot2': 0, 'state': 'normal', 'yaw': -5.03, 'datetime': '2018-10-05 15:22:31.988789', 'mgs': 1, 'volt': 0.7813, 'depth': -0.293, 'time': 17, 'pitch': -4.57, 'roll': -1.45, 'pres': 160}
{'lipoC2': 7.97, 'lipoC3S1': 4.16, 'temp': 26.0, 'lipoC3S3': 12.58, 'lipoC3S2': 8.32, 'rot1': 59, 'rot0': 60, 'rot3': 0, 'rot2': 0, 'state': 'normal', 'yaw': -5.88, 'datetime': '2018-10-05 15:22:32.093369', 'mgs': 1, 'volt': 0.7813, 'depth': -0.293, 'time': 17, 'pitch': -4.72, 'roll': -1.6, 'pres': 160}
{'lipoC2': 7.97, 'lipoC3S1': 4.16, 'temp': 26.0, 'lipoC3S3': 12.58, 'lipoC3S2': 8.32, 'rot1': 59, 'rot0': 60, 'rot3': 0, 'rot2': 0, 'state': 'normal', 'yaw': -5.98, 'datetime': '2018-10-05 15:22:32.197101', 'mgs': 1, 'volt': 0.7813, 'depth': -0.293, 'time': 17, 'pitch': -5.03, 'roll': -1.52, 'pres': 160}
{'lipoC2': 7.97, 'lipoC3S1': 4.16, 'temp': 26.0, 'lipoC3S3': 12.58, 'lipoC3S2': 8.32, 'rot1': 59, 'rot0': 60, 'rot3': 0, 'rot2': 0, 'state': 'normal', 'yaw': -5.96, 'datetime': '2018-10-05 15:22:32.301802', 'mgs': 1, 'volt': 0.7813, 'depth': -0.293, 'time': 17, 'pitch': -5.35, 'roll': -1.51, 'pres': 160}
{'lipoC2': 7.97, 'lipoC3S1': 4.16, 'temp': 26.0, 'lipoC3S3': 12.58, 'lipoC3S2': 8.32, 'rot1': 59, 'rot0': 60, 'rot3': 0, 'rot2': 0, 'state': 'normal', 'yaw': -5.96, 'datetime': '2018-10-05 15:22:32.405917', 'mgs': 1, 'volt': 0.7813, 'depth': -0.293, 'time': 17, 'pitch': -5.29, 'roll': -1.57, 'pres': 160}
{'lipoC2': 7.97, 'lipoC3S1': 4.16, 'temp': 26.0, 'lipoC3S3': 12.58, 'lipoC3S2': 8.32, 'rot1': 59, 'rot0': 60, 'rot3': 0, 'rot2': 0, 'state': 'normal', 'yaw': -5.96, 'datetime': '2018-10-05 15:22:32.509200', 'mgs': 1, 'volt': 0.7813, 'depth': -0.293, 'time': 17, 'pitch': -5.02, 'roll': -1.49, 'pres': 160}
{'lipoC2': 7.97, 'lipoC3S1': 4.16, 'temp': 26.0, 'lipoC3S3': 12.58, 'lipoC3S2': 8.32, 'rot1': 59, 'rot0': 60, 'rot3': 0, 'rot2': 0, 'state': 'normal', 'yaw': -5.96, 'datetime': '2018-10-05 15:22:32.614109', 'mgs': 1, 'volt': 0.7813, 'depth': -0.293, 'time': 17, 'pitch': -5.06, 'roll': -1.5, 'pres': 160}
{'lipoC2': 7.97, 'lipoC3S1': 4.16, 'temp': 26.0, 'lipoC3S3': 12.58, 'lipoC3S2': 8.32, 'rot1': 59, 'rot0': 60, 'rot3': 0, 'rot2': 0, 'state': 'normal', 'yaw': -5.95, 'datetime': '2018-10-05 15:22:32.718337', 'mgs': 1, 'volt': 0.7813, 'depth': -0.293, 'time': 17, 'pitch': -5.21, 'roll': -1.5, 'pres': 160}
{'lipoC2': 7.97, 'lipoC3S1': 4.16, 'temp': 26.0, 'lipoC3S3': 12.58, 'lipoC3S2': 8.32, 'rot1': 59, 'rot0': 60, 'rot3': 0, 'rot2': 0, 'state': 'normal', 'yaw': -5.95, 'datetime': '2018-10-05 15:22:32.821611', 'mgs': 1, 'volt': 0.7813, 'depth': -0.293, 'time': 17, 'pitch': -5.11, 'roll': -1.49, 'pres': 160}
{'lipoC2': 7.97, 'lipoC3S1': 4.16, 'temp': 26.0, 'lipoC3S3': 12.58, 'lipoC3S2': 8.32, 'rot1': 59, 'rot0': 60, 'rot3': 0, 'rot2': 0, 'state': 'normal', 'yaw': -5.95, 'datetime': '2018-10-05 15:22:32.925748', 'mgs': 1, 'volt': 0.7813, 'depth': -0.293, 'time': 18, 'pitch': -5.0, 'roll': -1.51, 'pres': 160}
{'lipoC2': 7.97, 'lipoC3S1': 4.16, 'temp': 26.0, 'lipoC3S3': 12.58, 'lipoC3S2': 8.32, 'rot1': 59, 'rot0': 60, 'rot3': 0, 'rot2': 0, 'state': 'normal', 'yaw': -5.95, 'datetime': '2018-10-05 15:22:33.029155', 'mgs': 1, 'volt': 0.7813, 'depth': -0.293, 'time': 18, 'pitch': -5.07, 'roll': -1.51, 'pres': 160}
{'lipoC2': 7.97, 'lipoC3S1': 4.16, 'temp': 26.0, 'lipoC3S3': 12.58, 'lipoC3S2': 8.32, 'rot1': 59, 'rot0': 60, 'rot3': 0, 'rot2': 0, 'state': 'normal', 'yaw': -5.95, 'datetime': '2018-10-05 15:22:33.134112', 'mgs': 1, 'volt': 0.7813, 'depth': -0.293, 'time': 18, 'pitch': -5.12, 'roll': -1.52, 'pres': 160}
{'lipoC2': 7.97, 'lipoC3S1': 4.16, 'temp': 26.0, 'lipoC3S3': 12.58, 'lipoC3S2': 8.32, 'rot1': 59, 'rot0': 60, 'rot3': 0, 'rot2': 0, 'state': 'normal', 'yaw': -5.95, 'datetime': '2018-10-05 15:22:33.237920', 'mgs': 1, 'volt': 0.7813, 'depth': -0.293, 'time': 18, 'pitch': -5.05, 'roll': -1.52, 'pres': 160}
{'lipoC2': 7.97, 'lipoC3S1': 4.16, 'temp': 26.0, 'lipoC3S3': 12.58, 'lipoC3S2': 8.32, 'rot1': 59, 'rot0': 60, 'rot3': 0, 'rot2': 0, 'state': 'normal', 'yaw': -5.95, 'datetime': '2018-10-05 15:22:33.341704', 'mgs': 1, 'volt': 0.7813, 'depth': -0.293, 'time': 18, 'pitch': -5.02, 'roll': -1.52, 'pres': 160}
{'lipoC2': 7.97, 'lipoC3S1': 4.16, 'temp': 26.0, 'lipoC3S3': 12.58, 'lipoC3S2': 8.32, 'rot1': 59, 'rot0': 60, 'rot3': 0, 'rot2': 0, 'state': 'normal', 'yaw': -5.95, 'datetime': '2018-10-05 15:22:33.446628', 'mgs': 1, 'volt': 0.7813, 'depth': -0.293, 'time': 18, 'pitch': -5.08, 'roll': -1.52, 'pres': 160}
{'lipoC2': 7.97, 'lipoC3S1': 4.16, 'temp': 26.06, 'lipoC3S3': 12.58, 'lipoC3S2': 8.32, 'rot1': 59, 'rot0': 60, 'rot3': 0, 'rot2': 0, 'state': 'normal', 'yaw': -5.95, 'datetime': '2018-10-05 15:22:33.550648', 'mgs': 1, 'volt': 0.7813, 'depth': -0.293, 'time': 18, 'pitch': -5.08, 'roll': -1.51, 'pres': 160}
{'lipoC2': 7.97, 'lipoC3S1': 4.16, 'temp': 26.06, 'lipoC3S3': 12.58, 'lipoC3S2': 8.32, 'rot1': 59, 'rot0': 60, 'rot3': 0, 'rot2': 0, 'state': 'normal', 'yaw': -6.11, 'datetime': '2018-10-05 15:22:33.653292', 'mgs': 1, 'volt': 0.7813, 'depth': -0.293, 'time': 18, 'pitch': -5.02, 'roll': -1.58, 'pres': 160}
{'lipoC2': 7.97, 'lipoC3S1': 4.16, 'temp': 26.06, 'lipoC3S3': 12.58, 'lipoC3S2': 8.32, 'rot1': 59, 'rot0': 60, 'rot3': 0, 'rot2': 0, 'state': 'normal', 'yaw': -7.13, 'datetime': '2018-10-05 15:22:33.758912', 'mgs': 1, 'volt': 0.7813, 'depth': -0.293, 'time': 18, 'pitch': -4.87, 'roll': -1.71, 'pres': 160}
{'lipoC2': 7.97, 'lipoC3S1': 4.16, 'temp': 26.0, 'lipoC3S3': 12.58, 'lipoC3S2': 8.32, 'rot1': 59, 'rot0': 60, 'rot3': 0, 'rot2': 0, 'state': 'normal', 'yaw': -9.68, 'datetime': '2018-10-05 15:22:33.862639', 'mgs': 1, 'volt': 0.7813, 'depth': -0.293, 'time': 18, 'pitch': -4.66, 'roll': -1.69, 'pres': 160}
{'lipoC2': 7.97, 'lipoC3S1': 4.17, 'temp': 26.0, 'lipoC3S3': 12.58, 'lipoC3S2': 8.32, 'rot1': 60, 'rot0': 60, 'rot3': 0, 'rot2': 0, 'state': 'normal', 'yaw': -12.82, 'datetime': '2018-10-05 15:22:33.967652', 'mgs': 1, 'volt': 0.7813, 'depth': -0.293, 'time': 19, 'pitch': -4.87, 'roll': -1.67, 'pres': 160}
{'lipoC2': 7.97, 'lipoC3S1': 4.16, 'temp': 26.0, 'lipoC3S3': 12.58, 'lipoC3S2': 8.31, 'rot1': 60, 'rot0': 60, 'rot3': 0, 'rot2': 0, 'state': 'normal', 'yaw': -16.44, 'datetime': '2018-10-05 15:22:34.071275', 'mgs': 1, 'volt': 0.7813, 'depth': -0.293, 'time': 19, 'pitch': -5.27, 'roll': -1.69, 'pres': 160}
{'lipoC2': 7.97, 'lipoC3S1': 4.16, 'temp': 26.0, 'lipoC3S3': 12.58, 'lipoC3S2': 8.31, 'rot1': 60, 'rot0': 61, 'rot3': 0, 'rot2': 0, 'state': 'normal', 'yaw': -19.47, 'datetime': '2018-10-05 15:22:34.175099', 'mgs': 1, 'volt': 0.7813, 'depth': -0.293, 'time': 19, 'pitch': -5.38, 'roll': -1.73, 'pres': 160}
{'lipoC2': 7.97, 'lipoC3S1': 4.16, 'temp': 26.0, 'lipoC3S3': 12.58, 'lipoC3S2': 8.31, 'rot1': 60, 'rot0': 61, 'rot3': 0, 'rot2': 0, 'state': 'normal', 'yaw': -21.85, 'datetime': '2018-10-05 15:22:34.278667', 'mgs': 1, 'volt': 0.8057, 'depth': 0.089, 'time': 19, 'pitch': -5.33, 'roll': -1.71, 'pres': 165}
{'lipoC2': 7.97, 'lipoC3S1': 4.16, 'temp': 26.0, 'lipoC3S3': 12.58, 'lipoC3S2': 8.32, 'rot1': 61, 'rot0': 62, 'rot3': 0, 'rot2': 0, 'state': 'normal', 'yaw': -23.5, 'datetime': '2018-10-05 15:22:34.382357', 'mgs': 1, 'volt': 0.7813, 'depth': -0.293, 'time': 19, 'pitch': -5.38, 'roll': -1.73, 'pres': 160}
{'lipoC2': 7.97, 'lipoC3S1': 4.16, 'temp': 26.0, 'lipoC3S3': 12.58, 'lipoC3S2': 8.28, 'rot1': 61, 'rot0': 63, 'rot3': 0, 'rot2': 0, 'state': 'normal', 'yaw': -24.25, 'datetime': '2018-10-05 15:22:34.486049', 'mgs': 1, 'volt': 0.7813, 'depth': -0.293, 'time': 19, 'pitch': -5.46, 'roll': -1.79, 'pres': 160}
{'lipoC2': 7.97, 'lipoC3S1': 4.16, 'temp': 26.0, 'lipoC3S3': 12.62, 'lipoC3S2': 8.31, 'rot1': 62, 'rot0': 63, 'rot3': 0, 'rot2': 0, 'state': 'normal', 'yaw': -24.73, 'datetime': '2018-10-05 15:22:34.589793', 'mgs': 1, 'volt': 0.7813, 'depth': -0.293, 'time': 19, 'pitch': -5.31, 'roll': -1.78, 'pres': 160}
{'lipoC2': 7.97, 'lipoC3S1': 4.16, 'temp': 26.0, 'lipoC3S3': 12.58, 'lipoC3S2': 8.31, 'rot1': 63, 'rot0': 64, 'rot3': 0, 'rot2': 0, 'state': 'normal', 'yaw': -25.0, 'datetime': '2018-10-05 15:22:34.693506', 'mgs': 1, 'volt': 0.7813, 'depth': -0.293, 'time': 19, 'pitch': -4.94, 'roll': -1.71, 'pres': 160}
{'lipoC2': 7.97, 'lipoC3S1': 4.16, 'temp': 26.0, 'lipoC3S3': 12.58, 'lipoC3S2': 8.31, 'rot1': 63, 'rot0': 65, 'rot3': 0, 'rot2': 0, 'state': 'normal', 'yaw': -24.97, 'datetime': '2018-10-05 15:22:34.797176', 'mgs': 1, 'volt': 0.7813, 'depth': -0.293, 'time': 19, 'pitch': -5.02, 'roll': -1.73, 'pres': 160}
{'lipoC2': 7.97, 'lipoC3S1': 4.16, 'temp': 26.0, 'lipoC3S3': 12.58, 'lipoC3S2': 8.32, 'rot1': 64, 'rot0': 65, 'rot3': 0, 'rot2': 0, 'state': 'normal', 'yaw': -24.88, 'datetime': '2018-10-05 15:22:34.902013', 'mgs': 1, 'volt': 0.7813, 'depth': -0.293, 'time': 20, 'pitch': -5.27, 'roll': -1.67, 'pres': 160}
