{'lipoC2': 7.36, 'lipoC3S1': 3.92, 'temp': 30.25, 'lipoC3S3': 11.87, 'lipoC3S2': 7.85, 'rot1': 1468, 'rot0': 1456, 'rot3': 737, 'rot2': 682, 'state': 'normal', 'yaw': -17.54, 'datetime': '2018-10-09 13:33:23.487033', 'mgs': 0, 'volt': 0.8789, 'depth': 1.233, 'time': 321, 'pitch': -3.43, 'roll': -2.47, 'pres': 180}
{'lipoC2': 7.36, 'lipoC3S1': 3.92, 'temp': 30.25, 'lipoC3S3': 11.87, 'lipoC3S2': 7.85, 'rot1': 1468, 'rot0': 1456, 'rot3': 737, 'rot2': 682, 'state': 'normal', 'yaw': -17.91, 'datetime': '2018-10-09 13:33:23.510988', 'mgs': 0, 'volt': 0.8789, 'depth': 1.233, 'time': 321, 'pitch': -3.69, 'roll': -2.85, 'pres': 180}
{'lipoC2': 7.36, 'lipoC3S1': 3.92, 'temp': 30.25, 'lipoC3S3': 11.87, 'lipoC3S2': 7.85, 'rot1': 1468, 'rot0': 1456, 'rot3': 737, 'rot2': 682, 'state': 'normal', 'yaw': -18.17, 'datetime': '2018-10-09 13:33:23.535348', 'mgs': 0, 'volt': 0.8789, 'depth': 1.233, 'time': 321, 'pitch': -3.65, 'roll': -3.26, 'pres': 180}
{'lipoC2': 7.36, 'lipoC3S1': 3.92, 'temp': 30.31, 'lipoC3S3': 11.87, 'lipoC3S2': 7.85, 'rot1': 1468, 'rot0': 1456, 'rot3': 737, 'rot2': 682, 'state': 'normal', 'yaw': -18.04, 'datetime': '2018-10-09 13:33:23.559453', 'mgs': 0, 'volt': 0.8789, 'depth': 1.233, 'time': 321, 'pitch': -3.31, 'roll': -3.75, 'pres': 180}
{'lipoC2': 7.36, 'lipoC3S1': 3.92, 'temp': 30.31, 'lipoC3S3': 11.87, 'lipoC3S2': 7.84, 'rot1': 1468, 'rot0': 1456, 'rot3': 737, 'rot2': 682, 'state': 'normal', 'yaw': -17.45, 'datetime': '2018-10-09 13:33:23.583423', 'mgs': 0, 'volt': 0.874, 'depth': 1.157, 'time': 321, 'pitch': -2.83, 'roll': -4.22, 'pres': 179}
{'lipoC2': 7.36, 'lipoC3S1': 3.93, 'temp': 30.25, 'lipoC3S3': 11.87, 'lipoC3S2': 7.85, 'rot1': 1468, 'rot0': 1456, 'rot3': 737, 'rot2': 682, 'state': 'normal', 'yaw': -16.46, 'datetime': '2018-10-09 13:33:23.607172', 'mgs': 0, 'volt': 0.874, 'depth': 1.157, 'time': 321, 'pitch': -2.32, 'roll': -4.72, 'pres': 179}
{'lipoC2': 7.36, 'lipoC3S1': 3.92, 'temp': 30.25, 'lipoC3S3': 11.87, 'lipoC3S2': 7.85, 'rot1': 1468, 'rot0': 1456, 'rot3': 737, 'rot2': 682, 'state': 'normal', 'yaw': -15.58, 'datetime': '2018-10-09 13:33:23.617647', 'mgs': 0, 'volt': 0.8789, 'depth': 1.233, 'time': 322, 'pitch': -1.79, 'roll': -5.04, 'pres': 180}
{'lipoC2': 7.36, 'lipoC3S1': 3.93, 'temp': 30.31, 'lipoC3S3': 11.87, 'lipoC3S2': 7.85, 'rot1': 1468, 'rot0': 1456, 'rot3': 737, 'rot2': 682, 'state': 'normal', 'yaw': -14.83, 'datetime': '2018-10-09 13:33:23.628146', 'mgs': 0, 'volt': 0.8789, 'depth': 1.233, 'time': 322, 'pitch': -1.21, 'roll': -5.06, 'pres': 180}
{'lipoC2': 7.36, 'lipoC3S1': 3.92, 'temp': 30.31, 'lipoC3S3': 11.87, 'lipoC3S2': 7.85, 'rot1': 1468, 'rot0': 1456, 'rot3': 737, 'rot2': 682, 'state': 'normal', 'yaw': -14.32, 'datetime': '2018-10-09 13:33:23.638658', 'mgs': 0, 'volt': 0.874, 'depth': 1.157, 'time': 322, 'pitch': -0.7, 'roll': -4.77, 'pres': 179}
{'lipoC2': 7.36, 'lipoC3S1': 3.92, 'temp': 30.31, 'lipoC3S3': 11.87, 'lipoC3S2': 7.85, 'rot1': 1468, 'rot0': 1456, 'rot3': 737, 'rot2': 682, 'state': 'normal', 'yaw': -13.78, 'datetime': '2018-10-09 13:33:23.649092', 'mgs': 0, 'volt': 0.8789, 'depth': 1.233, 'time': 322, 'pitch': -0.36, 'roll': -4.08, 'pres': 180}
{'lipoC2': 7.36, 'lipoC3S1': 3.92, 'temp': 30.31, 'lipoC3S3': 11.85, 'lipoC3S2': 7.84, 'rot1': 1468, 'rot0': 1456, 'rot3': 737, 'rot2': 682, 'state': 'normal', 'yaw': -13.27, 'datetime': '2018-10-09 13:33:23.659480', 'mgs': 0, 'volt': 0.8789, 'depth': 1.233, 'time': 322, 'pitch': -0.39, 'roll': -3.25, 'pres': 180}
{'lipoC2': 7.36, 'lipoC3S1': 3.92, 'temp': 30.31, 'lipoC3S3': 11.87, 'lipoC3S2': 7.84, 'rot1': 1468, 'rot0': 1456, 'rot3': 737, 'rot2': 682, 'state': 'normal', 'yaw': -12.84, 'datetime': '2018-10-09 13:33:23.669913', 'mgs': 0, 'volt': 0.8789, 'depth': 1.233, 'time': 322, 'pitch': -0.51, 'roll': -2.33, 'pres': 180}
{'lipoC2': 7.36, 'lipoC3S1': 3.92, 'temp': 30.31, 'lipoC3S3': 11.87, 'lipoC3S2': 7.84, 'rot1': 1468, 'rot0': 1456, 'rot3': 737, 'rot2': 682, 'state': 'normal', 'yaw': -12.49, 'datetime': '2018-10-09 13:33:23.680286', 'mgs': 0, 'volt': 0.8789, 'depth': 1.233, 'time': 322, 'pitch': -0.35, 'roll': -1.36, 'pres': 180}
{'lipoC2': 7.36, 'lipoC3S1': 3.92, 'temp': 30.31, 'lipoC3S3': 11.87, 'lipoC3S2': 7.84, 'rot1': 1468, 'rot0': 1456, 'rot3': 737, 'rot2': 682, 'state': 'normal', 'yaw': -12.17, 'datetime': '2018-10-09 13:33:23.691031', 'mgs': 0, 'volt': 0.8789, 'depth': 1.233, 'time': 322, 'pitch': 0.01, 'roll': -0.56, 'pres': 180}
{'lipoC2': 7.36, 'lipoC3S1': 3.92, 'temp': 30.25, 'lipoC3S3': 11.85, 'lipoC3S2': 7.84, 'rot1': 1468, 'rot0': 1456, 'rot3': 737, 'rot2': 682, 'state': 'normal', 'yaw': -11.5, 'datetime': '2018-10-09 13:33:23.701300', 'mgs': 0, 'volt': 0.8789, 'depth': 1.233, 'time': 322, 'pitch': 0.49, 'roll': 0.21, 'pres': 180}
{'lipoC2': 7.36, 'lipoC3S1': 3.92, 'temp': 30.25, 'lipoC3S3': 11.87, 'lipoC3S2': 7.84, 'rot1': 1468, 'rot0': 1456, 'rot3': 737, 'rot2': 682, 'state': 'normal', 'yaw': -10.35, 'datetime': '2018-10-09 13:33:23.711144', 'mgs': 0, 'volt': 0.8789, 'depth': 1.233, 'time': 323, 'pitch': 0.55, 'roll': 0.72, 'pres': 180}
{'lipoC2': 7.36, 'lipoC3S1': 3.92, 'temp': 30.25, 'lipoC3S3': 11.85, 'lipoC3S2': 7.84, 'rot1': 1468, 'rot0': 1456, 'rot3': 737, 'rot2': 682, 'state': 'normal', 'yaw': -8.47, 'datetime': '2018-10-09 13:33:23.720940', 'mgs': 0, 'volt': 0.8789, 'depth': 1.233, 'time': 323, 'pitch': 0.2, 'roll': 0.84, 'pres': 180}
{'lipoC2': 7.36, 'lipoC3S1': 3.92, 'temp': 30.31, 'lipoC3S3': 11.87, 'lipoC3S2': 7.84, 'rot1': 1468, 'rot0': 1456, 'rot3': 737, 'rot2': 682, 'state': 'normal', 'yaw': -6.33, 'datetime': '2018-10-09 13:33:23.730763', 'mgs': 0, 'volt': 0.874, 'depth': 1.157, 'time': 323, 'pitch': -0.48, 'roll': 0.46, 'pres': 179}
{'lipoC2': 7.36, 'lipoC3S1': 3.92, 'temp': 30.31, 'lipoC3S3': 11.87, 'lipoC3S2': 7.84, 'rot1': 1468, 'rot0': 1456, 'rot3': 737, 'rot2': 682, 'state': 'normal', 'yaw': -3.85, 'datetime': '2018-10-09 13:33:23.740618', 'mgs': 0, 'volt': 0.874, 'depth': 1.157, 'time': 323, 'pitch': -1.57, 'roll': -0.37, 'pres': 179}
{'lipoC2': 7.36, 'lipoC3S1': 3.92, 'temp': 30.31, 'lipoC3S3': 11.87, 'lipoC3S2': 7.84, 'rot1': 1468, 'rot0': 1456, 'rot3': 737, 'rot2': 682, 'state': 'normal', 'yaw': -1.73, 'datetime': '2018-10-09 13:33:23.750464', 'mgs': 0, 'volt': 0.8691, 'depth': 1.08, 'time': 323, 'pitch': -2.53, 'roll': -1.27, 'pres': 178}
{'lipoC2': 7.36, 'lipoC3S1': 3.92, 'temp': 30.31, 'lipoC3S3': 11.87, 'lipoC3S2': 7.84, 'rot1': 1468, 'rot0': 1456, 'rot3': 737, 'rot2': 682, 'state': 'normal', 'yaw': -0.04, 'datetime': '2018-10-09 13:33:23.760329', 'mgs': 0, 'volt': 0.8691, 'depth': 1.08, 'time': 323, 'pitch': -3.14, 'roll': -1.99, 'pres': 178}
{'lipoC2': 7.36, 'lipoC3S1': 3.92, 'temp': 30.31, 'lipoC3S3': 11.87, 'lipoC3S2': 7.84, 'rot1': 1468, 'rot0': 1456, 'rot3': 737, 'rot2': 682, 'state': 'normal', 'yaw': 1.09, 'datetime': '2018-10-09 13:33:23.770152', 'mgs': 0, 'volt': 0.8691, 'depth': 1.08, 'time': 323, 'pitch': -3.35, 'roll': -2.42, 'pres': 178}
{'lipoC2': 7.36, 'lipoC3S1': 3.92, 'temp': 30.31, 'lipoC3S3': 11.87, 'lipoC3S2': 7.84, 'rot1': 1468, 'rot0': 1456, 'rot3': 737, 'rot2': 682, 'state': 'normal', 'yaw': 1.58, 'datetime': '2018-10-09 13:33:23.779934', 'mgs': 0, 'volt': 0.8643, 'depth': 1.004, 'time': 323, 'pitch': -3.3, 'roll': -2.62, 'pres': 177}
{'lipoC2': 7.36, 'lipoC3S1': 3.92, 'temp': 30.31, 'lipoC3S3': 11.85, 'lipoC3S2': 7.84, 'rot1': 1468, 'rot0': 1456, 'rot3': 737, 'rot2': 682, 'state': 'normal', 'yaw': 1.72, 'datetime': '2018-10-09 13:33:23.789750', 'mgs': 0, 'volt': 0.8691, 'depth': 1.08, 'time': 323, 'pitch': -3.0, 'roll': -2.85, 'pres': 178}
{'lipoC2': 7.36, 'lipoC3S1': 3.92, 'temp': 30.31, 'lipoC3S3': 11.85, 'lipoC3S2': 7.84, 'rot1': 1468, 'rot0': 1456, 'rot3': 737, 'rot2': 682, 'state': 'normal', 'yaw': 1.68, 'datetime': '2018-10-09 13:33:23.799543', 'mgs': 0, 'volt': 0.8691, 'depth': 1.08, 'time': 323, 'pitch': -2.55, 'roll': -3.17, 'pres': 178}
{'lipoC2': 7.36, 'lipoC3S1': 3.92, 'temp': 30.31, 'lipoC3S3': 11.87, 'lipoC3S2': 7.84, 'rot1': 1468, 'rot0': 1456, 'rot3': 737, 'rot2': 682, 'state': 'normal', 'yaw': 1.65, 'datetime': '2018-10-09 13:33:23.809309', 'mgs': 0, 'volt': 0.8691, 'depth': 1.08, 'time': 324, 'pitch': -1.96, 'roll': -3.64, 'pres': 178}
{'lipoC2': 7.36, 'lipoC3S1': 3.92, 'temp': 30.38, 'lipoC3S3': 11.87, 'lipoC3S2': 7.84, 'rot1': 1468, 'rot0': 1456, 'rot3': 737, 'rot2': 682, 'state': 'normal', 'yaw': 1.8, 'datetime': '2018-10-09 13:33:23.819100', 'mgs': 0, 'volt': 0.8691, 'depth': 1.08, 'time': 324, 'pitch': -1.29, 'roll': -4.31, 'pres': 178}
{'lipoC2': 7.36, 'lipoC3S1': 3.92, 'temp': 30.38, 'lipoC3S3': 11.87, 'lipoC3S2': 7.84, 'rot1': 1468, 'rot0': 1456, 'rot3': 737, 'rot2': 682, 'state': 'normal', 'yaw': 1.93, 'datetime': '2018-10-09 13:33:23.829158', 'mgs': 0, 'volt': 0.8643, 'depth': 1.004, 'time': 324, 'pitch': -0.77, 'roll': -4.74, 'pres': 177}
{'lipoC2': 7.36, 'lipoC3S1': 3.92, 'temp': 30.31, 'lipoC3S3': 11.87, 'lipoC3S2': 7.84, 'rot1': 1468, 'rot0': 1456, 'rot3': 737, 'rot2': 682, 'state': 'normal', 'yaw': 2.01, 'datetime': '2018-10-09 13:33:23.839018', 'mgs': 0, 'volt': 0.8643, 'depth': 1.004, 'time': 324, 'pitch': -0.36, 'roll': -4.81, 'pres': 177}
{'lipoC2': 7.35, 'lipoC3S1': 3.92, 'temp': 30.31, 'lipoC3S3': 11.87, 'lipoC3S2': 7.84, 'rot1': 1468, 'rot0': 1456, 'rot3': 737, 'rot2': 682, 'state': 'normal', 'yaw': 2.11, 'datetime': '2018-10-09 13:33:23.848877', 'mgs': 0, 'volt': 0.8643, 'depth': 1.004, 'time': 324, 'pitch': -0.14, 'roll': -4.63, 'pres': 177}
{'lipoC2': 7.35, 'lipoC3S1': 3.92, 'temp': 30.31, 'lipoC3S3': 11.87, 'lipoC3S2': 7.84, 'rot1': 1468, 'rot0': 1456, 'rot3': 737, 'rot2': 682, 'state': 'normal', 'yaw': 2.3, 'datetime': '2018-10-09 13:33:23.858692', 'mgs': 0, 'volt': 0.8643, 'depth': 1.004, 'time': 324, 'pitch': -0.21, 'roll': -4.4, 'pres': 177}
{'lipoC2': 7.35, 'lipoC3S1': 3.92, 'temp': 30.31, 'lipoC3S3': 11.87, 'lipoC3S2': 7.84, 'rot1': 1468, 'rot0': 1456, 'rot3': 737, 'rot2': 682, 'state': 'normal', 'yaw': 2.52, 'datetime': '2018-10-09 13:33:23.868511', 'mgs': 0, 'volt': 0.8643, 'depth': 1.004, 'time': 324, 'pitch': -0.76, 'roll': -4.25, 'pres': 177}
{'lipoC2': 7.36, 'lipoC3S1': 3.92, 'temp': 30.31, 'lipoC3S3': 11.87, 'lipoC3S2': 7.84, 'rot1': 1468, 'rot0': 1456, 'rot3': 737, 'rot2': 682, 'state': 'normal', 'yaw': 2.77, 'datetime': '2018-10-09 13:33:23.957055', 'mgs': 0, 'volt': 0.8643, 'depth': 1.004, 'time': 324, 'pitch': -1.77, 'roll': -4.1, 'pres': 177}
{'lipoC2': 7.35, 'lipoC3S1': 3.92, 'temp': 30.25, 'lipoC3S3': 11.85, 'lipoC3S2': 7.84, 'rot1': 1468, 'rot0': 1456, 'rot3': 737, 'rot2': 682, 'state': 'normal', 'yaw': 2.94, 'datetime': '2018-10-09 13:33:24.061484', 'mgs': 0, 'volt': 0.8594, 'depth': 0.928, 'time': 324, 'pitch': -2.73, 'roll': -3.87, 'pres': 176}
{'lipoC2': 7.36, 'lipoC3S1': 3.92, 'temp': 30.25, 'lipoC3S3': 11.87, 'lipoC3S2': 7.84, 'rot1': 1468, 'rot0': 1456, 'rot3': 737, 'rot2': 682, 'state': 'normal', 'yaw': 3.1, 'datetime': '2018-10-09 13:33:24.166112', 'mgs': 0, 'volt': 0.8643, 'depth': 1.004, 'time': 324, 'pitch': -3.51, 'roll': -3.59, 'pres': 177}
{'lipoC2': 7.35, 'lipoC3S1': 3.92, 'temp': 30.31, 'lipoC3S3': 11.87, 'lipoC3S2': 7.84, 'rot1': 1468, 'rot0': 1456, 'rot3': 737, 'rot2': 682, 'state': 'normal', 'yaw': 3.38, 'datetime': '2018-10-09 13:33:24.270534', 'mgs': 0, 'volt': 0.8643, 'depth': 1.004, 'time': 325, 'pitch': -4.21, 'roll': -3.38, 'pres': 177}
{'lipoC2': 7.35, 'lipoC3S1': 3.92, 'temp': 30.31, 'lipoC3S3': 11.85, 'lipoC3S2': 7.84, 'rot1': 1468, 'rot0': 1456, 'rot3': 737, 'rot2': 682, 'state': 'normal', 'yaw': 3.8, 'datetime': '2018-10-09 13:33:24.375628', 'mgs': 0, 'volt': 0.8643, 'depth': 1.004, 'time': 325, 'pitch': -4.61, 'roll': -3.34, 'pres': 177}
{'lipoC2': 7.35, 'lipoC3S1': 3.92, 'temp': 30.31, 'lipoC3S3': 11.87, 'lipoC3S2': 7.84, 'rot1': 1468, 'rot0': 1456, 'rot3': 737, 'rot2': 682, 'state': 'normal', 'yaw': 4.36, 'datetime': '2018-10-09 13:33:24.480003', 'mgs': 0, 'volt': 0.8643, 'depth': 1.004, 'time': 325, 'pitch': -4.72, 'roll': -3.44, 'pres': 177}
{'lipoC2': 7.36, 'lipoC3S1': 3.92, 'temp': 30.31, 'lipoC3S3': 11.87, 'lipoC3S2': 7.84, 'rot1': 1468, 'rot0': 1456, 'rot3': 737, 'rot2': 682, 'state': 'normal', 'yaw': 4.77, 'datetime': '2018-10-09 13:33:24.585793', 'mgs': 0, 'volt': 0.8594, 'depth': 0.928, 'time': 325, 'pitch': -4.71, 'roll': -3.48, 'pres': 176}
{'lipoC2': 7.36, 'lipoC3S1': 3.92, 'temp': 30.31, 'lipoC3S3': 11.87, 'lipoC3S2': 7.84, 'rot1': 1468, 'rot0': 1456, 'rot3': 737, 'rot2': 682, 'state': 'normal', 'yaw': 4.93, 'datetime': '2018-10-09 13:33:24.690179', 'mgs': 0, 'volt': 0.8643, 'depth': 1.004, 'time': 325, 'pitch': -4.85, 'roll': -3.31, 'pres': 177}
{'lipoC2': 7.36, 'lipoC3S1': 3.92, 'temp': 30.31, 'lipoC3S3': 11.87, 'lipoC3S2': 7.84, 'rot1': 1468, 'rot0': 1456, 'rot3': 737, 'rot2': 682, 'state': 'normal', 'yaw': 4.73, 'datetime': '2018-10-09 13:33:24.795965', 'mgs': 0, 'volt': 0.8643, 'depth': 1.004, 'time': 325, 'pitch': -5.05, 'roll': -2.91, 'pres': 177}
{'lipoC2': 7.36, 'lipoC3S1': 3.92, 'temp': 30.31, 'lipoC3S3': 11.85, 'lipoC3S2': 7.84, 'rot1': 1468, 'rot0': 1456, 'rot3': 737, 'rot2': 682, 'state': 'normal', 'yaw': 4.25, 'datetime': '2018-10-09 13:33:24.900335', 'mgs': 0, 'volt': 0.8691, 'depth': 1.08, 'time': 325, 'pitch': -5.35, 'roll': -2.47, 'pres': 178}
{'lipoC2': 7.36, 'lipoC3S1': 3.92, 'temp': 30.25, 'lipoC3S3': 11.87, 'lipoC3S2': 7.84, 'rot1': 1468, 'rot0': 1456, 'rot3': 737, 'rot2': 682, 'state': 'normal', 'yaw': 3.76, 'datetime': '2018-10-09 13:33:25.004675', 'mgs': 0, 'volt': 0.8691, 'depth': 1.08, 'time': 325, 'pitch': -5.65, 'roll': -2.31, 'pres': 178}
{'lipoC2': 7.36, 'lipoC3S1': 3.92, 'temp': 30.25, 'lipoC3S3': 11.85, 'lipoC3S2': 7.84, 'rot1': 1468, 'rot0': 1456, 'rot3': 737, 'rot2': 682, 'state': 'normal', 'yaw': 3.35, 'datetime': '2018-10-09 13:33:25.109186', 'mgs': 0, 'volt': 0.8691, 'depth': 1.08, 'time': 325, 'pitch': -5.85, 'roll': -2.55, 'pres': 178}
{'lipoC2': 7.36, 'lipoC3S1': 3.92, 'temp': 30.31, 'lipoC3S3': 11.87, 'lipoC3S2': 7.84, 'rot1': 1468, 'rot0': 1456, 'rot3': 737, 'rot2': 682, 'state': 'normal', 'yaw': 3.13, 'datetime': '2018-10-09 13:33:25.213633', 'mgs': 0, 'volt': 0.8691, 'depth': 1.08, 'time': 326, 'pitch': -5.75, 'roll': -3.11, 'pres': 178}
{'lipoC2': 7.36, 'lipoC3S1': 3.92, 'temp': 30.31, 'lipoC3S3': 11.87, 'lipoC3S2': 7.84, 'rot1': 1468, 'rot0': 1456, 'rot3': 737, 'rot2': 682, 'state': 'normal', 'yaw': 2.99, 'datetime': '2018-10-09 13:33:25.318021', 'mgs': 0, 'volt': 0.874, 'depth': 1.157, 'time': 326, 'pitch': -5.17, 'roll': -3.82, 'pres': 179}
{'lipoC2': 7.36, 'lipoC3S1': 3.92, 'temp': 30.31, 'lipoC3S3': 11.87, 'lipoC3S2': 7.84, 'rot1': 1468, 'rot0': 1456, 'rot3': 737, 'rot2': 682, 'state': 'normal', 'yaw': 2.75, 'datetime': '2018-10-09 13:33:25.422401', 'mgs': 0, 'volt': 0.8691, 'depth': 1.08, 'time': 326, 'pitch': -4.07, 'roll': -4.49, 'pres': 178}
{'lipoC2': 7.36, 'lipoC3S1': 3.92, 'temp': 30.31, 'lipoC3S3': 11.87, 'lipoC3S2': 7.84, 'rot1': 1468, 'rot0': 1456, 'rot3': 737, 'rot2': 682, 'state': 'normal', 'yaw': 2.27, 'datetime': '2018-10-09 13:33:25.526793', 'mgs': 0, 'volt': 0.8691, 'depth': 1.08, 'time': 326, 'pitch': -3.09, 'roll': -4.88, 'pres': 178}
{'lipoC2': 7.36, 'lipoC3S1': 3.92, 'temp': 30.31, 'lipoC3S3': 11.87, 'lipoC3S2': 7.84, 'rot1': 1468, 'rot0': 1456, 'rot3': 737, 'rot2': 682, 'state': 'normal', 'yaw': 1.69, 'datetime': '2018-10-09 13:33:25.631217', 'mgs': 0, 'volt': 0.874, 'depth': 1.157, 'time': 326, 'pitch': -2.53, 'roll': -5.17, 'pres': 179}
{'lipoC2': 7.36, 'lipoC3S1': 3.92, 'temp': 30.25, 'lipoC3S3': 11.87, 'lipoC3S2': 7.84, 'rot1': 1468, 'rot0': 1456, 'rot3': 737, 'rot2': 682, 'state': 'normal', 'yaw': 1.37, 'datetime': '2018-10-09 13:33:25.735786', 'mgs': 0, 'volt': 0.874, 'depth': 1.157, 'time': 326, 'pitch': -2.46, 'roll': -5.37, 'pres': 179}
{'lipoC2': 7.36, 'lipoC3S1': 3.92, 'temp': 30.25, 'lipoC3S3': 11.87, 'lipoC3S2': 7.84, 'rot1': 1468, 'rot0': 1456, 'rot3': 737, 'rot2': 682, 'state': 'normal', 'yaw': 1.34, 'datetime': '2018-10-09 13:33:25.840778', 'mgs': 0, 'volt': 0.8691, 'depth': 1.08, 'time': 326, 'pitch': -2.75, 'roll': -5.5, 'pres': 178}
{'lipoC2': 7.36, 'lipoC3S1': 3.92, 'temp': 30.31, 'lipoC3S3': 11.87, 'lipoC3S2': 7.84, 'rot1': 1468, 'rot0': 1456, 'rot3': 737, 'rot2': 682, 'state': 'normal', 'yaw': 1.56, 'datetime': '2018-10-09 13:33:25.945146', 'mgs': 0, 'volt': 0.874, 'depth': 1.157, 'time': 326, 'pitch': -3.45, 'roll': -5.58, 'pres': 179}
{'lipoC2': 7.36, 'lipoC3S1': 3.92, 'temp': 30.31, 'lipoC3S3': 11.87, 'lipoC3S2': 7.84, 'rot1': 1468, 'rot0': 1456, 'rot3': 737, 'rot2': 682, 'state': 'normal', 'yaw': 1.94, 'datetime': '2018-10-09 13:33:26.050880', 'mgs': 0, 'volt': 0.8691, 'depth': 1.08, 'time': 326, 'pitch': -4.15, 'roll': -5.59, 'pres': 178}
{'lipoC2': 7.36, 'lipoC3S1': 3.92, 'temp': 30.31, 'lipoC3S3': 11.85, 'lipoC3S2': 7.84, 'rot1': 1468, 'rot0': 1456, 'rot3': 737, 'rot2': 682, 'state': 'normal', 'yaw': 2.24, 'datetime': '2018-10-09 13:33:26.155344', 'mgs': 0, 'volt': 0.8691, 'depth': 1.08, 'time': 326, 'pitch': -4.9, 'roll': -5.44, 'pres': 178}
{'lipoC2': 7.36, 'lipoC3S1': 3.92, 'temp': 30.31, 'lipoC3S3': 11.87, 'lipoC3S2': 7.84, 'rot1': 1468, 'rot0': 1456, 'rot3': 737, 'rot2': 682, 'state': 'normal', 'yaw': 2.27, 'datetime': '2018-10-09 13:33:26.259664', 'mgs': 0, 'volt': 0.8691, 'depth': 1.08, 'time': 327, 'pitch': -5.48, 'roll': -5.07, 'pres': 178}
{'lipoC2': 7.36, 'lipoC3S1': 3.92, 'temp': 30.31, 'lipoC3S3': 11.87, 'lipoC3S2': 7.84, 'rot1': 1468, 'rot0': 1456, 'rot3': 737, 'rot2': 682, 'state': 'normal', 'yaw': 1.99, 'datetime': '2018-10-09 13:33:26.364077', 'mgs': 0, 'volt': 0.8691, 'depth': 1.08, 'time': 327, 'pitch': -5.95, 'roll': -4.43, 'pres': 178}
{'lipoC2': 7.36, 'lipoC3S1': 3.92, 'temp': 30.31, 'lipoC3S3': 11.87, 'lipoC3S2': 7.84, 'rot1': 1468, 'rot0': 1456, 'rot3': 737, 'rot2': 682, 'state': 'normal', 'yaw': 1.63, 'datetime': '2018-10-09 13:33:26.468394', 'mgs': 0, 'volt': 0.8691, 'depth': 1.08, 'time': 327, 'pitch': -6.26, 'roll': -3.78, 'pres': 178}
{'lipoC2': 7.36, 'lipoC3S1': 3.92, 'temp': 30.31, 'lipoC3S3': 11.87, 'lipoC3S2': 7.84, 'rot1': 1468, 'rot0': 1456, 'rot3': 737, 'rot2': 682, 'state': 'normal', 'yaw': 1.22, 'datetime': '2018-10-09 13:33:26.572805', 'mgs': 0, 'volt': 0.8691, 'depth': 1.08, 'time': 327, 'pitch': -6.52, 'roll': -3.17, 'pres': 178}
{'lipoC2': 7.36, 'lipoC3S1': 3.92, 'temp': 30.31, 'lipoC3S3': 11.85, 'lipoC3S2': 7.84, 'rot1': 1468, 'rot0': 1456, 'rot3': 737, 'rot2': 682, 'state': 'normal', 'yaw': 0.78, 'datetime': '2018-10-09 13:33:26.677249', 'mgs': 0, 'volt': 0.874, 'depth': 1.157, 'time': 327, 'pitch': -6.82, 'roll': -2.69, 'pres': 179}
{'lipoC2': 7.36, 'lipoC3S1': 3.92, 'temp': 30.31, 'lipoC3S3': 11.87, 'lipoC3S2': 7.84, 'rot1': 1468, 'rot0': 1456, 'rot3': 737, 'rot2': 682, 'state': 'normal', 'yaw': 0.3, 'datetime': '2018-10-09 13:33:26.781823', 'mgs': 0, 'volt': 0.874, 'depth': 1.157, 'time': 327, 'pitch': -7.13, 'roll': -2.29, 'pres': 179}
{'lipoC2': 7.36, 'lipoC3S1': 3.92, 'temp': 30.31, 'lipoC3S3': 11.87, 'lipoC3S2': 7.84, 'rot1': 1468, 'rot0': 1456, 'rot3': 737, 'rot2': 682, 'state': 'normal', 'yaw': -0.25, 'datetime': '2018-10-09 13:33:26.886193', 'mgs': 0, 'volt': 0.874, 'depth': 1.157, 'time': 327, 'pitch': -7.25, 'roll': -1.82, 'pres': 179}
{'lipoC2': 7.36, 'lipoC3S1': 3.92, 'temp': 30.31, 'lipoC3S3': 11.87, 'lipoC3S2': 7.84, 'rot1': 1468, 'rot0': 1456, 'rot3': 737, 'rot2': 682, 'state': 'normal', 'yaw': -0.72, 'datetime': '2018-10-09 13:33:26.991875', 'mgs': 0, 'volt': 0.874, 'depth': 1.157, 'time': 327, 'pitch': -7.05, 'roll': -1.4, 'pres': 179}
{'lipoC2': 7.36, 'lipoC3S1': 3.92, 'temp': 30.31, 'lipoC3S3': 11.87, 'lipoC3S2': 7.84, 'rot1': 1468, 'rot0': 1456, 'rot3': 737, 'rot2': 682, 'state': 'normal', 'yaw': -1.16, 'datetime': '2018-10-09 13:33:27.096259', 'mgs': 0, 'volt': 0.874, 'depth': 1.157, 'time': 327, 'pitch': -6.14, 'roll': -1.15, 'pres': 179}
{'lipoC2': 7.36, 'lipoC3S1': 3.92, 'temp': 30.31, 'lipoC3S3': 11.87, 'lipoC3S2': 7.84, 'rot1': 1468, 'rot0': 1456, 'rot3': 737, 'rot2': 682, 'state': 'normal', 'yaw': -1.4, 'datetime': '2018-10-09 13:33:27.201941', 'mgs': 0, 'volt': 0.874, 'depth': 1.157, 'time': 328, 'pitch': -4.92, 'roll': -1.32, 'pres': 179}
{'lipoC2': 7.36, 'lipoC3S1': 3.92, 'temp': 30.31, 'lipoC3S3': 11.87, 'lipoC3S2': 7.84, 'rot1': 1468, 'rot0': 1456, 'rot3': 737, 'rot2': 682, 'state': 'normal', 'yaw': -1.45, 'datetime': '2018-10-09 13:33:27.306322', 'mgs': 0, 'volt': 0.874, 'depth': 1.157, 'time': 328, 'pitch': -3.78, 'roll': -1.84, 'pres': 179}
{'lipoC2': 7.36, 'lipoC3S1': 3.92, 'temp': 30.31, 'lipoC3S3': 11.85, 'lipoC3S2': 7.84, 'rot1': 1468, 'rot0': 1456, 'rot3': 737, 'rot2': 682, 'state': 'normal', 'yaw': -1.27, 'datetime': '2018-10-09 13:33:27.410712', 'mgs': 0, 'volt': 0.874, 'depth': 1.157, 'time': 328, 'pitch': -3.25, 'roll': -2.48, 'pres': 179}
{'lipoC2': 7.36, 'lipoC3S1': 3.92, 'temp': 30.31, 'lipoC3S3': 11.87, 'lipoC3S2': 7.84, 'rot1': 1468, 'rot0': 1456, 'rot3': 737, 'rot2': 682, 'state': 'normal', 'yaw': -0.85, 'datetime': '2018-10-09 13:33:27.515126', 'mgs': 0, 'volt': 0.874, 'depth': 1.157, 'time': 328, 'pitch': -3.15, 'roll': -3.13, 'pres': 179}
{'lipoC2': 7.36, 'lipoC3S1': 3.92, 'temp': 30.31, 'lipoC3S3': 11.87, 'lipoC3S2': 7.84, 'rot1': 1468, 'rot0': 1456, 'rot3': 737, 'rot2': 682, 'state': 'normal', 'yaw': -0.29, 'datetime': '2018-10-09 13:33:27.619482', 'mgs': 1, 'volt': 0.874, 'depth': 1.157, 'time': 328, 'pitch': -3.16, 'roll': -3.61, 'pres': 179}
{'lipoC2': 7.36, 'lipoC3S1': 3.92, 'temp': 30.25, 'lipoC3S3': 11.85, 'lipoC3S2': 7.84, 'rot1': 0, 'rot0': 0, 'rot3': 0, 'rot2': 0, 'state': 'normal', 'yaw': 0.0, 'datetime': '2018-10-09 13:33:30.647073', 'mgs': 0, 'volt': 0.8643, 'depth': 1.004, 'time': 1, 'pitch': 1.21, 'roll': -5.38, 'pres': 177}
{'lipoC2': 7.36, 'lipoC3S1': 3.92, 'temp': 30.25, 'lipoC3S3': 11.87, 'lipoC3S2': 7.84, 'rot1': 0, 'rot0': 0, 'rot3': 0, 'rot2': 0, 'state': 'normal', 'yaw': -0.63, 'datetime': '2018-10-09 13:33:33.689221', 'mgs': 0, 'volt': 0.8643, 'depth': 1.004, 'time': 1, 'pitch': 1.03, 'roll': -4.76, 'pres': 177}
{'lipoC2': 7.36, 'lipoC3S1': 3.92, 'temp': 30.31, 'lipoC3S3': 11.87, 'lipoC3S2': 7.85, 'rot1': 0, 'rot0': 0, 'rot3': 0, 'rot2': 0, 'state': 'normal', 'yaw': -1.23, 'datetime': '2018-10-09 13:33:33.719498', 'mgs': 0, 'volt': 0.8643, 'depth': 1.004, 'time': 1, 'pitch': 0.07, 'roll': -4.19, 'pres': 177}
{'lipoC2': 7.36, 'lipoC3S1': 3.92, 'temp': 30.31, 'lipoC3S3': 11.87, 'lipoC3S2': 7.85, 'rot1': 0, 'rot0': 0, 'rot3': 0, 'rot2': 0, 'state': 'normal', 'yaw': -1.71, 'datetime': '2018-10-09 13:33:33.750031', 'mgs': 0, 'volt': 0.8691, 'depth': 1.08, 'time': 1, 'pitch': -1.16, 'roll': -3.87, 'pres': 178}
{'lipoC2': 7.36, 'lipoC3S1': 3.92, 'temp': 30.31, 'lipoC3S3': 11.87, 'lipoC3S2': 7.85, 'rot1': 0, 'rot0': 0, 'rot3': 0, 'rot2': 0, 'state': 'normal', 'yaw': -1.95, 'datetime': '2018-10-09 13:33:33.780289', 'mgs': 0, 'volt': 0.8691, 'depth': 1.08, 'time': 1, 'pitch': -1.98, 'roll': -3.94, 'pres': 178}
{'lipoC2': 7.36, 'lipoC3S1': 3.92, 'temp': 30.31, 'lipoC3S3': 11.87, 'lipoC3S2': 7.85, 'rot1': 0, 'rot0': 0, 'rot3': 0, 'rot2': 0, 'state': 'normal', 'yaw': -1.96, 'datetime': '2018-10-09 13:33:33.810911', 'mgs': 0, 'volt': 0.8691, 'depth': 1.08, 'time': 1, 'pitch': -1.69, 'roll': -4.29, 'pres': 178}
{'lipoC2': 7.36, 'lipoC3S1': 3.93, 'temp': 30.31, 'lipoC3S3': 11.87, 'lipoC3S2': 7.84, 'rot1': 0, 'rot0': 0, 'rot3': 0, 'rot2': 0, 'state': 'normal', 'yaw': -1.72, 'datetime': '2018-10-09 13:33:33.833948', 'mgs': 0, 'volt': 0.8691, 'depth': 1.08, 'time': 1, 'pitch': -0.78, 'roll': -4.75, 'pres': 178}
{'lipoC2': 7.36, 'lipoC3S1': 3.92, 'temp': 30.31, 'lipoC3S3': 11.87, 'lipoC3S2': 7.84, 'rot1': 0, 'rot0': 0, 'rot3': 0, 'rot2': 0, 'state': 'normal', 'yaw': -1.23, 'datetime': '2018-10-09 13:33:33.850123', 'mgs': 0, 'volt': 0.8691, 'depth': 1.08, 'time': 1, 'pitch': 0.36, 'roll': -5.09, 'pres': 178}
{'lipoC2': 7.36, 'lipoC3S1': 3.92, 'temp': 30.31, 'lipoC3S3': 11.87, 'lipoC3S2': 7.84, 'rot1': 0, 'rot0': 0, 'rot3': 0, 'rot2': 0, 'state': 'normal', 'yaw': -0.68, 'datetime': '2018-10-09 13:33:33.866054', 'mgs': 0, 'volt': 0.8691, 'depth': 1.08, 'time': 2, 'pitch': 1.27, 'roll': -5.09, 'pres': 178}
{'lipoC2': 7.36, 'lipoC3S1': 3.92, 'temp': 30.31, 'lipoC3S3': 11.87, 'lipoC3S2': 7.84, 'rot1': 0, 'rot0': 0, 'rot3': 0, 'rot2': 0, 'state': 'normal', 'yaw': -0.37, 'datetime': '2018-10-09 13:33:33.881947', 'mgs': 0, 'volt': 0.8691, 'depth': 1.08, 'time': 2, 'pitch': 1.3, 'roll': -4.61, 'pres': 178}
{'lipoC2': 7.36, 'lipoC3S1': 3.92, 'temp': 30.31, 'lipoC3S3': 11.87, 'lipoC3S2': 7.84, 'rot1': 0, 'rot0': 0, 'rot3': 0, 'rot2': 0, 'state': 'normal', 'yaw': -0.16, 'datetime': '2018-10-09 13:33:33.897856', 'mgs': 0, 'volt': 0.8691, 'depth': 1.08, 'time': 2, 'pitch': 0.6, 'roll': -3.89, 'pres': 178}
{'lipoC2': 7.36, 'lipoC3S1': 3.92, 'temp': 30.31, 'lipoC3S3': 11.87, 'lipoC3S2': 7.84, 'rot1': 0, 'rot0': 0, 'rot3': 0, 'rot2': 0, 'state': 'normal', 'yaw': -0.06, 'datetime': '2018-10-09 13:33:33.914196', 'mgs': 0, 'volt': 0.8691, 'depth': 1.08, 'time': 2, 'pitch': -0.76, 'roll': -3.26, 'pres': 178}
{'lipoC2': 7.36, 'lipoC3S1': 3.92, 'temp': 30.25, 'lipoC3S3': 11.87, 'lipoC3S2': 7.85, 'rot1': 0, 'rot0': 0, 'rot3': 0, 'rot2': 0, 'state': 'normal', 'yaw': 0.03, 'datetime': '2018-10-09 13:33:33.930135', 'mgs': 0, 'volt': 0.874, 'depth': 1.157, 'time': 2, 'pitch': -1.98, 'roll': -3.02, 'pres': 179}
{'lipoC2': 7.36, 'lipoC3S1': 3.92, 'temp': 30.25, 'lipoC3S3': 11.87, 'lipoC3S2': 7.85, 'rot1': 0, 'rot0': 0, 'rot3': 0, 'rot2': 0, 'state': 'normal', 'yaw': 0.12, 'datetime': '2018-10-09 13:33:33.946052', 'mgs': 0, 'volt': 0.874, 'depth': 1.157, 'time': 2, 'pitch': -2.49, 'roll': -3.05, 'pres': 179}
{'lipoC2': 7.36, 'lipoC3S1': 3.93, 'temp': 30.31, 'lipoC3S3': 11.87, 'lipoC3S2': 7.85, 'rot1': 0, 'rot0': 0, 'rot3': 0, 'rot2': 0, 'state': 'normal', 'yaw': 0.25, 'datetime': '2018-10-09 13:33:33.961956', 'mgs': 0, 'volt': 0.8789, 'depth': 1.233, 'time': 2, 'pitch': -2.14, 'roll': -3.08, 'pres': 180}
{'lipoC2': 7.36, 'lipoC3S1': 3.92, 'temp': 30.31, 'lipoC3S3': 11.87, 'lipoC3S2': 7.85, 'rot1': 0, 'rot0': 0, 'rot3': 0, 'rot2': 0, 'state': 'normal', 'yaw': 0.39, 'datetime': '2018-10-09 13:33:33.977856', 'mgs': 0, 'volt': 0.8789, 'depth': 1.233, 'time': 2, 'pitch': -1.26, 'roll': -2.87, 'pres': 180}
{'lipoC2': 7.36, 'lipoC3S1': 3.92, 'temp': 30.38, 'lipoC3S3': 11.87, 'lipoC3S2': 7.85, 'rot1': 0, 'rot0': 0, 'rot3': 0, 'rot2': 0, 'state': 'normal', 'yaw': 0.57, 'datetime': '2018-10-09 13:33:33.993748', 'mgs': 0, 'volt': 0.8838, 'depth': 1.309, 'time': 2, 'pitch': -0.16, 'roll': -2.42, 'pres': 181}
{'lipoC2': 7.35, 'lipoC3S1': 3.86, 'temp': 30.38, 'lipoC3S3': 11.75, 'lipoC3S2': 7.74, 'rot1': 0, 'rot0': 0, 'rot3': 0, 'rot2': 1, 'state': 'normal', 'yaw': 0.77, 'datetime': '2018-10-09 13:33:34.009616', 'mgs': 0, 'volt': 0.8838, 'depth': 1.309, 'time': 3, 'pitch': 1.0, 'roll': -1.75, 'pres': 181}
{'lipoC2': 7.36, 'lipoC3S1': 3.87, 'temp': 30.38, 'lipoC3S3': 11.77, 'lipoC3S2': 7.76, 'rot1': 0, 'rot0': 0, 'rot3': 1, 'rot2': 1, 'state': 'normal', 'yaw': 0.86, 'datetime': '2018-10-09 13:33:34.025465', 'mgs': 0, 'volt': 0.8838, 'depth': 1.309, 'time': 3, 'pitch': 2.05, 'roll': -0.89, 'pres': 181}
{'lipoC2': 7.36, 'lipoC3S1': 3.87, 'temp': 30.31, 'lipoC3S3': 11.8, 'lipoC3S2': 7.77, 'rot1': 0, 'rot0': 0, 'rot3': 2, 'rot2': 2, 'state': 'normal', 'yaw': 0.85, 'datetime': '2018-10-09 13:33:34.041716', 'mgs': 0, 'volt': 0.8984, 'depth': 1.538, 'time': 3, 'pitch': 2.79, 'roll': 0.14, 'pres': 184}
{'lipoC2': 7.36, 'lipoC3S1': 3.88, 'temp': 30.31, 'lipoC3S3': 11.81, 'lipoC3S2': 7.77, 'rot1': 0, 'rot0': 0, 'rot3': 3, 'rot2': 3, 'state': 'normal', 'yaw': 0.66, 'datetime': '2018-10-09 13:33:34.057580', 'mgs': 0, 'volt': 0.9033, 'depth': 1.614, 'time': 3, 'pitch': 3.02, 'roll': 1.29, 'pres': 185}
{'lipoC2': 7.35, 'lipoC3S1': 3.88, 'temp': 30.25, 'lipoC3S3': 11.81, 'lipoC3S2': 7.79, 'rot1': 0, 'rot0': 0, 'rot3': 4, 'rot2': 4, 'state': 'normal', 'yaw': 0.46, 'datetime': '2018-10-09 13:33:34.073329', 'mgs': 0, 'volt': 0.8984, 'depth': 1.538, 'time': 3, 'pitch': 3.09, 'roll': 2.23, 'pres': 184}
{'lipoC2': 7.35, 'lipoC3S1': 3.89, 'temp': 30.25, 'lipoC3S3': 11.8, 'lipoC3S2': 7.8, 'rot1': 0, 'rot0': 0, 'rot3': 5, 'rot2': 4, 'state': 'normal', 'yaw': 0.31, 'datetime': '2018-10-09 13:33:34.089069', 'mgs': 0, 'volt': 0.9082, 'depth': 1.691, 'time': 3, 'pitch': 3.46, 'roll': 2.93, 'pres': 186}
{'lipoC2': 7.35, 'lipoC3S1': 3.89, 'temp': 30.31, 'lipoC3S3': 11.81, 'lipoC3S2': 7.8, 'rot1': 0, 'rot0': 0, 'rot3': 6, 'rot2': 5, 'state': 'normal', 'yaw': 0.19, 'datetime': '2018-10-09 13:33:34.104911', 'mgs': 0, 'volt': 0.9033, 'depth': 1.614, 'time': 3, 'pitch': 4.15, 'roll': 3.15, 'pres': 185}
{'lipoC2': 7.35, 'lipoC3S1': 3.9, 'temp': 30.31, 'lipoC3S3': 11.81, 'lipoC3S2': 7.81, 'rot1': 0, 'rot0': 0, 'rot3': 7, 'rot2': 6, 'state': 'normal', 'yaw': 0.15, 'datetime': '2018-10-09 13:33:34.120767', 'mgs': 0, 'volt': 0.9033, 'depth': 1.614, 'time': 3, 'pitch': 5.13, 'roll': 2.79, 'pres': 185}
{'lipoC2': 7.35, 'lipoC3S1': 3.91, 'temp': 30.31, 'lipoC3S3': 11.79, 'lipoC3S2': 7.81, 'rot1': 0, 'rot0': 0, 'rot3': 8, 'rot2': 7, 'state': 'normal', 'yaw': 0.2, 'datetime': '2018-10-09 13:33:34.136778', 'mgs': 0, 'volt': 0.8984, 'depth': 1.538, 'time': 3, 'pitch': 6.12, 'roll': 2.12, 'pres': 184}
{'lipoC2': 7.35, 'lipoC3S1': 3.9, 'temp': 30.31, 'lipoC3S3': 11.81, 'lipoC3S2': 7.81, 'rot1': 0, 'rot0': 0, 'rot3': 9, 'rot2': 8, 'state': 'normal', 'yaw': 0.34, 'datetime': '2018-10-09 13:33:34.152535', 'mgs': 0, 'volt': 0.8984, 'depth': 1.538, 'time': 3, 'pitch': 6.88, 'roll': 1.53, 'pres': 184}
{'lipoC2': 7.35, 'lipoC3S1': 3.89, 'temp': 30.31, 'lipoC3S3': 11.77, 'lipoC3S2': 7.81, 'rot1': 0, 'rot0': 0, 'rot3': 10, 'rot2': 8, 'state': 'normal', 'yaw': 0.55, 'datetime': '2018-10-09 13:33:34.168347', 'mgs': 0, 'volt': 0.8936, 'depth': 1.462, 'time': 4, 'pitch': 7.12, 'roll': 1.03, 'pres': 183}
{'lipoC2': 7.35, 'lipoC3S1': 3.89, 'temp': 30.31, 'lipoC3S3': 11.81, 'lipoC3S2': 7.81, 'rot1': 0, 'rot0': 0, 'rot3': 12, 'rot2': 9, 'state': 'normal', 'yaw': 0.81, 'datetime': '2018-10-09 13:33:34.184114', 'mgs': 0, 'volt': 0.8887, 'depth': 1.385, 'time': 4, 'pitch': 6.81, 'roll': 0.82, 'pres': 182}
{'lipoC2': 7.36, 'lipoC3S1': 3.88, 'temp': 30.31, 'lipoC3S3': 11.79, 'lipoC3S2': 7.77, 'rot1': 0, 'rot0': 0, 'rot3': 13, 'rot2': 10, 'state': 'normal', 'yaw': 1.15, 'datetime': '2018-10-09 13:33:34.199935', 'mgs': 0, 'volt': 0.874, 'depth': 1.157, 'time': 4, 'pitch': 6.26, 'roll': 0.83, 'pres': 179}
{'lipoC2': 7.35, 'lipoC3S1': 3.9, 'temp': 30.31, 'lipoC3S3': 11.77, 'lipoC3S2': 7.76, 'rot1': 0, 'rot0': 0, 'rot3': 14, 'rot2': 11, 'state': 'normal', 'yaw': 1.56, 'datetime': '2018-10-09 13:33:34.215740', 'mgs': 0, 'volt': 0.8789, 'depth': 1.233, 'time': 4, 'pitch': 5.58, 'roll': 0.85, 'pres': 180}
{'lipoC2': 7.35, 'lipoC3S1': 3.9, 'temp': 30.31, 'lipoC3S3': 11.76, 'lipoC3S2': 7.81, 'rot1': 0, 'rot0': 0, 'rot3': 15, 'rot2': 12, 'state': 'normal', 'yaw': 1.91, 'datetime': '2018-10-09 13:33:34.231566', 'mgs': 0, 'volt': 0.8838, 'depth': 1.309, 'time': 4, 'pitch': 5.09, 'roll': 0.87, 'pres': 181}
{'lipoC2': 7.36, 'lipoC3S1': 3.88, 'temp': 30.31, 'lipoC3S3': 11.81, 'lipoC3S2': 7.79, 'rot1': 0, 'rot0': 0, 'rot3': 16, 'rot2': 13, 'state': 'normal', 'yaw': 2.32, 'datetime': '2018-10-09 13:33:34.247369', 'mgs': 0, 'volt': 0.8936, 'depth': 1.462, 'time': 4, 'pitch': 4.82, 'roll': 0.89, 'pres': 183}
{'lipoC2': 7.36, 'lipoC3S1': 3.89, 'temp': 30.31, 'lipoC3S3': 11.79, 'lipoC3S2': 7.77, 'rot1': 0, 'rot0': 0, 'rot3': 17, 'rot2': 14, 'state': 'normal', 'yaw': 2.89, 'datetime': '2018-10-09 13:33:34.263131', 'mgs': 0, 'volt': 0.8691, 'depth': 1.08, 'time': 4, 'pitch': 4.79, 'roll': 0.91, 'pres': 178}
{'lipoC2': 7.36, 'lipoC3S1': 3.92, 'temp': 30.31, 'lipoC3S3': 11.79, 'lipoC3S2': 7.81, 'rot1': 0, 'rot0': 0, 'rot3': 19, 'rot2': 15, 'state': 'normal', 'yaw': 3.43, 'datetime': '2018-10-09 13:33:34.278939', 'mgs': 0, 'volt': 0.874, 'depth': 1.157, 'time': 4, 'pitch': 4.95, 'roll': 1.01, 'pres': 179}
{'lipoC2': 7.36, 'lipoC3S1': 3.9, 'temp': 30.31, 'lipoC3S3': 11.81, 'lipoC3S2': 7.8, 'rot1': 0, 'rot0': 0, 'rot3': 20, 'rot2': 15, 'state': 'normal', 'yaw': 4.01, 'datetime': '2018-10-09 13:33:34.294728', 'mgs': 0, 'volt': 0.8887, 'depth': 1.385, 'time': 4, 'pitch': 5.18, 'roll': 1.13, 'pres': 182}
{'lipoC2': 7.36, 'lipoC3S1': 3.88, 'temp': 30.31, 'lipoC3S3': 11.79, 'lipoC3S2': 7.77, 'rot1': 0, 'rot0': 0, 'rot3': 21, 'rot2': 16, 'state': 'normal', 'yaw': 4.73, 'datetime': '2018-10-09 13:33:34.310230', 'mgs': 0, 'volt': 0.8691, 'depth': 1.08, 'time': 4, 'pitch': 5.57, 'roll': 1.11, 'pres': 178}
{'lipoC2': 7.35, 'lipoC3S1': 3.91, 'temp': 30.31, 'lipoC3S3': 11.77, 'lipoC3S2': 7.8, 'rot1': 0, 'rot0': 0, 'rot3': 22, 'rot2': 17, 'state': 'normal', 'yaw': 5.53, 'datetime': '2018-10-09 13:33:34.325529', 'mgs': 0, 'volt': 0.8838, 'depth': 1.309, 'time': 5, 'pitch': 6.04, 'roll': 0.82, 'pres': 181}
{'lipoC2': 7.36, 'lipoC3S1': 3.88, 'temp': 30.31, 'lipoC3S3': 11.81, 'lipoC3S2': 7.78, 'rot1': 0, 'rot0': 0, 'rot3': 23, 'rot2': 18, 'state': 'normal', 'yaw': 6.57, 'datetime': '2018-10-09 13:33:34.340766', 'mgs': 0, 'volt': 0.8838, 'depth': 1.309, 'time': 5, 'pitch': 6.78, 'roll': 0.14, 'pres': 181}
{'lipoC2': 7.35, 'lipoC3S1': 3.89, 'temp': 30.31, 'lipoC3S3': 11.79, 'lipoC3S2': 7.77, 'rot1': 0, 'rot0': 0, 'rot3': 24, 'rot2': 19, 'state': 'normal', 'yaw': 7.58, 'datetime': '2018-10-09 13:33:34.356275', 'mgs': 0, 'volt': 0.874, 'depth': 1.157, 'time': 5, 'pitch': 7.75, 'roll': -0.58, 'pres': 179}
{'lipoC2': 7.36, 'lipoC3S1': 3.89, 'temp': 30.31, 'lipoC3S3': 11.79, 'lipoC3S2': 7.79, 'rot1': 0, 'rot0': 0, 'rot3': 26, 'rot2': 20, 'state': 'normal', 'yaw': 8.6, 'datetime': '2018-10-09 13:33:34.371637', 'mgs': 0, 'volt': 0.8789, 'depth': 1.233, 'time': 5, 'pitch': 8.58, 'roll': -1.25, 'pres': 180}
{'lipoC2': 7.35, 'lipoC3S1': 3.91, 'temp': 30.31, 'lipoC3S3': 11.76, 'lipoC3S2': 7.8, 'rot1': 0, 'rot0': 0, 'rot3': 27, 'rot2': 21, 'state': 'normal', 'yaw': 9.68, 'datetime': '2018-10-09 13:33:34.386912', 'mgs': 0, 'volt': 0.8838, 'depth': 1.309, 'time': 5, 'pitch': 8.86, 'roll': -1.61, 'pres': 181}
{'lipoC2': 7.35, 'lipoC3S1': 3.89, 'temp': 30.31, 'lipoC3S3': 11.81, 'lipoC3S2': 7.8, 'rot1': 0, 'rot0': 0, 'rot3': 28, 'rot2': 22, 'state': 'normal', 'yaw': 10.66, 'datetime': '2018-10-09 13:33:34.402223', 'mgs': 0, 'volt': 0.8887, 'depth': 1.385, 'time': 5, 'pitch': 8.63, 'roll': -1.59, 'pres': 182}
{'lipoC2': 7.35, 'lipoC3S1': 3.91, 'temp': 30.31, 'lipoC3S3': 11.76, 'lipoC3S2': 7.8, 'rot1': 0, 'rot0': 0, 'rot3': 29, 'rot2': 23, 'state': 'normal', 'yaw': 11.6, 'datetime': '2018-10-09 13:33:34.417543', 'mgs': 0, 'volt': 0.8838, 'depth': 1.309, 'time': 5, 'pitch': 8.13, 'roll': -1.24, 'pres': 181}
{'lipoC2': 7.35, 'lipoC3S1': 3.9, 'temp': 30.25, 'lipoC3S3': 11.81, 'lipoC3S2': 7.8, 'rot1': 0, 'rot0': 0, 'rot3': 30, 'rot2': 24, 'state': 'normal', 'yaw': 12.58, 'datetime': '2018-10-09 13:33:34.432817', 'mgs': 0, 'volt': 0.8887, 'depth': 1.385, 'time': 5, 'pitch': 7.48, 'roll': -0.57, 'pres': 182}
{'lipoC2': 7.35, 'lipoC3S1': 3.9, 'temp': 30.25, 'lipoC3S3': 11.77, 'lipoC3S2': 7.76, 'rot1': 0, 'rot0': 0, 'rot3': 31, 'rot2': 25, 'state': 'normal', 'yaw': 13.46, 'datetime': '2018-10-09 13:33:34.452812', 'mgs': 0, 'volt': 0.8789, 'depth': 1.233, 'time': 5, 'pitch': 6.98, 'roll': 0.05, 'pres': 180}
{'lipoC2': 7.35, 'lipoC3S1': 3.9, 'temp': 30.25, 'lipoC3S3': 11.77, 'lipoC3S2': 7.81, 'rot1': 0, 'rot0': 0, 'rot3': 33, 'rot2': 26, 'state': 'normal', 'yaw': 14.31, 'datetime': '2018-10-09 13:33:34.462240', 'mgs': 0, 'volt': 0.8838, 'depth': 1.309, 'time': 6, 'pitch': 6.63, 'roll': 0.39, 'pres': 181}
{'lipoC2': 7.35, 'lipoC3S1': 3.89, 'temp': 30.31, 'lipoC3S3': 11.79, 'lipoC3S2': 7.8, 'rot1': 0, 'rot0': 0, 'rot3': 34, 'rot2': 27, 'state': 'normal', 'yaw': 15.25, 'datetime': '2018-10-09 13:33:34.477504', 'mgs': 0, 'volt': 0.8838, 'depth': 1.309, 'time': 6, 'pitch': 6.46, 'roll': 0.24, 'pres': 181}
{'lipoC2': 7.35, 'lipoC3S1': 3.87, 'temp': 30.31, 'lipoC3S3': 11.79, 'lipoC3S2': 7.77, 'rot1': 0, 'rot0': 0, 'rot3': 35, 'rot2': 28, 'state': 'normal', 'yaw': 16.17, 'datetime': '2018-10-09 13:33:34.492696', 'mgs': 0, 'volt': 0.874, 'depth': 1.157, 'time': 6, 'pitch': 6.43, 'roll': -0.24, 'pres': 179}
{'lipoC2': 7.35, 'lipoC3S1': 3.89, 'temp': 30.25, 'lipoC3S3': 11.75, 'lipoC3S2': 7.8, 'rot1': 0, 'rot0': 0, 'rot3': 36, 'rot2': 28, 'state': 'normal', 'yaw': 17.09, 'datetime': '2018-10-09 13:33:34.502121', 'mgs': 0, 'volt': 0.8838, 'depth': 1.309, 'time': 6, 'pitch': 6.4, 'roll': -0.81, 'pres': 181}
{'lipoC2': 7.35, 'lipoC3S1': 3.89, 'temp': 30.25, 'lipoC3S3': 11.81, 'lipoC3S2': 7.79, 'rot1': 1, 'rot0': 0, 'rot3': 37, 'rot2': 29, 'state': 'normal', 'yaw': 18.11, 'datetime': '2018-10-09 13:33:34.517410', 'mgs': 0, 'volt': 0.874, 'depth': 1.157, 'time': 6, 'pitch': 6.24, 'roll': -1.19, 'pres': 179}
{'lipoC2': 7.35, 'lipoC3S1': 3.89, 'temp': 30.25, 'lipoC3S3': 11.77, 'lipoC3S2': 7.77, 'rot1': 1, 'rot0': 1, 'rot3': 38, 'rot2': 30, 'state': 'normal', 'yaw': 19.05, 'datetime': '2018-10-09 13:33:34.532660', 'mgs': 0, 'volt': 0.8594, 'depth': 0.928, 'time': 6, 'pitch': 5.66, 'roll': -1.14, 'pres': 176}
{'lipoC2': 7.35, 'lipoC3S1': 3.89, 'temp': 30.25, 'lipoC3S3': 11.81, 'lipoC3S2': 7.79, 'rot1': 1, 'rot0': 1, 'rot3': 40, 'rot2': 31, 'state': 'normal', 'yaw': 20.03, 'datetime': '2018-10-09 13:33:34.542250', 'mgs': 0, 'volt': 0.8691, 'depth': 1.08, 'time': 6, 'pitch': 4.37, 'roll': -0.78, 'pres': 178}
{'lipoC2': 7.36, 'lipoC3S1': 3.88, 'temp': 30.25, 'lipoC3S3': 11.8, 'lipoC3S2': 7.78, 'rot1': 1, 'rot0': 1, 'rot3': 41, 'rot2': 32, 'state': 'normal', 'yaw': 20.87, 'datetime': '2018-10-09 13:33:34.557607', 'mgs': 0, 'volt': 0.8643, 'depth': 1.004, 'time': 6, 'pitch': 2.75, 'roll': -0.42, 'pres': 177}
{'lipoC2': 7.32, 'lipoC3S1': 3.89, 'temp': 30.19, 'lipoC3S3': 11.71, 'lipoC3S2': 7.74, 'rot1': 2, 'rot0': 2, 'rot3': 41, 'rot2': 34, 'state': 'normal', 'yaw': 21.67, 'datetime': '2018-10-09 13:33:34.582097', 'mgs': 0, 'volt': 0.9326, 'depth': 2.072, 'time': 6, 'pitch': 1.15, 'roll': -0.27, 'pres': 191}
{'lipoC2': 7.36, 'lipoC3S1': 3.74, 'temp': 30.19, 'lipoC3S3': 11.76, 'lipoC3S2': 7.68, 'rot1': 3, 'rot0': 3, 'rot3': 42, 'rot2': 34, 'state': 'normal', 'yaw': 21.93, 'datetime': '2018-10-09 13:33:34.685726', 'mgs': 0, 'volt': 0.8691, 'depth': 1.08, 'time': 6, 'pitch': 1.19, 'roll': -0.37, 'pres': 178}
{'lipoC2': 7.35, 'lipoC3S1': 3.88, 'temp': 30.31, 'lipoC3S3': 11.56, 'lipoC3S2': 7.6, 'rot1': 4, 'rot0': 5, 'rot3': 42, 'rot2': 35, 'state': 'normal', 'yaw': 21.36, 'datetime': '2018-10-09 13:33:34.789386', 'mgs': 0, 'volt': 0.8691, 'depth': 1.08, 'time': 7, 'pitch': 2.56, 'roll': -0.75, 'pres': 178}
{'lipoC2': 7.36, 'lipoC3S1': 3.82, 'temp': 30.31, 'lipoC3S3': 11.75, 'lipoC3S2': 7.7, 'rot1': 5, 'rot0': 7, 'rot3': 43, 'rot2': 35, 'state': 'normal', 'yaw': 20.2, 'datetime': '2018-10-09 13:33:34.894235', 'mgs': 0, 'volt': 0.8643, 'depth': 1.004, 'time': 7, 'pitch': 4.62, 'roll': -1.22, 'pres': 177}
{'lipoC2': 7.36, 'lipoC3S1': 3.88, 'temp': 30.25, 'lipoC3S3': 11.58, 'lipoC3S2': 7.62, 'rot1': 6, 'rot0': 8, 'rot3': 44, 'rot2': 36, 'state': 'normal', 'yaw': 18.39, 'datetime': '2018-10-09 13:33:34.997819', 'mgs': 0, 'volt': 0.874, 'depth': 1.157, 'time': 7, 'pitch': 6.8, 'roll': -1.49, 'pres': 179}
{'lipoC2': 7.33, 'lipoC3S1': 3.89, 'temp': 30.25, 'lipoC3S3': 11.51, 'lipoC3S2': 7.74, 'rot1': 7, 'rot0': 10, 'rot3': 44, 'rot2': 36, 'state': 'normal', 'yaw': 16.32, 'datetime': '2018-10-09 13:33:35.101555', 'mgs': 0, 'volt': 0.918, 'depth': 1.843, 'time': 7, 'pitch': 8.18, 'roll': -1.47, 'pres': 188}
{'lipoC2': 7.35, 'lipoC3S1': 3.88, 'temp': 30.25, 'lipoC3S3': 11.54, 'lipoC3S2': 7.6, 'rot1': 8, 'rot0': 12, 'rot3': 45, 'rot2': 37, 'state': 'normal', 'yaw': 13.93, 'datetime': '2018-10-09 13:33:35.206548', 'mgs': 0, 'volt': 0.8789, 'depth': 1.233, 'time': 7, 'pitch': 9.3, 'roll': -1.13, 'pres': 180}
{'lipoC2': 7.36, 'lipoC3S1': 3.81, 'temp': 30.25, 'lipoC3S3': 11.73, 'lipoC3S2': 7.76, 'rot1': 10, 'rot0': 13, 'rot3': 46, 'rot2': 38, 'state': 'normal', 'yaw': 11.04, 'datetime': '2018-10-09 13:33:35.311264', 'mgs': 0, 'volt': 0.9375, 'depth': 2.148, 'time': 7, 'pitch': 10.5, 'roll': -0.67, 'pres': 192}
{'lipoC2': 7.34, 'lipoC3S1': 3.89, 'temp': 30.25, 'lipoC3S3': 11.69, 'lipoC3S2': 7.73, 'rot1': 11, 'rot0': 15, 'rot3': 47, 'rot2': 38, 'state': 'normal', 'yaw': 8.33, 'datetime': '2018-10-09 13:33:35.415075', 'mgs': 0, 'volt': 0.8887, 'depth': 1.385, 'time': 7, 'pitch': 11.54, 'roll': -0.55, 'pres': 182}
{'lipoC2': 7.36, 'lipoC3S1': 3.79, 'temp': 30.31, 'lipoC3S3': 11.76, 'lipoC3S2': 7.64, 'rot1': 12, 'rot0': 17, 'rot3': 47, 'rot2': 39, 'state': 'normal', 'yaw': 5.43, 'datetime': '2018-10-09 13:33:35.518928', 'mgs': 0, 'volt': 0.8936, 'depth': 1.462, 'time': 7, 'pitch': 12.49, 'roll': -0.84, 'pres': 183}
{'lipoC2': 7.35, 'lipoC3S1': 3.89, 'temp': 30.31, 'lipoC3S3': 11.72, 'lipoC3S2': 7.75, 'rot1': 13, 'rot0': 18, 'rot3': 48, 'rot2': 39, 'state': 'normal', 'yaw': 2.98, 'datetime': '2018-10-09 13:33:35.622774', 'mgs': 0, 'volt': 0.9863, 'depth': 2.911, 'time': 7, 'pitch': 13.27, 'roll': -1.27, 'pres': 202}
{'lipoC2': 7.35, 'lipoC3S1': 3.88, 'temp': 30.31, 'lipoC3S3': 11.52, 'lipoC3S2': 7.74, 'rot1': 15, 'rot0': 20, 'rot3': 48, 'rot2': 40, 'state': 'normal', 'yaw': 0.7, 'datetime': '2018-10-09 13:33:35.726638', 'mgs': 0, 'volt': 0.8984, 'depth': 1.538, 'time': 7, 'pitch': 13.91, 'roll': -1.55, 'pres': 184}
{'lipoC2': 7.36, 'lipoC3S1': 3.82, 'temp': 30.31, 'lipoC3S3': 11.76, 'lipoC3S2': 7.65, 'rot1': 16, 'rot0': 22, 'rot3': 49, 'rot2': 40, 'state': 'normal', 'yaw': -1.68, 'datetime': '2018-10-09 13:33:35.830673', 'mgs': 0, 'volt': 0.9033, 'depth': 1.614, 'time': 8, 'pitch': 14.26, 'roll': -1.52, 'pres': 185}
{'lipoC2': 7.33, 'lipoC3S1': 3.85, 'temp': 30.31, 'lipoC3S3': 11.73, 'lipoC3S2': 7.75, 'rot1': 17, 'rot0': 23, 'rot3': 49, 'rot2': 41, 'state': 'normal', 'yaw': -3.63, 'datetime': '2018-10-09 13:33:35.934618', 'mgs': 0, 'volt': 0.957, 'depth': 2.454, 'time': 8, 'pitch': 14.4, 'roll': -1.28, 'pres': 196}
{'lipoC2': 7.36, 'lipoC3S1': 3.79, 'temp': 30.31, 'lipoC3S3': 11.75, 'lipoC3S2': 7.62, 'rot1': 19, 'rot0': 25, 'rot3': 50, 'rot2': 41, 'state': 'normal', 'yaw': -5.43, 'datetime': '2018-10-09 13:33:36.039141', 'mgs': 0, 'volt': 0.9033, 'depth': 1.614, 'time': 8, 'pitch': 14.71, 'roll': -1.12, 'pres': 185}
{'lipoC2': 7.36, 'lipoC3S1': 3.84, 'temp': 30.31, 'lipoC3S3': 11.73, 'lipoC3S2': 7.76, 'rot1': 21, 'rot0': 27, 'rot3': 50, 'rot2': 42, 'state': 'normal', 'yaw': -7.16, 'datetime': '2018-10-09 13:33:36.143142', 'mgs': 0, 'volt': 0.9521, 'depth': 2.377, 'time': 8, 'pitch': 15.19, 'roll': -1.21, 'pres': 195}
{'lipoC2': 7.36, 'lipoC3S1': 3.79, 'temp': 30.25, 'lipoC3S3': 11.75, 'lipoC3S2': 7.76, 'rot1': 22, 'rot0': 28, 'rot3': 51, 'rot2': 42, 'state': 'normal', 'yaw': -8.47, 'datetime': '2018-10-09 13:33:36.248411', 'mgs': 0, 'volt': 1.0059, 'depth': 3.217, 'time': 8, 'pitch': 15.58, 'roll': -1.53, 'pres': 206}
{'lipoC2': 7.33, 'lipoC3S1': 3.89, 'temp': 30.25, 'lipoC3S3': 11.72, 'lipoC3S2': 7.75, 'rot1': 23, 'rot0': 30, 'rot3': 51, 'rot2': 43, 'state': 'normal', 'yaw': -9.6, 'datetime': '2018-10-09 13:33:36.352471', 'mgs': 0, 'volt': 0.9717, 'depth': 2.682, 'time': 8, 'pitch': 15.81, 'roll': -1.89, 'pres': 199}
{'lipoC2': 7.36, 'lipoC3S1': 3.75, 'temp': 30.25, 'lipoC3S3': 11.73, 'lipoC3S2': 7.6, 'rot1': 25, 'rot0': 31, 'rot3': 52, 'rot2': 43, 'state': 'normal', 'yaw': -10.41, 'datetime': '2018-10-09 13:33:36.457171', 'mgs': 0, 'volt': 0.9082, 'depth': 1.691, 'time': 8, 'pitch': 15.82, 'roll': -2.03, 'pres': 186}
{'lipoC2': 7.36, 'lipoC3S1': 3.89, 'temp': 30.25, 'lipoC3S3': 11.72, 'lipoC3S2': 7.61, 'rot1': 26, 'rot0': 33, 'rot3': 52, 'rot2': 44, 'state': 'normal', 'yaw': -11.16, 'datetime': '2018-10-09 13:33:36.561336', 'mgs': 0, 'volt': 0.9082, 'depth': 1.691, 'time': 8, 'pitch': 15.81, 'roll': -1.94, 'pres': 186}
{'lipoC2': 7.36, 'lipoC3S1': 3.82, 'temp': 30.25, 'lipoC3S3': 11.73, 'lipoC3S2': 7.75, 'rot1': 27, 'rot0': 35, 'rot3': 53, 'rot2': 44, 'state': 'normal', 'yaw': -11.8, 'datetime': '2018-10-09 13:33:36.665400', 'mgs': 0, 'volt': 1.04, 'depth': 3.751, 'time': 8, 'pitch': 15.76, 'roll': -1.69, 'pres': 213}
{'lipoC2': 7.33, 'lipoC3S1': 3.89, 'temp': 30.31, 'lipoC3S3': 11.73, 'lipoC3S2': 7.74, 'rot1': 29, 'rot0': 36, 'rot3': 54, 'rot2': 45, 'state': 'normal', 'yaw': -12.42, 'datetime': '2018-10-09 13:33:36.769344', 'mgs': 0, 'volt': 0.9473, 'depth': 2.301, 'time': 9, 'pitch': 15.48, 'roll': -1.48, 'pres': 194}
{'lipoC2': 7.35, 'lipoC3S1': 3.88, 'temp': 30.31, 'lipoC3S3': 11.54, 'lipoC3S2': 7.63, 'rot1': 30, 'rot0': 38, 'rot3': 54, 'rot2': 45, 'state': 'normal', 'yaw': -12.98, 'datetime': '2018-10-09 13:33:36.873403', 'mgs': 0, 'volt': 0.9082, 'depth': 1.691, 'time': 9, 'pitch': 14.79, 'roll': -1.31, 'pres': 186}
{'lipoC2': 7.36, 'lipoC3S1': 3.77, 'temp': 30.31, 'lipoC3S3': 11.75, 'lipoC3S2': 7.71, 'rot1': 32, 'rot0': 40, 'rot3': 55, 'rot2': 46, 'state': 'normal', 'yaw': -13.42, 'datetime': '2018-10-09 13:33:36.977247', 'mgs': 0, 'volt': 0.9131, 'depth': 1.767, 'time': 9, 'pitch': 14.01, 'roll': -1.21, 'pres': 187}
{'lipoC2': 7.36, 'lipoC3S1': 3.82, 'temp': 30.31, 'lipoC3S3': 11.73, 'lipoC3S2': 7.75, 'rot1': 33, 'rot0': 41, 'rot3': 55, 'rot2': 47, 'state': 'normal', 'yaw': -13.85, 'datetime': '2018-10-09 13:33:37.081407', 'mgs': 0, 'volt': 0.957, 'depth': 2.454, 'time': 9, 'pitch': 13.34, 'roll': -1.18, 'pres': 196}
{'lipoC2': 7.34, 'lipoC3S1': 3.88, 'temp': 30.31, 'lipoC3S3': 11.4, 'lipoC3S2': 7.73, 'rot1': 34, 'rot0': 42, 'rot3': 56, 'rot2': 47, 'state': 'normal', 'yaw': -14.27, 'datetime': '2018-10-09 13:33:37.185353', 'mgs': 0, 'volt': 0.9082, 'depth': 1.691, 'time': 9, 'pitch': 12.8, 'roll': -1.33, 'pres': 186}
{'lipoC2': 7.36, 'lipoC3S1': 3.71, 'temp': 30.31, 'lipoC3S3': 11.75, 'lipoC3S2': 7.62, 'rot1': 36, 'rot0': 44, 'rot3': 57, 'rot2': 48, 'state': 'normal', 'yaw': -14.66, 'datetime': '2018-10-09 13:33:37.289193', 'mgs': 0, 'volt': 0.9082, 'depth': 1.691, 'time': 9, 'pitch': 12.56, 'roll': -1.71, 'pres': 186}
{'lipoC2': 7.35, 'lipoC3S1': 3.89, 'temp': 30.31, 'lipoC3S3': 11.72, 'lipoC3S2': 7.75, 'rot1': 37, 'rot0': 45, 'rot3': 57, 'rot2': 48, 'state': 'normal', 'yaw': -15.07, 'datetime': '2018-10-09 13:33:37.393038', 'mgs': 0, 'volt': 0.9814, 'depth': 2.835, 'time': 9, 'pitch': 12.5, 'roll': -2.3, 'pres': 201}
{'lipoC2': 7.35, 'lipoC3S1': 3.88, 'temp': 30.31, 'lipoC3S3': 11.52, 'lipoC3S2': 7.7, 'rot1': 39, 'rot0': 47, 'rot3': 58, 'rot2': 49, 'state': 'normal', 'yaw': -15.4, 'datetime': '2018-10-09 13:33:37.496949', 'mgs': 0, 'volt': 0.9082, 'depth': 1.691, 'time': 9, 'pitch': 12.14, 'roll': -2.68, 'pres': 186}
{'lipoC2': 7.35, 'lipoC3S1': 3.88, 'temp': 30.31, 'lipoC3S3': 11.61, 'lipoC3S2': 7.71, 'rot1': 40, 'rot0': 48, 'rot3': 59, 'rot2': 49, 'state': 'normal', 'yaw': -15.66, 'datetime': '2018-10-09 13:33:37.602170', 'mgs': 0, 'volt': 0.9082, 'depth': 1.691, 'time': 9, 'pitch': 11.28, 'roll': -2.74, 'pres': 186}
{'lipoC2': 7.36, 'lipoC3S1': 3.75, 'temp': 30.31, 'lipoC3S3': 11.75, 'lipoC3S2': 7.71, 'rot1': 41, 'rot0': 50, 'rot3': 59, 'rot2': 50, 'state': 'normal', 'yaw': -15.94, 'datetime': '2018-10-09 13:33:37.706078', 'mgs': 0, 'volt': 0.9082, 'depth': 1.691, 'time': 9, 'pitch': 10.09, 'roll': -2.64, 'pres': 186}
{'lipoC2': 7.36, 'lipoC3S1': 3.82, 'temp': 30.31, 'lipoC3S3': 11.75, 'lipoC3S2': 7.69, 'rot1': 43, 'rot0': 51, 'rot3': 60, 'rot2': 51, 'state': 'normal', 'yaw': -16.16, 'datetime': '2018-10-09 13:33:37.810396', 'mgs': 0, 'volt': 0.9131, 'depth': 1.767, 'time': 10, 'pitch': 9.32, 'roll': -2.73, 'pres': 187}
{'lipoC2': 7.36, 'lipoC3S1': 3.79, 'temp': 30.31, 'lipoC3S3': 11.73, 'lipoC3S2': 7.76, 'rot1': 44, 'rot0': 53, 'rot3': 60, 'rot2': 51, 'state': 'normal', 'yaw': -16.29, 'datetime': '2018-10-09 13:33:37.914597', 'mgs': 0, 'volt': 0.8984, 'depth': 1.538, 'time': 10, 'pitch': 9.02, 'roll': -3.09, 'pres': 184}
{'lipoC2': 7.36, 'lipoC3S1': 3.89, 'temp': 30.31, 'lipoC3S3': 11.72, 'lipoC3S2': 7.75, 'rot1': 46, 'rot0': 54, 'rot3': 61, 'rot2': 52, 'state': 'normal', 'yaw': -16.29, 'datetime': '2018-10-09 13:33:38.018641', 'mgs': 0, 'volt': 0.9961, 'depth': 3.064, 'time': 10, 'pitch': 9.0, 'roll': -3.53, 'pres': 204}
{'lipoC2': 7.34, 'lipoC3S1': 3.88, 'temp': 30.31, 'lipoC3S3': 11.65, 'lipoC3S2': 7.73, 'rot1': 47, 'rot0': 56, 'rot3': 62, 'rot2': 52, 'state': 'normal', 'yaw': -16.17, 'datetime': '2018-10-09 13:33:38.122595', 'mgs': 0, 'volt': 0.918, 'depth': 1.843, 'time': 10, 'pitch': 8.87, 'roll': -3.89, 'pres': 188}
{'lipoC2': 7.36, 'lipoC3S1': 3.87, 'temp': 30.31, 'lipoC3S3': 11.6, 'lipoC3S2': 7.55, 'rot1': 49, 'rot0': 57, 'rot3': 62, 'rot2': 53, 'state': 'normal', 'yaw': -15.99, 'datetime': '2018-10-09 13:33:38.226613', 'mgs': 0, 'volt': 0.9229, 'depth': 1.92, 'time': 10, 'pitch': 8.54, 'roll': -4.13, 'pres': 189}
{'lipoC2': 7.36, 'lipoC3S1': 3.72, 'temp': 30.31, 'lipoC3S3': 11.73, 'lipoC3S2': 7.66, 'rot1': 50, 'rot0': 58, 'rot3': 63, 'rot2': 54, 'state': 'normal', 'yaw': -15.83, 'datetime': '2018-10-09 13:33:38.333469', 'mgs': 0, 'volt': 0.9229, 'depth': 1.92, 'time': 10, 'pitch': 8.48, 'roll': -4.25, 'pres': 189}
{'lipoC2': 7.36, 'lipoC3S1': 3.76, 'temp': 30.31, 'lipoC3S3': 11.73, 'lipoC3S2': 7.7, 'rot1': 52, 'rot0': 60, 'rot3': 64, 'rot2': 54, 'state': 'normal', 'yaw': -15.76, 'datetime': '2018-10-09 13:33:38.434893', 'mgs': 0, 'volt': 0.9277, 'depth': 1.996, 'time': 10, 'pitch': 8.86, 'roll': -4.34, 'pres': 190}
{'lipoC2': 7.35, 'lipoC3S1': 3.85, 'temp': 30.31, 'lipoC3S3': 11.72, 'lipoC3S2': 7.75, 'rot1': 53, 'rot0': 61, 'rot3': 64, 'rot2': 55, 'state': 'normal', 'yaw': -15.78, 'datetime': '2018-10-09 13:33:38.538891', 'mgs': 0, 'volt': 1.0156, 'depth': 3.369, 'time': 10, 'pitch': 9.51, 'roll': -4.4, 'pres': 208}
{'lipoC2': 7.34, 'lipoC3S1': 3.88, 'temp': 30.38, 'lipoC3S3': 11.52, 'lipoC3S2': 7.73, 'rot1': 55, 'rot0': 63, 'rot3': 65, 'rot2': 55, 'state': 'normal', 'yaw': -15.81, 'datetime': '2018-10-09 13:33:38.642804', 'mgs': 0, 'volt': 0.9521, 'depth': 2.377, 'time': 10, 'pitch': 9.93, 'roll': -4.32, 'pres': 195}
{'lipoC2': 7.36, 'lipoC3S1': 3.88, 'temp': 30.38, 'lipoC3S3': 11.56, 'lipoC3S2': 7.72, 'rot1': 56, 'rot0': 64, 'rot3': 65, 'rot2': 56, 'state': 'normal', 'yaw': -15.81, 'datetime': '2018-10-09 13:33:38.746819', 'mgs': 0, 'volt': 0.9375, 'depth': 2.148, 'time': 10, 'pitch': 10.06, 'roll': -3.99, 'pres': 192}
{'lipoC2': 7.36, 'lipoC3S1': 3.73, 'temp': 30.38, 'lipoC3S3': 11.73, 'lipoC3S2': 7.64, 'rot1': 58, 'rot0': 66, 'rot3': 66, 'rot2': 56, 'state': 'normal', 'yaw': -15.73, 'datetime': '2018-10-09 13:33:38.850894', 'mgs': 0, 'volt': 0.9424, 'depth': 2.225, 'time': 11, 'pitch': 9.97, 'roll': -3.53, 'pres': 193}
{'lipoC2': 7.35, 'lipoC3S1': 3.76, 'temp': 30.38, 'lipoC3S3': 11.73, 'lipoC3S2': 7.71, 'rot1': 59, 'rot0': 67, 'rot3': 67, 'rot2': 57, 'state': 'normal', 'yaw': -15.64, 'datetime': '2018-10-09 13:33:38.956022', 'mgs': 0, 'volt': 0.9473, 'depth': 2.301, 'time': 11, 'pitch': 9.98, 'roll': -3.07, 'pres': 194}
{'lipoC2': 7.36, 'lipoC3S1': 3.85, 'temp': 30.38, 'lipoC3S3': 11.72, 'lipoC3S2': 7.75, 'rot1': 61, 'rot0': 68, 'rot3': 67, 'rot2': 57, 'state': 'normal', 'yaw': -15.53, 'datetime': '2018-10-09 13:33:39.059952', 'mgs': 0, 'volt': 1.04, 'depth': 3.751, 'time': 11, 'pitch': 10.28, 'roll': -2.73, 'pres': 213}
{'lipoC2': 7.35, 'lipoC3S1': 3.78, 'temp': 30.31, 'lipoC3S3': 11.73, 'lipoC3S2': 7.76, 'rot1': 62, 'rot0': 70, 'rot3': 68, 'rot2': 58, 'state': 'normal', 'yaw': -15.44, 'datetime': '2018-10-09 13:33:39.165366', 'mgs': 0, 'volt': 0.918, 'depth': 1.843, 'time': 11, 'pitch': 10.82, 'roll': -2.65, 'pres': 188}
{'lipoC2': 7.36, 'lipoC3S1': 3.89, 'temp': 30.31, 'lipoC3S3': 11.73, 'lipoC3S2': 7.75, 'rot1': 63, 'rot0': 71, 'rot3': 68, 'rot2': 58, 'state': 'normal', 'yaw': -15.35, 'datetime': '2018-10-09 13:33:39.269371', 'mgs': 0, 'volt': 1.0254, 'depth': 3.522, 'time': 11, 'pitch': 11.59, 'roll': -2.68, 'pres': 210}
{'lipoC2': 7.34, 'lipoC3S1': 3.88, 'temp': 30.31, 'lipoC3S3': 11.51, 'lipoC3S2': 7.74, 'rot1': 65, 'rot0': 73, 'rot3': 68, 'rot2': 59, 'state': 'normal', 'yaw': -15.21, 'datetime': '2018-10-09 13:33:39.373380', 'mgs': 0, 'volt': 0.9521, 'depth': 2.377, 'time': 11, 'pitch': 12.2, 'roll': -2.74, 'pres': 195}
{'lipoC2': 7.33, 'lipoC3S1': 3.88, 'temp': 30.31, 'lipoC3S3': 11.71, 'lipoC3S2': 7.73, 'rot1': 66, 'rot0': 74, 'rot3': 69, 'rot2': 59, 'state': 'normal', 'yaw': -14.97, 'datetime': '2018-10-09 13:33:39.477663', 'mgs': 0, 'volt': 0.9619, 'depth': 2.53, 'time': 11, 'pitch': 12.64, 'roll': -2.72, 'pres': 197}
{'lipoC2': 7.36, 'lipoC3S1': 3.87, 'temp': 30.31, 'lipoC3S3': 11.58, 'lipoC3S2': 7.71, 'rot1': 68, 'rot0': 76, 'rot3': 69, 'rot2': 60, 'state': 'normal', 'yaw': -14.67, 'datetime': '2018-10-09 13:33:39.581676', 'mgs': 0, 'volt': 0.9521, 'depth': 2.377, 'time': 11, 'pitch': 12.89, 'roll': -2.68, 'pres': 195}
{'lipoC2': 7.34, 'lipoC3S1': 3.88, 'temp': 30.31, 'lipoC3S3': 11.51, 'lipoC3S2': 7.74, 'rot1': 69, 'rot0': 77, 'rot3': 70, 'rot2': 60, 'state': 'normal', 'yaw': -14.47, 'datetime': '2018-10-09 13:33:39.686950', 'mgs': 0, 'volt': 0.9521, 'depth': 2.377, 'time': 11, 'pitch': 12.99, 'roll': -2.63, 'pres': 195}
{'lipoC2': 7.36, 'lipoC3S1': 3.88, 'temp': 30.31, 'lipoC3S3': 11.64, 'lipoC3S2': 7.63, 'rot1': 71, 'rot0': 79, 'rot3': 72, 'rot2': 61, 'state': 'normal', 'yaw': -14.39, 'datetime': '2018-10-09 13:33:39.791068', 'mgs': 0, 'volt': 0.9521, 'depth': 2.377, 'time': 12, 'pitch': 12.99, 'roll': -2.65, 'pres': 195}
{'lipoC2': 7.35, 'lipoC3S1': 3.87, 'temp': 30.38, 'lipoC3S3': 11.51, 'lipoC3S2': 7.63, 'rot1': 72, 'rot0': 80, 'rot3': 72, 'rot2': 61, 'state': 'normal', 'yaw': -14.38, 'datetime': '2018-10-09 13:33:39.896405', 'mgs': 0, 'volt': 0.9521, 'depth': 2.377, 'time': 12, 'pitch': 12.99, 'roll': -2.63, 'pres': 195}
{'lipoC2': 7.36, 'lipoC3S1': 3.85, 'temp': 30.38, 'lipoC3S3': 11.73, 'lipoC3S2': 7.59, 'rot1': 73, 'rot0': 82, 'rot3': 73, 'rot2': 62, 'state': 'normal', 'yaw': -14.37, 'datetime': '2018-10-09 13:33:40.000453', 'mgs': 0, 'volt': 0.957, 'depth': 2.454, 'time': 12, 'pitch': 12.98, 'roll': -2.6, 'pres': 196}
{'lipoC2': 7.35, 'lipoC3S1': 3.88, 'temp': 30.31, 'lipoC3S3': 11.51, 'lipoC3S2': 7.64, 'rot1': 75, 'rot0': 83, 'rot3': 73, 'rot2': 62, 'state': 'normal', 'yaw': -14.39, 'datetime': '2018-10-09 13:33:40.104876', 'mgs': 0, 'volt': 0.9521, 'depth': 2.377, 'time': 12, 'pitch': 12.98, 'roll': -2.57, 'pres': 195}
{'lipoC2': 7.36, 'lipoC3S1': 3.88, 'temp': 30.31, 'lipoC3S3': 11.71, 'lipoC3S2': 7.74, 'rot1': 76, 'rot0': 85, 'rot3': 74, 'rot2': 63, 'state': 'normal', 'yaw': -14.43, 'datetime': '2018-10-09 13:33:40.209396', 'mgs': 0, 'volt': 1.0303, 'depth': 3.598, 'time': 12, 'pitch': 12.99, 'roll': -2.45, 'pres': 211}
{'lipoC2': 7.34, 'lipoC3S1': 3.88, 'temp': 30.31, 'lipoC3S3': 11.63, 'lipoC3S2': 7.73, 'rot1': 78, 'rot0': 86, 'rot3': 74, 'rot2': 63, 'state': 'normal', 'yaw': -14.51, 'datetime': '2018-10-09 13:33:40.313429', 'mgs': 0, 'volt': 0.9619, 'depth': 2.53, 'time': 12, 'pitch': 13.12, 'roll': -2.24, 'pres': 197}
{'lipoC2': 7.33, 'lipoC3S1': 3.88, 'temp': 30.31, 'lipoC3S3': 11.69, 'lipoC3S2': 7.74, 'rot1': 79, 'rot0': 88, 'rot3': 75, 'rot2': 64, 'state': 'normal', 'yaw': -14.72, 'datetime': '2018-10-09 13:33:40.418760', 'mgs': 0, 'volt': 1.0107, 'depth': 3.293, 'time': 12, 'pitch': 13.26, 'roll': -2.06, 'pres': 207}
{'lipoC2': 7.35, 'lipoC3S1': 3.87, 'temp': 30.31, 'lipoC3S3': 11.51, 'lipoC3S2': 7.65, 'rot1': 80, 'rot0': 89, 'rot3': 75, 'rot2': 64, 'state': 'normal', 'yaw': -15.09, 'datetime': '2018-10-09 13:33:40.522803', 'mgs': 0, 'volt': 0.9473, 'depth': 2.301, 'time': 12, 'pitch': 13.4, 'roll': -1.99, 'pres': 194}
{'lipoC2': 7.36, 'lipoC3S1': 3.86, 'temp': 30.38, 'lipoC3S3': 11.72, 'lipoC3S2': 7.59, 'rot1': 82, 'rot0': 91, 'rot3': 76, 'rot2': 65, 'state': 'normal', 'yaw': -15.48, 'datetime': '2018-10-09 13:33:40.626752', 'mgs': 0, 'volt': 0.9521, 'depth': 2.377, 'time': 12, 'pitch': 13.35, 'roll': -2.08, 'pres': 195}
{'lipoC2': 7.35, 'lipoC3S1': 3.78, 'temp': 30.38, 'lipoC3S3': 11.72, 'lipoC3S2': 7.75, 'rot1': 83, 'rot0': 92, 'rot3': 77, 'rot2': 65, 'state': 'normal', 'yaw': -15.9, 'datetime': '2018-10-09 13:33:40.734580', 'mgs': 0, 'volt': 0.9424, 'depth': 2.225, 'time': 12, 'pitch': 13.15, 'roll': -2.24, 'pres': 193}
{'lipoC2': 7.34, 'lipoC3S1': 3.88, 'temp': 30.38, 'lipoC3S3': 11.71, 'lipoC3S2': 7.74, 'rot1': 84, 'rot0': 94, 'rot3': 77, 'rot2': 66, 'state': 'normal', 'yaw': -16.31, 'datetime': '2018-10-09 13:33:40.840889', 'mgs': 0, 'volt': 1.0107, 'depth': 3.293, 'time': 13, 'pitch': 12.87, 'roll': -2.34, 'pres': 207}
{'lipoC2': 7.34, 'lipoC3S1': 3.88, 'temp': 30.38, 'lipoC3S3': 11.55, 'lipoC3S2': 7.72, 'rot1': 86, 'rot0': 95, 'rot3': 78, 'rot2': 66, 'state': 'normal', 'yaw': -16.55, 'datetime': '2018-10-09 13:33:40.944731', 'mgs': 0, 'volt': 0.9473, 'depth': 2.301, 'time': 13, 'pitch': 12.67, 'roll': -2.39, 'pres': 194}
{'lipoC2': 7.36, 'lipoC3S1': 3.87, 'temp': 30.38, 'lipoC3S3': 11.64, 'lipoC3S2': 7.57, 'rot1': 87, 'rot0': 97, 'rot3': 78, 'rot2': 67, 'state': 'normal', 'yaw': -16.76, 'datetime': '2018-10-09 13:33:41.048890', 'mgs': 0, 'volt': 0.9424, 'depth': 2.225, 'time': 13, 'pitch': 12.63, 'roll': -2.45, 'pres': 193}
{'lipoC2': 7.36, 'lipoC3S1': 3.77, 'temp': 30.31, 'lipoC3S3': 11.73, 'lipoC3S2': 7.71, 'rot1': 89, 'rot0': 98, 'rot3': 79, 'rot2': 67, 'state': 'normal', 'yaw': -16.88, 'datetime': '2018-10-09 13:33:41.152853', 'mgs': 0, 'volt': 0.9375, 'depth': 2.148, 'time': 13, 'pitch': 12.65, 'roll': -2.49, 'pres': 192}
{'lipoC2': 7.34, 'lipoC3S1': 3.88, 'temp': 30.31, 'lipoC3S3': 11.6, 'lipoC3S2': 7.72, 'rot1': 90, 'rot0': 100, 'rot3': 79, 'rot2': 68, 'state': 'normal', 'yaw': -16.99, 'datetime': '2018-10-09 13:33:41.257603', 'mgs': 0, 'volt': 0.9424, 'depth': 2.225, 'time': 13, 'pitch': 12.6, 'roll': -2.46, 'pres': 193}
{'lipoC2': 7.36, 'lipoC3S1': 3.87, 'temp': 30.31, 'lipoC3S3': 11.58, 'lipoC3S2': 7.65, 'rot1': 92, 'rot0': 101, 'rot3': 80, 'rot2': 68, 'state': 'normal', 'yaw': -17.02, 'datetime': '2018-10-09 13:33:41.361995', 'mgs': 0, 'volt': 0.9424, 'depth': 2.225, 'time': 13, 'pitch': 12.38, 'roll': -2.28, 'pres': 193}
{'lipoC2': 7.33, 'lipoC3S1': 3.88, 'temp': 30.31, 'lipoC3S3': 11.69, 'lipoC3S2': 7.73, 'rot1': 93, 'rot0': 102, 'rot3': 80, 'rot2': 69, 'state': 'normal', 'yaw': -17.02, 'datetime': '2018-10-09 13:33:41.466460', 'mgs': 0, 'volt': 0.9668, 'depth': 2.606, 'time': 13, 'pitch': 12.11, 'roll': -2.12, 'pres': 198}
{'lipoC2': 7.34, 'lipoC3S1': 3.88, 'temp': 30.38, 'lipoC3S3': 11.6, 'lipoC3S2': 7.75, 'rot1': 95, 'rot0': 104, 'rot3': 81, 'rot2': 69, 'state': 'normal', 'yaw': -17.09, 'datetime': '2018-10-09 13:33:41.571349', 'mgs': 0, 'volt': 0.9375, 'depth': 2.148, 'time': 13, 'pitch': 11.76, 'roll': -2.0, 'pres': 192}
{'lipoC2': 7.33, 'lipoC3S1': 3.88, 'temp': 30.38, 'lipoC3S3': 11.69, 'lipoC3S2': 7.73, 'rot1': 96, 'rot0': 105, 'rot3': 82, 'rot2': 70, 'state': 'normal', 'yaw': -17.18, 'datetime': '2018-10-09 13:33:41.676815', 'mgs': 0, 'volt': 0.9961, 'depth': 3.064, 'time': 13, 'pitch': 11.39, 'roll': -1.89, 'pres': 204}
{'lipoC2': 7.34, 'lipoC3S1': 3.88, 'temp': 30.38, 'lipoC3S3': 11.65, 'lipoC3S2': 7.72, 'rot1': 98, 'rot0': 107, 'rot3': 82, 'rot2': 70, 'state': 'normal', 'yaw': -17.19, 'datetime': '2018-10-09 13:33:41.780883', 'mgs': 0, 'volt': 0.9473, 'depth': 2.301, 'time': 14, 'pitch': 11.02, 'roll': -1.75, 'pres': 194}
{'lipoC2': 7.35, 'lipoC3S1': 3.87, 'temp': 30.38, 'lipoC3S3': 11.61, 'lipoC3S2': 7.65, 'rot1': 99, 'rot0': 108, 'rot3': 83, 'rot2': 71, 'state': 'normal', 'yaw': -17.17, 'datetime': '2018-10-09 13:33:41.884883', 'mgs': 0, 'volt': 0.9375, 'depth': 2.148, 'time': 14, 'pitch': 10.85, 'roll': -1.73, 'pres': 192}
{'lipoC2': 7.34, 'lipoC3S1': 3.88, 'temp': 30.38, 'lipoC3S3': 11.44, 'lipoC3S2': 7.72, 'rot1': 101, 'rot0': 110, 'rot3': 83, 'rot2': 71, 'state': 'normal', 'yaw': -17.18, 'datetime': '2018-10-09 13:33:41.989513', 'mgs': 0, 'volt': 0.9375, 'depth': 2.148, 'time': 14, 'pitch': 10.95, 'roll': -1.83, 'pres': 192}
