{'lipoC2': 7.86, 'lipoC3S1': 3.94, 'temp': 28.5, 'lipoC3S3': 11.92, 'lipoC3S2': 7.88, 'rot1': 271, 'rot0': 308, 'rot3': 239, 'rot2': 194, 'state': 'normal', 'yaw': 32.65, 'datetime': '2018-10-05 19:39:00.630077', 'mgs': 0, 'volt': 0.7813, 'depth': -0.293, 'time': 96, 'pitch': -11.33, 'roll': -0.48, 'pres': 160}
{'lipoC2': 7.86, 'lipoC3S1': 3.94, 'temp': 28.56, 'lipoC3S3': 11.92, 'lipoC3S2': 7.88, 'rot1': 271, 'rot0': 308, 'rot3': 239, 'rot2': 194, 'state': 'normal', 'yaw': 32.48, 'datetime': '2018-10-05 19:39:00.654371', 'mgs': 0, 'volt': 0.7861, 'depth': -0.217, 'time': 96, 'pitch': -11.57, 'roll': -0.44, 'pres': 161}
{'lipoC2': 7.86, 'lipoC3S1': 3.94, 'temp': 28.56, 'lipoC3S3': 11.92, 'lipoC3S2': 7.88, 'rot1': 271, 'rot0': 308, 'rot3': 239, 'rot2': 194, 'state': 'normal', 'yaw': 32.42, 'datetime': '2018-10-05 19:39:00.678745', 'mgs': 0, 'volt': 0.7861, 'depth': -0.217, 'time': 96, 'pitch': -11.99, 'roll': -0.46, 'pres': 161}
{'lipoC2': 7.86, 'lipoC3S1': 3.94, 'temp': 28.5, 'lipoC3S3': 11.92, 'lipoC3S2': 7.88, 'rot1': 271, 'rot0': 308, 'rot3': 239, 'rot2': 194, 'state': 'normal', 'yaw': 32.43, 'datetime': '2018-10-05 19:39:00.703007', 'mgs': 0, 'volt': 0.7861, 'depth': -0.217, 'time': 97, 'pitch': -12.43, 'roll': -0.58, 'pres': 161}
{'lipoC2': 7.86, 'lipoC3S1': 3.94, 'temp': 28.5, 'lipoC3S3': 11.92, 'lipoC3S2': 7.88, 'rot1': 271, 'rot0': 308, 'rot3': 239, 'rot2': 194, 'state': 'normal', 'yaw': 32.39, 'datetime': '2018-10-05 19:39:00.727271', 'mgs': 0, 'volt': 0.7861, 'depth': -0.217, 'time': 97, 'pitch': -12.81, 'roll': -0.7, 'pres': 161}
{'lipoC2': 7.86, 'lipoC3S1': 3.94, 'temp': 28.5, 'lipoC3S3': 11.92, 'lipoC3S2': 7.88, 'rot1': 271, 'rot0': 308, 'rot3': 239, 'rot2': 194, 'state': 'normal', 'yaw': 32.24, 'datetime': '2018-10-05 19:39:00.749350', 'mgs': 0, 'volt': 0.7861, 'depth': -0.217, 'time': 97, 'pitch': -13.13, 'roll': -0.75, 'pres': 161}
{'lipoC2': 7.86, 'lipoC3S1': 3.94, 'temp': 28.5, 'lipoC3S3': 11.92, 'lipoC3S2': 7.88, 'rot1': 271, 'rot0': 308, 'rot3': 239, 'rot2': 194, 'state': 'normal', 'yaw': 32.13, 'datetime': '2018-10-05 19:39:00.759293', 'mgs': 0, 'volt': 0.791, 'depth': -0.14, 'time': 97, 'pitch': -13.43, 'roll': -0.82, 'pres': 162}
{'lipoC2': 7.86, 'lipoC3S1': 3.94, 'temp': 28.5, 'lipoC3S3': 11.92, 'lipoC3S2': 7.88, 'rot1': 271, 'rot0': 308, 'rot3': 239, 'rot2': 194, 'state': 'normal', 'yaw': 32.13, 'datetime': '2018-10-05 19:39:00.769193', 'mgs': 0, 'volt': 0.791, 'depth': -0.14, 'time': 97, 'pitch': -13.84, 'roll': -0.93, 'pres': 162}
{'lipoC2': 7.86, 'lipoC3S1': 3.94, 'temp': 28.56, 'lipoC3S3': 11.92, 'lipoC3S2': 7.88, 'rot1': 271, 'rot0': 308, 'rot3': 239, 'rot2': 194, 'state': 'normal', 'yaw': 32.1, 'datetime': '2018-10-05 19:39:00.779116', 'mgs': 0, 'volt': 0.7861, 'depth': -0.217, 'time': 97, 'pitch': -14.37, 'roll': -0.91, 'pres': 161}
{'lipoC2': 7.86, 'lipoC3S1': 3.94, 'temp': 28.56, 'lipoC3S3': 11.92, 'lipoC3S2': 7.88, 'rot1': 271, 'rot0': 308, 'rot3': 239, 'rot2': 194, 'state': 'normal', 'yaw': 32.01, 'datetime': '2018-10-05 19:39:00.789035', 'mgs': 0, 'volt': 0.791, 'depth': -0.14, 'time': 97, 'pitch': -14.99, 'roll': -0.8, 'pres': 162}
{'lipoC2': 7.86, 'lipoC3S1': 3.94, 'temp': 28.56, 'lipoC3S3': 11.92, 'lipoC3S2': 7.88, 'rot1': 271, 'rot0': 308, 'rot3': 239, 'rot2': 194, 'state': 'normal', 'yaw': 31.95, 'datetime': '2018-10-05 19:39:00.798875', 'mgs': 0, 'volt': 0.791, 'depth': -0.14, 'time': 97, 'pitch': -15.43, 'roll': -0.67, 'pres': 162}
{'lipoC2': 7.86, 'lipoC3S1': 3.94, 'temp': 28.56, 'lipoC3S3': 11.92, 'lipoC3S2': 7.88, 'rot1': 271, 'rot0': 308, 'rot3': 239, 'rot2': 194, 'state': 'normal', 'yaw': 31.98, 'datetime': '2018-10-05 19:39:00.808750', 'mgs': 0, 'volt': 0.791, 'depth': -0.14, 'time': 97, 'pitch': -15.8, 'roll': -0.65, 'pres': 162}
{'lipoC2': 7.86, 'lipoC3S1': 3.94, 'temp': 28.56, 'lipoC3S3': 11.92, 'lipoC3S2': 7.88, 'rot1': 271, 'rot0': 308, 'rot3': 239, 'rot2': 194, 'state': 'normal', 'yaw': 32.01, 'datetime': '2018-10-05 19:39:00.818575', 'mgs': 0, 'volt': 0.7959, 'depth': -0.064, 'time': 98, 'pitch': -16.21, 'roll': -0.65, 'pres': 163}
{'lipoC2': 7.86, 'lipoC3S1': 3.94, 'temp': 28.5, 'lipoC3S3': 11.92, 'lipoC3S2': 7.88, 'rot1': 271, 'rot0': 308, 'rot3': 239, 'rot2': 194, 'state': 'normal', 'yaw': 32.12, 'datetime': '2018-10-05 19:39:00.828399', 'mgs': 0, 'volt': 0.7959, 'depth': -0.064, 'time': 98, 'pitch': -16.61, 'roll': -0.68, 'pres': 163}
{'lipoC2': 7.86, 'lipoC3S1': 3.94, 'temp': 28.5, 'lipoC3S3': 11.92, 'lipoC3S2': 7.88, 'rot1': 271, 'rot0': 308, 'rot3': 239, 'rot2': 194, 'state': 'normal', 'yaw': 32.31, 'datetime': '2018-10-05 19:39:00.838399', 'mgs': 0, 'volt': 0.7959, 'depth': -0.064, 'time': 98, 'pitch': -17.03, 'roll': -0.76, 'pres': 163}
{'lipoC2': 7.86, 'lipoC3S1': 3.94, 'temp': 28.5, 'lipoC3S3': 11.92, 'lipoC3S2': 7.88, 'rot1': 271, 'rot0': 308, 'rot3': 239, 'rot2': 194, 'state': 'normal', 'yaw': 32.48, 'datetime': '2018-10-05 19:39:00.848230', 'mgs': 0, 'volt': 0.8008, 'depth': 0.012, 'time': 98, 'pitch': -17.4, 'roll': -0.77, 'pres': 164}
{'lipoC2': 7.86, 'lipoC3S1': 3.94, 'temp': 28.5, 'lipoC3S3': 11.92, 'lipoC3S2': 7.88, 'rot1': 271, 'rot0': 308, 'rot3': 239, 'rot2': 194, 'state': 'normal', 'yaw': 32.66, 'datetime': '2018-10-05 19:39:00.858056', 'mgs': 0, 'volt': 0.8008, 'depth': 0.012, 'time': 98, 'pitch': -17.75, 'roll': -0.71, 'pres': 164}
{'lipoC2': 7.86, 'lipoC3S1': 3.94, 'temp': 28.56, 'lipoC3S3': 11.92, 'lipoC3S2': 7.88, 'rot1': 271, 'rot0': 308, 'rot3': 239, 'rot2': 194, 'state': 'normal', 'yaw': 32.81, 'datetime': '2018-10-05 19:39:00.867938', 'mgs': 0, 'volt': 0.8008, 'depth': 0.012, 'time': 98, 'pitch': -18.1, 'roll': -0.61, 'pres': 164}
{'lipoC2': 7.86, 'lipoC3S1': 3.94, 'temp': 28.56, 'lipoC3S3': 11.92, 'lipoC3S2': 7.88, 'rot1': 271, 'rot0': 308, 'rot3': 239, 'rot2': 194, 'state': 'normal', 'yaw': 32.95, 'datetime': '2018-10-05 19:39:00.877821', 'mgs': 0, 'volt': 0.8008, 'depth': 0.012, 'time': 98, 'pitch': -18.54, 'roll': -0.47, 'pres': 164}
{'lipoC2': 7.86, 'lipoC3S1': 3.94, 'temp': 28.5, 'lipoC3S3': 11.92, 'lipoC3S2': 7.88, 'rot1': 271, 'rot0': 308, 'rot3': 239, 'rot2': 194, 'state': 'normal', 'yaw': 33.0, 'datetime': '2018-10-05 19:39:00.887686', 'mgs': 0, 'volt': 0.8008, 'depth': 0.012, 'time': 98, 'pitch': -18.93, 'roll': -0.32, 'pres': 164}
{'lipoC2': 7.86, 'lipoC3S1': 3.94, 'temp': 28.5, 'lipoC3S3': 11.92, 'lipoC3S2': 7.88, 'rot1': 271, 'rot0': 308, 'rot3': 239, 'rot2': 194, 'state': 'normal', 'yaw': 33.02, 'datetime': '2018-10-05 19:39:00.897491', 'mgs': 0, 'volt': 0.8057, 'depth': 0.089, 'time': 98, 'pitch': -19.25, 'roll': -0.17, 'pres': 165}
{'lipoC2': 7.86, 'lipoC3S1': 3.94, 'temp': 28.5, 'lipoC3S3': 11.92, 'lipoC3S2': 7.88, 'rot1': 271, 'rot0': 308, 'rot3': 239, 'rot2': 194, 'state': 'normal', 'yaw': 33.01, 'datetime': '2018-10-05 19:39:00.907311', 'mgs': 0, 'volt': 0.8057, 'depth': 0.089, 'time': 98, 'pitch': -19.52, 'roll': 0.01, 'pres': 165}
{'lipoC2': 7.86, 'lipoC3S1': 3.94, 'temp': 28.5, 'lipoC3S3': 11.92, 'lipoC3S2': 7.88, 'rot1': 271, 'rot0': 308, 'rot3': 239, 'rot2': 194, 'state': 'normal', 'yaw': 33.01, 'datetime': '2018-10-05 19:39:00.917150', 'mgs': 0, 'volt': 0.8057, 'depth': 0.089, 'time': 99, 'pitch': -19.73, 'roll': 0.17, 'pres': 165}
{'lipoC2': 7.86, 'lipoC3S1': 3.94, 'temp': 28.5, 'lipoC3S3': 11.92, 'lipoC3S2': 7.88, 'rot1': 271, 'rot0': 308, 'rot3': 239, 'rot2': 194, 'state': 'normal', 'yaw': 33.01, 'datetime': '2018-10-05 19:39:00.980924', 'mgs': 0, 'volt': 0.8057, 'depth': 0.089, 'time': 99, 'pitch': -20.06, 'roll': 0.39, 'pres': 165}
{'lipoC2': 7.86, 'lipoC3S1': 3.94, 'temp': 28.44, 'lipoC3S3': 11.92, 'lipoC3S2': 7.88, 'rot1': 271, 'rot0': 308, 'rot3': 239, 'rot2': 194, 'state': 'normal', 'yaw': 32.95, 'datetime': '2018-10-05 19:39:01.085176', 'mgs': 0, 'volt': 0.8105, 'depth': 0.165, 'time': 99, 'pitch': -20.46, 'roll': 0.6, 'pres': 166}
{'lipoC2': 7.86, 'lipoC3S1': 3.94, 'temp': 28.44, 'lipoC3S3': 11.92, 'lipoC3S2': 7.88, 'rot1': 271, 'rot0': 308, 'rot3': 239, 'rot2': 194, 'state': 'normal', 'yaw': 32.94, 'datetime': '2018-10-05 19:39:01.190560', 'mgs': 0, 'volt': 0.8105, 'depth': 0.165, 'time': 99, 'pitch': -20.76, 'roll': 0.73, 'pres': 166}
{'lipoC2': 7.86, 'lipoC3S1': 3.94, 'temp': 28.5, 'lipoC3S3': 11.92, 'lipoC3S2': 7.88, 'rot1': 271, 'rot0': 308, 'rot3': 239, 'rot2': 194, 'state': 'normal', 'yaw': 32.96, 'datetime': '2018-10-05 19:39:01.294743', 'mgs': 0, 'volt': 0.8105, 'depth': 0.165, 'time': 99, 'pitch': -20.93, 'roll': 0.7, 'pres': 166}
{'lipoC2': 7.86, 'lipoC3S1': 3.94, 'temp': 28.5, 'lipoC3S3': 11.92, 'lipoC3S2': 7.88, 'rot1': 271, 'rot0': 308, 'rot3': 239, 'rot2': 194, 'state': 'normal', 'yaw': 32.97, 'datetime': '2018-10-05 19:39:01.400220', 'mgs': 0, 'volt': 0.8105, 'depth': 0.165, 'time': 99, 'pitch': -21.07, 'roll': 0.65, 'pres': 166}
{'lipoC2': 7.86, 'lipoC3S1': 3.94, 'temp': 28.5, 'lipoC3S3': 11.92, 'lipoC3S2': 7.88, 'rot1': 271, 'rot0': 308, 'rot3': 239, 'rot2': 194, 'state': 'normal', 'yaw': 32.98, 'datetime': '2018-10-05 19:39:01.505147', 'mgs': 0, 'volt': 0.8105, 'depth': 0.165, 'time': 99, 'pitch': -21.26, 'roll': 0.49, 'pres': 166}
{'lipoC2': 7.86, 'lipoC3S1': 3.94, 'temp': 28.5, 'lipoC3S3': 11.92, 'lipoC3S2': 7.88, 'rot1': 271, 'rot0': 308, 'rot3': 239, 'rot2': 194, 'state': 'normal', 'yaw': 33.01, 'datetime': '2018-10-05 19:39:01.609388', 'mgs': 0, 'volt': 0.8154, 'depth': 0.241, 'time': 99, 'pitch': -21.35, 'roll': 0.31, 'pres': 167}
{'lipoC2': 7.86, 'lipoC3S1': 3.94, 'temp': 28.5, 'lipoC3S3': 11.92, 'lipoC3S2': 7.88, 'rot1': 271, 'rot0': 308, 'rot3': 239, 'rot2': 194, 'state': 'normal', 'yaw': 33.02, 'datetime': '2018-10-05 19:39:01.713501', 'mgs': 0, 'volt': 0.8154, 'depth': 0.241, 'time': 99, 'pitch': -21.4, 'roll': 0.13, 'pres': 167}
{'lipoC2': 7.86, 'lipoC3S1': 3.94, 'temp': 28.5, 'lipoC3S3': 11.92, 'lipoC3S2': 7.88, 'rot1': 271, 'rot0': 308, 'rot3': 239, 'rot2': 194, 'state': 'normal', 'yaw': 33.15, 'datetime': '2018-10-05 19:39:01.817756', 'mgs': 0, 'volt': 0.8154, 'depth': 0.241, 'time': 99, 'pitch': -21.41, 'roll': -0.15, 'pres': 167}
{'lipoC2': 7.86, 'lipoC3S1': 3.94, 'temp': 28.5, 'lipoC3S3': 11.92, 'lipoC3S2': 7.88, 'rot1': 271, 'rot0': 308, 'rot3': 239, 'rot2': 194, 'state': 'normal', 'yaw': 33.29, 'datetime': '2018-10-05 19:39:01.922016', 'mgs': 0, 'volt': 0.8154, 'depth': 0.241, 'time': 100, 'pitch': -21.48, 'roll': -0.42, 'pres': 167}
{'lipoC2': 7.86, 'lipoC3S1': 3.94, 'temp': 28.5, 'lipoC3S3': 11.92, 'lipoC3S2': 7.88, 'rot1': 271, 'rot0': 308, 'rot3': 239, 'rot2': 194, 'state': 'normal', 'yaw': 33.45, 'datetime': '2018-10-05 19:39:02.026386', 'mgs': 0, 'volt': 0.8154, 'depth': 0.241, 'time': 100, 'pitch': -21.71, 'roll': -0.69, 'pres': 167}
{'lipoC2': 7.86, 'lipoC3S1': 3.94, 'temp': 28.5, 'lipoC3S3': 11.92, 'lipoC3S2': 7.88, 'rot1': 271, 'rot0': 308, 'rot3': 239, 'rot2': 194, 'state': 'normal', 'yaw': 33.6, 'datetime': '2018-10-05 19:39:02.130653', 'mgs': 0, 'volt': 0.8154, 'depth': 0.241, 'time': 100, 'pitch': -21.95, 'roll': -0.89, 'pres': 167}
{'lipoC2': 7.86, 'lipoC3S1': 3.94, 'temp': 28.5, 'lipoC3S3': 11.92, 'lipoC3S2': 7.88, 'rot1': 271, 'rot0': 308, 'rot3': 239, 'rot2': 194, 'state': 'normal', 'yaw': 33.79, 'datetime': '2018-10-05 19:39:02.234981', 'mgs': 0, 'volt': 0.8154, 'depth': 0.241, 'time': 100, 'pitch': -22.07, 'roll': -1.07, 'pres': 167}
{'lipoC2': 7.86, 'lipoC3S1': 3.94, 'temp': 28.5, 'lipoC3S3': 11.92, 'lipoC3S2': 7.88, 'rot1': 271, 'rot0': 308, 'rot3': 239, 'rot2': 194, 'state': 'normal', 'yaw': 33.97, 'datetime': '2018-10-05 19:39:02.339239', 'mgs': 0, 'volt': 0.8154, 'depth': 0.241, 'time': 100, 'pitch': -22.01, 'roll': -1.16, 'pres': 167}
{'lipoC2': 7.86, 'lipoC3S1': 3.94, 'temp': 28.5, 'lipoC3S3': 11.92, 'lipoC3S2': 7.88, 'rot1': 271, 'rot0': 308, 'rot3': 239, 'rot2': 194, 'state': 'normal', 'yaw': 34.1, 'datetime': '2018-10-05 19:39:02.444638', 'mgs': 0, 'volt': 0.8154, 'depth': 0.241, 'time': 100, 'pitch': -21.92, 'roll': -1.2, 'pres': 167}
{'lipoC2': 7.86, 'lipoC3S1': 3.94, 'temp': 28.56, 'lipoC3S3': 11.92, 'lipoC3S2': 7.88, 'rot1': 271, 'rot0': 308, 'rot3': 239, 'rot2': 194, 'state': 'normal', 'yaw': 34.21, 'datetime': '2018-10-05 19:39:02.549008', 'mgs': 0, 'volt': 0.8154, 'depth': 0.241, 'time': 100, 'pitch': -21.93, 'roll': -1.15, 'pres': 167}
{'lipoC2': 7.86, 'lipoC3S1': 3.94, 'temp': 28.56, 'lipoC3S3': 11.92, 'lipoC3S2': 7.88, 'rot1': 271, 'rot0': 308, 'rot3': 239, 'rot2': 194, 'state': 'normal', 'yaw': 34.33, 'datetime': '2018-10-05 19:39:02.654524', 'mgs': 0, 'volt': 0.8154, 'depth': 0.241, 'time': 100, 'pitch': -21.98, 'roll': -1.09, 'pres': 167}
{'lipoC2': 7.86, 'lipoC3S1': 3.94, 'temp': 28.56, 'lipoC3S3': 11.92, 'lipoC3S2': 7.88, 'rot1': 271, 'rot0': 308, 'rot3': 239, 'rot2': 194, 'state': 'normal', 'yaw': 34.43, 'datetime': '2018-10-05 19:39:02.758915', 'mgs': 0, 'volt': 0.8105, 'depth': 0.165, 'time': 100, 'pitch': -21.81, 'roll': -0.93, 'pres': 166}
{'lipoC2': 7.86, 'lipoC3S1': 3.94, 'temp': 28.56, 'lipoC3S3': 11.92, 'lipoC3S2': 7.88, 'rot1': 271, 'rot0': 308, 'rot3': 239, 'rot2': 194, 'state': 'normal', 'yaw': 34.46, 'datetime': '2018-10-05 19:39:02.863191', 'mgs': 0, 'volt': 0.8105, 'depth': 0.165, 'time': 101, 'pitch': -21.58, 'roll': -0.71, 'pres': 166}
{'lipoC2': 7.86, 'lipoC3S1': 3.94, 'temp': 28.56, 'lipoC3S3': 11.92, 'lipoC3S2': 7.88, 'rot1': 271, 'rot0': 308, 'rot3': 239, 'rot2': 194, 'state': 'normal', 'yaw': 34.54, 'datetime': '2018-10-05 19:39:02.967586', 'mgs': 0, 'volt': 0.8105, 'depth': 0.165, 'time': 101, 'pitch': -21.61, 'roll': -0.46, 'pres': 166}
{'lipoC2': 7.86, 'lipoC3S1': 3.94, 'temp': 28.5, 'lipoC3S3': 11.92, 'lipoC3S2': 7.88, 'rot1': 271, 'rot0': 308, 'rot3': 239, 'rot2': 194, 'state': 'normal', 'yaw': 34.66, 'datetime': '2018-10-05 19:39:03.071811', 'mgs': 0, 'volt': 0.8105, 'depth': 0.165, 'time': 101, 'pitch': -21.75, 'roll': -0.24, 'pres': 166}
{'lipoC2': 7.86, 'lipoC3S1': 3.94, 'temp': 28.5, 'lipoC3S3': 11.92, 'lipoC3S2': 7.88, 'rot1': 271, 'rot0': 308, 'rot3': 239, 'rot2': 194, 'state': 'normal', 'yaw': 34.77, 'datetime': '2018-10-05 19:39:03.176444', 'mgs': 0, 'volt': 0.8105, 'depth': 0.165, 'time': 101, 'pitch': -21.76, 'roll': -0.02, 'pres': 166}
{'lipoC2': 7.86, 'lipoC3S1': 3.94, 'temp': 28.5, 'lipoC3S3': 11.92, 'lipoC3S2': 7.88, 'rot1': 271, 'rot0': 308, 'rot3': 239, 'rot2': 194, 'state': 'normal', 'yaw': 34.89, 'datetime': '2018-10-05 19:39:03.280674', 'mgs': 0, 'volt': 0.8105, 'depth': 0.165, 'time': 101, 'pitch': -21.61, 'roll': 0.21, 'pres': 166}
{'lipoC2': 7.86, 'lipoC3S1': 3.94, 'temp': 28.5, 'lipoC3S3': 11.92, 'lipoC3S2': 7.88, 'rot1': 271, 'rot0': 308, 'rot3': 239, 'rot2': 194, 'state': 'normal', 'yaw': 35.04, 'datetime': '2018-10-05 19:39:03.385916', 'mgs': 0, 'volt': 0.8105, 'depth': 0.165, 'time': 101, 'pitch': -21.42, 'roll': 0.33, 'pres': 166}
{'lipoC2': 7.86, 'lipoC3S1': 3.94, 'temp': 28.5, 'lipoC3S3': 11.92, 'lipoC3S2': 7.88, 'rot1': 271, 'rot0': 308, 'rot3': 239, 'rot2': 194, 'state': 'normal', 'yaw': 35.29, 'datetime': '2018-10-05 19:39:03.490222', 'mgs': 0, 'volt': 0.8105, 'depth': 0.165, 'time': 101, 'pitch': -21.15, 'roll': 0.33, 'pres': 166}
{'lipoC2': 7.86, 'lipoC3S1': 3.94, 'temp': 28.5, 'lipoC3S3': 11.92, 'lipoC3S2': 7.88, 'rot1': 271, 'rot0': 308, 'rot3': 239, 'rot2': 194, 'state': 'normal', 'yaw': 35.53, 'datetime': '2018-10-05 19:39:03.595821', 'mgs': 0, 'volt': 0.8057, 'depth': 0.089, 'time': 101, 'pitch': -20.83, 'roll': 0.23, 'pres': 165}
{'lipoC2': 7.86, 'lipoC3S1': 3.94, 'temp': 28.5, 'lipoC3S3': 11.92, 'lipoC3S2': 7.88, 'rot1': 271, 'rot0': 308, 'rot3': 239, 'rot2': 194, 'state': 'normal', 'yaw': 35.77, 'datetime': '2018-10-05 19:39:03.700133', 'mgs': 0, 'volt': 0.8057, 'depth': 0.089, 'time': 101, 'pitch': -20.46, 'roll': 0.16, 'pres': 165}
{'lipoC2': 7.86, 'lipoC3S1': 3.94, 'temp': 28.5, 'lipoC3S3': 11.92, 'lipoC3S2': 7.88, 'rot1': 271, 'rot0': 308, 'rot3': 239, 'rot2': 194, 'state': 'normal', 'yaw': 35.98, 'datetime': '2018-10-05 19:39:03.805757', 'mgs': 0, 'volt': 0.8057, 'depth': 0.089, 'time': 101, 'pitch': -20.23, 'roll': 0.08, 'pres': 165}
{'lipoC2': 7.86, 'lipoC3S1': 3.94, 'temp': 28.5, 'lipoC3S3': 11.92, 'lipoC3S2': 7.88, 'rot1': 271, 'rot0': 308, 'rot3': 239, 'rot2': 194, 'state': 'normal', 'yaw': 36.2, 'datetime': '2018-10-05 19:39:03.910098', 'mgs': 0, 'volt': 0.8057, 'depth': 0.089, 'time': 102, 'pitch': -20.15, 'roll': -0.04, 'pres': 165}
{'lipoC2': 7.86, 'lipoC3S1': 3.94, 'temp': 28.5, 'lipoC3S3': 11.92, 'lipoC3S2': 7.88, 'rot1': 271, 'rot0': 308, 'rot3': 239, 'rot2': 194, 'state': 'normal', 'yaw': 36.36, 'datetime': '2018-10-05 19:39:04.014431', 'mgs': 0, 'volt': 0.8057, 'depth': 0.089, 'time': 102, 'pitch': -20.11, 'roll': -0.18, 'pres': 165}
{'lipoC2': 7.86, 'lipoC3S1': 3.94, 'temp': 28.5, 'lipoC3S3': 11.92, 'lipoC3S2': 7.88, 'rot1': 271, 'rot0': 308, 'rot3': 239, 'rot2': 194, 'state': 'normal', 'yaw': 36.47, 'datetime': '2018-10-05 19:39:04.119371', 'mgs': 0, 'volt': 0.8057, 'depth': 0.089, 'time': 102, 'pitch': -20.0, 'roll': -0.3, 'pres': 165}
{'lipoC2': 7.86, 'lipoC3S1': 3.94, 'temp': 28.5, 'lipoC3S3': 11.92, 'lipoC3S2': 7.88, 'rot1': 271, 'rot0': 308, 'rot3': 239, 'rot2': 194, 'state': 'normal', 'yaw': 36.54, 'datetime': '2018-10-05 19:39:04.223660', 'mgs': 0, 'volt': 0.8057, 'depth': 0.089, 'time': 102, 'pitch': -19.88, 'roll': -0.42, 'pres': 165}
{'lipoC2': 7.86, 'lipoC3S1': 3.94, 'temp': 28.5, 'lipoC3S3': 11.92, 'lipoC3S2': 7.88, 'rot1': 271, 'rot0': 308, 'rot3': 239, 'rot2': 194, 'state': 'normal', 'yaw': 36.61, 'datetime': '2018-10-05 19:39:04.327996', 'mgs': 0, 'volt': 0.8057, 'depth': 0.089, 'time': 102, 'pitch': -19.66, 'roll': -0.55, 'pres': 165}
{'lipoC2': 7.86, 'lipoC3S1': 3.94, 'temp': 28.5, 'lipoC3S3': 11.92, 'lipoC3S2': 7.88, 'rot1': 271, 'rot0': 308, 'rot3': 239, 'rot2': 194, 'state': 'normal', 'yaw': 36.73, 'datetime': '2018-10-05 19:39:04.432360', 'mgs': 0, 'volt': 0.8057, 'depth': 0.089, 'time': 102, 'pitch': -19.09, 'roll': -0.7, 'pres': 165}
{'lipoC2': 7.86, 'lipoC3S1': 3.94, 'temp': 28.5, 'lipoC3S3': 11.92, 'lipoC3S2': 7.88, 'rot1': 271, 'rot0': 308, 'rot3': 239, 'rot2': 194, 'state': 'normal', 'yaw': 36.96, 'datetime': '2018-10-05 19:39:04.536710', 'mgs': 0, 'volt': 0.8008, 'depth': 0.012, 'time': 102, 'pitch': -18.33, 'roll': -0.9, 'pres': 164}
{'lipoC2': 7.86, 'lipoC3S1': 3.94, 'temp': 28.5, 'lipoC3S3': 11.92, 'lipoC3S2': 7.88, 'rot1': 271, 'rot0': 308, 'rot3': 239, 'rot2': 194, 'state': 'normal', 'yaw': 37.1, 'datetime': '2018-10-05 19:39:04.641143', 'mgs': 0, 'volt': 0.8008, 'depth': 0.012, 'time': 102, 'pitch': -17.7, 'roll': -1.08, 'pres': 164}
{'lipoC2': 7.86, 'lipoC3S1': 3.94, 'temp': 28.5, 'lipoC3S3': 11.92, 'lipoC3S2': 7.88, 'rot1': 271, 'rot0': 308, 'rot3': 239, 'rot2': 194, 'state': 'normal', 'yaw': 36.66, 'datetime': '2018-10-05 19:39:04.745722', 'mgs': 0, 'volt': 0.8008, 'depth': 0.012, 'time': 102, 'pitch': -17.6, 'roll': -0.73, 'pres': 164}
{'lipoC2': 7.86, 'lipoC3S1': 3.94, 'temp': 28.5, 'lipoC3S3': 11.92, 'lipoC3S2': 7.88, 'rot1': 271, 'rot0': 308, 'rot3': 239, 'rot2': 194, 'state': 'normal', 'yaw': 35.93, 'datetime': '2018-10-05 19:39:04.850888', 'mgs': 0, 'volt': 0.8057, 'depth': 0.089, 'time': 103, 'pitch': -17.37, 'roll': -0.04, 'pres': 165}
{'lipoC2': 7.86, 'lipoC3S1': 3.94, 'temp': 28.5, 'lipoC3S3': 11.92, 'lipoC3S2': 7.88, 'rot1': 271, 'rot0': 308, 'rot3': 239, 'rot2': 194, 'state': 'normal', 'yaw': 35.14, 'datetime': '2018-10-05 19:39:04.955206', 'mgs': 0, 'volt': 0.8057, 'depth': 0.089, 'time': 103, 'pitch': -16.92, 'roll': 0.76, 'pres': 165}
{'lipoC2': 7.86, 'lipoC3S1': 3.94, 'temp': 28.5, 'lipoC3S3': 11.92, 'lipoC3S2': 7.88, 'rot1': 271, 'rot0': 308, 'rot3': 239, 'rot2': 194, 'state': 'normal', 'yaw': 34.73, 'datetime': '2018-10-05 19:39:05.060810', 'mgs': 0, 'volt': 0.8057, 'depth': 0.089, 'time': 103, 'pitch': -16.7, 'roll': 1.22, 'pres': 165}
{'lipoC2': 7.86, 'lipoC3S1': 3.94, 'temp': 28.5, 'lipoC3S3': 11.92, 'lipoC3S2': 7.88, 'rot1': 271, 'rot0': 308, 'rot3': 239, 'rot2': 194, 'state': 'normal', 'yaw': 34.98, 'datetime': '2018-10-05 19:39:05.165151', 'mgs': 0, 'volt': 0.8057, 'depth': 0.089, 'time': 103, 'pitch': -16.5, 'roll': 1.07, 'pres': 165}
{'lipoC2': 7.86, 'lipoC3S1': 3.94, 'temp': 28.5, 'lipoC3S3': 11.92, 'lipoC3S2': 7.88, 'rot1': 271, 'rot0': 308, 'rot3': 239, 'rot2': 194, 'state': 'normal', 'yaw': 35.71, 'datetime': '2018-10-05 19:39:05.273857', 'mgs': 0, 'volt': 0.8057, 'depth': 0.089, 'time': 103, 'pitch': -16.16, 'roll': 0.44, 'pres': 165}
{'lipoC2': 7.86, 'lipoC3S1': 3.94, 'temp': 28.5, 'lipoC3S3': 11.92, 'lipoC3S2': 7.88, 'rot1': 271, 'rot0': 308, 'rot3': 239, 'rot2': 194, 'state': 'normal', 'yaw': 36.59, 'datetime': '2018-10-05 19:39:05.380279', 'mgs': 0, 'volt': 0.8057, 'depth': 0.089, 'time': 103, 'pitch': -15.91, 'roll': -0.41, 'pres': 165}
{'lipoC2': 7.86, 'lipoC3S1': 3.94, 'temp': 28.5, 'lipoC3S3': 11.92, 'lipoC3S2': 7.88, 'rot1': 271, 'rot0': 308, 'rot3': 239, 'rot2': 194, 'state': 'normal', 'yaw': 36.88, 'datetime': '2018-10-05 19:39:05.485263', 'mgs': 0, 'volt': 0.8057, 'depth': 0.089, 'time': 103, 'pitch': -15.84, 'roll': -0.83, 'pres': 165}
{'lipoC2': 7.86, 'lipoC3S1': 3.94, 'temp': 28.5, 'lipoC3S3': 11.92, 'lipoC3S2': 7.88, 'rot1': 271, 'rot0': 308, 'rot3': 239, 'rot2': 194, 'state': 'normal', 'yaw': 36.34, 'datetime': '2018-10-05 19:39:05.589617', 'mgs': 0, 'volt': 0.8057, 'depth': 0.089, 'time': 103, 'pitch': -15.82, 'roll': -0.61, 'pres': 165}
{'lipoC2': 7.86, 'lipoC3S1': 3.94, 'temp': 28.5, 'lipoC3S3': 11.92, 'lipoC3S2': 7.88, 'rot1': 271, 'rot0': 308, 'rot3': 239, 'rot2': 194, 'state': 'normal', 'yaw': 35.57, 'datetime': '2018-10-05 19:39:05.694070', 'mgs': 0, 'volt': 0.8057, 'depth': 0.089, 'time': 103, 'pitch': -15.82, 'roll': -0.08, 'pres': 165}
{'lipoC2': 7.86, 'lipoC3S1': 3.94, 'temp': 28.5, 'lipoC3S3': 11.92, 'lipoC3S2': 7.88, 'rot1': 271, 'rot0': 308, 'rot3': 239, 'rot2': 194, 'state': 'normal', 'yaw': 35.33, 'datetime': '2018-10-05 19:39:05.799402', 'mgs': 0, 'volt': 0.8057, 'depth': 0.089, 'time': 103, 'pitch': -15.66, 'roll': 0.06, 'pres': 165}
{'lipoC2': 7.86, 'lipoC3S1': 3.94, 'temp': 28.5, 'lipoC3S3': 11.92, 'lipoC3S2': 7.88, 'rot1': 271, 'rot0': 308, 'rot3': 239, 'rot2': 194, 'state': 'normal', 'yaw': 35.77, 'datetime': '2018-10-05 19:39:05.903750', 'mgs': 0, 'volt': 0.8057, 'depth': 0.089, 'time': 104, 'pitch': -15.39, 'roll': -0.35, 'pres': 165}
{'lipoC2': 7.86, 'lipoC3S1': 3.94, 'temp': 28.5, 'lipoC3S3': 11.92, 'lipoC3S2': 7.88, 'rot1': 271, 'rot0': 308, 'rot3': 239, 'rot2': 194, 'state': 'normal', 'yaw': 36.32, 'datetime': '2018-10-05 19:39:06.009401', 'mgs': 0, 'volt': 0.8057, 'depth': 0.089, 'time': 104, 'pitch': -15.23, 'roll': -0.87, 'pres': 165}
{'lipoC2': 7.86, 'lipoC3S1': 3.94, 'temp': 28.5, 'lipoC3S3': 11.92, 'lipoC3S2': 7.88, 'rot1': 271, 'rot0': 308, 'rot3': 239, 'rot2': 194, 'state': 'normal', 'yaw': 36.61, 'datetime': '2018-10-05 19:39:06.113796', 'mgs': 0, 'volt': 0.8057, 'depth': 0.089, 'time': 104, 'pitch': -15.28, 'roll': -1.18, 'pres': 165}
{'lipoC2': 7.86, 'lipoC3S1': 3.94, 'temp': 28.5, 'lipoC3S3': 11.92, 'lipoC3S2': 7.88, 'rot1': 271, 'rot0': 308, 'rot3': 239, 'rot2': 194, 'state': 'normal', 'yaw': 36.48, 'datetime': '2018-10-05 19:39:06.219274', 'mgs': 0, 'volt': 0.8057, 'depth': 0.089, 'time': 104, 'pitch': -15.53, 'roll': -1.13, 'pres': 165}
{'lipoC2': 7.86, 'lipoC3S1': 3.94, 'temp': 28.5, 'lipoC3S3': 11.92, 'lipoC3S2': 7.88, 'rot1': 271, 'rot0': 308, 'rot3': 239, 'rot2': 194, 'state': 'normal', 'yaw': 36.21, 'datetime': '2018-10-05 19:39:06.323511', 'mgs': 0, 'volt': 0.8057, 'depth': 0.089, 'time': 104, 'pitch': -15.84, 'roll': -0.9, 'pres': 165}
{'lipoC2': 7.86, 'lipoC3S1': 3.94, 'temp': 28.5, 'lipoC3S3': 11.92, 'lipoC3S2': 7.88, 'rot1': 271, 'rot0': 308, 'rot3': 239, 'rot2': 194, 'state': 'normal', 'yaw': 36.19, 'datetime': '2018-10-05 19:39:06.427912', 'mgs': 0, 'volt': 0.8057, 'depth': 0.089, 'time': 104, 'pitch': -15.94, 'roll': -0.84, 'pres': 165}
{'lipoC2': 7.86, 'lipoC3S1': 3.94, 'temp': 28.5, 'lipoC3S3': 11.92, 'lipoC3S2': 7.88, 'rot1': 271, 'rot0': 308, 'rot3': 239, 'rot2': 194, 'state': 'normal', 'yaw': 36.45, 'datetime': '2018-10-05 19:39:06.532240', 'mgs': 0, 'volt': 0.8057, 'depth': 0.089, 'time': 104, 'pitch': -16.05, 'roll': -1.0, 'pres': 165}
{'lipoC2': 7.86, 'lipoC3S1': 3.94, 'temp': 28.5, 'lipoC3S3': 11.92, 'lipoC3S2': 7.88, 'rot1': 271, 'rot0': 308, 'rot3': 239, 'rot2': 194, 'state': 'normal', 'yaw': 36.68, 'datetime': '2018-10-05 19:39:06.636592', 'mgs': 0, 'volt': 0.8008, 'depth': 0.012, 'time': 104, 'pitch': -16.14, 'roll': -1.19, 'pres': 164}
{'lipoC2': 7.86, 'lipoC3S1': 3.94, 'temp': 28.5, 'lipoC3S3': 11.92, 'lipoC3S2': 7.88, 'rot1': 271, 'rot0': 308, 'rot3': 239, 'rot2': 194, 'state': 'normal', 'yaw': 36.66, 'datetime': '2018-10-05 19:39:06.740932', 'mgs': 0, 'volt': 0.8008, 'depth': 0.012, 'time': 104, 'pitch': -16.27, 'roll': -1.19, 'pres': 164}
{'lipoC2': 7.86, 'lipoC3S1': 3.94, 'temp': 28.5, 'lipoC3S3': 11.92, 'lipoC3S2': 7.88, 'rot1': 271, 'rot0': 308, 'rot3': 239, 'rot2': 194, 'state': 'normal', 'yaw': 36.39, 'datetime': '2018-10-05 19:39:06.845385', 'mgs': 0, 'volt': 0.7959, 'depth': -0.064, 'time': 104, 'pitch': -16.53, 'roll': -0.96, 'pres': 163}
{'lipoC2': 7.86, 'lipoC3S1': 3.94, 'temp': 28.44, 'lipoC3S3': 11.92, 'lipoC3S2': 7.88, 'rot1': 271, 'rot0': 308, 'rot3': 239, 'rot2': 194, 'state': 'normal', 'yaw': 36.16, 'datetime': '2018-10-05 19:39:06.949637', 'mgs': 0, 'volt': 0.8008, 'depth': 0.012, 'time': 105, 'pitch': -16.91, 'roll': -0.71, 'pres': 164}
{'lipoC2': 7.86, 'lipoC3S1': 3.94, 'temp': 28.44, 'lipoC3S3': 11.92, 'lipoC3S2': 7.88, 'rot1': 271, 'rot0': 308, 'rot3': 239, 'rot2': 194, 'state': 'normal', 'yaw': 36.05, 'datetime': '2018-10-05 19:39:07.053969', 'mgs': 0, 'volt': 0.8008, 'depth': 0.012, 'time': 105, 'pitch': -17.26, 'roll': -0.52, 'pres': 164}
{'lipoC2': 7.86, 'lipoC3S1': 3.94, 'temp': 28.5, 'lipoC3S3': 11.92, 'lipoC3S2': 7.88, 'rot1': 271, 'rot0': 308, 'rot3': 239, 'rot2': 194, 'state': 'normal', 'yaw': 36.17, 'datetime': '2018-10-05 19:39:07.158815', 'mgs': 0, 'volt': 0.8008, 'depth': 0.012, 'time': 105, 'pitch': -17.21, 'roll': -0.52, 'pres': 164}
{'lipoC2': 7.86, 'lipoC3S1': 3.94, 'temp': 28.5, 'lipoC3S3': 11.92, 'lipoC3S2': 7.88, 'rot1': 271, 'rot0': 308, 'rot3': 239, 'rot2': 194, 'state': 'normal', 'yaw': 36.51, 'datetime': '2018-10-05 19:39:07.263720', 'mgs': 0, 'volt': 0.8008, 'depth': 0.012, 'time': 105, 'pitch': -16.95, 'roll': -0.7, 'pres': 164}
{'lipoC2': 7.86, 'lipoC3S1': 3.94, 'temp': 28.56, 'lipoC3S3': 11.92, 'lipoC3S2': 7.88, 'rot1': 271, 'rot0': 308, 'rot3': 239, 'rot2': 194, 'state': 'normal', 'yaw': 36.95, 'datetime': '2018-10-05 19:39:07.368021', 'mgs': 0, 'volt': 0.8008, 'depth': 0.012, 'time': 105, 'pitch': -16.83, 'roll': -0.94, 'pres': 164}
{'lipoC2': 7.86, 'lipoC3S1': 3.94, 'temp': 28.56, 'lipoC3S3': 11.92, 'lipoC3S2': 7.88, 'rot1': 271, 'rot0': 308, 'rot3': 239, 'rot2': 194, 'state': 'normal', 'yaw': 37.15, 'datetime': '2018-10-05 19:39:07.473812', 'mgs': 0, 'volt': 0.8008, 'depth': 0.012, 'time': 105, 'pitch': -17.05, 'roll': -0.98, 'pres': 164}
{'lipoC2': 7.86, 'lipoC3S1': 3.94, 'temp': 28.56, 'lipoC3S3': 11.92, 'lipoC3S2': 7.88, 'rot1': 271, 'rot0': 308, 'rot3': 239, 'rot2': 194, 'state': 'normal', 'yaw': 36.96, 'datetime': '2018-10-05 19:39:07.578261', 'mgs': 0, 'volt': 0.8008, 'depth': 0.012, 'time': 105, 'pitch': -17.44, 'roll': -0.71, 'pres': 164}
{'lipoC2': 7.86, 'lipoC3S1': 3.94, 'temp': 28.5, 'lipoC3S3': 11.92, 'lipoC3S2': 7.88, 'rot1': 271, 'rot0': 308, 'rot3': 239, 'rot2': 194, 'state': 'normal', 'yaw': 36.74, 'datetime': '2018-10-05 19:39:07.682858', 'mgs': 0, 'volt': 0.8008, 'depth': 0.012, 'time': 105, 'pitch': -17.59, 'roll': -0.41, 'pres': 164}
{'lipoC2': 7.86, 'lipoC3S1': 3.94, 'temp': 28.5, 'lipoC3S3': 11.92, 'lipoC3S2': 7.88, 'rot1': 271, 'rot0': 308, 'rot3': 239, 'rot2': 194, 'state': 'normal', 'yaw': 36.81, 'datetime': '2018-10-05 19:39:07.786839', 'mgs': 0, 'volt': 0.8057, 'depth': 0.089, 'time': 105, 'pitch': -17.59, 'roll': -0.31, 'pres': 165}
{'lipoC2': 7.86, 'lipoC3S1': 3.94, 'temp': 28.5, 'lipoC3S3': 11.92, 'lipoC3S2': 7.88, 'rot1': 271, 'rot0': 308, 'rot3': 239, 'rot2': 194, 'state': 'normal', 'yaw': 36.84, 'datetime': '2018-10-05 19:39:07.891151', 'mgs': 0, 'volt': 0.8057, 'depth': 0.089, 'time': 106, 'pitch': -17.59, 'roll': -0.19, 'pres': 165}
{'lipoC2': 7.86, 'lipoC3S1': 3.94, 'temp': 28.5, 'lipoC3S3': 11.92, 'lipoC3S2': 7.88, 'rot1': 271, 'rot0': 308, 'rot3': 239, 'rot2': 194, 'state': 'normal', 'yaw': 36.59, 'datetime': '2018-10-05 19:39:07.995650', 'mgs': 0, 'volt': 0.8008, 'depth': 0.012, 'time': 106, 'pitch': -17.59, 'roll': 0.05, 'pres': 164}
{'lipoC2': 7.86, 'lipoC3S1': 3.94, 'temp': 28.44, 'lipoC3S3': 11.92, 'lipoC3S2': 7.88, 'rot1': 271, 'rot0': 308, 'rot3': 239, 'rot2': 194, 'state': 'normal', 'yaw': 36.43, 'datetime': '2018-10-05 19:39:08.100024', 'mgs': 0, 'volt': 0.8057, 'depth': 0.089, 'time': 106, 'pitch': -17.6, 'roll': 0.19, 'pres': 165}
{'lipoC2': 7.86, 'lipoC3S1': 3.94, 'temp': 28.44, 'lipoC3S3': 11.92, 'lipoC3S2': 7.88, 'rot1': 271, 'rot0': 308, 'rot3': 239, 'rot2': 194, 'state': 'normal', 'yaw': 36.43, 'datetime': '2018-10-05 19:39:08.205585', 'mgs': 0, 'volt': 0.8057, 'depth': 0.089, 'time': 106, 'pitch': -17.72, 'roll': 0.19, 'pres': 165}
{'lipoC2': 7.86, 'lipoC3S1': 3.94, 'temp': 28.44, 'lipoC3S3': 11.92, 'lipoC3S2': 7.88, 'rot1': 271, 'rot0': 308, 'rot3': 239, 'rot2': 194, 'state': 'normal', 'yaw': 36.38, 'datetime': '2018-10-05 19:39:08.310020', 'mgs': 0, 'volt': 0.8057, 'depth': 0.089, 'time': 106, 'pitch': -17.88, 'roll': 0.2, 'pres': 165}
{'lipoC2': 7.86, 'lipoC3S1': 3.94, 'temp': 28.5, 'lipoC3S3': 11.92, 'lipoC3S2': 7.88, 'rot1': 271, 'rot0': 308, 'rot3': 239, 'rot2': 194, 'state': 'normal', 'yaw': 36.19, 'datetime': '2018-10-05 19:39:08.415510', 'mgs': 0, 'volt': 0.8057, 'depth': 0.089, 'time': 106, 'pitch': -17.91, 'roll': 0.33, 'pres': 165}
{'lipoC2': 7.86, 'lipoC3S1': 3.94, 'temp': 28.5, 'lipoC3S3': 11.92, 'lipoC3S2': 7.88, 'rot1': 271, 'rot0': 308, 'rot3': 239, 'rot2': 194, 'state': 'normal', 'yaw': 36.0, 'datetime': '2018-10-05 19:39:08.519874', 'mgs': 0, 'volt': 0.8105, 'depth': 0.165, 'time': 106, 'pitch': -17.91, 'roll': 0.43, 'pres': 166}
{'lipoC2': 7.86, 'lipoC3S1': 3.94, 'temp': 28.5, 'lipoC3S3': 11.92, 'lipoC3S2': 7.88, 'rot1': 271, 'rot0': 308, 'rot3': 239, 'rot2': 194, 'state': 'normal', 'yaw': 35.89, 'datetime': '2018-10-05 19:39:08.625592', 'mgs': 0, 'volt': 0.8105, 'depth': 0.165, 'time': 106, 'pitch': -17.86, 'roll': 0.47, 'pres': 166}
{'lipoC2': 7.86, 'lipoC3S1': 3.94, 'temp': 28.5, 'lipoC3S3': 11.92, 'lipoC3S2': 7.88, 'rot1': 271, 'rot0': 308, 'rot3': 239, 'rot2': 194, 'state': 'normal', 'yaw': 35.77, 'datetime': '2018-10-05 19:39:08.729863', 'mgs': 0, 'volt': 0.8105, 'depth': 0.165, 'time': 106, 'pitch': -17.85, 'roll': 0.47, 'pres': 166}
{'lipoC2': 7.86, 'lipoC3S1': 3.94, 'temp': 28.5, 'lipoC3S3': 11.92, 'lipoC3S2': 7.88, 'rot1': 271, 'rot0': 308, 'rot3': 239, 'rot2': 194, 'state': 'normal', 'yaw': 35.66, 'datetime': '2018-10-05 19:39:08.834184', 'mgs': 0, 'volt': 0.8105, 'depth': 0.165, 'time': 106, 'pitch': -17.95, 'roll': 0.42, 'pres': 166}
{'lipoC2': 7.86, 'lipoC3S1': 3.94, 'temp': 28.5, 'lipoC3S3': 11.92, 'lipoC3S2': 7.88, 'rot1': 271, 'rot0': 308, 'rot3': 239, 'rot2': 194, 'state': 'normal', 'yaw': 35.54, 'datetime': '2018-10-05 19:39:08.938525', 'mgs': 1, 'volt': 0.8105, 'depth': 0.165, 'time': 107, 'pitch': -18.18, 'roll': 0.3, 'pres': 166}
{'lipoC2': 7.86, 'lipoC3S1': 3.94, 'temp': 28.5, 'lipoC3S3': 11.92, 'lipoC3S2': 7.88, 'rot1': 0, 'rot0': 0, 'rot3': 0, 'rot2': 0, 'state': 'normal', 'yaw': 0.01, 'datetime': '2018-10-05 19:39:14.971896', 'mgs': 0, 'volt': 0.8154, 'depth': 0.241, 'time': 1, 'pitch': -19.66, 'roll': 0.29, 'pres': 167}
{'lipoC2': 7.86, 'lipoC3S1': 3.94, 'temp': 28.5, 'lipoC3S3': 11.92, 'lipoC3S2': 7.88, 'rot1': 0, 'rot0': 0, 'rot3': 0, 'rot2': 0, 'state': 'normal', 'yaw': 0.15, 'datetime': '2018-10-05 19:39:18.015579', 'mgs': 0, 'volt': 0.8154, 'depth': 0.241, 'time': 1, 'pitch': -19.66, 'roll': 0.69, 'pres': 167}
{'lipoC2': 7.86, 'lipoC3S1': 3.94, 'temp': 28.5, 'lipoC3S3': 11.92, 'lipoC3S2': 7.88, 'rot1': 0, 'rot0': 0, 'rot3': 0, 'rot2': 0, 'state': 'normal', 'yaw': 0.25, 'datetime': '2018-10-05 19:39:18.057776', 'mgs': 0, 'volt': 0.8154, 'depth': 0.241, 'time': 1, 'pitch': -19.71, 'roll': 1.16, 'pres': 167}
{'lipoC2': 7.86, 'lipoC3S1': 3.94, 'temp': 28.5, 'lipoC3S3': 11.92, 'lipoC3S2': 7.88, 'rot1': 0, 'rot0': 0, 'rot3': 0, 'rot2': 0, 'state': 'normal', 'yaw': 0.4, 'datetime': '2018-10-05 19:39:18.072453', 'mgs': 0, 'volt': 0.8154, 'depth': 0.241, 'time': 1, 'pitch': -19.81, 'roll': 1.63, 'pres': 167}
{'lipoC2': 7.86, 'lipoC3S1': 3.94, 'temp': 28.5, 'lipoC3S3': 11.92, 'lipoC3S2': 7.88, 'rot1': 0, 'rot0': 0, 'rot3': 0, 'rot2': 0, 'state': 'normal', 'yaw': 0.57, 'datetime': '2018-10-05 19:39:18.091983', 'mgs': 0, 'volt': 0.8154, 'depth': 0.241, 'time': 1, 'pitch': -19.89, 'roll': 1.97, 'pres': 167}
{'lipoC2': 7.86, 'lipoC3S1': 3.94, 'temp': 28.5, 'lipoC3S3': 11.92, 'lipoC3S2': 7.88, 'rot1': 0, 'rot0': 0, 'rot3': 0, 'rot2': 0, 'state': 'normal', 'yaw': 0.73, 'datetime': '2018-10-05 19:39:18.111240', 'mgs': 0, 'volt': 0.8154, 'depth': 0.241, 'time': 1, 'pitch': -19.98, 'roll': 2.21, 'pres': 167}
{'lipoC2': 7.86, 'lipoC3S1': 3.94, 'temp': 28.5, 'lipoC3S3': 11.92, 'lipoC3S2': 7.88, 'rot1': 0, 'rot0': 0, 'rot3': 0, 'rot2': 0, 'state': 'normal', 'yaw': 0.91, 'datetime': '2018-10-05 19:39:18.124492', 'mgs': 0, 'volt': 0.8154, 'depth': 0.241, 'time': 1, 'pitch': -19.99, 'roll': 2.37, 'pres': 167}
{'lipoC2': 7.86, 'lipoC3S1': 3.94, 'temp': 28.5, 'lipoC3S3': 11.92, 'lipoC3S2': 7.88, 'rot1': 0, 'rot0': 0, 'rot3': 0, 'rot2': 0, 'state': 'normal', 'yaw': 1.12, 'datetime': '2018-10-05 19:39:18.143721', 'mgs': 0, 'volt': 0.8154, 'depth': 0.241, 'time': 1, 'pitch': -19.97, 'roll': 2.36, 'pres': 167}
{'lipoC2': 7.86, 'lipoC3S1': 3.94, 'temp': 28.5, 'lipoC3S3': 11.92, 'lipoC3S2': 7.88, 'rot1': 0, 'rot0': 0, 'rot3': 0, 'rot2': 0, 'state': 'normal', 'yaw': 1.32, 'datetime': '2018-10-05 19:39:18.163081', 'mgs': 0, 'volt': 0.8154, 'depth': 0.241, 'time': 2, 'pitch': -19.91, 'roll': 2.29, 'pres': 167}
{'lipoC2': 7.86, 'lipoC3S1': 3.94, 'temp': 28.5, 'lipoC3S3': 11.92, 'lipoC3S2': 7.88, 'rot1': 0, 'rot0': 0, 'rot3': 0, 'rot2': 0, 'state': 'normal', 'yaw': 1.45, 'datetime': '2018-10-05 19:39:18.177215', 'mgs': 0, 'volt': 0.8154, 'depth': 0.241, 'time': 2, 'pitch': -19.91, 'roll': 2.25, 'pres': 167}
{'lipoC2': 7.86, 'lipoC3S1': 3.94, 'temp': 28.5, 'lipoC3S3': 11.92, 'lipoC3S2': 7.88, 'rot1': 0, 'rot0': 0, 'rot3': 0, 'rot2': 0, 'state': 'normal', 'yaw': 1.49, 'datetime': '2018-10-05 19:39:18.196736', 'mgs': 0, 'volt': 0.8154, 'depth': 0.241, 'time': 2, 'pitch': -19.94, 'roll': 2.2, 'pres': 167}
{'lipoC2': 7.86, 'lipoC3S1': 3.94, 'temp': 28.5, 'lipoC3S3': 11.92, 'lipoC3S2': 7.88, 'rot1': 0, 'rot0': 0, 'rot3': 0, 'rot2': 0, 'state': 'normal', 'yaw': 1.48, 'datetime': '2018-10-05 19:39:18.215908', 'mgs': 0, 'volt': 0.8154, 'depth': 0.241, 'time': 2, 'pitch': -20.01, 'roll': 2.09, 'pres': 167}
{'lipoC2': 7.86, 'lipoC3S1': 3.95, 'temp': 28.5, 'lipoC3S3': 11.92, 'lipoC3S2': 7.88, 'rot1': 0, 'rot0': 0, 'rot3': 0, 'rot2': 0, 'state': 'normal', 'yaw': 1.49, 'datetime': '2018-10-05 19:39:18.229003', 'mgs': 0, 'volt': 0.8154, 'depth': 0.241, 'time': 2, 'pitch': -20.0, 'roll': 1.92, 'pres': 167}
{'lipoC2': 7.86, 'lipoC3S1': 3.94, 'temp': 28.5, 'lipoC3S3': 11.92, 'lipoC3S2': 7.88, 'rot1': 0, 'rot0': 0, 'rot3': 0, 'rot2': 0, 'state': 'normal', 'yaw': 1.49, 'datetime': '2018-10-05 19:39:18.248172', 'mgs': 0, 'volt': 0.8154, 'depth': 0.241, 'time': 2, 'pitch': -19.86, 'roll': 1.64, 'pres': 167}
{'lipoC2': 7.86, 'lipoC3S1': 3.94, 'temp': 28.44, 'lipoC3S3': 11.92, 'lipoC3S2': 7.88, 'rot1': 0, 'rot0': 0, 'rot3': 0, 'rot2': 0, 'state': 'normal', 'yaw': 1.46, 'datetime': '2018-10-05 19:39:18.267521', 'mgs': 0, 'volt': 0.8154, 'depth': 0.241, 'time': 2, 'pitch': -19.63, 'roll': 1.36, 'pres': 167}
{'lipoC2': 7.86, 'lipoC3S1': 3.94, 'temp': 28.44, 'lipoC3S3': 11.92, 'lipoC3S2': 7.88, 'rot1': 0, 'rot0': 0, 'rot3': 0, 'rot2': 0, 'state': 'normal', 'yaw': 1.45, 'datetime': '2018-10-05 19:39:18.282052', 'mgs': 0, 'volt': 0.8154, 'depth': 0.241, 'time': 2, 'pitch': -19.41, 'roll': 1.03, 'pres': 167}
{'lipoC2': 7.86, 'lipoC3S1': 3.94, 'temp': 28.5, 'lipoC3S3': 11.92, 'lipoC3S2': 7.88, 'rot1': 0, 'rot0': 0, 'rot3': 0, 'rot2': 0, 'state': 'normal', 'yaw': 1.45, 'datetime': '2018-10-05 19:39:18.298208', 'mgs': 0, 'volt': 0.8203, 'depth': 0.317, 'time': 2, 'pitch': -19.26, 'roll': 0.64, 'pres': 168}
{'lipoC2': 7.86, 'lipoC3S1': 3.94, 'temp': 28.5, 'lipoC3S3': 11.92, 'lipoC3S2': 7.88, 'rot1': 0, 'rot0': 0, 'rot3': 0, 'rot2': 0, 'state': 'normal', 'yaw': 1.45, 'datetime': '2018-10-05 19:39:18.314184', 'mgs': 0, 'volt': 0.8154, 'depth': 0.241, 'time': 3, 'pitch': -19.16, 'roll': 0.34, 'pres': 167}
{'lipoC2': 7.86, 'lipoC3S1': 3.94, 'temp': 28.5, 'lipoC3S3': 11.92, 'lipoC3S2': 7.88, 'rot1': 0, 'rot0': 0, 'rot3': 0, 'rot2': 0, 'state': 'normal', 'yaw': 1.37, 'datetime': '2018-10-05 19:39:18.324151', 'mgs': 0, 'volt': 0.8154, 'depth': 0.241, 'time': 3, 'pitch': -19.11, 'roll': 0.14, 'pres': 167}
{'lipoC2': 7.86, 'lipoC3S1': 3.94, 'temp': 28.5, 'lipoC3S3': 11.92, 'lipoC3S2': 7.88, 'rot1': 0, 'rot0': 0, 'rot3': 0, 'rot2': 0, 'state': 'normal', 'yaw': 1.29, 'datetime': '2018-10-05 19:39:18.343405', 'mgs': 0, 'volt': 0.8154, 'depth': 0.241, 'time': 3, 'pitch': -19.0, 'roll': 0.03, 'pres': 167}
{'lipoC2': 7.86, 'lipoC3S1': 3.94, 'temp': 28.5, 'lipoC3S3': 11.92, 'lipoC3S2': 7.88, 'rot1': 0, 'rot0': 0, 'rot3': 0, 'rot2': 0, 'state': 'normal', 'yaw': 1.29, 'datetime': '2018-10-05 19:39:18.362627', 'mgs': 0, 'volt': 0.8154, 'depth': 0.241, 'time': 3, 'pitch': -18.89, 'roll': -0.02, 'pres': 167}
{'lipoC2': 7.86, 'lipoC3S1': 3.94, 'temp': 28.5, 'lipoC3S3': 11.92, 'lipoC3S2': 7.88, 'rot1': 0, 'rot0': 0, 'rot3': 0, 'rot2': 0, 'state': 'normal', 'yaw': 1.3, 'datetime': '2018-10-05 19:39:18.376554', 'mgs': 0, 'volt': 0.8154, 'depth': 0.241, 'time': 3, 'pitch': -18.74, 'roll': -0.02, 'pres': 167}
{'lipoC2': 7.86, 'lipoC3S1': 3.94, 'temp': 28.5, 'lipoC3S3': 11.92, 'lipoC3S2': 7.88, 'rot1': 0, 'rot0': 0, 'rot3': 0, 'rot2': 0, 'state': 'normal', 'yaw': 1.33, 'datetime': '2018-10-05 19:39:18.395736', 'mgs': 0, 'volt': 0.8154, 'depth': 0.241, 'time': 3, 'pitch': -18.63, 'roll': -0.03, 'pres': 167}
{'lipoC2': 7.86, 'lipoC3S1': 3.94, 'temp': 28.5, 'lipoC3S3': 11.92, 'lipoC3S2': 7.88, 'rot1': 0, 'rot0': 0, 'rot3': 0, 'rot2': 0, 'state': 'normal', 'yaw': 1.44, 'datetime': '2018-10-05 19:39:18.414875', 'mgs': 0, 'volt': 0.8154, 'depth': 0.241, 'time': 3, 'pitch': -18.55, 'roll': -0.06, 'pres': 167}
{'lipoC2': 7.86, 'lipoC3S1': 3.94, 'temp': 28.5, 'lipoC3S3': 11.92, 'lipoC3S2': 7.88, 'rot1': 0, 'rot0': 0, 'rot3': 0, 'rot2': 0, 'state': 'normal', 'yaw': 1.64, 'datetime': '2018-10-05 19:39:18.427966', 'mgs': 0, 'volt': 0.8154, 'depth': 0.241, 'time': 3, 'pitch': -18.54, 'roll': -0.04, 'pres': 167}
{'lipoC2': 7.86, 'lipoC3S1': 3.94, 'temp': 28.5, 'lipoC3S3': 11.92, 'lipoC3S2': 7.88, 'rot1': 0, 'rot0': 0, 'rot3': 0, 'rot2': 0, 'state': 'normal', 'yaw': 1.81, 'datetime': '2018-10-05 19:39:18.447153', 'mgs': 0, 'volt': 0.8154, 'depth': 0.241, 'time': 3, 'pitch': -18.54, 'roll': 0.06, 'pres': 167}
{'lipoC2': 7.86, 'lipoC3S1': 3.94, 'temp': 28.5, 'lipoC3S3': 11.92, 'lipoC3S2': 7.88, 'rot1': 0, 'rot0': 0, 'rot3': 0, 'rot2': 0, 'state': 'normal', 'yaw': 1.99, 'datetime': '2018-10-05 19:39:18.466373', 'mgs': 0, 'volt': 0.8154, 'depth': 0.241, 'time': 3, 'pitch': -18.5, 'roll': 0.24, 'pres': 167}
{'lipoC2': 7.86, 'lipoC3S1': 3.94, 'temp': 28.5, 'lipoC3S3': 11.92, 'lipoC3S2': 7.88, 'rot1': 0, 'rot0': 0, 'rot3': 0, 'rot2': 0, 'state': 'normal', 'yaw': 2.17, 'datetime': '2018-10-05 19:39:18.480087', 'mgs': 0, 'volt': 0.8105, 'depth': 0.165, 'time': 4, 'pitch': -18.39, 'roll': 0.47, 'pres': 166}
{'lipoC2': 7.86, 'lipoC3S1': 3.94, 'temp': 28.5, 'lipoC3S3': 11.92, 'lipoC3S2': 7.88, 'rot1': 0, 'rot0': 0, 'rot3': 0, 'rot2': 0, 'state': 'normal', 'yaw': 2.35, 'datetime': '2018-10-05 19:39:18.500302', 'mgs': 0, 'volt': 0.8105, 'depth': 0.165, 'time': 4, 'pitch': -18.21, 'roll': 0.75, 'pres': 166}
{'lipoC2': 7.86, 'lipoC3S1': 3.94, 'temp': 28.5, 'lipoC3S3': 11.92, 'lipoC3S2': 7.88, 'rot1': 0, 'rot0': 0, 'rot3': 0, 'rot2': 0, 'state': 'normal', 'yaw': 2.5, 'datetime': '2018-10-05 19:39:18.519496', 'mgs': 0, 'volt': 0.8154, 'depth': 0.241, 'time': 4, 'pitch': -18.03, 'roll': 1.0, 'pres': 167}
{'lipoC2': 7.86, 'lipoC3S1': 3.94, 'temp': 28.5, 'lipoC3S3': 11.92, 'lipoC3S2': 7.88, 'rot1': 0, 'rot0': 0, 'rot3': 0, 'rot2': 0, 'state': 'normal', 'yaw': 2.63, 'datetime': '2018-10-05 19:39:18.532584', 'mgs': 0, 'volt': 0.8105, 'depth': 0.165, 'time': 4, 'pitch': -17.86, 'roll': 1.25, 'pres': 166}
{'lipoC2': 7.86, 'lipoC3S1': 3.94, 'temp': 28.5, 'lipoC3S3': 11.92, 'lipoC3S2': 7.88, 'rot1': 0, 'rot0': 0, 'rot3': 0, 'rot2': 0, 'state': 'normal', 'yaw': 2.73, 'datetime': '2018-10-05 19:39:18.551780', 'mgs': 0, 'volt': 0.8105, 'depth': 0.165, 'time': 4, 'pitch': -17.76, 'roll': 1.5, 'pres': 166}
{'lipoC2': 7.86, 'lipoC3S1': 3.94, 'temp': 28.5, 'lipoC3S3': 11.92, 'lipoC3S2': 7.88, 'rot1': 0, 'rot0': 0, 'rot3': 0, 'rot2': 0, 'state': 'normal', 'yaw': 2.73, 'datetime': '2018-10-05 19:39:18.570960', 'mgs': 0, 'volt': 0.8105, 'depth': 0.165, 'time': 4, 'pitch': -17.76, 'roll': 1.72, 'pres': 166}
{'lipoC2': 7.86, 'lipoC3S1': 3.94, 'temp': 28.5, 'lipoC3S3': 11.92, 'lipoC3S2': 7.88, 'rot1': 0, 'rot0': 0, 'rot3': 0, 'rot2': 0, 'state': 'normal', 'yaw': 2.74, 'datetime': '2018-10-05 19:39:18.584535', 'mgs': 0, 'volt': 0.8105, 'depth': 0.165, 'time': 4, 'pitch': -17.8, 'roll': 1.91, 'pres': 166}
{'lipoC2': 7.86, 'lipoC3S1': 3.94, 'temp': 28.5, 'lipoC3S3': 11.92, 'lipoC3S2': 7.88, 'rot1': 0, 'rot0': 0, 'rot3': 0, 'rot2': 0, 'state': 'normal', 'yaw': 2.81, 'datetime': '2018-10-05 19:39:18.603916', 'mgs': 0, 'volt': 0.8105, 'depth': 0.165, 'time': 4, 'pitch': -17.85, 'roll': 1.99, 'pres': 166}
{'lipoC2': 7.86, 'lipoC3S1': 3.94, 'temp': 28.5, 'lipoC3S3': 11.92, 'lipoC3S2': 7.88, 'rot1': 0, 'rot0': 0, 'rot3': 0, 'rot2': 0, 'state': 'normal', 'yaw': 2.81, 'datetime': '2018-10-05 19:39:18.623094', 'mgs': 0, 'volt': 0.8105, 'depth': 0.165, 'time': 4, 'pitch': -17.85, 'roll': 1.99, 'pres': 166}
{'lipoC2': 7.86, 'lipoC3S1': 3.94, 'temp': 28.5, 'lipoC3S3': 11.92, 'lipoC3S2': 7.88, 'rot1': 0, 'rot0': 0, 'rot3': 0, 'rot2': 0, 'state': 'normal', 'yaw': 2.81, 'datetime': '2018-10-05 19:39:18.636172', 'mgs': 0, 'volt': 0.8105, 'depth': 0.165, 'time': 4, 'pitch': -17.85, 'roll': 1.99, 'pres': 166}
{'lipoC2': 7.86, 'lipoC3S1': 3.94, 'temp': 28.5, 'lipoC3S3': 11.92, 'lipoC3S2': 7.88, 'rot1': 0, 'rot0': 0, 'rot3': 0, 'rot2': 0, 'state': 'normal', 'yaw': 2.81, 'datetime': '2018-10-05 19:39:18.655301', 'mgs': 0, 'volt': 0.8057, 'depth': 0.089, 'time': 5, 'pitch': -17.77, 'roll': 1.92, 'pres': 165}
{'lipoC2': 7.86, 'lipoC3S1': 3.94, 'temp': 28.5, 'lipoC3S3': 11.92, 'lipoC3S2': 7.88, 'rot1': 0, 'rot0': 0, 'rot3': 0, 'rot2': 0, 'state': 'normal', 'yaw': 2.81, 'datetime': '2018-10-05 19:39:18.674495', 'mgs': 0, 'volt': 0.8105, 'depth': 0.165, 'time': 5, 'pitch': -17.68, 'roll': 1.81, 'pres': 166}
{'lipoC2': 7.86, 'lipoC3S1': 3.94, 'temp': 28.5, 'lipoC3S3': 11.92, 'lipoC3S2': 7.88, 'rot1': 0, 'rot0': 0, 'rot3': 0, 'rot2': 0, 'state': 'normal', 'yaw': 2.81, 'datetime': '2018-10-05 19:39:18.688264', 'mgs': 0, 'volt': 0.8105, 'depth': 0.165, 'time': 5, 'pitch': -17.63, 'roll': 1.73, 'pres': 166}
{'lipoC2': 7.86, 'lipoC3S1': 3.94, 'temp': 28.5, 'lipoC3S3': 11.92, 'lipoC3S2': 7.88, 'rot1': 0, 'rot0': 0, 'rot3': 0, 'rot2': 0, 'state': 'normal', 'yaw': 2.81, 'datetime': '2018-10-05 19:39:18.708278', 'mgs': 0, 'volt': 0.8057, 'depth': 0.089, 'time': 5, 'pitch': -17.63, 'roll': 1.65, 'pres': 165}
{'lipoC2': 7.86, 'lipoC3S1': 3.94, 'temp': 28.5, 'lipoC3S3': 11.92, 'lipoC3S2': 7.88, 'rot1': 0, 'rot0': 0, 'rot3': 0, 'rot2': 0, 'state': 'normal', 'yaw': 2.82, 'datetime': '2018-10-05 19:39:18.727498', 'mgs': 0, 'volt': 0.8057, 'depth': 0.089, 'time': 5, 'pitch': -17.63, 'roll': 1.52, 'pres': 165}
{'lipoC2': 7.86, 'lipoC3S1': 3.94, 'temp': 28.5, 'lipoC3S3': 11.92, 'lipoC3S2': 7.88, 'rot1': 0, 'rot0': 0, 'rot3': 0, 'rot2': 0, 'state': 'normal', 'yaw': 2.81, 'datetime': '2018-10-05 19:39:18.740544', 'mgs': 0, 'volt': 0.8105, 'depth': 0.165, 'time': 5, 'pitch': -17.63, 'roll': 1.33, 'pres': 166}
{'lipoC2': 7.86, 'lipoC3S1': 3.94, 'temp': 28.5, 'lipoC3S3': 11.92, 'lipoC3S2': 7.88, 'rot1': 0, 'rot0': 0, 'rot3': 0, 'rot2': 0, 'state': 'normal', 'yaw': 2.81, 'datetime': '2018-10-05 19:39:18.759695', 'mgs': 0, 'volt': 0.8057, 'depth': 0.089, 'time': 5, 'pitch': -17.56, 'roll': 1.11, 'pres': 165}
{'lipoC2': 7.86, 'lipoC3S1': 3.94, 'temp': 28.5, 'lipoC3S3': 11.92, 'lipoC3S2': 7.88, 'rot1': 0, 'rot0': 0, 'rot3': 0, 'rot2': 0, 'state': 'normal', 'yaw': 2.82, 'datetime': '2018-10-05 19:39:18.778986', 'mgs': 0, 'volt': 0.8057, 'depth': 0.089, 'time': 5, 'pitch': -17.53, 'roll': 0.9, 'pres': 165}
{'lipoC2': 7.86, 'lipoC3S1': 3.94, 'temp': 28.5, 'lipoC3S3': 11.92, 'lipoC3S2': 7.88, 'rot1': 0, 'rot0': 0, 'rot3': 0, 'rot2': 0, 'state': 'normal', 'yaw': 2.82, 'datetime': '2018-10-05 19:39:18.792803', 'mgs': 0, 'volt': 0.8057, 'depth': 0.089, 'time': 5, 'pitch': -17.52, 'roll': 0.75, 'pres': 165}
{'lipoC2': 7.85, 'lipoC3S1': 3.92, 'temp': 28.5, 'lipoC3S3': 11.77, 'lipoC3S2': 7.76, 'rot1': 0, 'rot0': 0, 'rot3': 0, 'rot2': 1, 'state': 'normal', 'yaw': 2.79, 'datetime': '2018-10-05 19:39:18.813084', 'mgs': 0, 'volt': 0.8154, 'depth': 0.241, 'time': 6, 'pitch': -17.52, 'roll': 0.74, 'pres': 167}
{'lipoC2': 7.86, 'lipoC3S1': 3.9, 'temp': 28.5, 'lipoC3S3': 11.85, 'lipoC3S2': 7.83, 'rot1': 0, 'rot0': 0, 'rot3': 1, 'rot2': 1, 'state': 'normal', 'yaw': 2.68, 'datetime': '2018-10-05 19:39:18.832277', 'mgs': 0, 'volt': 0.8252, 'depth': 0.394, 'time': 6, 'pitch': -17.28, 'roll': 1.03, 'pres': 169}
{'lipoC2': 7.85, 'lipoC3S1': 3.91, 'temp': 28.5, 'lipoC3S3': 11.85, 'lipoC3S2': 7.83, 'rot1': 0, 'rot0': 0, 'rot3': 2, 'rot2': 2, 'state': 'normal', 'yaw': 2.68, 'datetime': '2018-10-05 19:39:18.845335', 'mgs': 0, 'volt': 0.8252, 'depth': 0.394, 'time': 6, 'pitch': -16.62, 'roll': 1.52, 'pres': 169}
{'lipoC2': 7.86, 'lipoC3S1': 3.91, 'temp': 28.5, 'lipoC3S3': 11.85, 'lipoC3S2': 7.83, 'rot1': 0, 'rot0': 0, 'rot3': 3, 'rot2': 3, 'state': 'normal', 'yaw': 2.85, 'datetime': '2018-10-05 19:39:18.864489', 'mgs': 0, 'volt': 0.8203, 'depth': 0.317, 'time': 6, 'pitch': -15.86, 'roll': 1.93, 'pres': 168}
{'lipoC2': 7.86, 'lipoC3S1': 3.9, 'temp': 28.5, 'lipoC3S3': 11.84, 'lipoC3S2': 7.82, 'rot1': 0, 'rot0': 0, 'rot3': 4, 'rot2': 4, 'state': 'normal', 'yaw': 3.0, 'datetime': '2018-10-05 19:39:18.883668', 'mgs': 0, 'volt': 0.8252, 'depth': 0.394, 'time': 6, 'pitch': -15.18, 'roll': 2.4, 'pres': 169}
{'lipoC2': 7.86, 'lipoC3S1': 3.89, 'temp': 28.5, 'lipoC3S3': 11.84, 'lipoC3S2': 7.8, 'rot1': 0, 'rot0': 0, 'rot3': 5, 'rot2': 5, 'state': 'normal', 'yaw': 3.12, 'datetime': '2018-10-05 19:39:18.897609', 'mgs': 0, 'volt': 0.8203, 'depth': 0.317, 'time': 6, 'pitch': -14.65, 'roll': 2.99, 'pres': 168}
{'lipoC2': 7.86, 'lipoC3S1': 3.91, 'temp': 28.5, 'lipoC3S3': 11.85, 'lipoC3S2': 7.81, 'rot1': 0, 'rot0': 0, 'rot3': 6, 'rot2': 5, 'state': 'normal', 'yaw': 3.28, 'datetime': '2018-10-05 19:39:18.917500', 'mgs': 0, 'volt': 0.8105, 'depth': 0.165, 'time': 6, 'pitch': -14.24, 'roll': 3.49, 'pres': 166}
{'lipoC2': 7.85, 'lipoC3S1': 3.9, 'temp': 28.5, 'lipoC3S3': 11.85, 'lipoC3S2': 7.82, 'rot1': 0, 'rot0': 0, 'rot3': 7, 'rot2': 6, 'state': 'normal', 'yaw': 3.44, 'datetime': '2018-10-05 19:39:18.936736', 'mgs': 0, 'volt': 0.8203, 'depth': 0.317, 'time': 6, 'pitch': -13.71, 'roll': 3.95, 'pres': 168}
{'lipoC2': 7.86, 'lipoC3S1': 3.91, 'temp': 28.5, 'lipoC3S3': 11.85, 'lipoC3S2': 7.82, 'rot1': 0, 'rot0': 0, 'rot3': 8, 'rot2': 7, 'state': 'normal', 'yaw': 3.52, 'datetime': '2018-10-05 19:39:18.949851', 'mgs': 0, 'volt': 0.8154, 'depth': 0.241, 'time': 6, 'pitch': -12.72, 'roll': 4.57, 'pres': 167}
{'lipoC2': 7.85, 'lipoC3S1': 3.9, 'temp': 28.5, 'lipoC3S3': 11.85, 'lipoC3S2': 7.82, 'rot1': 0, 'rot0': 0, 'rot3': 9, 'rot2': 8, 'state': 'normal', 'yaw': 3.62, 'datetime': '2018-10-05 19:39:18.969054', 'mgs': 0, 'volt': 0.8105, 'depth': 0.165, 'time': 6, 'pitch': -11.5, 'roll': 5.12, 'pres': 166}
{'lipoC2': 7.85, 'lipoC3S1': 3.91, 'temp': 28.5, 'lipoC3S3': 11.87, 'lipoC3S2': 7.83, 'rot1': 0, 'rot0': 0, 'rot3': 10, 'rot2': 9, 'state': 'normal', 'yaw': 3.67, 'datetime': '2018-10-05 19:39:18.988324', 'mgs': 0, 'volt': 0.8105, 'depth': 0.165, 'time': 7, 'pitch': -10.19, 'roll': 5.63, 'pres': 166}
{'lipoC2': 7.86, 'lipoC3S1': 3.9, 'temp': 28.5, 'lipoC3S3': 11.85, 'lipoC3S2': 7.81, 'rot1': 0, 'rot0': 0, 'rot3': 11, 'rot2': 10, 'state': 'normal', 'yaw': 3.76, 'datetime': '2018-10-05 19:39:19.002072', 'mgs': 0, 'volt': 0.8105, 'depth': 0.165, 'time': 7, 'pitch': -9.06, 'roll': 5.94, 'pres': 166}
{'lipoC2': 7.86, 'lipoC3S1': 3.9, 'temp': 28.44, 'lipoC3S3': 11.83, 'lipoC3S2': 7.8, 'rot1': 0, 'rot0': 0, 'rot3': 12, 'rot2': 10, 'state': 'normal', 'yaw': 3.92, 'datetime': '2018-10-05 19:39:19.022170', 'mgs': 0, 'volt': 0.791, 'depth': -0.14, 'time': 7, 'pitch': -8.29, 'roll': 5.82, 'pres': 162}
{'lipoC2': 7.85, 'lipoC3S1': 3.91, 'temp': 28.44, 'lipoC3S3': 11.87, 'lipoC3S2': 7.83, 'rot1': 0, 'rot0': 0, 'rot3': 14, 'rot2': 11, 'state': 'normal', 'yaw': 4.07, 'datetime': '2018-10-05 19:39:19.041496', 'mgs': 0, 'volt': 0.7959, 'depth': -0.064, 'time': 7, 'pitch': -7.95, 'roll': 5.56, 'pres': 163}
{'lipoC2': 7.86, 'lipoC3S1': 3.9, 'temp': 28.44, 'lipoC3S3': 11.85, 'lipoC3S2': 7.81, 'rot1': 0, 'rot0': 0, 'rot3': 15, 'rot2': 12, 'state': 'normal', 'yaw': 4.21, 'datetime': '2018-10-05 19:39:19.054820', 'mgs': 0, 'volt': 0.8008, 'depth': 0.012, 'time': 7, 'pitch': -7.72, 'roll': 5.24, 'pres': 164}
{'lipoC2': 7.86, 'lipoC3S1': 3.9, 'temp': 28.5, 'lipoC3S3': 11.85, 'lipoC3S2': 7.81, 'rot1': 0, 'rot0': 0, 'rot3': 16, 'rot2': 13, 'state': 'normal', 'yaw': 4.27, 'datetime': '2018-10-05 19:39:19.074836', 'mgs': 0, 'volt': 0.7813, 'depth': -0.293, 'time': 7, 'pitch': -7.51, 'roll': 5.06, 'pres': 160}
{'lipoC2': 7.86, 'lipoC3S1': 3.9, 'temp': 28.5, 'lipoC3S3': 11.88, 'lipoC3S2': 7.82, 'rot1': 0, 'rot0': 0, 'rot3': 17, 'rot2': 14, 'state': 'normal', 'yaw': 4.3, 'datetime': '2018-10-05 19:39:19.094167', 'mgs': 0, 'volt': 0.7959, 'depth': -0.064, 'time': 7, 'pitch': -7.28, 'roll': 5.05, 'pres': 163}
{'lipoC2': 7.86, 'lipoC3S1': 3.9, 'temp': 28.5, 'lipoC3S3': 11.85, 'lipoC3S2': 7.81, 'rot1': 0, 'rot0': 0, 'rot3': 19, 'rot2': 15, 'state': 'normal', 'yaw': 4.31, 'datetime': '2018-10-05 19:39:19.106953', 'mgs': 0, 'volt': 0.7764, 'depth': -0.369, 'time': 7, 'pitch': -7.1, 'roll': 5.08, 'pres': 159}
{'lipoC2': 7.86, 'lipoC3S1': 3.9, 'temp': 28.5, 'lipoC3S3': 11.85, 'lipoC3S2': 7.82, 'rot1': 0, 'rot0': 0, 'rot3': 20, 'rot2': 16, 'state': 'normal', 'yaw': 4.24, 'datetime': '2018-10-05 19:39:19.126261', 'mgs': 0, 'volt': 0.791, 'depth': -0.14, 'time': 7, 'pitch': -7.04, 'roll': 5.09, 'pres': 162}
{'lipoC2': 7.86, 'lipoC3S1': 3.91, 'temp': 28.5, 'lipoC3S3': 11.87, 'lipoC3S2': 7.84, 'rot1': 0, 'rot0': 0, 'rot3': 21, 'rot2': 16, 'state': 'normal', 'yaw': 4.11, 'datetime': '2018-10-05 19:39:19.145591', 'mgs': 0, 'volt': 0.7861, 'depth': -0.217, 'time': 7, 'pitch': -7.03, 'roll': 4.99, 'pres': 161}
{'lipoC2': 7.86, 'lipoC3S1': 3.9, 'temp': 28.5, 'lipoC3S3': 11.87, 'lipoC3S2': 7.82, 'rot1': 0, 'rot0': 0, 'rot3': 22, 'rot2': 17, 'state': 'normal', 'yaw': 4.0, 'datetime': '2018-10-05 19:39:19.158814', 'mgs': 0, 'volt': 0.7715, 'depth': -0.446, 'time': 8, 'pitch': -7.03, 'roll': 4.75, 'pres': 158}
{'lipoC2': 7.86, 'lipoC3S1': 3.92, 'temp': 28.5, 'lipoC3S3': 11.83, 'lipoC3S2': 7.8, 'rot1': 0, 'rot0': 0, 'rot3': 24, 'rot2': 18, 'state': 'normal', 'yaw': 3.85, 'datetime': '2018-10-05 19:39:19.178231', 'mgs': 0, 'volt': 0.7813, 'depth': -0.293, 'time': 8, 'pitch': -7.01, 'roll': 4.48, 'pres': 160}
{'lipoC2': 7.86, 'lipoC3S1': 3.92, 'temp': 28.5, 'lipoC3S3': 11.87, 'lipoC3S2': 7.84, 'rot1': 0, 'rot0': 0, 'rot3': 25, 'rot2': 19, 'state': 'normal', 'yaw': 3.66, 'datetime': '2018-10-05 19:39:19.197640', 'mgs': 0, 'volt': 0.791, 'depth': -0.14, 'time': 8, 'pitch': -7.0, 'roll': 4.24, 'pres': 162}
{'lipoC2': 7.86, 'lipoC3S1': 3.9, 'temp': 28.5, 'lipoC3S3': 11.85, 'lipoC3S2': 7.81, 'rot1': 0, 'rot0': 0, 'rot3': 26, 'rot2': 20, 'state': 'normal', 'yaw': 3.5, 'datetime': '2018-10-05 19:39:19.211553', 'mgs': 0, 'volt': 0.7715, 'depth': -0.446, 'time': 8, 'pitch': -7.0, 'roll': 4.11, 'pres': 158}
{'lipoC2': 7.86, 'lipoC3S1': 3.91, 'temp': 28.5, 'lipoC3S3': 11.87, 'lipoC3S2': 7.84, 'rot1': 0, 'rot0': 0, 'rot3': 27, 'rot2': 21, 'state': 'normal', 'yaw': 3.43, 'datetime': '2018-10-05 19:39:19.231069', 'mgs': 0, 'volt': 0.7813, 'depth': -0.293, 'time': 8, 'pitch': -7.09, 'roll': 3.98, 'pres': 160}
{'lipoC2': 7.86, 'lipoC3S1': 3.9, 'temp': 28.5, 'lipoC3S3': 11.84, 'lipoC3S2': 7.8, 'rot1': 0, 'rot0': 0, 'rot3': 28, 'rot2': 22, 'state': 'normal', 'yaw': 3.45, 'datetime': '2018-10-05 19:39:19.247156', 'mgs': 0, 'volt': 0.7764, 'depth': -0.369, 'time': 8, 'pitch': -7.17, 'roll': 3.81, 'pres': 159}
{'lipoC2': 7.86, 'lipoC3S1': 3.93, 'temp': 28.44, 'lipoC3S3': 11.81, 'lipoC3S2': 7.83, 'rot1': 0, 'rot0': 0, 'rot3': 30, 'rot2': 23, 'state': 'normal', 'yaw': 3.56, 'datetime': '2018-10-05 19:39:19.256678', 'mgs': 0, 'volt': 0.791, 'depth': -0.14, 'time': 8, 'pitch': -7.12, 'roll': 3.62, 'pres': 162}
{'lipoC2': 7.85, 'lipoC3S1': 3.92, 'temp': 28.44, 'lipoC3S3': 11.85, 'lipoC3S2': 7.84, 'rot1': 0, 'rot0': 0, 'rot3': 31, 'rot2': 24, 'state': 'normal', 'yaw': 3.72, 'datetime': '2018-10-05 19:39:19.272289', 'mgs': 0, 'volt': 0.791, 'depth': -0.14, 'time': 8, 'pitch': -6.88, 'roll': 3.41, 'pres': 162}
{'lipoC2': 7.86, 'lipoC3S1': 3.9, 'temp': 28.44, 'lipoC3S3': 11.85, 'lipoC3S2': 7.81, 'rot1': 0, 'rot0': 0, 'rot3': 32, 'rot2': 25, 'state': 'normal', 'yaw': 3.87, 'datetime': '2018-10-05 19:39:19.288154', 'mgs': 0, 'volt': 0.7715, 'depth': -0.446, 'time': 8, 'pitch': -6.53, 'roll': 3.3, 'pres': 158}
{'lipoC2': 7.85, 'lipoC3S1': 3.92, 'temp': 28.5, 'lipoC3S3': 11.87, 'lipoC3S2': 7.84, 'rot1': 0, 'rot0': 0, 'rot3': 33, 'rot2': 26, 'state': 'normal', 'yaw': 3.91, 'datetime': '2018-10-05 19:39:19.297683', 'mgs': 0, 'volt': 0.791, 'depth': -0.14, 'time': 9, 'pitch': -6.25, 'roll': 3.35, 'pres': 162}
{'lipoC2': 7.86, 'lipoC3S1': 3.86, 'temp': 28.5, 'lipoC3S3': 11.56, 'lipoC3S2': 7.71, 'rot1': 0, 'rot0': 0, 'rot3': 35, 'rot2': 26, 'state': 'normal', 'yaw': 3.96, 'datetime': '2018-10-05 19:39:19.314546', 'mgs': 0, 'volt': 0.8008, 'depth': 0.012, 'time': 9, 'pitch': -6.04, 'roll': 3.53, 'pres': 164}
{'lipoC2': 7.86, 'lipoC3S1': 3.88, 'temp': 28.44, 'lipoC3S3': 11.72, 'lipoC3S2': 7.74, 'rot1': 1, 'rot0': 1, 'rot3': 36, 'rot2': 27, 'state': 'normal', 'yaw': 4.0, 'datetime': '2018-10-05 19:39:19.331511', 'mgs': 0, 'volt': 0.8447, 'depth': 0.699, 'time': 9, 'pitch': -5.68, 'roll': 3.74, 'pres': 173}
{'lipoC2': 7.86, 'lipoC3S1': 3.88, 'temp': 28.44, 'lipoC3S3': 11.61, 'lipoC3S2': 7.7, 'rot1': 3, 'rot0': 3, 'rot3': 38, 'rot2': 28, 'state': 'normal', 'yaw': 3.91, 'datetime': '2018-10-05 19:39:19.341034', 'mgs': 0, 'volt': 0.7959, 'depth': -0.064, 'time': 9, 'pitch': -4.88, 'roll': 3.98, 'pres': 163}
{'lipoC2': 7.86, 'lipoC3S1': 3.87, 'temp': 28.31, 'lipoC3S3': 11.72, 'lipoC3S2': 7.72, 'rot1': 4, 'rot0': 4, 'rot3': 39, 'rot2': 29, 'state': 'normal', 'yaw': 3.71, 'datetime': '2018-10-05 19:39:19.356635', 'mgs': 0, 'volt': 0.8398, 'depth': 0.623, 'time': 9, 'pitch': -3.68, 'roll': 4.24, 'pres': 172}
{'lipoC2': 7.85, 'lipoC3S1': 3.82, 'temp': 28.31, 'lipoC3S3': 11.73, 'lipoC3S2': 7.74, 'rot1': 5, 'rot0': 5, 'rot3': 40, 'rot2': 30, 'state': 'normal', 'yaw': 3.48, 'datetime': '2018-10-05 19:39:19.372228', 'mgs': 0, 'volt': 0.9082, 'depth': 1.691, 'time': 9, 'pitch': -2.54, 'roll': 4.35, 'pres': 186}
{'lipoC2': 7.85, 'lipoC3S1': 3.87, 'temp': 28.31, 'lipoC3S3': 11.61, 'lipoC3S2': 7.78, 'rot1': 6, 'rot0': 7, 'rot3': 41, 'rot2': 31, 'state': 'normal', 'yaw': 3.23, 'datetime': '2018-10-05 19:39:19.381827', 'mgs': 0, 'volt': 0.8154, 'depth': 0.241, 'time': 9, 'pitch': -1.45, 'roll': 4.34, 'pres': 167}
{'lipoC2': 7.83, 'lipoC3S1': 3.87, 'temp': 28.38, 'lipoC3S3': 11.71, 'lipoC3S2': 7.71, 'rot1': 8, 'rot0': 8, 'rot3': 43, 'rot2': 32, 'state': 'normal', 'yaw': 2.91, 'datetime': '2018-10-05 19:39:19.397447', 'mgs': 0, 'volt': 0.835, 'depth': 0.546, 'time': 9, 'pitch': -0.36, 'roll': 4.31, 'pres': 171}
{'lipoC2': 7.85, 'lipoC3S1': 3.9, 'temp': 28.38, 'lipoC3S3': 11.69, 'lipoC3S2': 7.71, 'rot1': 9, 'rot0': 10, 'rot3': 44, 'rot2': 33, 'state': 'normal', 'yaw': 2.56, 'datetime': '2018-10-05 19:39:19.413372', 'mgs': 0, 'volt': 0.8838, 'depth': 1.309, 'time': 9, 'pitch': 0.43, 'roll': 4.28, 'pres': 181}
{'lipoC2': 7.85, 'lipoC3S1': 3.86, 'temp': 28.31, 'lipoC3S3': 11.56, 'lipoC3S2': 7.71, 'rot1': 10, 'rot0': 11, 'rot3': 45, 'rot2': 34, 'state': 'normal', 'yaw': 2.19, 'datetime': '2018-10-05 19:39:19.424918', 'mgs': 0, 'volt': 0.8301, 'depth': 0.47, 'time': 9, 'pitch': 1.11, 'roll': 4.1, 'pres': 170}
{'lipoC2': 7.85, 'lipoC3S1': 3.81, 'temp': 28.31, 'lipoC3S3': 11.71, 'lipoC3S2': 7.72, 'rot1': 12, 'rot0': 12, 'rot3': 46, 'rot2': 35, 'state': 'normal', 'yaw': 1.7, 'datetime': '2018-10-05 19:39:19.441165', 'mgs': 0, 'volt': 0.8105, 'depth': 0.165, 'time': 10, 'pitch': 1.75, 'roll': 3.73, 'pres': 166}
{'lipoC2': 7.85, 'lipoC3S1': 3.8, 'temp': 28.31, 'lipoC3S3': 11.71, 'lipoC3S2': 7.72, 'rot1': 13, 'rot0': 14, 'rot3': 48, 'rot2': 36, 'state': 'normal', 'yaw': 1.18, 'datetime': '2018-10-05 19:39:19.456853', 'mgs': 0, 'volt': 0.8057, 'depth': 0.089, 'time': 10, 'pitch': 2.3, 'roll': 3.32, 'pres': 165}
{'lipoC2': 7.84, 'lipoC3S1': 3.86, 'temp': 28.31, 'lipoC3S3': 11.68, 'lipoC3S2': 7.71, 'rot1': 14, 'rot0': 15, 'rot3': 50, 'rot2': 37, 'state': 'normal', 'yaw': 0.56, 'datetime': '2018-10-05 19:39:19.466637', 'mgs': 0, 'volt': 0.8594, 'depth': 0.928, 'time': 10, 'pitch': 2.88, 'roll': 2.82, 'pres': 176}
{'lipoC2': 7.84, 'lipoC3S1': 3.86, 'temp': 28.31, 'lipoC3S3': 11.68, 'lipoC3S2': 7.71, 'rot1': 16, 'rot0': 17, 'rot3': 51, 'rot2': 37, 'state': 'normal', 'yaw': -0.04, 'datetime': '2018-10-05 19:39:19.482440', 'mgs': 0, 'volt': 0.874, 'depth': 1.157, 'time': 10, 'pitch': 3.24, 'roll': 2.41, 'pres': 179}
{'lipoC2': 7.85, 'lipoC3S1': 3.86, 'temp': 28.44, 'lipoC3S3': 11.6, 'lipoC3S2': 7.64, 'rot1': 17, 'rot0': 18, 'rot3': 52, 'rot2': 38, 'state': 'normal', 'yaw': -0.76, 'datetime': '2018-10-05 19:39:19.538364', 'mgs': 0, 'volt': 0.8496, 'depth': 0.775, 'time': 10, 'pitch': 3.36, 'roll': 2.09, 'pres': 174}
{'lipoC2': 7.85, 'lipoC3S1': 3.78, 'temp': 28.44, 'lipoC3S3': 11.69, 'lipoC3S2': 7.69, 'rot1': 18, 'rot0': 19, 'rot3': 54, 'rot2': 39, 'state': 'normal', 'yaw': -1.42, 'datetime': '2018-10-05 19:39:19.642424', 'mgs': 0, 'volt': 0.8545, 'depth': 0.851, 'time': 10, 'pitch': 3.19, 'roll': 1.83, 'pres': 175}
{'lipoC2': 7.85, 'lipoC3S1': 3.86, 'temp': 28.44, 'lipoC3S3': 11.6, 'lipoC3S2': 7.55, 'rot1': 20, 'rot0': 21, 'rot3': 55, 'rot2': 40, 'state': 'normal', 'yaw': -2.12, 'datetime': '2018-10-05 19:39:19.747968', 'mgs': 0, 'volt': 0.8545, 'depth': 0.851, 'time': 10, 'pitch': 2.8, 'roll': 1.57, 'pres': 175}
{'lipoC2': 7.85, 'lipoC3S1': 3.79, 'temp': 28.44, 'lipoC3S3': 11.71, 'lipoC3S2': 7.7, 'rot1': 21, 'rot0': 22, 'rot3': 56, 'rot2': 41, 'state': 'normal', 'yaw': -2.84, 'datetime': '2018-10-05 19:39:19.851969', 'mgs': 0, 'volt': 0.8643, 'depth': 1.004, 'time': 10, 'pitch': 2.28, 'roll': 1.35, 'pres': 177}
{'lipoC2': 7.84, 'lipoC3S1': 3.87, 'temp': 28.5, 'lipoC3S3': 11.67, 'lipoC3S2': 7.71, 'rot1': 22, 'rot0': 23, 'rot3': 57, 'rot2': 42, 'state': 'normal', 'yaw': -3.46, 'datetime': '2018-10-05 19:39:19.955908', 'mgs': 0, 'volt': 0.9033, 'depth': 1.614, 'time': 10, 'pitch': 1.85, 'roll': 1.18, 'pres': 185}
{'lipoC2': 7.85, 'lipoC3S1': 3.87, 'temp': 28.5, 'lipoC3S3': 11.59, 'lipoC3S2': 7.72, 'rot1': 23, 'rot0': 25, 'rot3': 58, 'rot2': 43, 'state': 'normal', 'yaw': -4.14, 'datetime': '2018-10-05 19:39:20.059947', 'mgs': 0, 'volt': 0.8496, 'depth': 0.775, 'time': 11, 'pitch': 1.42, 'roll': 1.03, 'pres': 174}
