{'lipoC2': 7.28, 'lipoC3S1': 3.8, 'temp': 30.31, 'lipoC3S3': 11.47, 'lipoC3S2': 7.6, 'rot1': 0, 'rot0': 0, 'rot3': 0, 'rot2': 0, 'state': 'normal', 'yaw': 1.22, 'datetime': '2018-10-09 23:50:26.487212', 'mgs': 0, 'volt': 0.8398, 'depth': 0.623, 'time': 1, 'pitch': -2.7, 'roll': 3.4, 'pres': 172}
{'lipoC2': 7.28, 'lipoC3S1': 3.8, 'temp': 30.31, 'lipoC3S3': 11.47, 'lipoC3S2': 7.6, 'rot1': 0, 'rot0': 0, 'rot3': 0, 'rot2': 0, 'state': 'normal', 'yaw': 2.6, 'datetime': '2018-10-09 23:50:26.508844', 'mgs': 0, 'volt': 0.8398, 'depth': 0.623, 'time': 1, 'pitch': -1.5, 'roll': 3.29, 'pres': 172}
{'lipoC2': 7.27, 'lipoC3S1': 3.8, 'temp': 30.31, 'lipoC3S3': 11.47, 'lipoC3S2': 7.61, 'rot1': 0, 'rot0': 0, 'rot3': 0, 'rot2': 0, 'state': 'normal', 'yaw': 3.84, 'datetime': '2018-10-09 23:50:26.530497', 'mgs': 0, 'volt': 0.8398, 'depth': 0.623, 'time': 1, 'pitch': -0.32, 'roll': 2.98, 'pres': 172}
{'lipoC2': 7.27, 'lipoC3S1': 3.8, 'temp': 30.31, 'lipoC3S3': 11.47, 'lipoC3S2': 7.6, 'rot1': 0, 'rot0': 0, 'rot3': 0, 'rot2': 0, 'state': 'normal', 'yaw': 5.1, 'datetime': '2018-10-09 23:50:26.552176', 'mgs': 0, 'volt': 0.8447, 'depth': 0.699, 'time': 1, 'pitch': 0.59, 'roll': 2.63, 'pres': 173}
{'lipoC2': 7.28, 'lipoC3S1': 3.8, 'temp': 30.31, 'lipoC3S3': 11.47, 'lipoC3S2': 7.6, 'rot1': 0, 'rot0': 0, 'rot3': 0, 'rot2': 0, 'state': 'normal', 'yaw': 6.19, 'datetime': '2018-10-09 23:50:26.571456', 'mgs': 0, 'volt': 0.8447, 'depth': 0.699, 'time': 1, 'pitch': 0.56, 'roll': 2.63, 'pres': 173}
{'lipoC2': 7.28, 'lipoC3S1': 3.8, 'temp': 30.31, 'lipoC3S3': 11.47, 'lipoC3S2': 7.6, 'rot1': 0, 'rot0': 0, 'rot3': 0, 'rot2': 0, 'state': 'normal', 'yaw': 6.99, 'datetime': '2018-10-09 23:50:26.580920', 'mgs': 0, 'volt': 0.8447, 'depth': 0.699, 'time': 1, 'pitch': -0.04, 'roll': 3.0, 'pres': 173}
{'lipoC2': 7.28, 'lipoC3S1': 3.8, 'temp': 30.31, 'lipoC3S3': 11.47, 'lipoC3S2': 7.6, 'rot1': 0, 'rot0': 0, 'rot3': 0, 'rot2': 0, 'state': 'normal', 'yaw': 7.49, 'datetime': '2018-10-09 23:50:26.590382', 'mgs': 0, 'volt': 0.8398, 'depth': 0.623, 'time': 1, 'pitch': -0.74, 'roll': 3.55, 'pres': 172}
{'lipoC2': 7.27, 'lipoC3S1': 3.8, 'temp': 30.31, 'lipoC3S3': 11.47, 'lipoC3S2': 7.6, 'rot1': 0, 'rot0': 0, 'rot3': 0, 'rot2': 0, 'state': 'normal', 'yaw': 7.76, 'datetime': '2018-10-09 23:50:26.599802', 'mgs': 0, 'volt': 0.8398, 'depth': 0.623, 'time': 2, 'pitch': -1.02, 'roll': 4.0, 'pres': 172}
{'lipoC2': 7.27, 'lipoC3S1': 3.8, 'temp': 30.31, 'lipoC3S3': 11.47, 'lipoC3S2': 7.6, 'rot1': 0, 'rot0': 0, 'rot3': 0, 'rot2': 0, 'state': 'normal', 'yaw': 7.94, 'datetime': '2018-10-09 23:50:26.609196', 'mgs': 0, 'volt': 0.8398, 'depth': 0.623, 'time': 2, 'pitch': -0.83, 'roll': 4.15, 'pres': 172}
{'lipoC2': 7.28, 'lipoC3S1': 3.8, 'temp': 30.31, 'lipoC3S3': 11.47, 'lipoC3S2': 7.61, 'rot1': 0, 'rot0': 0, 'rot3': 0, 'rot2': 0, 'state': 'normal', 'yaw': 8.15, 'datetime': '2018-10-09 23:50:26.618581', 'mgs': 0, 'volt': 0.8398, 'depth': 0.623, 'time': 2, 'pitch': -0.12, 'roll': 4.02, 'pres': 172}
{'lipoC2': 7.27, 'lipoC3S1': 3.8, 'temp': 30.31, 'lipoC3S3': 11.47, 'lipoC3S2': 7.6, 'rot1': 0, 'rot0': 0, 'rot3': 0, 'rot2': 0, 'state': 'normal', 'yaw': 8.5, 'datetime': '2018-10-09 23:50:26.627966', 'mgs': 0, 'volt': 0.835, 'depth': 0.546, 'time': 2, 'pitch': 0.73, 'roll': 3.8, 'pres': 171}
{'lipoC2': 7.27, 'lipoC3S1': 3.8, 'temp': 30.31, 'lipoC3S3': 11.47, 'lipoC3S2': 7.6, 'rot1': 0, 'rot0': 0, 'rot3': 0, 'rot2': 0, 'state': 'normal', 'yaw': 8.64, 'datetime': '2018-10-09 23:50:26.637366', 'mgs': 0, 'volt': 0.8398, 'depth': 0.623, 'time': 2, 'pitch': 0.77, 'roll': 3.73, 'pres': 172}
{'lipoC2': 7.27, 'lipoC3S1': 3.8, 'temp': 30.31, 'lipoC3S3': 11.47, 'lipoC3S2': 7.61, 'rot1': 0, 'rot0': 0, 'rot3': 0, 'rot2': 0, 'state': 'normal', 'yaw': 8.88, 'datetime': '2018-10-09 23:50:26.693572', 'mgs': 0, 'volt': 0.835, 'depth': 0.546, 'time': 2, 'pitch': 0.27, 'roll': 3.7, 'pres': 171}
{'lipoC2': 7.27, 'lipoC3S1': 3.8, 'temp': 30.31, 'lipoC3S3': 11.47, 'lipoC3S2': 7.6, 'rot1': 0, 'rot0': 0, 'rot3': 0, 'rot2': 0, 'state': 'normal', 'yaw': 8.8, 'datetime': '2018-10-09 23:50:26.797625', 'mgs': 0, 'volt': 0.835, 'depth': 0.546, 'time': 2, 'pitch': -0.53, 'roll': 4.1, 'pres': 171}
{'lipoC2': 7.27, 'lipoC3S1': 3.8, 'temp': 30.31, 'lipoC3S3': 11.47, 'lipoC3S2': 7.61, 'rot1': 0, 'rot0': 0, 'rot3': 0, 'rot2': 0, 'state': 'normal', 'yaw': 8.48, 'datetime': '2018-10-09 23:50:26.900869', 'mgs': 0, 'volt': 0.835, 'depth': 0.546, 'time': 2, 'pitch': -1.16, 'roll': 4.75, 'pres': 171}
{'lipoC2': 7.27, 'lipoC3S1': 3.8, 'temp': 30.31, 'lipoC3S3': 11.47, 'lipoC3S2': 7.6, 'rot1': 0, 'rot0': 0, 'rot3': 0, 'rot2': 0, 'state': 'normal', 'yaw': 8.09, 'datetime': '2018-10-09 23:50:27.004616', 'mgs': 0, 'volt': 0.835, 'depth': 0.546, 'time': 2, 'pitch': -1.32, 'roll': 5.37, 'pres': 171}
{'lipoC2': 7.27, 'lipoC3S1': 3.8, 'temp': 30.31, 'lipoC3S3': 11.47, 'lipoC3S2': 7.6, 'rot1': 0, 'rot0': 0, 'rot3': 0, 'rot2': 0, 'state': 'normal', 'yaw': 8.0, 'datetime': '2018-10-09 23:50:27.108727', 'mgs': 0, 'volt': 0.835, 'depth': 0.546, 'time': 3, 'pitch': -1.18, 'roll': 5.73, 'pres': 171}
{'lipoC2': 7.27, 'lipoC3S1': 3.8, 'temp': 30.31, 'lipoC3S3': 11.47, 'lipoC3S2': 7.6, 'rot1': 0, 'rot0': 0, 'rot3': 0, 'rot2': 0, 'state': 'normal', 'yaw': 8.28, 'datetime': '2018-10-09 23:50:27.211940', 'mgs': 0, 'volt': 0.835, 'depth': 0.546, 'time': 3, 'pitch': -0.82, 'roll': 5.55, 'pres': 171}
{'lipoC2': 7.27, 'lipoC3S1': 3.8, 'temp': 30.25, 'lipoC3S3': 11.47, 'lipoC3S2': 7.6, 'rot1': 0, 'rot0': 0, 'rot3': 0, 'rot2': 0, 'state': 'normal', 'yaw': 8.64, 'datetime': '2018-10-09 23:50:27.315842', 'mgs': 0, 'volt': 0.835, 'depth': 0.546, 'time': 3, 'pitch': -0.43, 'roll': 4.95, 'pres': 171}
{'lipoC2': 7.27, 'lipoC3S1': 3.8, 'temp': 30.25, 'lipoC3S3': 11.47, 'lipoC3S2': 7.6, 'rot1': 0, 'rot0': 0, 'rot3': 0, 'rot2': 0, 'state': 'normal', 'yaw': 9.06, 'datetime': '2018-10-09 23:50:27.419069', 'mgs': 0, 'volt': 0.835, 'depth': 0.546, 'time': 3, 'pitch': 0.14, 'roll': 4.05, 'pres': 171}
{'lipoC2': 7.27, 'lipoC3S1': 3.8, 'temp': 30.31, 'lipoC3S3': 11.47, 'lipoC3S2': 7.6, 'rot1': 0, 'rot0': 0, 'rot3': 0, 'rot2': 0, 'state': 'normal', 'yaw': 9.39, 'datetime': '2018-10-09 23:50:27.522302', 'mgs': 0, 'volt': 0.835, 'depth': 0.546, 'time': 3, 'pitch': 0.72, 'roll': 3.05, 'pres': 171}
{'lipoC2': 7.27, 'lipoC3S1': 3.8, 'temp': 30.31, 'lipoC3S3': 11.47, 'lipoC3S2': 7.6, 'rot1': 0, 'rot0': 0, 'rot3': 0, 'rot2': 0, 'state': 'normal', 'yaw': 9.58, 'datetime': '2018-10-09 23:50:27.625496', 'mgs': 0, 'volt': 0.835, 'depth': 0.546, 'time': 3, 'pitch': 0.84, 'roll': 2.36, 'pres': 171}
{'lipoC2': 7.27, 'lipoC3S1': 3.8, 'temp': 30.31, 'lipoC3S3': 11.47, 'lipoC3S2': 7.6, 'rot1': 0, 'rot0': 0, 'rot3': 0, 'rot2': 0, 'state': 'normal', 'yaw': 9.67, 'datetime': '2018-10-09 23:50:27.728709', 'mgs': 0, 'volt': 0.8301, 'depth': 0.47, 'time': 3, 'pitch': 0.29, 'roll': 1.93, 'pres': 170}
{'lipoC2': 7.27, 'lipoC3S1': 3.8, 'temp': 30.31, 'lipoC3S3': 11.47, 'lipoC3S2': 7.6, 'rot1': 0, 'rot0': 0, 'rot3': 0, 'rot2': 0, 'state': 'normal', 'yaw': 9.8, 'datetime': '2018-10-09 23:50:27.832011', 'mgs': 0, 'volt': 0.8301, 'depth': 0.47, 'time': 3, 'pitch': -0.81, 'roll': 1.7, 'pres': 170}
{'lipoC2': 7.27, 'lipoC3S1': 3.8, 'temp': 30.31, 'lipoC3S3': 11.47, 'lipoC3S2': 7.6, 'rot1': 0, 'rot0': 0, 'rot3': 0, 'rot2': 0, 'state': 'normal', 'yaw': 10.09, 'datetime': '2018-10-09 23:50:27.935278', 'mgs': 0, 'volt': 0.8301, 'depth': 0.47, 'time': 3, 'pitch': -1.79, 'roll': 1.61, 'pres': 170}
{'lipoC2': 7.27, 'lipoC3S1': 3.8, 'temp': 30.31, 'lipoC3S3': 11.47, 'lipoC3S2': 7.6, 'rot1': 0, 'rot0': 0, 'rot3': 0, 'rot2': 0, 'state': 'normal', 'yaw': 10.48, 'datetime': '2018-10-09 23:50:28.038438', 'mgs': 0, 'volt': 0.8301, 'depth': 0.47, 'time': 3, 'pitch': -2.3, 'roll': 1.41, 'pres': 170}
{'lipoC2': 7.28, 'lipoC3S1': 3.8, 'temp': 30.31, 'lipoC3S3': 11.47, 'lipoC3S2': 7.6, 'rot1': 0, 'rot0': 0, 'rot3': 0, 'rot2': 0, 'state': 'normal', 'yaw': 10.72, 'datetime': '2018-10-09 23:50:28.142069', 'mgs': 0, 'volt': 0.8301, 'depth': 0.47, 'time': 4, 'pitch': -2.27, 'roll': 1.1, 'pres': 170}
{'lipoC2': 7.28, 'lipoC3S1': 3.8, 'temp': 30.31, 'lipoC3S3': 11.47, 'lipoC3S2': 7.6, 'rot1': 0, 'rot0': 0, 'rot3': 0, 'rot2': 0, 'state': 'normal', 'yaw': 10.81, 'datetime': '2018-10-09 23:50:28.245282', 'mgs': 0, 'volt': 0.8301, 'depth': 0.47, 'time': 4, 'pitch': -1.55, 'roll': 0.67, 'pres': 170}
{'lipoC2': 7.27, 'lipoC3S1': 3.8, 'temp': 30.31, 'lipoC3S3': 11.47, 'lipoC3S2': 7.6, 'rot1': 0, 'rot0': 0, 'rot3': 0, 'rot2': 0, 'state': 'normal', 'yaw': 10.53, 'datetime': '2018-10-09 23:50:28.349756', 'mgs': 0, 'volt': 0.8301, 'depth': 0.47, 'time': 4, 'pitch': -0.51, 'roll': 0.61, 'pres': 170}
{'lipoC2': 7.28, 'lipoC3S1': 3.8, 'temp': 30.31, 'lipoC3S3': 11.47, 'lipoC3S2': 7.6, 'rot1': 0, 'rot0': 0, 'rot3': 0, 'rot2': 0, 'state': 'normal', 'yaw': 9.83, 'datetime': '2018-10-09 23:50:28.452996', 'mgs': 0, 'volt': 0.8301, 'depth': 0.47, 'time': 4, 'pitch': 0.41, 'roll': 1.41, 'pres': 170}
{'lipoC2': 7.27, 'lipoC3S1': 3.8, 'temp': 30.31, 'lipoC3S3': 11.47, 'lipoC3S2': 7.61, 'rot1': 0, 'rot0': 0, 'rot3': 0, 'rot2': 0, 'state': 'normal', 'yaw': 9.1, 'datetime': '2018-10-09 23:50:28.556226', 'mgs': 0, 'volt': 0.8301, 'depth': 0.47, 'time': 4, 'pitch': 0.11, 'roll': 2.71, 'pres': 170}
{'lipoC2': 7.27, 'lipoC3S1': 3.8, 'temp': 30.31, 'lipoC3S3': 11.47, 'lipoC3S2': 7.6, 'rot1': 0, 'rot0': 0, 'rot3': 0, 'rot2': 0, 'state': 'normal', 'yaw': 8.44, 'datetime': '2018-10-09 23:50:28.660697', 'mgs': 0, 'volt': 0.8252, 'depth': 0.394, 'time': 4, 'pitch': -0.72, 'roll': 4.2, 'pres': 169}
{'lipoC2': 7.28, 'lipoC3S1': 3.8, 'temp': 30.25, 'lipoC3S3': 11.47, 'lipoC3S2': 7.6, 'rot1': 0, 'rot0': 0, 'rot3': 0, 'rot2': 0, 'state': 'normal', 'yaw': 7.96, 'datetime': '2018-10-09 23:50:28.764006', 'mgs': 0, 'volt': 0.8301, 'depth': 0.47, 'time': 4, 'pitch': -1.45, 'roll': 5.34, 'pres': 170}
{'lipoC2': 7.28, 'lipoC3S1': 3.8, 'temp': 30.25, 'lipoC3S3': 11.47, 'lipoC3S2': 7.6, 'rot1': 0, 'rot0': 0, 'rot3': 0, 'rot2': 0, 'state': 'normal', 'yaw': 7.64, 'datetime': '2018-10-09 23:50:28.867165', 'mgs': 0, 'volt': 0.8301, 'depth': 0.47, 'time': 4, 'pitch': -1.55, 'roll': 5.68, 'pres': 170}
{'lipoC2': 7.27, 'lipoC3S1': 3.8, 'temp': 30.31, 'lipoC3S3': 11.47, 'lipoC3S2': 7.6, 'rot1': 0, 'rot0': 0, 'rot3': 0, 'rot2': 0, 'state': 'normal', 'yaw': 7.36, 'datetime': '2018-10-09 23:50:28.970389', 'mgs': 0, 'volt': 0.8301, 'depth': 0.47, 'time': 4, 'pitch': -1.19, 'roll': 5.31, 'pres': 170}
{'lipoC2': 7.28, 'lipoC3S1': 3.8, 'temp': 30.31, 'lipoC3S3': 11.47, 'lipoC3S2': 7.6, 'rot1': 0, 'rot0': 0, 'rot3': 0, 'rot2': 0, 'state': 'normal', 'yaw': 7.08, 'datetime': '2018-10-09 23:50:29.073832', 'mgs': 0, 'volt': 0.8301, 'depth': 0.47, 'time': 4, 'pitch': -0.62, 'roll': 4.63, 'pres': 170}
{'lipoC2': 7.27, 'lipoC3S1': 3.8, 'temp': 30.31, 'lipoC3S3': 11.47, 'lipoC3S2': 7.6, 'rot1': 0, 'rot0': 0, 'rot3': 0, 'rot2': 0, 'state': 'normal', 'yaw': 6.79, 'datetime': '2018-10-09 23:50:29.177027', 'mgs': 0, 'volt': 0.835, 'depth': 0.546, 'time': 5, 'pitch': -0.29, 'roll': 4.38, 'pres': 171}
{'lipoC2': 7.28, 'lipoC3S1': 3.8, 'temp': 30.31, 'lipoC3S3': 11.47, 'lipoC3S2': 7.6, 'rot1': 0, 'rot0': 0, 'rot3': 0, 'rot2': 0, 'state': 'normal', 'yaw': 6.5, 'datetime': '2018-10-09 23:50:29.280862', 'mgs': 0, 'volt': 0.835, 'depth': 0.546, 'time': 5, 'pitch': -0.41, 'roll': 4.74, 'pres': 171}
{'lipoC2': 7.27, 'lipoC3S1': 3.8, 'temp': 30.31, 'lipoC3S3': 11.47, 'lipoC3S2': 7.6, 'rot1': 0, 'rot0': 0, 'rot3': 0, 'rot2': 0, 'state': 'normal', 'yaw': 6.27, 'datetime': '2018-10-09 23:50:29.384304', 'mgs': 0, 'volt': 0.835, 'depth': 0.546, 'time': 5, 'pitch': -0.38, 'roll': 5.28, 'pres': 171}
{'lipoC2': 7.27, 'lipoC3S1': 3.8, 'temp': 30.31, 'lipoC3S3': 11.47, 'lipoC3S2': 7.6, 'rot1': 0, 'rot0': 0, 'rot3': 0, 'rot2': 0, 'state': 'normal', 'yaw': 6.19, 'datetime': '2018-10-09 23:50:29.487502', 'mgs': 0, 'volt': 0.8301, 'depth': 0.47, 'time': 5, 'pitch': -0.01, 'roll': 5.6, 'pres': 170}
{'lipoC2': 7.28, 'lipoC3S1': 3.8, 'temp': 30.31, 'lipoC3S3': 11.47, 'lipoC3S2': 7.6, 'rot1': 0, 'rot0': 0, 'rot3': 0, 'rot2': 0, 'state': 'normal', 'yaw': 6.1, 'datetime': '2018-10-09 23:50:29.590659', 'mgs': 0, 'volt': 0.8301, 'depth': 0.47, 'time': 5, 'pitch': 0.5, 'roll': 5.24, 'pres': 170}
{'lipoC2': 7.27, 'lipoC3S1': 3.8, 'temp': 30.31, 'lipoC3S3': 11.47, 'lipoC3S2': 7.6, 'rot1': 0, 'rot0': 0, 'rot3': 0, 'rot2': 0, 'state': 'normal', 'yaw': 6.01, 'datetime': '2018-10-09 23:50:29.693937', 'mgs': 0, 'volt': 0.8301, 'depth': 0.47, 'time': 5, 'pitch': 0.93, 'roll': 4.24, 'pres': 170}
{'lipoC2': 7.27, 'lipoC3S1': 3.8, 'temp': 30.31, 'lipoC3S3': 11.47, 'lipoC3S2': 7.6, 'rot1': 0, 'rot0': 0, 'rot3': 0, 'rot2': 0, 'state': 'normal', 'yaw': 5.91, 'datetime': '2018-10-09 23:50:29.797190', 'mgs': 0, 'volt': 0.8301, 'depth': 0.47, 'time': 5, 'pitch': 1.3, 'roll': 2.94, 'pres': 170}
{'lipoC2': 7.27, 'lipoC3S1': 3.8, 'temp': 30.31, 'lipoC3S3': 11.47, 'lipoC3S2': 7.6, 'rot1': 0, 'rot0': 0, 'rot3': 0, 'rot2': 0, 'state': 'normal', 'yaw': 5.63, 'datetime': '2018-10-09 23:50:29.900349', 'mgs': 0, 'volt': 0.835, 'depth': 0.546, 'time': 5, 'pitch': 0.92, 'roll': 2.32, 'pres': 171}
{'lipoC2': 7.27, 'lipoC3S1': 3.8, 'temp': 30.31, 'lipoC3S3': 11.47, 'lipoC3S2': 7.61, 'rot1': 0, 'rot0': 0, 'rot3': 0, 'rot2': 0, 'state': 'normal', 'yaw': 5.19, 'datetime': '2018-10-09 23:50:30.004908', 'mgs': 0, 'volt': 0.8301, 'depth': 0.47, 'time': 5, 'pitch': -0.1, 'roll': 2.36, 'pres': 170}
{'lipoC2': 7.27, 'lipoC3S1': 3.8, 'temp': 30.31, 'lipoC3S3': 11.47, 'lipoC3S2': 7.6, 'rot1': 0, 'rot0': 0, 'rot3': 0, 'rot2': 0, 'state': 'normal', 'yaw': 4.69, 'datetime': '2018-10-09 23:50:30.108109', 'mgs': 0, 'volt': 0.835, 'depth': 0.546, 'time': 6, 'pitch': -1.25, 'roll': 2.92, 'pres': 171}
{'lipoC2': 7.27, 'lipoC3S1': 3.8, 'temp': 30.38, 'lipoC3S3': 11.47, 'lipoC3S2': 7.6, 'rot1': 0, 'rot0': 0, 'rot3': 0, 'rot2': 0, 'state': 'normal', 'yaw': 4.45, 'datetime': '2018-10-09 23:50:30.211276', 'mgs': 0, 'volt': 0.8301, 'depth': 0.47, 'time': 6, 'pitch': -1.77, 'roll': 3.51, 'pres': 170}
{'lipoC2': 7.27, 'lipoC3S1': 3.8, 'temp': 30.38, 'lipoC3S3': 11.47, 'lipoC3S2': 7.6, 'rot1': 0, 'rot0': 0, 'rot3': 0, 'rot2': 0, 'state': 'normal', 'yaw': 4.38, 'datetime': '2018-10-09 23:50:30.315810', 'mgs': 0, 'volt': 0.8301, 'depth': 0.47, 'time': 6, 'pitch': -1.49, 'roll': 3.83, 'pres': 170}
{'lipoC2': 7.27, 'lipoC3S1': 3.8, 'temp': 30.31, 'lipoC3S3': 11.47, 'lipoC3S2': 7.6, 'rot1': 0, 'rot0': 0, 'rot3': 0, 'rot2': 0, 'state': 'normal', 'yaw': 4.23, 'datetime': '2018-10-09 23:50:30.419029', 'mgs': 0, 'volt': 0.8301, 'depth': 0.47, 'time': 6, 'pitch': -0.13, 'roll': 3.93, 'pres': 170}
{'lipoC2': 7.27, 'lipoC3S1': 3.8, 'temp': 30.31, 'lipoC3S3': 11.47, 'lipoC3S2': 7.6, 'rot1': 0, 'rot0': 0, 'rot3': 0, 'rot2': 0, 'state': 'normal', 'yaw': 3.93, 'datetime': '2018-10-09 23:50:30.522247', 'mgs': 0, 'volt': 0.8301, 'depth': 0.47, 'time': 6, 'pitch': 1.41, 'roll': 3.74, 'pres': 170}
{'lipoC2': 7.27, 'lipoC3S1': 3.8, 'temp': 30.31, 'lipoC3S3': 11.47, 'lipoC3S2': 7.6, 'rot1': 0, 'rot0': 0, 'rot3': 0, 'rot2': 0, 'state': 'normal', 'yaw': 3.73, 'datetime': '2018-10-09 23:50:30.625494', 'mgs': 0, 'volt': 0.8301, 'depth': 0.47, 'time': 6, 'pitch': 2.38, 'roll': 3.28, 'pres': 170}
{'lipoC2': 7.27, 'lipoC3S1': 3.8, 'temp': 30.31, 'lipoC3S3': 11.47, 'lipoC3S2': 7.61, 'rot1': 0, 'rot0': 0, 'rot3': 0, 'rot2': 0, 'state': 'normal', 'yaw': 3.13, 'datetime': '2018-10-09 23:50:30.728693', 'mgs': 0, 'volt': 0.8301, 'depth': 0.47, 'time': 6, 'pitch': 1.75, 'roll': 2.76, 'pres': 170}
{'lipoC2': 7.27, 'lipoC3S1': 3.8, 'temp': 30.31, 'lipoC3S3': 11.47, 'lipoC3S2': 7.6, 'rot1': 0, 'rot0': 0, 'rot3': 0, 'rot2': 0, 'state': 'normal', 'yaw': 2.36, 'datetime': '2018-10-09 23:50:30.831932', 'mgs': 0, 'volt': 0.835, 'depth': 0.546, 'time': 6, 'pitch': 0.25, 'roll': 2.77, 'pres': 171}
{'lipoC2': 7.27, 'lipoC3S1': 3.8, 'temp': 30.31, 'lipoC3S3': 11.47, 'lipoC3S2': 7.6, 'rot1': 0, 'rot0': 0, 'rot3': 0, 'rot2': 0, 'state': 'normal', 'yaw': 1.46, 'datetime': '2018-10-09 23:50:30.935177', 'mgs': 0, 'volt': 0.8301, 'depth': 0.47, 'time': 6, 'pitch': -0.93, 'roll': 3.25, 'pres': 170}
{'lipoC2': 7.28, 'lipoC3S1': 3.8, 'temp': 30.31, 'lipoC3S3': 11.47, 'lipoC3S2': 7.6, 'rot1': 0, 'rot0': 0, 'rot3': 0, 'rot2': 0, 'state': 'normal', 'yaw': 0.71, 'datetime': '2018-10-09 23:50:31.038570', 'mgs': 0, 'volt': 0.8301, 'depth': 0.47, 'time': 6, 'pitch': -1.59, 'roll': 4.22, 'pres': 170}
{'lipoC2': 7.27, 'lipoC3S1': 3.8, 'temp': 30.38, 'lipoC3S3': 11.47, 'lipoC3S2': 7.6, 'rot1': 0, 'rot0': 0, 'rot3': 0, 'rot2': 0, 'state': 'normal', 'yaw': 0.12, 'datetime': '2018-10-09 23:50:31.144194', 'mgs': 0, 'volt': 0.8301, 'depth': 0.47, 'time': 7, 'pitch': -1.78, 'roll': 5.15, 'pres': 170}
{'lipoC2': 7.27, 'lipoC3S1': 3.8, 'temp': 30.38, 'lipoC3S3': 11.47, 'lipoC3S2': 7.6, 'rot1': 0, 'rot0': 0, 'rot3': 0, 'rot2': 0, 'state': 'normal', 'yaw': -0.28, 'datetime': '2018-10-09 23:50:31.244996', 'mgs': 0, 'volt': 0.8252, 'depth': 0.394, 'time': 7, 'pitch': -1.84, 'roll': 5.6, 'pres': 169}
{'lipoC2': 7.27, 'lipoC3S1': 3.8, 'temp': 30.38, 'lipoC3S3': 11.47, 'lipoC3S2': 7.6, 'rot1': 0, 'rot0': 0, 'rot3': 0, 'rot2': 0, 'state': 'normal', 'yaw': -0.5, 'datetime': '2018-10-09 23:50:31.348877', 'mgs': 0, 'volt': 0.8301, 'depth': 0.47, 'time': 7, 'pitch': -2.08, 'roll': 5.29, 'pres': 170}
{'lipoC2': 7.27, 'lipoC3S1': 3.8, 'temp': 30.38, 'lipoC3S3': 11.47, 'lipoC3S2': 7.61, 'rot1': 0, 'rot0': 0, 'rot3': 0, 'rot2': 0, 'state': 'normal', 'yaw': -0.6, 'datetime': '2018-10-09 23:50:31.452079', 'mgs': 0, 'volt': 0.8301, 'depth': 0.47, 'time': 7, 'pitch': -2.18, 'roll': 4.22, 'pres': 170}
{'lipoC2': 7.27, 'lipoC3S1': 3.8, 'temp': 30.38, 'lipoC3S3': 11.47, 'lipoC3S2': 7.6, 'rot1': 0, 'rot0': 0, 'rot3': 0, 'rot2': 0, 'state': 'normal', 'yaw': -0.56, 'datetime': '2018-10-09 23:50:31.555470', 'mgs': 0, 'volt': 0.8301, 'depth': 0.47, 'time': 7, 'pitch': -2.02, 'roll': 3.17, 'pres': 170}
{'lipoC2': 7.27, 'lipoC3S1': 3.8, 'temp': 30.38, 'lipoC3S3': 11.47, 'lipoC3S2': 7.6, 'rot1': 0, 'rot0': 0, 'rot3': 0, 'rot2': 0, 'state': 'normal', 'yaw': -0.35, 'datetime': '2018-10-09 23:50:31.659784', 'mgs': 0, 'volt': 0.8301, 'depth': 0.47, 'time': 7, 'pitch': -1.72, 'roll': 2.52, 'pres': 170}
{'lipoC2': 7.28, 'lipoC3S1': 3.8, 'temp': 30.38, 'lipoC3S3': 11.47, 'lipoC3S2': 7.6, 'rot1': 0, 'rot0': 0, 'rot3': 0, 'rot2': 0, 'state': 'normal', 'yaw': -0.01, 'datetime': '2018-10-09 23:50:31.762992', 'mgs': 0, 'volt': 0.8301, 'depth': 0.47, 'time': 7, 'pitch': -1.41, 'roll': 2.47, 'pres': 170}
{'lipoC2': 7.27, 'lipoC3S1': 3.8, 'temp': 30.38, 'lipoC3S3': 11.47, 'lipoC3S2': 7.6, 'rot1': 0, 'rot0': 0, 'rot3': 0, 'rot2': 0, 'state': 'normal', 'yaw': 0.32, 'datetime': '2018-10-09 23:50:31.866418', 'mgs': 0, 'volt': 0.8301, 'depth': 0.47, 'time': 7, 'pitch': -1.8, 'roll': 3.31, 'pres': 170}
{'lipoC2': 7.27, 'lipoC3S1': 3.8, 'temp': 30.38, 'lipoC3S3': 11.47, 'lipoC3S2': 7.6, 'rot1': 0, 'rot0': 0, 'rot3': 0, 'rot2': 0, 'state': 'normal', 'yaw': 0.81, 'datetime': '2018-10-09 23:50:31.970823', 'mgs': 0, 'volt': 0.835, 'depth': 0.546, 'time': 7, 'pitch': -2.69, 'roll': 4.56, 'pres': 171}
{'lipoC2': 7.28, 'lipoC3S1': 3.8, 'temp': 30.38, 'lipoC3S3': 11.47, 'lipoC3S2': 7.6, 'rot1': 0, 'rot0': 0, 'rot3': 0, 'rot2': 0, 'state': 'normal', 'yaw': 2.12, 'datetime': '2018-10-09 23:50:32.074108', 'mgs': 0, 'volt': 0.8301, 'depth': 0.47, 'time': 7, 'pitch': -3.7, 'roll': 5.29, 'pres': 170}
{'lipoC2': 7.27, 'lipoC3S1': 3.8, 'temp': 30.31, 'lipoC3S3': 11.47, 'lipoC3S2': 7.6, 'rot1': 0, 'rot0': 0, 'rot3': 0, 'rot2': 0, 'state': 'normal', 'yaw': 3.99, 'datetime': '2018-10-09 23:50:32.177284', 'mgs': 0, 'volt': 0.8252, 'depth': 0.394, 'time': 8, 'pitch': -3.8, 'roll': 5.06, 'pres': 169}
{'lipoC2': 7.27, 'lipoC3S1': 3.8, 'temp': 30.31, 'lipoC3S3': 11.47, 'lipoC3S2': 7.6, 'rot1': 0, 'rot0': 0, 'rot3': 0, 'rot2': 0, 'state': 'normal', 'yaw': 5.86, 'datetime': '2018-10-09 23:50:32.280521', 'mgs': 0, 'volt': 0.8252, 'depth': 0.394, 'time': 8, 'pitch': -3.18, 'roll': 4.05, 'pres': 169}
{'lipoC2': 7.27, 'lipoC3S1': 3.8, 'temp': 30.31, 'lipoC3S3': 11.47, 'lipoC3S2': 7.61, 'rot1': 0, 'rot0': 0, 'rot3': 0, 'rot2': 0, 'state': 'normal', 'yaw': 7.47, 'datetime': '2018-10-09 23:50:32.383801', 'mgs': 0, 'volt': 0.8252, 'depth': 0.394, 'time': 8, 'pitch': -2.1, 'roll': 2.5, 'pres': 169}
{'lipoC2': 7.27, 'lipoC3S1': 3.8, 'temp': 30.31, 'lipoC3S3': 11.47, 'lipoC3S2': 7.6, 'rot1': 0, 'rot0': 0, 'rot3': 0, 'rot2': 0, 'state': 'normal', 'yaw': 8.31, 'datetime': '2018-10-09 23:50:32.486989', 'mgs': 0, 'volt': 0.8252, 'depth': 0.394, 'time': 8, 'pitch': -1.09, 'roll': 1.26, 'pres': 169}
{'lipoC2': 7.27, 'lipoC3S1': 3.8, 'temp': 30.31, 'lipoC3S3': 11.47, 'lipoC3S2': 7.6, 'rot1': 0, 'rot0': 0, 'rot3': 0, 'rot2': 0, 'state': 'normal', 'yaw': 8.54, 'datetime': '2018-10-09 23:50:32.590226', 'mgs': 0, 'volt': 0.8252, 'depth': 0.394, 'time': 8, 'pitch': -0.41, 'roll': 0.59, 'pres': 169}
{'lipoC2': 7.27, 'lipoC3S1': 3.8, 'temp': 30.31, 'lipoC3S3': 11.47, 'lipoC3S2': 7.6, 'rot1': 0, 'rot0': 0, 'rot3': 0, 'rot2': 0, 'state': 'normal', 'yaw': 8.52, 'datetime': '2018-10-09 23:50:32.693515', 'mgs': 0, 'volt': 0.8252, 'depth': 0.394, 'time': 8, 'pitch': -0.54, 'roll': 0.61, 'pres': 169}
{'lipoC2': 7.27, 'lipoC3S1': 3.8, 'temp': 30.31, 'lipoC3S3': 11.47, 'lipoC3S2': 7.6, 'rot1': 0, 'rot0': 0, 'rot3': 0, 'rot2': 0, 'state': 'normal', 'yaw': 8.48, 'datetime': '2018-10-09 23:50:32.796659', 'mgs': 0, 'volt': 0.8252, 'depth': 0.394, 'time': 8, 'pitch': -1.06, 'roll': 1.05, 'pres': 169}
{'lipoC2': 7.28, 'lipoC3S1': 3.8, 'temp': 30.31, 'lipoC3S3': 11.47, 'lipoC3S2': 7.6, 'rot1': 0, 'rot0': 0, 'rot3': 0, 'rot2': 0, 'state': 'normal', 'yaw': 8.39, 'datetime': '2018-10-09 23:50:32.899855', 'mgs': 0, 'volt': 0.8252, 'depth': 0.394, 'time': 8, 'pitch': -1.51, 'roll': 1.77, 'pres': 169}
{'lipoC2': 7.27, 'lipoC3S1': 3.8, 'temp': 30.31, 'lipoC3S3': 11.47, 'lipoC3S2': 7.6, 'rot1': 0, 'rot0': 0, 'rot3': 0, 'rot2': 0, 'state': 'normal', 'yaw': 8.58, 'datetime': '2018-10-09 23:50:33.003587', 'mgs': 0, 'volt': 0.8252, 'depth': 0.394, 'time': 8, 'pitch': -1.47, 'roll': 2.41, 'pres': 169}
{'lipoC2': 7.27, 'lipoC3S1': 3.8, 'temp': 30.31, 'lipoC3S3': 11.47, 'lipoC3S2': 7.6, 'rot1': 0, 'rot0': 0, 'rot3': 0, 'rot2': 0, 'state': 'normal', 'yaw': 8.98, 'datetime': '2018-10-09 23:50:33.106770', 'mgs': 0, 'volt': 0.8252, 'depth': 0.394, 'time': 9, 'pitch': -0.85, 'roll': 2.75, 'pres': 169}
{'lipoC2': 7.27, 'lipoC3S1': 3.8, 'temp': 30.31, 'lipoC3S3': 11.47, 'lipoC3S2': 7.6, 'rot1': 0, 'rot0': 0, 'rot3': 0, 'rot2': 0, 'state': 'normal', 'yaw': 9.33, 'datetime': '2018-10-09 23:50:33.211095', 'mgs': 0, 'volt': 0.8252, 'depth': 0.394, 'time': 9, 'pitch': -0.26, 'roll': 2.71, 'pres': 169}
{'lipoC2': 7.27, 'lipoC3S1': 3.8, 'temp': 30.31, 'lipoC3S3': 11.47, 'lipoC3S2': 7.6, 'rot1': 0, 'rot0': 0, 'rot3': 0, 'rot2': 0, 'state': 'normal', 'yaw': 9.38, 'datetime': '2018-10-09 23:50:33.314547', 'mgs': 0, 'volt': 0.8252, 'depth': 0.394, 'time': 9, 'pitch': 0.16, 'roll': 2.28, 'pres': 169}
{'lipoC2': 7.28, 'lipoC3S1': 3.8, 'temp': 30.31, 'lipoC3S3': 11.47, 'lipoC3S2': 7.6, 'rot1': 0, 'rot0': 0, 'rot3': 0, 'rot2': 0, 'state': 'normal', 'yaw': 9.12, 'datetime': '2018-10-09 23:50:33.417779', 'mgs': 0, 'volt': 0.8252, 'depth': 0.394, 'time': 9, 'pitch': 0.5, 'roll': 1.82, 'pres': 169}
{'lipoC2': 7.27, 'lipoC3S1': 3.8, 'temp': 30.31, 'lipoC3S3': 11.47, 'lipoC3S2': 7.6, 'rot1': 0, 'rot0': 0, 'rot3': 0, 'rot2': 0, 'state': 'normal', 'yaw': 8.66, 'datetime': '2018-10-09 23:50:33.522328', 'mgs': 0, 'volt': 0.8301, 'depth': 0.47, 'time': 9, 'pitch': 0.61, 'roll': 1.62, 'pres': 170}
{'lipoC2': 7.27, 'lipoC3S1': 3.8, 'temp': 30.38, 'lipoC3S3': 11.47, 'lipoC3S2': 7.6, 'rot1': 0, 'rot0': 0, 'rot3': 0, 'rot2': 0, 'state': 'normal', 'yaw': 8.09, 'datetime': '2018-10-09 23:50:33.625518', 'mgs': 0, 'volt': 0.8301, 'depth': 0.47, 'time': 9, 'pitch': 0.19, 'roll': 1.88, 'pres': 170}
{'lipoC2': 7.28, 'lipoC3S1': 3.8, 'temp': 30.38, 'lipoC3S3': 11.47, 'lipoC3S2': 7.6, 'rot1': 0, 'rot0': 0, 'rot3': 0, 'rot2': 0, 'state': 'normal', 'yaw': 7.86, 'datetime': '2018-10-09 23:50:33.728759', 'mgs': 0, 'volt': 0.835, 'depth': 0.546, 'time': 9, 'pitch': -0.25, 'roll': 2.46, 'pres': 171}
{'lipoC2': 7.27, 'lipoC3S1': 3.8, 'temp': 30.38, 'lipoC3S3': 11.47, 'lipoC3S2': 7.6, 'rot1': 0, 'rot0': 0, 'rot3': 0, 'rot2': 0, 'state': 'normal', 'yaw': 7.98, 'datetime': '2018-10-09 23:50:33.831961', 'mgs': 0, 'volt': 0.8301, 'depth': 0.47, 'time': 9, 'pitch': -0.71, 'roll': 3.11, 'pres': 170}
{'lipoC2': 7.27, 'lipoC3S1': 3.8, 'temp': 30.38, 'lipoC3S3': 11.47, 'lipoC3S2': 7.6, 'rot1': 0, 'rot0': 0, 'rot3': 0, 'rot2': 0, 'state': 'normal', 'yaw': 8.26, 'datetime': '2018-10-09 23:50:33.935485', 'mgs': 0, 'volt': 0.835, 'depth': 0.546, 'time': 9, 'pitch': -1.4, 'roll': 3.74, 'pres': 171}
{'lipoC2': 7.27, 'lipoC3S1': 3.8, 'temp': 30.38, 'lipoC3S3': 11.47, 'lipoC3S2': 7.6, 'rot1': 0, 'rot0': 0, 'rot3': 0, 'rot2': 0, 'state': 'normal', 'yaw': 8.59, 'datetime': '2018-10-09 23:50:34.038715', 'mgs': 0, 'volt': 0.835, 'depth': 0.546, 'time': 9, 'pitch': -2.19, 'roll': 4.26, 'pres': 171}
{'lipoC2': 7.27, 'lipoC3S1': 3.8, 'temp': 30.38, 'lipoC3S3': 11.47, 'lipoC3S2': 7.6, 'rot1': 0, 'rot0': 0, 'rot3': 0, 'rot2': 0, 'state': 'normal', 'yaw': 8.89, 'datetime': '2018-10-09 23:50:34.142066', 'mgs': 0, 'volt': 0.8398, 'depth': 0.623, 'time': 10, 'pitch': -2.77, 'roll': 4.5, 'pres': 172}
{'lipoC2': 7.27, 'lipoC3S1': 3.8, 'temp': 30.38, 'lipoC3S3': 11.47, 'lipoC3S2': 7.6, 'rot1': 0, 'rot0': 0, 'rot3': 0, 'rot2': 0, 'state': 'normal', 'yaw': 9.09, 'datetime': '2018-10-09 23:50:34.245381', 'mgs': 0, 'volt': 0.8398, 'depth': 0.623, 'time': 10, 'pitch': -3.23, 'roll': 4.61, 'pres': 172}
{'lipoC2': 7.28, 'lipoC3S1': 3.8, 'temp': 30.31, 'lipoC3S3': 11.47, 'lipoC3S2': 7.6, 'rot1': 0, 'rot0': 0, 'rot3': 0, 'rot2': 0, 'state': 'normal', 'yaw': 9.13, 'datetime': '2018-10-09 23:50:34.348732', 'mgs': 0, 'volt': 0.8398, 'depth': 0.623, 'time': 10, 'pitch': -3.79, 'roll': 4.92, 'pres': 172}
{'lipoC2': 7.27, 'lipoC3S1': 3.8, 'temp': 30.31, 'lipoC3S3': 11.47, 'lipoC3S2': 7.6, 'rot1': 0, 'rot0': 0, 'rot3': 0, 'rot2': 0, 'state': 'normal', 'yaw': 9.2, 'datetime': '2018-10-09 23:50:34.452086', 'mgs': 0, 'volt': 0.835, 'depth': 0.546, 'time': 10, 'pitch': -4.56, 'roll': 5.46, 'pres': 171}
{'lipoC2': 7.27, 'lipoC3S1': 3.8, 'temp': 30.38, 'lipoC3S3': 11.47, 'lipoC3S2': 7.6, 'rot1': 0, 'rot0': 0, 'rot3': 0, 'rot2': 0, 'state': 'normal', 'yaw': 9.42, 'datetime': '2018-10-09 23:50:34.555429', 'mgs': 0, 'volt': 0.8398, 'depth': 0.623, 'time': 10, 'pitch': -5.62, 'roll': 6.13, 'pres': 172}
{'lipoC2': 7.27, 'lipoC3S1': 3.8, 'temp': 30.38, 'lipoC3S3': 11.47, 'lipoC3S2': 7.6, 'rot1': 0, 'rot0': 0, 'rot3': 0, 'rot2': 0, 'state': 'normal', 'yaw': 9.69, 'datetime': '2018-10-09 23:50:34.659563', 'mgs': 0, 'volt': 0.8398, 'depth': 0.623, 'time': 10, 'pitch': -6.98, 'roll': 6.84, 'pres': 172}
{'lipoC2': 7.28, 'lipoC3S1': 3.8, 'temp': 30.38, 'lipoC3S3': 11.47, 'lipoC3S2': 7.6, 'rot1': 0, 'rot0': 0, 'rot3': 0, 'rot2': 0, 'state': 'normal', 'yaw': 10.03, 'datetime': '2018-10-09 23:50:34.762244', 'mgs': 0, 'volt': 0.8398, 'depth': 0.623, 'time': 10, 'pitch': -7.99, 'roll': 7.27, 'pres': 172}
{'lipoC2': 7.27, 'lipoC3S1': 3.8, 'temp': 30.38, 'lipoC3S3': 11.47, 'lipoC3S2': 7.6, 'rot1': 0, 'rot0': 0, 'rot3': 0, 'rot2': 0, 'state': 'normal', 'yaw': 10.5, 'datetime': '2018-10-09 23:50:34.866909', 'mgs': 0, 'volt': 0.8447, 'depth': 0.699, 'time': 10, 'pitch': -8.3, 'roll': 7.42, 'pres': 173}
{'lipoC2': 7.27, 'lipoC3S1': 3.8, 'temp': 30.38, 'lipoC3S3': 11.47, 'lipoC3S2': 7.6, 'rot1': 0, 'rot0': 0, 'rot3': 0, 'rot2': 0, 'state': 'normal', 'yaw': 11.16, 'datetime': '2018-10-09 23:50:34.970251', 'mgs': 0, 'volt': 0.8447, 'depth': 0.699, 'time': 10, 'pitch': -7.65, 'roll': 7.34, 'pres': 173}
{'lipoC2': 7.27, 'lipoC3S1': 3.8, 'temp': 30.31, 'lipoC3S3': 11.47, 'lipoC3S2': 7.6, 'rot1': 0, 'rot0': 0, 'rot3': 0, 'rot2': 0, 'state': 'normal', 'yaw': 11.75, 'datetime': '2018-10-09 23:50:35.073675', 'mgs': 0, 'volt': 0.8447, 'depth': 0.699, 'time': 10, 'pitch': -6.37, 'roll': 7.06, 'pres': 173}
{'lipoC2': 7.27, 'lipoC3S1': 3.8, 'temp': 30.31, 'lipoC3S3': 11.47, 'lipoC3S2': 7.6, 'rot1': 0, 'rot0': 0, 'rot3': 0, 'rot2': 0, 'state': 'normal', 'yaw': 12.18, 'datetime': '2018-10-09 23:50:35.178366', 'mgs': 0, 'volt': 0.8398, 'depth': 0.623, 'time': 11, 'pitch': -5.17, 'roll': 6.64, 'pres': 172}
{'lipoC2': 7.28, 'lipoC3S1': 3.8, 'temp': 30.31, 'lipoC3S3': 11.47, 'lipoC3S2': 7.61, 'rot1': 0, 'rot0': 0, 'rot3': 0, 'rot2': 0, 'state': 'normal', 'yaw': 12.34, 'datetime': '2018-10-09 23:50:35.281759', 'mgs': 0, 'volt': 0.8398, 'depth': 0.623, 'time': 11, 'pitch': -4.55, 'roll': 6.15, 'pres': 172}
{'lipoC2': 7.27, 'lipoC3S1': 3.8, 'temp': 30.31, 'lipoC3S3': 11.47, 'lipoC3S2': 7.6, 'rot1': 0, 'rot0': 0, 'rot3': 0, 'rot2': 0, 'state': 'normal', 'yaw': 12.29, 'datetime': '2018-10-09 23:50:35.385159', 'mgs': 1, 'volt': 0.8398, 'depth': 0.623, 'time': 11, 'pitch': -4.62, 'roll': 5.83, 'pres': 172}
{'lipoC2': 7.27, 'lipoC3S1': 3.8, 'temp': 30.31, 'lipoC3S3': 11.47, 'lipoC3S2': 7.6, 'rot1': 0, 'rot0': 0, 'rot3': 0, 'rot2': 0, 'state': 'normal', 'yaw': 0.0, 'datetime': '2018-10-09 23:50:39.914629', 'mgs': 0, 'volt': 0.8252, 'depth': 0.394, 'time': 1, 'pitch': -3.31, 'roll': 4.91, 'pres': 169}
{'lipoC2': 7.27, 'lipoC3S1': 3.8, 'temp': 30.31, 'lipoC3S3': 11.47, 'lipoC3S2': 7.6, 'rot1': 0, 'rot0': 0, 'rot3': 0, 'rot2': 0, 'state': 'normal', 'yaw': 0.16, 'datetime': '2018-10-09 23:50:42.965344', 'mgs': 0, 'volt': 0.8252, 'depth': 0.394, 'time': 1, 'pitch': -2.4, 'roll': 4.69, 'pres': 169}
{'lipoC2': 7.27, 'lipoC3S1': 3.8, 'temp': 30.31, 'lipoC3S3': 11.47, 'lipoC3S2': 7.6, 'rot1': 0, 'rot0': 0, 'rot3': 0, 'rot2': 0, 'state': 'normal', 'yaw': 0.36, 'datetime': '2018-10-09 23:50:42.994243', 'mgs': 0, 'volt': 0.8252, 'depth': 0.394, 'time': 1, 'pitch': -1.3, 'roll': 4.79, 'pres': 169}
{'lipoC2': 7.27, 'lipoC3S1': 3.8, 'temp': 30.31, 'lipoC3S3': 11.47, 'lipoC3S2': 7.6, 'rot1': 0, 'rot0': 0, 'rot3': 0, 'rot2': 0, 'state': 'normal', 'yaw': 0.64, 'datetime': '2018-10-09 23:50:43.017154', 'mgs': 0, 'volt': 0.8252, 'depth': 0.394, 'time': 1, 'pitch': -0.28, 'roll': 5.07, 'pres': 169}
{'lipoC2': 7.27, 'lipoC3S1': 3.8, 'temp': 30.31, 'lipoC3S3': 11.47, 'lipoC3S2': 7.6, 'rot1': 0, 'rot0': 0, 'rot3': 0, 'rot2': 0, 'state': 'normal', 'yaw': 0.88, 'datetime': '2018-10-09 23:50:43.034714', 'mgs': 0, 'volt': 0.8252, 'depth': 0.394, 'time': 1, 'pitch': 0.28, 'roll': 5.32, 'pres': 169}
{'lipoC2': 7.27, 'lipoC3S1': 3.8, 'temp': 30.31, 'lipoC3S3': 11.47, 'lipoC3S2': 7.6, 'rot1': 0, 'rot0': 0, 'rot3': 0, 'rot2': 0, 'state': 'normal', 'yaw': 0.95, 'datetime': '2018-10-09 23:50:43.050548', 'mgs': 0, 'volt': 0.8252, 'depth': 0.394, 'time': 1, 'pitch': 0.1, 'roll': 5.46, 'pres': 169}
{'lipoC2': 7.27, 'lipoC3S1': 3.8, 'temp': 30.31, 'lipoC3S3': 11.47, 'lipoC3S2': 7.6, 'rot1': 0, 'rot0': 0, 'rot3': 0, 'rot2': 0, 'state': 'normal', 'yaw': 0.8, 'datetime': '2018-10-09 23:50:43.060486', 'mgs': 0, 'volt': 0.8252, 'depth': 0.394, 'time': 1, 'pitch': -0.78, 'roll': 5.51, 'pres': 169}
{'lipoC2': 7.28, 'lipoC3S1': 3.8, 'temp': 30.31, 'lipoC3S3': 11.48, 'lipoC3S2': 7.61, 'rot1': 0, 'rot0': 0, 'rot3': 0, 'rot2': 0, 'state': 'normal', 'yaw': 0.55, 'datetime': '2018-10-09 23:50:43.076336', 'mgs': 0, 'volt': 0.8301, 'depth': 0.47, 'time': 1, 'pitch': -1.64, 'roll': 5.61, 'pres': 170}
{'lipoC2': 7.28, 'lipoC3S1': 3.8, 'temp': 30.31, 'lipoC3S3': 11.48, 'lipoC3S2': 7.61, 'rot1': 0, 'rot0': 0, 'rot3': 0, 'rot2': 0, 'state': 'normal', 'yaw': 0.3, 'datetime': '2018-10-09 23:50:43.092185', 'mgs': 0, 'volt': 0.8301, 'depth': 0.47, 'time': 2, 'pitch': -2.02, 'roll': 5.88, 'pres': 170}
{'lipoC2': 7.28, 'lipoC3S1': 3.8, 'temp': 30.31, 'lipoC3S3': 11.48, 'lipoC3S2': 7.61, 'rot1': 0, 'rot0': 0, 'rot3': 0, 'rot2': 0, 'state': 'normal', 'yaw': 0.24, 'datetime': '2018-10-09 23:50:43.102158', 'mgs': 0, 'volt': 0.8301, 'depth': 0.47, 'time': 2, 'pitch': -1.81, 'roll': 6.18, 'pres': 170}
{'lipoC2': 7.28, 'lipoC3S1': 3.8, 'temp': 30.31, 'lipoC3S3': 11.47, 'lipoC3S2': 7.61, 'rot1': 0, 'rot0': 0, 'rot3': 0, 'rot2': 0, 'state': 'normal', 'yaw': 0.34, 'datetime': '2018-10-09 23:50:43.118046', 'mgs': 0, 'volt': 0.8301, 'depth': 0.47, 'time': 2, 'pitch': -0.93, 'roll': 6.45, 'pres': 170}
{'lipoC2': 7.28, 'lipoC3S1': 3.8, 'temp': 30.31, 'lipoC3S3': 11.48, 'lipoC3S2': 7.6, 'rot1': 0, 'rot0': 0, 'rot3': 0, 'rot2': 0, 'state': 'normal', 'yaw': 0.54, 'datetime': '2018-10-09 23:50:43.133922', 'mgs': 0, 'volt': 0.8301, 'depth': 0.47, 'time': 2, 'pitch': 0.29, 'roll': 6.39, 'pres': 170}
{'lipoC2': 7.28, 'lipoC3S1': 3.8, 'temp': 30.31, 'lipoC3S3': 11.47, 'lipoC3S2': 7.6, 'rot1': 0, 'rot0': 0, 'rot3': 0, 'rot2': 0, 'state': 'normal', 'yaw': 0.75, 'datetime': '2018-10-09 23:50:43.143859', 'mgs': 0, 'volt': 0.8301, 'depth': 0.47, 'time': 2, 'pitch': 1.51, 'roll': 6.1, 'pres': 170}
{'lipoC2': 7.27, 'lipoC3S1': 3.8, 'temp': 30.31, 'lipoC3S3': 11.47, 'lipoC3S2': 7.6, 'rot1': 0, 'rot0': 0, 'rot3': 0, 'rot2': 0, 'state': 'normal', 'yaw': 0.71, 'datetime': '2018-10-09 23:50:43.159820', 'mgs': 0, 'volt': 0.8252, 'depth': 0.394, 'time': 2, 'pitch': 2.02, 'roll': 5.81, 'pres': 169}
{'lipoC2': 7.27, 'lipoC3S1': 3.8, 'temp': 30.31, 'lipoC3S3': 11.47, 'lipoC3S2': 7.6, 'rot1': 0, 'rot0': 0, 'rot3': 0, 'rot2': 0, 'state': 'normal', 'yaw': 0.32, 'datetime': '2018-10-09 23:50:43.175666', 'mgs': 0, 'volt': 0.8301, 'depth': 0.47, 'time': 2, 'pitch': 1.53, 'roll': 5.72, 'pres': 170}
{'lipoC2': 7.27, 'lipoC3S1': 3.8, 'temp': 30.31, 'lipoC3S3': 11.47, 'lipoC3S2': 7.6, 'rot1': 0, 'rot0': 0, 'rot3': 0, 'rot2': 0, 'state': 'normal', 'yaw': -0.31, 'datetime': '2018-10-09 23:50:43.185607', 'mgs': 0, 'volt': 0.8301, 'depth': 0.47, 'time': 2, 'pitch': 0.51, 'roll': 5.76, 'pres': 170}
{'lipoC2': 7.28, 'lipoC3S1': 3.8, 'temp': 30.38, 'lipoC3S3': 11.47, 'lipoC3S2': 7.61, 'rot1': 0, 'rot0': 0, 'rot3': 0, 'rot2': 0, 'state': 'normal', 'yaw': -0.88, 'datetime': '2018-10-09 23:50:43.201436', 'mgs': 0, 'volt': 0.8301, 'depth': 0.47, 'time': 2, 'pitch': -0.43, 'roll': 5.69, 'pres': 170}
{'lipoC2': 7.28, 'lipoC3S1': 3.8, 'temp': 30.38, 'lipoC3S3': 11.48, 'lipoC3S2': 7.61, 'rot1': 0, 'rot0': 0, 'rot3': 0, 'rot2': 0, 'state': 'normal', 'yaw': -1.59, 'datetime': '2018-10-09 23:50:43.217325', 'mgs': 0, 'volt': 0.8301, 'depth': 0.47, 'time': 3, 'pitch': -0.95, 'roll': 5.26, 'pres': 170}
{'lipoC2': 7.28, 'lipoC3S1': 3.8, 'temp': 30.38, 'lipoC3S3': 11.48, 'lipoC3S2': 7.61, 'rot1': 0, 'rot0': 0, 'rot3': 0, 'rot2': 0, 'state': 'normal', 'yaw': -2.32, 'datetime': '2018-10-09 23:50:43.227255', 'mgs': 0, 'volt': 0.8301, 'depth': 0.47, 'time': 3, 'pitch': -0.91, 'roll': 4.47, 'pres': 170}
{'lipoC2': 7.28, 'lipoC3S1': 3.8, 'temp': 30.31, 'lipoC3S3': 11.47, 'lipoC3S2': 7.61, 'rot1': 0, 'rot0': 0, 'rot3': 0, 'rot2': 0, 'state': 'normal', 'yaw': -3.28, 'datetime': '2018-10-09 23:50:43.243063', 'mgs': 0, 'volt': 0.8301, 'depth': 0.47, 'time': 3, 'pitch': -0.08, 'roll': 3.7, 'pres': 170}
{'lipoC2': 7.27, 'lipoC3S1': 3.8, 'temp': 30.31, 'lipoC3S3': 11.48, 'lipoC3S2': 7.61, 'rot1': 0, 'rot0': 0, 'rot3': 0, 'rot2': 0, 'state': 'normal', 'yaw': -4.44, 'datetime': '2018-10-09 23:50:43.258955', 'mgs': 0, 'volt': 0.8252, 'depth': 0.394, 'time': 3, 'pitch': 0.78, 'roll': 3.23, 'pres': 169}
{'lipoC2': 7.27, 'lipoC3S1': 3.8, 'temp': 30.31, 'lipoC3S3': 11.47, 'lipoC3S2': 7.6, 'rot1': 0, 'rot0': 0, 'rot3': 0, 'rot2': 0, 'state': 'normal', 'yaw': -5.39, 'datetime': '2018-10-09 23:50:43.268940', 'mgs': 0, 'volt': 0.8301, 'depth': 0.47, 'time': 3, 'pitch': 0.56, 'roll': 3.25, 'pres': 170}
{'lipoC2': 7.27, 'lipoC3S1': 3.8, 'temp': 30.31, 'lipoC3S3': 11.47, 'lipoC3S2': 7.6, 'rot1': 0, 'rot0': 0, 'rot3': 0, 'rot2': 0, 'state': 'normal', 'yaw': -6.03, 'datetime': '2018-10-09 23:50:43.284806', 'mgs': 0, 'volt': 0.8301, 'depth': 0.47, 'time': 3, 'pitch': -0.71, 'roll': 3.36, 'pres': 170}
{'lipoC2': 7.27, 'lipoC3S1': 3.8, 'temp': 30.31, 'lipoC3S3': 11.47, 'lipoC3S2': 7.6, 'rot1': 0, 'rot0': 0, 'rot3': 0, 'rot2': 0, 'state': 'normal', 'yaw': -6.21, 'datetime': '2018-10-09 23:50:43.300644', 'mgs': 0, 'volt': 0.8301, 'depth': 0.47, 'time': 3, 'pitch': -1.86, 'roll': 3.44, 'pres': 170}
{'lipoC2': 7.28, 'lipoC3S1': 3.8, 'temp': 30.31, 'lipoC3S3': 11.47, 'lipoC3S2': 7.6, 'rot1': 0, 'rot0': 0, 'rot3': 0, 'rot2': 0, 'state': 'normal', 'yaw': -5.53, 'datetime': '2018-10-09 23:50:43.310585', 'mgs': 0, 'volt': 0.8252, 'depth': 0.394, 'time': 3, 'pitch': -2.19, 'roll': 3.1, 'pres': 169}
{'lipoC2': 7.28, 'lipoC3S1': 3.8, 'temp': 30.31, 'lipoC3S3': 11.47, 'lipoC3S2': 7.6, 'rot1': 0, 'rot0': 0, 'rot3': 0, 'rot2': 0, 'state': 'normal', 'yaw': -4.47, 'datetime': '2018-10-09 23:50:43.326385', 'mgs': 0, 'volt': 0.8252, 'depth': 0.394, 'time': 3, 'pitch': -1.99, 'roll': 2.2, 'pres': 169}
{'lipoC2': 7.28, 'lipoC3S1': 3.8, 'temp': 30.38, 'lipoC3S3': 11.47, 'lipoC3S2': 7.61, 'rot1': 0, 'rot0': 0, 'rot3': 0, 'rot2': 0, 'state': 'normal', 'yaw': -3.47, 'datetime': '2018-10-09 23:50:43.342215', 'mgs': 0, 'volt': 0.8252, 'depth': 0.394, 'time': 3, 'pitch': -1.4, 'roll': 1.17, 'pres': 169}
{'lipoC2': 7.28, 'lipoC3S1': 3.8, 'temp': 30.38, 'lipoC3S3': 11.48, 'lipoC3S2': 7.61, 'rot1': 0, 'rot0': 0, 'rot3': 0, 'rot2': 0, 'state': 'normal', 'yaw': -3.01, 'datetime': '2018-10-09 23:50:43.352309', 'mgs': 0, 'volt': 0.8252, 'depth': 0.394, 'time': 4, 'pitch': -0.47, 'roll': 0.53, 'pres': 169}
{'lipoC2': 7.27, 'lipoC3S1': 3.8, 'temp': 30.31, 'lipoC3S3': 11.47, 'lipoC3S2': 7.61, 'rot1': 0, 'rot0': 0, 'rot3': 0, 'rot2': 0, 'state': 'normal', 'yaw': -3.05, 'datetime': '2018-10-09 23:50:43.368176', 'mgs': 0, 'volt': 0.8252, 'depth': 0.394, 'time': 4, 'pitch': 0.67, 'roll': 0.57, 'pres': 169}
{'lipoC2': 7.28, 'lipoC3S1': 3.8, 'temp': 30.31, 'lipoC3S3': 11.47, 'lipoC3S2': 7.61, 'rot1': 0, 'rot0': 0, 'rot3': 0, 'rot2': 0, 'state': 'normal', 'yaw': -3.22, 'datetime': '2018-10-09 23:50:43.384059', 'mgs': 0, 'volt': 0.8252, 'depth': 0.394, 'time': 4, 'pitch': 1.22, 'roll': 1.25, 'pres': 169}
{'lipoC2': 7.28, 'lipoC3S1': 3.8, 'temp': 30.31, 'lipoC3S3': 11.48, 'lipoC3S2': 7.61, 'rot1': 0, 'rot0': 0, 'rot3': 0, 'rot2': 0, 'state': 'normal', 'yaw': -3.09, 'datetime': '2018-10-09 23:50:43.394015', 'mgs': 0, 'volt': 0.8252, 'depth': 0.394, 'time': 4, 'pitch': 0.55, 'roll': 2.24, 'pres': 169}
{'lipoC2': 7.27, 'lipoC3S1': 3.8, 'temp': 30.38, 'lipoC3S3': 11.47, 'lipoC3S2': 7.6, 'rot1': 0, 'rot0': 0, 'rot3': 0, 'rot2': 0, 'state': 'normal', 'yaw': -2.36, 'datetime': '2018-10-09 23:50:43.409859', 'mgs': 0, 'volt': 0.8252, 'depth': 0.394, 'time': 4, 'pitch': -0.53, 'roll': 2.97, 'pres': 169}
{'lipoC2': 7.27, 'lipoC3S1': 3.77, 'temp': 30.38, 'lipoC3S3': 11.42, 'lipoC3S2': 7.56, 'rot1': 0, 'rot0': 0, 'rot3': 1, 'rot2': 0, 'state': 'normal', 'yaw': -1.08, 'datetime': '2018-10-09 23:50:43.425694', 'mgs': 0, 'volt': 0.8203, 'depth': 0.317, 'time': 4, 'pitch': -1.08, 'roll': 3.08, 'pres': 168}
{'lipoC2': 7.27, 'lipoC3S1': 3.77, 'temp': 30.31, 'lipoC3S3': 11.43, 'lipoC3S2': 7.56, 'rot1': 0, 'rot0': 0, 'rot3': 2, 'rot2': 1, 'state': 'normal', 'yaw': -0.07, 'datetime': '2018-10-09 23:50:43.435685', 'mgs': 0, 'volt': 0.8398, 'depth': 0.623, 'time': 4, 'pitch': -0.78, 'roll': 2.75, 'pres': 172}
{'lipoC2': 7.27, 'lipoC3S1': 3.77, 'temp': 30.31, 'lipoC3S3': 11.44, 'lipoC3S2': 7.57, 'rot1': 0, 'rot0': 0, 'rot3': 3, 'rot2': 2, 'state': 'normal', 'yaw': 0.51, 'datetime': '2018-10-09 23:50:43.451508', 'mgs': 0, 'volt': 0.835, 'depth': 0.546, 'time': 4, 'pitch': -0.1, 'roll': 2.04, 'pres': 171}
{'lipoC2': 7.27, 'lipoC3S1': 3.8, 'temp': 30.31, 'lipoC3S3': 11.42, 'lipoC3S2': 7.59, 'rot1': 0, 'rot0': 0, 'rot3': 4, 'rot2': 2, 'state': 'normal', 'yaw': 0.47, 'datetime': '2018-10-09 23:50:43.467347', 'mgs': 0, 'volt': 0.8301, 'depth': 0.47, 'time': 4, 'pitch': 0.62, 'roll': 1.34, 'pres': 170}
{'lipoC2': 7.27, 'lipoC3S1': 3.77, 'temp': 30.31, 'lipoC3S3': 11.43, 'lipoC3S2': 7.56, 'rot1': 0, 'rot0': 0, 'rot3': 5, 'rot2': 3, 'state': 'normal', 'yaw': -0.05, 'datetime': '2018-10-09 23:50:43.477318', 'mgs': 0, 'volt': 0.8105, 'depth': 0.165, 'time': 4, 'pitch': 0.95, 'roll': 1.29, 'pres': 166}
{'lipoC2': 7.27, 'lipoC3S1': 3.77, 'temp': 30.31, 'lipoC3S3': 11.46, 'lipoC3S2': 7.57, 'rot1': 0, 'rot0': 0, 'rot3': 6, 'rot2': 4, 'state': 'normal', 'yaw': -0.62, 'datetime': '2018-10-09 23:50:43.493131', 'mgs': 0, 'volt': 0.8301, 'depth': 0.47, 'time': 5, 'pitch': 0.85, 'roll': 2.33, 'pres': 170}
{'lipoC2': 7.27, 'lipoC3S1': 3.79, 'temp': 30.31, 'lipoC3S3': 11.4, 'lipoC3S2': 7.55, 'rot1': 0, 'rot0': 0, 'rot3': 7, 'rot2': 5, 'state': 'normal', 'yaw': -0.69, 'datetime': '2018-10-09 23:50:43.509020', 'mgs': 0, 'volt': 0.8203, 'depth': 0.317, 'time': 5, 'pitch': 0.49, 'roll': 4.34, 'pres': 168}
{'lipoC2': 7.27, 'lipoC3S1': 3.77, 'temp': 30.31, 'lipoC3S3': 11.44, 'lipoC3S2': 7.57, 'rot1': 0, 'rot0': 0, 'rot3': 8, 'rot2': 6, 'state': 'normal', 'yaw': -0.17, 'datetime': '2018-10-09 23:50:43.519018', 'mgs': 0, 'volt': 0.8301, 'depth': 0.47, 'time': 5, 'pitch': 0.19, 'roll': 6.33, 'pres': 170}
{'lipoC2': 7.27, 'lipoC3S1': 3.79, 'temp': 30.38, 'lipoC3S3': 11.42, 'lipoC3S2': 7.59, 'rot1': 0, 'rot0': 0, 'rot3': 10, 'rot2': 6, 'state': 'normal', 'yaw': 0.79, 'datetime': '2018-10-09 23:50:43.534914', 'mgs': 0, 'volt': 0.8203, 'depth': 0.317, 'time': 5, 'pitch': 0.03, 'roll': 7.4, 'pres': 168}
{'lipoC2': 7.27, 'lipoC3S1': 3.79, 'temp': 30.38, 'lipoC3S3': 11.42, 'lipoC3S2': 7.56, 'rot1': 0, 'rot0': 0, 'rot3': 11, 'rot2': 7, 'state': 'normal', 'yaw': 1.81, 'datetime': '2018-10-09 23:50:43.550910', 'mgs': 0, 'volt': 0.8154, 'depth': 0.241, 'time': 5, 'pitch': -0.06, 'roll': 7.1, 'pres': 167}
{'lipoC2': 7.28, 'lipoC3S1': 3.77, 'temp': 30.31, 'lipoC3S3': 11.43, 'lipoC3S2': 7.56, 'rot1': 0, 'rot0': 0, 'rot3': 12, 'rot2': 8, 'state': 'normal', 'yaw': 2.57, 'datetime': '2018-10-09 23:50:43.560857', 'mgs': 0, 'volt': 0.8105, 'depth': 0.165, 'time': 5, 'pitch': -0.41, 'roll': 5.39, 'pres': 166}
{'lipoC2': 7.28, 'lipoC3S1': 3.78, 'temp': 30.31, 'lipoC3S3': 11.46, 'lipoC3S2': 7.58, 'rot1': 0, 'rot0': 0, 'rot3': 13, 'rot2': 9, 'state': 'normal', 'yaw': 2.95, 'datetime': '2018-10-09 23:50:43.576732', 'mgs': 0, 'volt': 0.8203, 'depth': 0.317, 'time': 5, 'pitch': -1.0, 'roll': 2.84, 'pres': 168}
{'lipoC2': 7.27, 'lipoC3S1': 3.78, 'temp': 30.31, 'lipoC3S3': 11.4, 'lipoC3S2': 7.59, 'rot1': 0, 'rot0': 0, 'rot3': 14, 'rot2': 10, 'state': 'normal', 'yaw': 2.99, 'datetime': '2018-10-09 23:50:43.592636', 'mgs': 0, 'volt': 0.8203, 'depth': 0.317, 'time': 5, 'pitch': -1.56, 'roll': 0.34, 'pres': 168}
{'lipoC2': 7.27, 'lipoC3S1': 3.78, 'temp': 30.38, 'lipoC3S3': 11.44, 'lipoC3S2': 7.58, 'rot1': 0, 'rot0': 0, 'rot3': 15, 'rot2': 10, 'state': 'normal', 'yaw': 2.86, 'datetime': '2018-10-09 23:50:43.602674', 'mgs': 0, 'volt': 0.8252, 'depth': 0.394, 'time': 5, 'pitch': -1.91, 'roll': -0.91, 'pres': 169}
{'lipoC2': 7.27, 'lipoC3S1': 3.78, 'temp': 30.38, 'lipoC3S3': 11.44, 'lipoC3S2': 7.58, 'rot1': 0, 'rot0': 0, 'rot3': 16, 'rot2': 11, 'state': 'normal', 'yaw': 2.62, 'datetime': '2018-10-09 23:50:43.618732', 'mgs': 0, 'volt': 0.8203, 'depth': 0.317, 'time': 5, 'pitch': -1.84, 'roll': -0.57, 'pres': 168}
{'lipoC2': 7.27, 'lipoC3S1': 3.78, 'temp': 30.38, 'lipoC3S3': 11.44, 'lipoC3S2': 7.59, 'rot1': 0, 'rot0': 0, 'rot3': 18, 'rot2': 12, 'state': 'normal', 'yaw': 2.48, 'datetime': '2018-10-09 23:50:43.634615', 'mgs': 0, 'volt': 0.8203, 'depth': 0.317, 'time': 6, 'pitch': -1.4, 'roll': 0.88, 'pres': 168}
{'lipoC2': 7.27, 'lipoC3S1': 3.79, 'temp': 30.38, 'lipoC3S3': 11.4, 'lipoC3S2': 7.55, 'rot1': 0, 'rot0': 0, 'rot3': 19, 'rot2': 13, 'state': 'normal', 'yaw': 2.54, 'datetime': '2018-10-09 23:50:43.645106', 'mgs': 0, 'volt': 0.8154, 'depth': 0.241, 'time': 6, 'pitch': -0.7, 'roll': 2.39, 'pres': 167}
{'lipoC2': 7.27, 'lipoC3S1': 3.79, 'temp': 30.38, 'lipoC3S3': 11.42, 'lipoC3S2': 7.55, 'rot1': 0, 'rot0': 0, 'rot3': 20, 'rot2': 14, 'state': 'normal', 'yaw': 2.71, 'datetime': '2018-10-09 23:50:43.661235', 'mgs': 0, 'volt': 0.8105, 'depth': 0.165, 'time': 6, 'pitch': -0.44, 'roll': 3.12, 'pres': 166}
{'lipoC2': 7.27, 'lipoC3S1': 3.79, 'temp': 30.38, 'lipoC3S3': 11.42, 'lipoC3S2': 7.55, 'rot1': 0, 'rot0': 0, 'rot3': 21, 'rot2': 15, 'state': 'normal', 'yaw': 2.81, 'datetime': '2018-10-09 23:50:43.677115', 'mgs': 0, 'volt': 0.8057, 'depth': 0.089, 'time': 6, 'pitch': -0.92, 'roll': 2.9, 'pres': 165}
{'lipoC2': 7.27, 'lipoC3S1': 3.79, 'temp': 30.38, 'lipoC3S3': 11.42, 'lipoC3S2': 7.56, 'rot1': 0, 'rot0': 0, 'rot3': 22, 'rot2': 16, 'state': 'normal', 'yaw': 2.86, 'datetime': '2018-10-09 23:50:43.687135', 'mgs': 0, 'volt': 0.8105, 'depth': 0.165, 'time': 6, 'pitch': -1.78, 'roll': 2.12, 'pres': 166}
{'lipoC2': 7.27, 'lipoC3S1': 3.79, 'temp': 30.38, 'lipoC3S3': 11.4, 'lipoC3S2': 7.55, 'rot1': 0, 'rot0': 0, 'rot3': 23, 'rot2': 16, 'state': 'normal', 'yaw': 2.98, 'datetime': '2018-10-09 23:50:43.702590', 'mgs': 0, 'volt': 0.8057, 'depth': 0.089, 'time': 6, 'pitch': -2.93, 'roll': 0.74, 'pres': 165}
{'lipoC2': 7.27, 'lipoC3S1': 3.79, 'temp': 30.38, 'lipoC3S3': 11.42, 'lipoC3S2': 7.56, 'rot1': 0, 'rot0': 0, 'rot3': 25, 'rot2': 17, 'state': 'normal', 'yaw': 3.13, 'datetime': '2018-10-09 23:50:43.718145', 'mgs': 0, 'volt': 0.8057, 'depth': 0.089, 'time': 6, 'pitch': -3.47, 'roll': -0.08, 'pres': 165}
{'lipoC2': 7.27, 'lipoC3S1': 3.77, 'temp': 30.31, 'lipoC3S3': 11.43, 'lipoC3S2': 7.56, 'rot1': 0, 'rot0': 0, 'rot3': 26, 'rot2': 18, 'state': 'normal', 'yaw': 3.19, 'datetime': '2018-10-09 23:50:43.727849', 'mgs': 0, 'volt': 0.8105, 'depth': 0.165, 'time': 6, 'pitch': -3.36, 'roll': -0.01, 'pres': 166}
{'lipoC2': 7.27, 'lipoC3S1': 3.77, 'temp': 30.31, 'lipoC3S3': 11.42, 'lipoC3S2': 7.55, 'rot1': 0, 'rot0': 0, 'rot3': 27, 'rot2': 19, 'state': 'normal', 'yaw': 3.22, 'datetime': '2018-10-09 23:50:43.743430', 'mgs': 0, 'volt': 0.8057, 'depth': 0.089, 'time': 6, 'pitch': -2.75, 'roll': 0.84, 'pres': 165}
{'lipoC2': 7.27, 'lipoC3S1': 3.77, 'temp': 30.38, 'lipoC3S3': 11.43, 'lipoC3S2': 7.55, 'rot1': 0, 'rot0': 0, 'rot3': 28, 'rot2': 20, 'state': 'normal', 'yaw': 3.23, 'datetime': '2018-10-09 23:50:43.758866', 'mgs': 0, 'volt': 0.8105, 'depth': 0.165, 'time': 7, 'pitch': -2.28, 'roll': 1.83, 'pres': 166}
{'lipoC2': 7.27, 'lipoC3S1': 3.76, 'temp': 30.38, 'lipoC3S3': 11.42, 'lipoC3S2': 7.55, 'rot1': 0, 'rot0': 0, 'rot3': 29, 'rot2': 21, 'state': 'normal', 'yaw': 3.27, 'datetime': '2018-10-09 23:50:43.768477', 'mgs': 0, 'volt': 0.8057, 'depth': 0.089, 'time': 7, 'pitch': -2.15, 'roll': 2.52, 'pres': 165}
{'lipoC2': 7.27, 'lipoC3S1': 3.77, 'temp': 30.38, 'lipoC3S3': 11.42, 'lipoC3S2': 7.57, 'rot1': 0, 'rot0': 0, 'rot3': 30, 'rot2': 21, 'state': 'normal', 'yaw': 3.46, 'datetime': '2018-10-09 23:50:43.783949', 'mgs': 0, 'volt': 0.8057, 'depth': 0.089, 'time': 7, 'pitch': -2.11, 'roll': 2.65, 'pres': 165}
{'lipoC2': 7.27, 'lipoC3S1': 3.77, 'temp': 30.31, 'lipoC3S3': 11.42, 'lipoC3S2': 7.56, 'rot1': 0, 'rot0': 0, 'rot3': 31, 'rot2': 22, 'state': 'normal', 'yaw': 3.77, 'datetime': '2018-10-09 23:50:43.799390', 'mgs': 0, 'volt': 0.8105, 'depth': 0.165, 'time': 7, 'pitch': -1.84, 'roll': 2.25, 'pres': 166}
{'lipoC2': 7.27, 'lipoC3S1': 3.77, 'temp': 30.31, 'lipoC3S3': 11.42, 'lipoC3S2': 7.56, 'rot1': 0, 'rot0': 0, 'rot3': 33, 'rot2': 23, 'state': 'normal', 'yaw': 4.15, 'datetime': '2018-10-09 23:50:43.808982', 'mgs': 0, 'volt': 0.8057, 'depth': 0.089, 'time': 7, 'pitch': -1.34, 'roll': 1.67, 'pres': 165}
{'lipoC2': 7.27, 'lipoC3S1': 3.8, 'temp': 30.38, 'lipoC3S3': 11.47, 'lipoC3S2': 7.6, 'rot1': 0, 'rot0': 0, 'rot3': 33, 'rot2': 24, 'state': 'normal', 'yaw': 4.67, 'datetime': '2018-10-09 23:50:43.824466', 'mgs': 0, 'volt': 0.8105, 'depth': 0.165, 'time': 7, 'pitch': -0.79, 'roll': 1.1, 'pres': 166}
{'lipoC2': 7.27, 'lipoC3S1': 3.78, 'temp': 30.38, 'lipoC3S3': 11.3, 'lipoC3S2': 7.49, 'rot1': 0, 'rot0': 0, 'rot3': 33, 'rot2': 24, 'state': 'normal', 'yaw': 5.15, 'datetime': '2018-10-09 23:50:43.839903', 'mgs': 0, 'volt': 0.8105, 'depth': 0.165, 'time': 7, 'pitch': -0.55, 'roll': 0.93, 'pres': 166}
{'lipoC2': 7.27, 'lipoC3S1': 3.78, 'temp': 30.31, 'lipoC3S3': 11.36, 'lipoC3S2': 7.45, 'rot1': 1, 'rot0': 2, 'rot3': 33, 'rot2': 24, 'state': 'normal', 'yaw': 5.48, 'datetime': '2018-10-09 23:50:43.849450', 'mgs': 0, 'volt': 0.8105, 'depth': 0.165, 'time': 7, 'pitch': 0.19, 'roll': 1.13, 'pres': 166}
{'lipoC2': 7.26, 'lipoC3S1': 3.79, 'temp': 30.31, 'lipoC3S3': 11.36, 'lipoC3S2': 7.57, 'rot1': 3, 'rot0': 3, 'rot3': 33, 'rot2': 24, 'state': 'normal', 'yaw': 5.58, 'datetime': '2018-10-09 23:50:43.864926', 'mgs': 0, 'volt': 0.8105, 'depth': 0.165, 'time': 7, 'pitch': 1.33, 'roll': 1.52, 'pres': 166}
{'lipoC2': 7.27, 'lipoC3S1': 3.78, 'temp': 30.31, 'lipoC3S3': 11.31, 'lipoC3S2': 7.42, 'rot1': 4, 'rot0': 4, 'rot3': 33, 'rot2': 24, 'state': 'normal', 'yaw': 5.57, 'datetime': '2018-10-09 23:50:43.880453', 'mgs': 0, 'volt': 0.8154, 'depth': 0.241, 'time': 7, 'pitch': 2.61, 'roll': 1.77, 'pres': 167}
{'lipoC2': 7.27, 'lipoC3S1': 3.79, 'temp': 30.31, 'lipoC3S3': 11.42, 'lipoC3S2': 7.58, 'rot1': 5, 'rot0': 6, 'rot3': 33, 'rot2': 24, 'state': 'normal', 'yaw': 5.4, 'datetime': '2018-10-09 23:50:43.890050', 'mgs': 0, 'volt': 0.8594, 'depth': 0.928, 'time': 8, 'pitch': 4.14, 'roll': 1.88, 'pres': 176}
{'lipoC2': 7.25, 'lipoC3S1': 3.79, 'temp': 30.31, 'lipoC3S3': 11.4, 'lipoC3S2': 7.57, 'rot1': 6, 'rot0': 7, 'rot3': 33, 'rot2': 24, 'state': 'normal', 'yaw': 5.08, 'datetime': '2018-10-09 23:50:43.905566', 'mgs': 0, 'volt': 0.8496, 'depth': 0.775, 'time': 8, 'pitch': 5.71, 'roll': 1.91, 'pres': 174}
{'lipoC2': 7.26, 'lipoC3S1': 3.79, 'temp': 30.25, 'lipoC3S3': 11.4, 'lipoC3S2': 7.57, 'rot1': 7, 'rot0': 9, 'rot3': 33, 'rot2': 24, 'state': 'normal', 'yaw': 4.72, 'datetime': '2018-10-09 23:50:43.921148', 'mgs': 0, 'volt': 0.8398, 'depth': 0.623, 'time': 8, 'pitch': 6.99, 'roll': 1.94, 'pres': 172}
{'lipoC2': 7.27, 'lipoC3S1': 3.75, 'temp': 30.25, 'lipoC3S3': 11.43, 'lipoC3S2': 7.58, 'rot1': 9, 'rot0': 10, 'rot3': 33, 'rot2': 24, 'state': 'normal', 'yaw': 4.39, 'datetime': '2018-10-09 23:50:43.930797', 'mgs': 0, 'volt': 0.8984, 'depth': 1.538, 'time': 8, 'pitch': 8.05, 'roll': 1.98, 'pres': 184}
{'lipoC2': 7.27, 'lipoC3S1': 3.72, 'temp': 30.25, 'lipoC3S3': 11.43, 'lipoC3S2': 7.52, 'rot1': 10, 'rot0': 11, 'rot3': 33, 'rot2': 24, 'state': 'normal', 'yaw': 4.0, 'datetime': '2018-10-09 23:50:43.980740', 'mgs': 0, 'volt': 0.835, 'depth': 0.546, 'time': 8, 'pitch': 8.73, 'roll': 1.99, 'pres': 171}
{'lipoC2': 7.27, 'lipoC3S1': 3.78, 'temp': 30.25, 'lipoC3S3': 11.27, 'lipoC3S2': 7.44, 'rot1': 11, 'rot0': 13, 'rot3': 34, 'rot2': 24, 'state': 'normal', 'yaw': 3.54, 'datetime': '2018-10-09 23:50:44.084310', 'mgs': 0, 'volt': 0.8252, 'depth': 0.394, 'time': 8, 'pitch': 8.9, 'roll': 2.15, 'pres': 169}
{'lipoC2': 7.26, 'lipoC3S1': 3.78, 'temp': 30.25, 'lipoC3S3': 11.4, 'lipoC3S2': 7.57, 'rot1': 13, 'rot0': 14, 'rot3': 34, 'rot2': 25, 'state': 'normal', 'yaw': 2.98, 'datetime': '2018-10-09 23:50:44.187850', 'mgs': 0, 'volt': 0.8936, 'depth': 1.462, 'time': 8, 'pitch': 9.01, 'roll': 2.47, 'pres': 183}
{'lipoC2': 7.27, 'lipoC3S1': 3.68, 'temp': 30.31, 'lipoC3S3': 11.43, 'lipoC3S2': 7.53, 'rot1': 14, 'rot0': 15, 'rot3': 35, 'rot2': 25, 'state': 'normal', 'yaw': 2.27, 'datetime': '2018-10-09 23:50:44.291460', 'mgs': 0, 'volt': 0.8301, 'depth': 0.47, 'time': 8, 'pitch': 9.29, 'roll': 2.68, 'pres': 170}
{'lipoC2': 7.27, 'lipoC3S1': 3.78, 'temp': 30.31, 'lipoC3S3': 11.26, 'lipoC3S2': 7.52, 'rot1': 15, 'rot0': 17, 'rot3': 35, 'rot2': 26, 'state': 'normal', 'yaw': 1.6, 'datetime': '2018-10-09 23:50:44.395035', 'mgs': 0, 'volt': 0.8301, 'depth': 0.47, 'time': 8, 'pitch': 9.72, 'roll': 2.61, 'pres': 170}
{'lipoC2': 7.25, 'lipoC3S1': 3.78, 'temp': 30.31, 'lipoC3S3': 11.4, 'lipoC3S2': 7.57, 'rot1': 16, 'rot0': 18, 'rot3': 36, 'rot2': 26, 'state': 'normal', 'yaw': 0.96, 'datetime': '2018-10-09 23:50:44.504005', 'mgs': 0, 'volt': 0.8838, 'depth': 1.309, 'time': 8, 'pitch': 10.07, 'roll': 2.36, 'pres': 181}
{'lipoC2': 7.27, 'lipoC3S1': 3.72, 'temp': 30.31, 'lipoC3S3': 11.43, 'lipoC3S2': 7.56, 'rot1': 18, 'rot0': 19, 'rot3': 36, 'rot2': 27, 'state': 'normal', 'yaw': 0.33, 'datetime': '2018-10-09 23:50:44.608702', 'mgs': 0, 'volt': 0.8301, 'depth': 0.47, 'time': 9, 'pitch': 10.03, 'roll': 2.04, 'pres': 170}
{'lipoC2': 7.27, 'lipoC3S1': 3.78, 'temp': 30.38, 'lipoC3S3': 11.35, 'lipoC3S2': 7.43, 'rot1': 19, 'rot0': 21, 'rot3': 36, 'rot2': 27, 'state': 'normal', 'yaw': -0.19, 'datetime': '2018-10-09 23:50:44.712319', 'mgs': 0, 'volt': 0.8252, 'depth': 0.394, 'time': 9, 'pitch': 9.56, 'roll': 1.81, 'pres': 169}
{'lipoC2': 7.25, 'lipoC3S1': 3.79, 'temp': 30.38, 'lipoC3S3': 11.4, 'lipoC3S2': 7.57, 'rot1': 20, 'rot0': 22, 'rot3': 36, 'rot2': 27, 'state': 'normal', 'yaw': -0.69, 'datetime': '2018-10-09 23:50:44.815661', 'mgs': 0, 'volt': 0.8545, 'depth': 0.851, 'time': 9, 'pitch': 9.0, 'roll': 1.75, 'pres': 175}
{'lipoC2': 7.27, 'lipoC3S1': 3.74, 'temp': 30.38, 'lipoC3S3': 11.43, 'lipoC3S2': 7.58, 'rot1': 21, 'rot0': 24, 'rot3': 36, 'rot2': 27, 'state': 'normal', 'yaw': -1.2, 'datetime': '2018-10-09 23:50:44.919413', 'mgs': 0, 'volt': 0.8154, 'depth': 0.241, 'time': 9, 'pitch': 8.52, 'roll': 1.69, 'pres': 167}
{'lipoC2': 7.27, 'lipoC3S1': 3.78, 'temp': 30.31, 'lipoC3S3': 11.38, 'lipoC3S2': 7.44, 'rot1': 22, 'rot0': 25, 'rot3': 36, 'rot2': 27, 'state': 'normal', 'yaw': -1.68, 'datetime': '2018-10-09 23:50:45.022858', 'mgs': 0, 'volt': 0.8301, 'depth': 0.47, 'time': 9, 'pitch': 7.9, 'roll': 1.6, 'pres': 170}
{'lipoC2': 7.27, 'lipoC3S1': 3.75, 'temp': 30.31, 'lipoC3S3': 11.43, 'lipoC3S2': 7.58, 'rot1': 24, 'rot0': 27, 'rot3': 36, 'rot2': 27, 'state': 'normal', 'yaw': -2.19, 'datetime': '2018-10-09 23:50:45.127527', 'mgs': 0, 'volt': 0.8643, 'depth': 1.004, 'time': 9, 'pitch': 7.19, 'roll': 1.57, 'pres': 177}
{'lipoC2': 7.27, 'lipoC3S1': 3.79, 'temp': 30.38, 'lipoC3S3': 11.42, 'lipoC3S2': 7.48, 'rot1': 25, 'rot0': 28, 'rot3': 36, 'rot2': 27, 'state': 'normal', 'yaw': -2.69, 'datetime': '2018-10-09 23:50:45.231115', 'mgs': 0, 'volt': 0.8301, 'depth': 0.47, 'time': 9, 'pitch': 6.79, 'roll': 1.56, 'pres': 170}
{'lipoC2': 7.27, 'lipoC3S1': 3.76, 'temp': 30.38, 'lipoC3S3': 11.43, 'lipoC3S2': 7.58, 'rot1': 26, 'rot0': 29, 'rot3': 36, 'rot2': 27, 'state': 'normal', 'yaw': -3.12, 'datetime': '2018-10-09 23:50:45.336009', 'mgs': 0, 'volt': 0.8984, 'depth': 1.538, 'time': 9, 'pitch': 7.22, 'roll': 1.51, 'pres': 184}
{'lipoC2': 7.25, 'lipoC3S1': 3.79, 'temp': 30.31, 'lipoC3S3': 11.42, 'lipoC3S2': 7.57, 'rot1': 27, 'rot0': 31, 'rot3': 36, 'rot2': 27, 'state': 'normal', 'yaw': -3.55, 'datetime': '2018-10-09 23:50:45.439967', 'mgs': 0, 'volt': 0.8838, 'depth': 1.309, 'time': 9, 'pitch': 8.17, 'roll': 1.62, 'pres': 181}
{'lipoC2': 7.27, 'lipoC3S1': 3.71, 'temp': 30.31, 'lipoC3S3': 11.43, 'lipoC3S2': 7.55, 'rot1': 29, 'rot0': 32, 'rot3': 36, 'rot2': 27, 'state': 'normal', 'yaw': -4.18, 'datetime': '2018-10-09 23:50:45.543828', 'mgs': 0, 'volt': 0.8398, 'depth': 0.623, 'time': 10, 'pitch': 8.11, 'roll': 1.79, 'pres': 172}
{'lipoC2': 7.26, 'lipoC3S1': 3.78, 'temp': 30.31, 'lipoC3S3': 11.22, 'lipoC3S2': 7.57, 'rot1': 30, 'rot0': 33, 'rot3': 36, 'rot2': 27, 'state': 'normal', 'yaw': -4.74, 'datetime': '2018-10-09 23:50:45.647694', 'mgs': 0, 'volt': 0.8398, 'depth': 0.623, 'time': 10, 'pitch': 7.35, 'roll': 1.97, 'pres': 172}
{'lipoC2': 7.27, 'lipoC3S1': 3.71, 'temp': 30.38, 'lipoC3S3': 11.43, 'lipoC3S2': 7.54, 'rot1': 31, 'rot0': 35, 'rot3': 36, 'rot2': 27, 'state': 'normal', 'yaw': -5.24, 'datetime': '2018-10-09 23:50:45.751189', 'mgs': 0, 'volt': 0.8447, 'depth': 0.699, 'time': 10, 'pitch': 7.29, 'roll': 1.92, 'pres': 173}
{'lipoC2': 7.26, 'lipoC3S1': 3.78, 'temp': 30.38, 'lipoC3S3': 11.32, 'lipoC3S2': 7.56, 'rot1': 32, 'rot0': 36, 'rot3': 36, 'rot2': 27, 'state': 'normal', 'yaw': -5.62, 'datetime': '2018-10-09 23:50:45.854998', 'mgs': 0, 'volt': 0.8398, 'depth': 0.623, 'time': 10, 'pitch': 8.3, 'roll': 1.63, 'pres': 172}
{'lipoC2': 7.27, 'lipoC3S1': 3.71, 'temp': 30.31, 'lipoC3S3': 11.43, 'lipoC3S2': 7.56, 'rot1': 34, 'rot0': 38, 'rot3': 36, 'rot2': 27, 'state': 'normal', 'yaw': -5.99, 'datetime': '2018-10-09 23:50:45.958850', 'mgs': 0, 'volt': 0.8496, 'depth': 0.775, 'time': 10, 'pitch': 10.04, 'roll': 1.3, 'pres': 174}
{'lipoC2': 7.26, 'lipoC3S1': 3.78, 'temp': 30.31, 'lipoC3S3': 11.34, 'lipoC3S2': 7.57, 'rot1': 35, 'rot0': 39, 'rot3': 36, 'rot2': 27, 'state': 'normal', 'yaw': -6.4, 'datetime': '2018-10-09 23:50:46.062271', 'mgs': 0, 'volt': 0.8496, 'depth': 0.775, 'time': 10, 'pitch': 10.2, 'roll': 1.49, 'pres': 174}
{'lipoC2': 7.27, 'lipoC3S1': 3.71, 'temp': 30.38, 'lipoC3S3': 11.43, 'lipoC3S2': 7.56, 'rot1': 37, 'rot0': 40, 'rot3': 36, 'rot2': 27, 'state': 'normal', 'yaw': -6.75, 'datetime': '2018-10-09 23:50:46.166230', 'mgs': 0, 'volt': 0.8545, 'depth': 0.851, 'time': 10, 'pitch': 9.03, 'roll': 2.03, 'pres': 175}
{'lipoC2': 7.26, 'lipoC3S1': 3.78, 'temp': 30.38, 'lipoC3S3': 11.25, 'lipoC3S2': 7.57, 'rot1': 38, 'rot0': 41, 'rot3': 36, 'rot2': 27, 'state': 'normal', 'yaw': -7.05, 'datetime': '2018-10-09 23:50:46.270011', 'mgs': 0, 'volt': 0.8496, 'depth': 0.775, 'time': 10, 'pitch': 8.2, 'roll': 2.52, 'pres': 174}
{'lipoC2': 7.27, 'lipoC3S1': 3.71, 'temp': 30.38, 'lipoC3S3': 11.43, 'lipoC3S2': 7.55, 'rot1': 39, 'rot0': 43, 'rot3': 36, 'rot2': 27, 'state': 'normal', 'yaw': -7.24, 'datetime': '2018-10-09 23:50:46.373610', 'mgs': 0, 'volt': 0.8545, 'depth': 0.851, 'time': 10, 'pitch': 8.59, 'roll': 2.71, 'pres': 175}
{'lipoC2': 7.27, 'lipoC3S1': 3.78, 'temp': 30.31, 'lipoC3S3': 11.27, 'lipoC3S2': 7.56, 'rot1': 41, 'rot0': 44, 'rot3': 36, 'rot2': 27, 'state': 'normal', 'yaw': -7.31, 'datetime': '2018-10-09 23:50:46.478265', 'mgs': 0, 'volt': 0.8496, 'depth': 0.775, 'time': 10, 'pitch': 9.82, 'roll': 2.53, 'pres': 174}
{'lipoC2': 7.26, 'lipoC3S1': 3.78, 'temp': 30.31, 'lipoC3S3': 11.42, 'lipoC3S2': 7.57, 'rot1': 42, 'rot0': 45, 'rot3': 36, 'rot2': 27, 'state': 'normal', 'yaw': -7.41, 'datetime': '2018-10-09 23:50:46.582597', 'mgs': 0, 'volt': 0.8643, 'depth': 1.004, 'time': 11, 'pitch': 10.8, 'roll': 2.14, 'pres': 177}
{'lipoC2': 7.27, 'lipoC3S1': 3.7, 'temp': 30.31, 'lipoC3S3': 11.43, 'lipoC3S2': 7.53, 'rot1': 43, 'rot0': 47, 'rot3': 36, 'rot2': 27, 'state': 'normal', 'yaw': -7.56, 'datetime': '2018-10-09 23:50:46.686233', 'mgs': 0, 'volt': 0.8496, 'depth': 0.775, 'time': 11, 'pitch': 10.04, 'roll': 1.93, 'pres': 174}
{'lipoC2': 7.27, 'lipoC3S1': 3.74, 'temp': 30.31, 'lipoC3S3': 11.43, 'lipoC3S2': 7.57, 'rot1': 44, 'rot0': 48, 'rot3': 36, 'rot2': 27, 'state': 'normal', 'yaw': -7.76, 'datetime': '2018-10-09 23:50:46.791383', 'mgs': 0, 'volt': 0.8887, 'depth': 1.385, 'time': 11, 'pitch': 8.48, 'roll': 1.99, 'pres': 182}
{'lipoC2': 7.27, 'lipoC3S1': 3.78, 'temp': 30.38, 'lipoC3S3': 11.36, 'lipoC3S2': 7.56, 'rot1': 46, 'rot0': 49, 'rot3': 36, 'rot2': 27, 'state': 'normal', 'yaw': -7.85, 'datetime': '2018-10-09 23:50:46.895094', 'mgs': 0, 'volt': 0.8398, 'depth': 0.623, 'time': 11, 'pitch': 6.65, 'roll': 1.98, 'pres': 172}
{'lipoC2': 7.27, 'lipoC3S1': 3.74, 'temp': 30.38, 'lipoC3S3': 11.43, 'lipoC3S2': 7.58, 'rot1': 47, 'rot0': 51, 'rot3': 36, 'rot2': 27, 'state': 'normal', 'yaw': -7.9, 'datetime': '2018-10-09 23:50:46.998907', 'mgs': 0, 'volt': 0.8838, 'depth': 1.309, 'time': 11, 'pitch': 6.18, 'roll': 1.81, 'pres': 181}
{'lipoC2': 7.27, 'lipoC3S1': 3.78, 'temp': 30.38, 'lipoC3S3': 11.27, 'lipoC3S2': 7.56, 'rot1': 48, 'rot0': 52, 'rot3': 36, 'rot2': 27, 'state': 'normal', 'yaw': -8.0, 'datetime': '2018-10-09 23:50:47.102621', 'mgs': 0, 'volt': 0.8398, 'depth': 0.623, 'time': 11, 'pitch': 6.87, 'roll': 1.46, 'pres': 172}
{'lipoC2': 7.27, 'lipoC3S1': 3.72, 'temp': 30.31, 'lipoC3S3': 11.43, 'lipoC3S2': 7.58, 'rot1': 49, 'rot0': 53, 'rot3': 36, 'rot2': 27, 'state': 'normal', 'yaw': -8.19, 'datetime': '2018-10-09 23:50:47.206378', 'mgs': 0, 'volt': 0.835, 'depth': 0.546, 'time': 11, 'pitch': 7.89, 'roll': 1.12, 'pres': 171}
