{'lipoC2': 7.68, 'lipoC3S1': 3.81, 'temp': 28.81, 'lipoC3S3': 11.52, 'lipoC3S2': 7.63, 'rot1': 292, 'rot0': 296, 'rot3': 163, 'rot2': 136, 'state': 'normal', 'yaw': 7.07, 'datetime': '2018-10-05 20:20:53.677793', 'mgs': 0, 'volt': 0.8252, 'depth': 0.394, 'time': 48, 'pitch': -24.49, 'roll': -2.1, 'pres': 169}
{'lipoC2': 7.68, 'lipoC3S1': 3.81, 'temp': 28.81, 'lipoC3S3': 11.52, 'lipoC3S2': 7.63, 'rot1': 292, 'rot0': 296, 'rot3': 163, 'rot2': 136, 'state': 'normal', 'yaw': 7.43, 'datetime': '2018-10-05 20:20:53.711510', 'mgs': 0, 'volt': 0.8203, 'depth': 0.317, 'time': 48, 'pitch': -24.08, 'roll': -2.32, 'pres': 168}
{'lipoC2': 7.69, 'lipoC3S1': 3.81, 'temp': 28.81, 'lipoC3S3': 11.52, 'lipoC3S2': 7.63, 'rot1': 292, 'rot0': 296, 'rot3': 163, 'rot2': 136, 'state': 'normal', 'yaw': 7.43, 'datetime': '2018-10-05 20:20:53.743312', 'mgs': 0, 'volt': 0.8203, 'depth': 0.317, 'time': 48, 'pitch': -23.92, 'roll': -2.5, 'pres': 168}
{'lipoC2': 7.69, 'lipoC3S1': 3.81, 'temp': 28.81, 'lipoC3S3': 11.52, 'lipoC3S2': 7.63, 'rot1': 292, 'rot0': 296, 'rot3': 163, 'rot2': 136, 'state': 'normal', 'yaw': 7.25, 'datetime': '2018-10-05 20:20:53.775043', 'mgs': 0, 'volt': 0.8203, 'depth': 0.317, 'time': 48, 'pitch': -23.39, 'roll': -2.68, 'pres': 168}
{'lipoC2': 7.68, 'lipoC3S1': 3.81, 'temp': 28.81, 'lipoC3S3': 11.52, 'lipoC3S2': 7.63, 'rot1': 292, 'rot0': 296, 'rot3': 163, 'rot2': 136, 'state': 'normal', 'yaw': 6.99, 'datetime': '2018-10-05 20:20:53.790705', 'mgs': 0, 'volt': 0.8203, 'depth': 0.317, 'time': 48, 'pitch': -22.5, 'roll': -2.86, 'pres': 168}
{'lipoC2': 7.69, 'lipoC3S1': 3.81, 'temp': 28.81, 'lipoC3S3': 11.52, 'lipoC3S2': 7.63, 'rot1': 292, 'rot0': 296, 'rot3': 163, 'rot2': 136, 'state': 'normal', 'yaw': 6.63, 'datetime': '2018-10-05 20:20:53.803744', 'mgs': 0, 'volt': 0.8154, 'depth': 0.241, 'time': 48, 'pitch': -21.37, 'roll': -3.02, 'pres': 167}
{'lipoC2': 7.68, 'lipoC3S1': 3.81, 'temp': 28.81, 'lipoC3S3': 11.52, 'lipoC3S2': 7.63, 'rot1': 292, 'rot0': 296, 'rot3': 163, 'rot2': 136, 'state': 'normal', 'yaw': 6.09, 'datetime': '2018-10-05 20:20:53.817463', 'mgs': 0, 'volt': 0.8154, 'depth': 0.241, 'time': 48, 'pitch': -20.57, 'roll': -3.19, 'pres': 167}
{'lipoC2': 7.69, 'lipoC3S1': 3.81, 'temp': 28.81, 'lipoC3S3': 11.52, 'lipoC3S2': 7.63, 'rot1': 292, 'rot0': 296, 'rot3': 163, 'rot2': 136, 'state': 'normal', 'yaw': 5.64, 'datetime': '2018-10-05 20:20:53.831082', 'mgs': 0, 'volt': 0.8154, 'depth': 0.241, 'time': 48, 'pitch': -20.21, 'roll': -3.44, 'pres': 167}
{'lipoC2': 7.69, 'lipoC3S1': 3.81, 'temp': 28.81, 'lipoC3S3': 11.52, 'lipoC3S2': 7.63, 'rot1': 292, 'rot0': 296, 'rot3': 163, 'rot2': 136, 'state': 'normal', 'yaw': 5.15, 'datetime': '2018-10-05 20:20:53.844811', 'mgs': 0, 'volt': 0.8154, 'depth': 0.241, 'time': 48, 'pitch': -19.98, 'roll': -3.84, 'pres': 167}
{'lipoC2': 7.68, 'lipoC3S1': 3.81, 'temp': 28.81, 'lipoC3S3': 11.52, 'lipoC3S2': 7.62, 'rot1': 292, 'rot0': 296, 'rot3': 163, 'rot2': 136, 'state': 'normal', 'yaw': 4.68, 'datetime': '2018-10-05 20:20:53.858512', 'mgs': 0, 'volt': 0.8154, 'depth': 0.241, 'time': 49, 'pitch': -19.83, 'roll': -4.22, 'pres': 167}
{'lipoC2': 7.69, 'lipoC3S1': 3.81, 'temp': 28.81, 'lipoC3S3': 11.52, 'lipoC3S2': 7.63, 'rot1': 292, 'rot0': 296, 'rot3': 163, 'rot2': 136, 'state': 'normal', 'yaw': 4.17, 'datetime': '2018-10-05 20:20:53.872202', 'mgs': 0, 'volt': 0.8105, 'depth': 0.165, 'time': 49, 'pitch': -19.99, 'roll': -4.66, 'pres': 166}
{'lipoC2': 7.68, 'lipoC3S1': 3.81, 'temp': 28.81, 'lipoC3S3': 11.52, 'lipoC3S2': 7.63, 'rot1': 292, 'rot0': 296, 'rot3': 163, 'rot2': 136, 'state': 'normal', 'yaw': 3.8, 'datetime': '2018-10-05 20:20:53.885879', 'mgs': 0, 'volt': 0.8105, 'depth': 0.165, 'time': 49, 'pitch': -20.51, 'roll': -5.09, 'pres': 166}
{'lipoC2': 7.68, 'lipoC3S1': 3.81, 'temp': 28.81, 'lipoC3S3': 11.52, 'lipoC3S2': 7.63, 'rot1': 292, 'rot0': 296, 'rot3': 163, 'rot2': 136, 'state': 'normal', 'yaw': 3.52, 'datetime': '2018-10-05 20:20:53.901039', 'mgs': 0, 'volt': 0.8105, 'depth': 0.165, 'time': 49, 'pitch': -21.2, 'roll': -5.57, 'pres': 166}
{'lipoC2': 7.69, 'lipoC3S1': 3.81, 'temp': 28.81, 'lipoC3S3': 11.52, 'lipoC3S2': 7.63, 'rot1': 292, 'rot0': 296, 'rot3': 163, 'rot2': 136, 'state': 'normal', 'yaw': 3.33, 'datetime': '2018-10-05 20:20:53.911206', 'mgs': 0, 'volt': 0.8105, 'depth': 0.165, 'time': 49, 'pitch': -22.07, 'roll': -6.15, 'pres': 166}
{'lipoC2': 7.68, 'lipoC3S1': 3.81, 'temp': 28.81, 'lipoC3S3': 11.52, 'lipoC3S2': 7.63, 'rot1': 292, 'rot0': 296, 'rot3': 163, 'rot2': 136, 'state': 'normal', 'yaw': 3.2, 'datetime': '2018-10-05 20:20:53.921189', 'mgs': 0, 'volt': 0.8105, 'depth': 0.165, 'time': 49, 'pitch': -22.75, 'roll': -6.57, 'pres': 166}
{'lipoC2': 7.68, 'lipoC3S1': 3.81, 'temp': 28.81, 'lipoC3S3': 11.52, 'lipoC3S2': 7.63, 'rot1': 292, 'rot0': 296, 'rot3': 163, 'rot2': 136, 'state': 'normal', 'yaw': 3.04, 'datetime': '2018-10-05 20:20:53.930975', 'mgs': 0, 'volt': 0.8105, 'depth': 0.165, 'time': 49, 'pitch': -23.21, 'roll': -6.84, 'pres': 166}
{'lipoC2': 7.68, 'lipoC3S1': 3.81, 'temp': 28.81, 'lipoC3S3': 11.52, 'lipoC3S2': 7.63, 'rot1': 292, 'rot0': 296, 'rot3': 163, 'rot2': 136, 'state': 'normal', 'yaw': 2.94, 'datetime': '2018-10-05 20:20:53.940751', 'mgs': 0, 'volt': 0.8105, 'depth': 0.165, 'time': 49, 'pitch': -23.39, 'roll': -6.95, 'pres': 166}
{'lipoC2': 7.68, 'lipoC3S1': 3.81, 'temp': 28.81, 'lipoC3S3': 11.52, 'lipoC3S2': 7.63, 'rot1': 292, 'rot0': 296, 'rot3': 163, 'rot2': 136, 'state': 'normal', 'yaw': 2.94, 'datetime': '2018-10-05 20:20:53.950553', 'mgs': 0, 'volt': 0.8105, 'depth': 0.165, 'time': 49, 'pitch': -23.41, 'roll': -7.01, 'pres': 166}
{'lipoC2': 7.68, 'lipoC3S1': 3.81, 'temp': 28.81, 'lipoC3S3': 11.52, 'lipoC3S2': 7.63, 'rot1': 292, 'rot0': 296, 'rot3': 163, 'rot2': 136, 'state': 'normal', 'yaw': 2.92, 'datetime': '2018-10-05 20:20:53.960346', 'mgs': 0, 'volt': 0.8105, 'depth': 0.165, 'time': 49, 'pitch': -23.37, 'roll': -7.0, 'pres': 166}
{'lipoC2': 7.68, 'lipoC3S1': 3.81, 'temp': 28.81, 'lipoC3S3': 11.52, 'lipoC3S2': 7.63, 'rot1': 292, 'rot0': 296, 'rot3': 163, 'rot2': 136, 'state': 'normal', 'yaw': 2.83, 'datetime': '2018-10-05 20:20:53.970171', 'mgs': 0, 'volt': 0.8154, 'depth': 0.241, 'time': 50, 'pitch': -23.26, 'roll': -6.85, 'pres': 167}
{'lipoC2': 7.68, 'lipoC3S1': 3.81, 'temp': 28.81, 'lipoC3S3': 11.52, 'lipoC3S2': 7.63, 'rot1': 292, 'rot0': 296, 'rot3': 163, 'rot2': 136, 'state': 'normal', 'yaw': 2.81, 'datetime': '2018-10-05 20:20:53.980042', 'mgs': 0, 'volt': 0.8154, 'depth': 0.241, 'time': 50, 'pitch': -23.03, 'roll': -6.65, 'pres': 167}
{'lipoC2': 7.69, 'lipoC3S1': 3.81, 'temp': 28.81, 'lipoC3S3': 11.52, 'lipoC3S2': 7.63, 'rot1': 292, 'rot0': 296, 'rot3': 163, 'rot2': 136, 'state': 'normal', 'yaw': 2.77, 'datetime': '2018-10-05 20:20:53.989932', 'mgs': 0, 'volt': 0.8154, 'depth': 0.241, 'time': 50, 'pitch': -22.76, 'roll': -6.35, 'pres': 167}
{'lipoC2': 7.68, 'lipoC3S1': 3.81, 'temp': 28.81, 'lipoC3S3': 11.52, 'lipoC3S2': 7.63, 'rot1': 292, 'rot0': 296, 'rot3': 163, 'rot2': 136, 'state': 'normal', 'yaw': 2.76, 'datetime': '2018-10-05 20:20:54.001591', 'mgs': 0, 'volt': 0.8203, 'depth': 0.317, 'time': 50, 'pitch': -22.65, 'roll': -5.9, 'pres': 168}
{'lipoC2': 7.68, 'lipoC3S1': 3.81, 'temp': 28.81, 'lipoC3S3': 11.52, 'lipoC3S2': 7.63, 'rot1': 292, 'rot0': 296, 'rot3': 163, 'rot2': 136, 'state': 'normal', 'yaw': 2.88, 'datetime': '2018-10-05 20:20:54.013424', 'mgs': 0, 'volt': 0.8203, 'depth': 0.317, 'time': 50, 'pitch': -22.82, 'roll': -5.52, 'pres': 168}
{'lipoC2': 7.69, 'lipoC3S1': 3.81, 'temp': 28.81, 'lipoC3S3': 11.52, 'lipoC3S2': 7.63, 'rot1': 292, 'rot0': 296, 'rot3': 163, 'rot2': 136, 'state': 'normal', 'yaw': 3.18, 'datetime': '2018-10-05 20:20:54.023370', 'mgs': 0, 'volt': 0.8203, 'depth': 0.317, 'time': 50, 'pitch': -23.14, 'roll': -5.2, 'pres': 168}
{'lipoC2': 7.69, 'lipoC3S1': 3.81, 'temp': 28.81, 'lipoC3S3': 11.52, 'lipoC3S2': 7.63, 'rot1': 292, 'rot0': 296, 'rot3': 163, 'rot2': 136, 'state': 'normal', 'yaw': 3.54, 'datetime': '2018-10-05 20:20:54.033265', 'mgs': 0, 'volt': 0.8252, 'depth': 0.394, 'time': 50, 'pitch': -23.48, 'roll': -5.06, 'pres': 169}
{'lipoC2': 7.68, 'lipoC3S1': 3.81, 'temp': 28.75, 'lipoC3S3': 11.52, 'lipoC3S2': 7.63, 'rot1': 292, 'rot0': 296, 'rot3': 163, 'rot2': 136, 'state': 'normal', 'yaw': 4.03, 'datetime': '2018-10-05 20:20:54.043180', 'mgs': 0, 'volt': 0.8252, 'depth': 0.394, 'time': 50, 'pitch': -23.76, 'roll': -5.08, 'pres': 169}
{'lipoC2': 7.68, 'lipoC3S1': 3.81, 'temp': 28.75, 'lipoC3S3': 11.52, 'lipoC3S2': 7.63, 'rot1': 292, 'rot0': 296, 'rot3': 163, 'rot2': 136, 'state': 'normal', 'yaw': 4.73, 'datetime': '2018-10-05 20:20:54.053242', 'mgs': 0, 'volt': 0.8252, 'depth': 0.394, 'time': 50, 'pitch': -23.91, 'roll': -5.32, 'pres': 169}
{'lipoC2': 7.68, 'lipoC3S1': 3.81, 'temp': 28.75, 'lipoC3S3': 11.52, 'lipoC3S2': 7.63, 'rot1': 292, 'rot0': 296, 'rot3': 163, 'rot2': 136, 'state': 'normal', 'yaw': 5.45, 'datetime': '2018-10-05 20:20:54.063165', 'mgs': 0, 'volt': 0.8301, 'depth': 0.47, 'time': 51, 'pitch': -24.02, 'roll': -5.61, 'pres': 170}
{'lipoC2': 7.68, 'lipoC3S1': 3.81, 'temp': 28.81, 'lipoC3S3': 11.52, 'lipoC3S2': 7.63, 'rot1': 292, 'rot0': 296, 'rot3': 163, 'rot2': 136, 'state': 'normal', 'yaw': 6.23, 'datetime': '2018-10-05 20:20:54.073114', 'mgs': 0, 'volt': 0.8252, 'depth': 0.394, 'time': 51, 'pitch': -24.31, 'roll': -5.93, 'pres': 169}
{'lipoC2': 7.68, 'lipoC3S1': 3.81, 'temp': 28.81, 'lipoC3S3': 11.52, 'lipoC3S2': 7.63, 'rot1': 292, 'rot0': 296, 'rot3': 163, 'rot2': 136, 'state': 'normal', 'yaw': 6.92, 'datetime': '2018-10-05 20:20:54.119499', 'mgs': 0, 'volt': 0.8301, 'depth': 0.47, 'time': 51, 'pitch': -24.7, 'roll': -6.21, 'pres': 170}
{'lipoC2': 7.68, 'lipoC3S1': 3.81, 'temp': 28.81, 'lipoC3S3': 11.52, 'lipoC3S2': 7.63, 'rot1': 292, 'rot0': 296, 'rot3': 163, 'rot2': 136, 'state': 'normal', 'yaw': 7.61, 'datetime': '2018-10-05 20:20:54.223715', 'mgs': 0, 'volt': 0.8301, 'depth': 0.47, 'time': 51, 'pitch': -25.03, 'roll': -6.43, 'pres': 170}
{'lipoC2': 7.68, 'lipoC3S1': 3.81, 'temp': 28.81, 'lipoC3S3': 11.52, 'lipoC3S2': 7.63, 'rot1': 292, 'rot0': 296, 'rot3': 163, 'rot2': 136, 'state': 'normal', 'yaw': 8.14, 'datetime': '2018-10-05 20:20:54.329219', 'mgs': 0, 'volt': 0.8301, 'depth': 0.47, 'time': 51, 'pitch': -25.29, 'roll': -6.49, 'pres': 170}
{'lipoC2': 7.68, 'lipoC3S1': 3.81, 'temp': 28.75, 'lipoC3S3': 11.52, 'lipoC3S2': 7.63, 'rot1': 292, 'rot0': 296, 'rot3': 163, 'rot2': 136, 'state': 'normal', 'yaw': 8.53, 'datetime': '2018-10-05 20:20:54.433441', 'mgs': 0, 'volt': 0.835, 'depth': 0.546, 'time': 51, 'pitch': -25.7, 'roll': -6.39, 'pres': 171}
{'lipoC2': 7.68, 'lipoC3S1': 3.81, 'temp': 28.75, 'lipoC3S3': 11.52, 'lipoC3S2': 7.63, 'rot1': 292, 'rot0': 296, 'rot3': 163, 'rot2': 136, 'state': 'normal', 'yaw': 8.75, 'datetime': '2018-10-05 20:20:54.545182', 'mgs': 0, 'volt': 0.835, 'depth': 0.546, 'time': 51, 'pitch': -26.19, 'roll': -6.19, 'pres': 171}
{'lipoC2': 7.68, 'lipoC3S1': 3.81, 'temp': 28.75, 'lipoC3S3': 11.52, 'lipoC3S2': 7.63, 'rot1': 292, 'rot0': 296, 'rot3': 163, 'rot2': 136, 'state': 'normal', 'yaw': 8.95, 'datetime': '2018-10-05 20:20:54.650073', 'mgs': 0, 'volt': 0.835, 'depth': 0.546, 'time': 51, 'pitch': -26.68, 'roll': -6.0, 'pres': 171}
{'lipoC2': 7.68, 'lipoC3S1': 3.81, 'temp': 28.75, 'lipoC3S3': 11.52, 'lipoC3S2': 7.63, 'rot1': 292, 'rot0': 296, 'rot3': 163, 'rot2': 136, 'state': 'normal', 'yaw': 9.14, 'datetime': '2018-10-05 20:20:54.754337', 'mgs': 0, 'volt': 0.835, 'depth': 0.546, 'time': 51, 'pitch': -27.14, 'roll': -5.81, 'pres': 171}
{'lipoC2': 7.68, 'lipoC3S1': 3.81, 'temp': 28.75, 'lipoC3S3': 11.52, 'lipoC3S2': 7.63, 'rot1': 292, 'rot0': 296, 'rot3': 163, 'rot2': 136, 'state': 'normal', 'yaw': 9.24, 'datetime': '2018-10-05 20:20:54.858872', 'mgs': 0, 'volt': 0.835, 'depth': 0.546, 'time': 51, 'pitch': -27.4, 'roll': -5.62, 'pres': 171}
{'lipoC2': 7.68, 'lipoC3S1': 3.81, 'temp': 28.81, 'lipoC3S3': 11.52, 'lipoC3S2': 7.63, 'rot1': 292, 'rot0': 296, 'rot3': 163, 'rot2': 136, 'state': 'normal', 'yaw': 9.25, 'datetime': '2018-10-05 20:20:54.962774', 'mgs': 0, 'volt': 0.8398, 'depth': 0.623, 'time': 52, 'pitch': -27.53, 'roll': -5.38, 'pres': 172}
{'lipoC2': 7.69, 'lipoC3S1': 3.81, 'temp': 28.81, 'lipoC3S3': 11.52, 'lipoC3S2': 7.63, 'rot1': 292, 'rot0': 296, 'rot3': 163, 'rot2': 136, 'state': 'normal', 'yaw': 9.25, 'datetime': '2018-10-05 20:20:55.066898', 'mgs': 0, 'volt': 0.8398, 'depth': 0.623, 'time': 52, 'pitch': -27.53, 'roll': -5.19, 'pres': 172}
{'lipoC2': 7.68, 'lipoC3S1': 3.81, 'temp': 28.75, 'lipoC3S3': 11.52, 'lipoC3S2': 7.63, 'rot1': 292, 'rot0': 296, 'rot3': 163, 'rot2': 136, 'state': 'normal', 'yaw': 9.31, 'datetime': '2018-10-05 20:20:55.171596', 'mgs': 0, 'volt': 0.8398, 'depth': 0.623, 'time': 52, 'pitch': -27.5, 'roll': -5.12, 'pres': 172}
{'lipoC2': 7.68, 'lipoC3S1': 3.81, 'temp': 28.75, 'lipoC3S3': 11.54, 'lipoC3S2': 7.63, 'rot1': 292, 'rot0': 296, 'rot3': 163, 'rot2': 136, 'state': 'normal', 'yaw': 9.46, 'datetime': '2018-10-05 20:20:55.275783', 'mgs': 0, 'volt': 0.8398, 'depth': 0.623, 'time': 52, 'pitch': -27.37, 'roll': -5.18, 'pres': 172}
{'lipoC2': 7.68, 'lipoC3S1': 3.81, 'temp': 28.75, 'lipoC3S3': 11.52, 'lipoC3S2': 7.63, 'rot1': 292, 'rot0': 296, 'rot3': 163, 'rot2': 136, 'state': 'normal', 'yaw': 9.59, 'datetime': '2018-10-05 20:20:55.381313', 'mgs': 0, 'volt': 0.8398, 'depth': 0.623, 'time': 52, 'pitch': -27.32, 'roll': -5.23, 'pres': 172}
{'lipoC2': 7.69, 'lipoC3S1': 3.81, 'temp': 28.81, 'lipoC3S3': 11.52, 'lipoC3S2': 7.63, 'rot1': 292, 'rot0': 296, 'rot3': 163, 'rot2': 136, 'state': 'normal', 'yaw': 9.69, 'datetime': '2018-10-05 20:20:55.485465', 'mgs': 0, 'volt': 0.8398, 'depth': 0.623, 'time': 52, 'pitch': -27.37, 'roll': -5.28, 'pres': 172}
{'lipoC2': 7.68, 'lipoC3S1': 3.81, 'temp': 28.81, 'lipoC3S3': 11.54, 'lipoC3S2': 7.63, 'rot1': 292, 'rot0': 296, 'rot3': 163, 'rot2': 136, 'state': 'normal', 'yaw': 9.74, 'datetime': '2018-10-05 20:20:55.591050', 'mgs': 0, 'volt': 0.8398, 'depth': 0.623, 'time': 52, 'pitch': -27.56, 'roll': -5.32, 'pres': 172}
{'lipoC2': 7.68, 'lipoC3S1': 3.81, 'temp': 28.75, 'lipoC3S3': 11.52, 'lipoC3S2': 7.63, 'rot1': 292, 'rot0': 296, 'rot3': 163, 'rot2': 136, 'state': 'normal', 'yaw': 9.92, 'datetime': '2018-10-05 20:20:55.695210', 'mgs': 0, 'volt': 0.8398, 'depth': 0.623, 'time': 52, 'pitch': -27.71, 'roll': -5.51, 'pres': 172}
{'lipoC2': 7.69, 'lipoC3S1': 3.81, 'temp': 28.75, 'lipoC3S3': 11.52, 'lipoC3S2': 7.63, 'rot1': 292, 'rot0': 296, 'rot3': 163, 'rot2': 136, 'state': 'normal', 'yaw': 10.15, 'datetime': '2018-10-05 20:20:55.800742', 'mgs': 0, 'volt': 0.8398, 'depth': 0.623, 'time': 52, 'pitch': -27.51, 'roll': -5.82, 'pres': 172}
{'lipoC2': 7.69, 'lipoC3S1': 3.81, 'temp': 28.81, 'lipoC3S3': 11.52, 'lipoC3S2': 7.63, 'rot1': 292, 'rot0': 296, 'rot3': 163, 'rot2': 136, 'state': 'normal', 'yaw': 10.39, 'datetime': '2018-10-05 20:20:55.904921', 'mgs': 0, 'volt': 0.8398, 'depth': 0.623, 'time': 53, 'pitch': -27.13, 'roll': -6.2, 'pres': 172}
{'lipoC2': 7.68, 'lipoC3S1': 3.81, 'temp': 28.81, 'lipoC3S3': 11.54, 'lipoC3S2': 7.63, 'rot1': 292, 'rot0': 296, 'rot3': 163, 'rot2': 136, 'state': 'normal', 'yaw': 10.55, 'datetime': '2018-10-05 20:20:56.009205', 'mgs': 0, 'volt': 0.8398, 'depth': 0.623, 'time': 53, 'pitch': -26.98, 'roll': -6.53, 'pres': 172}
{'lipoC2': 7.68, 'lipoC3S1': 3.81, 'temp': 28.81, 'lipoC3S3': 11.54, 'lipoC3S2': 7.63, 'rot1': 292, 'rot0': 296, 'rot3': 163, 'rot2': 136, 'state': 'normal', 'yaw': 10.59, 'datetime': '2018-10-05 20:20:56.113717', 'mgs': 0, 'volt': 0.835, 'depth': 0.546, 'time': 53, 'pitch': -26.91, 'roll': -6.76, 'pres': 171}
{'lipoC2': 7.68, 'lipoC3S1': 3.81, 'temp': 28.81, 'lipoC3S3': 11.54, 'lipoC3S2': 7.63, 'rot1': 292, 'rot0': 296, 'rot3': 163, 'rot2': 136, 'state': 'normal', 'yaw': 10.75, 'datetime': '2018-10-05 20:20:56.217869', 'mgs': 0, 'volt': 0.835, 'depth': 0.546, 'time': 53, 'pitch': -26.45, 'roll': -7.07, 'pres': 171}
{'lipoC2': 7.68, 'lipoC3S1': 3.81, 'temp': 28.81, 'lipoC3S3': 11.54, 'lipoC3S2': 7.63, 'rot1': 292, 'rot0': 296, 'rot3': 163, 'rot2': 136, 'state': 'normal', 'yaw': 11.04, 'datetime': '2018-10-05 20:20:56.322033', 'mgs': 0, 'volt': 0.835, 'depth': 0.546, 'time': 53, 'pitch': -26.27, 'roll': -7.33, 'pres': 171}
{'lipoC2': 7.69, 'lipoC3S1': 3.81, 'temp': 28.81, 'lipoC3S3': 11.54, 'lipoC3S2': 7.63, 'rot1': 292, 'rot0': 296, 'rot3': 163, 'rot2': 136, 'state': 'normal', 'yaw': 11.3, 'datetime': '2018-10-05 20:20:56.426429', 'mgs': 0, 'volt': 0.835, 'depth': 0.546, 'time': 53, 'pitch': -26.3, 'roll': -7.4, 'pres': 171}
{'lipoC2': 7.68, 'lipoC3S1': 3.81, 'temp': 28.81, 'lipoC3S3': 11.54, 'lipoC3S2': 7.63, 'rot1': 292, 'rot0': 296, 'rot3': 163, 'rot2': 136, 'state': 'normal', 'yaw': 11.31, 'datetime': '2018-10-05 20:20:56.531139', 'mgs': 0, 'volt': 0.835, 'depth': 0.546, 'time': 53, 'pitch': -26.37, 'roll': -7.16, 'pres': 171}
{'lipoC2': 7.68, 'lipoC3S1': 3.81, 'temp': 28.81, 'lipoC3S3': 11.54, 'lipoC3S2': 7.63, 'rot1': 292, 'rot0': 296, 'rot3': 163, 'rot2': 136, 'state': 'normal', 'yaw': 11.35, 'datetime': '2018-10-05 20:20:56.635334', 'mgs': 0, 'volt': 0.835, 'depth': 0.546, 'time': 53, 'pitch': -26.69, 'roll': -6.78, 'pres': 171}
{'lipoC2': 7.68, 'lipoC3S1': 3.81, 'temp': 28.81, 'lipoC3S3': 11.54, 'lipoC3S2': 7.63, 'rot1': 292, 'rot0': 296, 'rot3': 163, 'rot2': 136, 'state': 'normal', 'yaw': 11.77, 'datetime': '2018-10-05 20:20:56.739534', 'mgs': 0, 'volt': 0.835, 'depth': 0.546, 'time': 53, 'pitch': -26.76, 'roll': -6.68, 'pres': 171}
{'lipoC2': 7.69, 'lipoC3S1': 3.81, 'temp': 28.81, 'lipoC3S3': 11.54, 'lipoC3S2': 7.63, 'rot1': 292, 'rot0': 296, 'rot3': 163, 'rot2': 136, 'state': 'normal', 'yaw': 12.14, 'datetime': '2018-10-05 20:20:56.845061', 'mgs': 0, 'volt': 0.835, 'depth': 0.546, 'time': 53, 'pitch': -26.62, 'roll': -6.43, 'pres': 171}
{'lipoC2': 7.68, 'lipoC3S1': 3.81, 'temp': 28.75, 'lipoC3S3': 11.54, 'lipoC3S2': 7.63, 'rot1': 292, 'rot0': 296, 'rot3': 163, 'rot2': 136, 'state': 'normal', 'yaw': 12.52, 'datetime': '2018-10-05 20:20:56.949417', 'mgs': 0, 'volt': 0.835, 'depth': 0.546, 'time': 54, 'pitch': -26.33, 'roll': -5.98, 'pres': 171}
{'lipoC2': 7.69, 'lipoC3S1': 3.81, 'temp': 28.75, 'lipoC3S3': 11.54, 'lipoC3S2': 7.63, 'rot1': 292, 'rot0': 296, 'rot3': 163, 'rot2': 136, 'state': 'normal', 'yaw': 12.72, 'datetime': '2018-10-05 20:20:57.054639', 'mgs': 0, 'volt': 0.8301, 'depth': 0.47, 'time': 54, 'pitch': -26.01, 'roll': -5.31, 'pres': 170}
{'lipoC2': 7.68, 'lipoC3S1': 3.81, 'temp': 28.75, 'lipoC3S3': 11.54, 'lipoC3S2': 7.63, 'rot1': 292, 'rot0': 296, 'rot3': 163, 'rot2': 136, 'state': 'normal', 'yaw': 12.86, 'datetime': '2018-10-05 20:20:57.158787', 'mgs': 0, 'volt': 0.8301, 'depth': 0.47, 'time': 54, 'pitch': -25.36, 'roll': -4.45, 'pres': 170}
{'lipoC2': 7.69, 'lipoC3S1': 3.81, 'temp': 28.75, 'lipoC3S3': 11.54, 'lipoC3S2': 7.63, 'rot1': 292, 'rot0': 296, 'rot3': 163, 'rot2': 136, 'state': 'normal', 'yaw': 12.98, 'datetime': '2018-10-05 20:20:57.263163', 'mgs': 0, 'volt': 0.8301, 'depth': 0.47, 'time': 54, 'pitch': -24.57, 'roll': -3.65, 'pres': 170}
{'lipoC2': 7.68, 'lipoC3S1': 3.81, 'temp': 28.75, 'lipoC3S3': 11.54, 'lipoC3S2': 7.63, 'rot1': 292, 'rot0': 296, 'rot3': 163, 'rot2': 136, 'state': 'normal', 'yaw': 13.05, 'datetime': '2018-10-05 20:20:57.367190', 'mgs': 0, 'volt': 0.8301, 'depth': 0.47, 'time': 54, 'pitch': -23.89, 'roll': -2.85, 'pres': 170}
{'lipoC2': 7.69, 'lipoC3S1': 3.81, 'temp': 28.75, 'lipoC3S3': 11.54, 'lipoC3S2': 7.63, 'rot1': 292, 'rot0': 296, 'rot3': 163, 'rot2': 136, 'state': 'normal', 'yaw': 12.99, 'datetime': '2018-10-05 20:20:57.471453', 'mgs': 0, 'volt': 0.8301, 'depth': 0.47, 'time': 54, 'pitch': -23.48, 'roll': -2.23, 'pres': 170}
{'lipoC2': 7.68, 'lipoC3S1': 3.81, 'temp': 28.75, 'lipoC3S3': 11.54, 'lipoC3S2': 7.63, 'rot1': 292, 'rot0': 296, 'rot3': 163, 'rot2': 136, 'state': 'normal', 'yaw': 12.84, 'datetime': '2018-10-05 20:20:57.575732', 'mgs': 0, 'volt': 0.8301, 'depth': 0.47, 'time': 54, 'pitch': -23.13, 'roll': -1.8, 'pres': 170}
{'lipoC2': 7.69, 'lipoC3S1': 3.81, 'temp': 28.75, 'lipoC3S3': 11.54, 'lipoC3S2': 7.63, 'rot1': 292, 'rot0': 296, 'rot3': 163, 'rot2': 136, 'state': 'normal', 'yaw': 12.57, 'datetime': '2018-10-05 20:20:57.680289', 'mgs': 0, 'volt': 0.8301, 'depth': 0.47, 'time': 54, 'pitch': -22.86, 'roll': -1.59, 'pres': 170}
{'lipoC2': 7.68, 'lipoC3S1': 3.81, 'temp': 28.75, 'lipoC3S3': 11.54, 'lipoC3S2': 7.63, 'rot1': 292, 'rot0': 296, 'rot3': 163, 'rot2': 136, 'state': 'normal', 'yaw': 12.34, 'datetime': '2018-10-05 20:20:57.785274', 'mgs': 0, 'volt': 0.8301, 'depth': 0.47, 'time': 54, 'pitch': -22.59, 'roll': -1.69, 'pres': 170}
{'lipoC2': 7.68, 'lipoC3S1': 3.81, 'temp': 28.81, 'lipoC3S3': 11.54, 'lipoC3S2': 7.63, 'rot1': 292, 'rot0': 296, 'rot3': 163, 'rot2': 136, 'state': 'normal', 'yaw': 12.12, 'datetime': '2018-10-05 20:20:57.889671', 'mgs': 0, 'volt': 0.8252, 'depth': 0.394, 'time': 54, 'pitch': -22.34, 'roll': -2.09, 'pres': 169}
{'lipoC2': 7.68, 'lipoC3S1': 3.81, 'temp': 28.81, 'lipoC3S3': 11.54, 'lipoC3S2': 7.63, 'rot1': 292, 'rot0': 296, 'rot3': 163, 'rot2': 136, 'state': 'normal', 'yaw': 11.9, 'datetime': '2018-10-05 20:20:57.995060', 'mgs': 0, 'volt': 0.8252, 'depth': 0.394, 'time': 55, 'pitch': -22.25, 'roll': -2.64, 'pres': 169}
{'lipoC2': 7.68, 'lipoC3S1': 3.81, 'temp': 28.75, 'lipoC3S3': 11.54, 'lipoC3S2': 7.63, 'rot1': 292, 'rot0': 296, 'rot3': 163, 'rot2': 136, 'state': 'normal', 'yaw': 11.57, 'datetime': '2018-10-05 20:20:58.099226', 'mgs': 0, 'volt': 0.8203, 'depth': 0.317, 'time': 55, 'pitch': -22.35, 'roll': -3.32, 'pres': 168}
{'lipoC2': 7.68, 'lipoC3S1': 3.82, 'temp': 28.75, 'lipoC3S3': 11.54, 'lipoC3S2': 7.63, 'rot1': 292, 'rot0': 296, 'rot3': 163, 'rot2': 136, 'state': 'normal', 'yaw': 11.06, 'datetime': '2018-10-05 20:20:58.203884', 'mgs': 0, 'volt': 0.8203, 'depth': 0.317, 'time': 55, 'pitch': -22.68, 'roll': -3.8, 'pres': 168}
{'lipoC2': 7.68, 'lipoC3S1': 3.82, 'temp': 28.75, 'lipoC3S3': 11.54, 'lipoC3S2': 7.63, 'rot1': 292, 'rot0': 296, 'rot3': 163, 'rot2': 136, 'state': 'normal', 'yaw': 10.48, 'datetime': '2018-10-05 20:20:58.308932', 'mgs': 0, 'volt': 0.8203, 'depth': 0.317, 'time': 55, 'pitch': -23.02, 'roll': -4.17, 'pres': 168}
{'lipoC2': 7.68, 'lipoC3S1': 3.81, 'temp': 28.75, 'lipoC3S3': 11.54, 'lipoC3S2': 7.63, 'rot1': 292, 'rot0': 296, 'rot3': 163, 'rot2': 136, 'state': 'normal', 'yaw': 9.96, 'datetime': '2018-10-05 20:20:58.413143', 'mgs': 0, 'volt': 0.8154, 'depth': 0.241, 'time': 55, 'pitch': -23.26, 'roll': -4.59, 'pres': 167}
{'lipoC2': 7.68, 'lipoC3S1': 3.81, 'temp': 28.75, 'lipoC3S3': 11.54, 'lipoC3S2': 7.63, 'rot1': 292, 'rot0': 296, 'rot3': 163, 'rot2': 136, 'state': 'normal', 'yaw': 9.54, 'datetime': '2018-10-05 20:20:58.517455', 'mgs': 0, 'volt': 0.8154, 'depth': 0.241, 'time': 55, 'pitch': -23.35, 'roll': -4.88, 'pres': 167}
{'lipoC2': 7.68, 'lipoC3S1': 3.81, 'temp': 28.75, 'lipoC3S3': 11.54, 'lipoC3S2': 7.63, 'rot1': 292, 'rot0': 296, 'rot3': 163, 'rot2': 136, 'state': 'normal', 'yaw': 9.21, 'datetime': '2018-10-05 20:20:58.621655', 'mgs': 0, 'volt': 0.8154, 'depth': 0.241, 'time': 55, 'pitch': -23.21, 'roll': -5.15, 'pres': 167}
{'lipoC2': 7.68, 'lipoC3S1': 3.81, 'temp': 28.75, 'lipoC3S3': 11.54, 'lipoC3S2': 7.63, 'rot1': 292, 'rot0': 296, 'rot3': 163, 'rot2': 136, 'state': 'normal', 'yaw': 8.98, 'datetime': '2018-10-05 20:20:58.725863', 'mgs': 0, 'volt': 0.8154, 'depth': 0.241, 'time': 55, 'pitch': -22.98, 'roll': -5.29, 'pres': 167}
{'lipoC2': 7.68, 'lipoC3S1': 3.82, 'temp': 28.75, 'lipoC3S3': 11.54, 'lipoC3S2': 7.63, 'rot1': 292, 'rot0': 296, 'rot3': 163, 'rot2': 136, 'state': 'normal', 'yaw': 8.82, 'datetime': '2018-10-05 20:20:58.830191', 'mgs': 0, 'volt': 0.8154, 'depth': 0.241, 'time': 55, 'pitch': -22.73, 'roll': -5.3, 'pres': 167}
{'lipoC2': 7.68, 'lipoC3S1': 3.81, 'temp': 28.75, 'lipoC3S3': 11.54, 'lipoC3S2': 7.64, 'rot1': 292, 'rot0': 296, 'rot3': 163, 'rot2': 136, 'state': 'normal', 'yaw': 8.77, 'datetime': '2018-10-05 20:20:58.934528', 'mgs': 0, 'volt': 0.8154, 'depth': 0.241, 'time': 56, 'pitch': -22.39, 'roll': -5.17, 'pres': 167}
{'lipoC2': 7.68, 'lipoC3S1': 3.82, 'temp': 28.75, 'lipoC3S3': 11.54, 'lipoC3S2': 7.63, 'rot1': 292, 'rot0': 296, 'rot3': 163, 'rot2': 136, 'state': 'normal', 'yaw': 8.86, 'datetime': '2018-10-05 20:20:59.040118', 'mgs': 0, 'volt': 0.8105, 'depth': 0.165, 'time': 56, 'pitch': -21.97, 'roll': -5.01, 'pres': 166}
{'lipoC2': 7.68, 'lipoC3S1': 3.81, 'temp': 28.75, 'lipoC3S3': 11.54, 'lipoC3S2': 7.63, 'rot1': 292, 'rot0': 296, 'rot3': 163, 'rot2': 136, 'state': 'normal', 'yaw': 8.9, 'datetime': '2018-10-05 20:20:59.144254', 'mgs': 0, 'volt': 0.8105, 'depth': 0.165, 'time': 56, 'pitch': -21.68, 'roll': -4.75, 'pres': 166}
{'lipoC2': 7.68, 'lipoC3S1': 3.82, 'temp': 28.75, 'lipoC3S3': 11.54, 'lipoC3S2': 7.63, 'rot1': 292, 'rot0': 296, 'rot3': 163, 'rot2': 136, 'state': 'normal', 'yaw': 8.87, 'datetime': '2018-10-05 20:20:59.249709', 'mgs': 0, 'volt': 0.8105, 'depth': 0.165, 'time': 56, 'pitch': -21.72, 'roll': -4.49, 'pres': 166}
{'lipoC2': 7.68, 'lipoC3S1': 3.82, 'temp': 28.75, 'lipoC3S3': 11.54, 'lipoC3S2': 7.63, 'rot1': 292, 'rot0': 296, 'rot3': 163, 'rot2': 136, 'state': 'normal', 'yaw': 8.68, 'datetime': '2018-10-05 20:20:59.354224', 'mgs': 0, 'volt': 0.8105, 'depth': 0.165, 'time': 56, 'pitch': -21.94, 'roll': -4.17, 'pres': 166}
{'lipoC2': 7.68, 'lipoC3S1': 3.81, 'temp': 28.75, 'lipoC3S3': 11.54, 'lipoC3S2': 7.63, 'rot1': 292, 'rot0': 296, 'rot3': 163, 'rot2': 136, 'state': 'normal', 'yaw': 8.47, 'datetime': '2018-10-05 20:20:59.459531', 'mgs': 0, 'volt': 0.8154, 'depth': 0.241, 'time': 56, 'pitch': -22.09, 'roll': -3.94, 'pres': 167}
{'lipoC2': 7.68, 'lipoC3S1': 3.81, 'temp': 28.75, 'lipoC3S3': 11.54, 'lipoC3S2': 7.63, 'rot1': 292, 'rot0': 296, 'rot3': 163, 'rot2': 136, 'state': 'normal', 'yaw': 8.38, 'datetime': '2018-10-05 20:20:59.563744', 'mgs': 0, 'volt': 0.8154, 'depth': 0.241, 'time': 56, 'pitch': -21.89, 'roll': -3.89, 'pres': 167}
{'lipoC2': 7.68, 'lipoC3S1': 3.82, 'temp': 28.75, 'lipoC3S3': 11.54, 'lipoC3S2': 7.63, 'rot1': 292, 'rot0': 296, 'rot3': 163, 'rot2': 136, 'state': 'normal', 'yaw': 8.31, 'datetime': '2018-10-05 20:20:59.667894', 'mgs': 0, 'volt': 0.8154, 'depth': 0.241, 'time': 56, 'pitch': -21.56, 'roll': -3.98, 'pres': 167}
{'lipoC2': 7.68, 'lipoC3S1': 3.82, 'temp': 28.75, 'lipoC3S3': 11.54, 'lipoC3S2': 7.63, 'rot1': 292, 'rot0': 296, 'rot3': 163, 'rot2': 136, 'state': 'normal', 'yaw': 8.22, 'datetime': '2018-10-05 20:20:59.772321', 'mgs': 0, 'volt': 0.8154, 'depth': 0.241, 'time': 56, 'pitch': -21.32, 'roll': -4.14, 'pres': 167}
{'lipoC2': 7.68, 'lipoC3S1': 3.82, 'temp': 28.75, 'lipoC3S3': 11.54, 'lipoC3S2': 7.63, 'rot1': 292, 'rot0': 296, 'rot3': 163, 'rot2': 136, 'state': 'normal', 'yaw': 8.26, 'datetime': '2018-10-05 20:20:59.876428', 'mgs': 0, 'volt': 0.8154, 'depth': 0.241, 'time': 56, 'pitch': -21.05, 'roll': -4.52, 'pres': 167}
{'lipoC2': 7.68, 'lipoC3S1': 3.82, 'temp': 28.75, 'lipoC3S3': 11.54, 'lipoC3S2': 7.63, 'rot1': 292, 'rot0': 296, 'rot3': 163, 'rot2': 136, 'state': 'normal', 'yaw': 8.31, 'datetime': '2018-10-05 20:20:59.980738', 'mgs': 0, 'volt': 0.8203, 'depth': 0.317, 'time': 57, 'pitch': -20.95, 'roll': -4.87, 'pres': 168}
{'lipoC2': 7.68, 'lipoC3S1': 3.81, 'temp': 28.75, 'lipoC3S3': 11.54, 'lipoC3S2': 7.64, 'rot1': 292, 'rot0': 296, 'rot3': 163, 'rot2': 136, 'state': 'normal', 'yaw': 8.39, 'datetime': '2018-10-05 20:21:00.084882', 'mgs': 0, 'volt': 0.8203, 'depth': 0.317, 'time': 57, 'pitch': -21.01, 'roll': -5.24, 'pres': 168}
{'lipoC2': 7.68, 'lipoC3S1': 3.81, 'temp': 28.75, 'lipoC3S3': 11.54, 'lipoC3S2': 7.63, 'rot1': 292, 'rot0': 296, 'rot3': 163, 'rot2': 136, 'state': 'normal', 'yaw': 8.41, 'datetime': '2018-10-05 20:21:00.189157', 'mgs': 0, 'volt': 0.8203, 'depth': 0.317, 'time': 57, 'pitch': -21.28, 'roll': -5.51, 'pres': 168}
{'lipoC2': 7.68, 'lipoC3S1': 3.82, 'temp': 28.75, 'lipoC3S3': 11.54, 'lipoC3S2': 7.63, 'rot1': 292, 'rot0': 296, 'rot3': 163, 'rot2': 136, 'state': 'normal', 'yaw': 8.32, 'datetime': '2018-10-05 20:21:00.291914', 'mgs': 0, 'volt': 0.8252, 'depth': 0.394, 'time': 57, 'pitch': -21.52, 'roll': -5.7, 'pres': 169}
{'lipoC2': 7.68, 'lipoC3S1': 3.82, 'temp': 28.75, 'lipoC3S3': 11.54, 'lipoC3S2': 7.63, 'rot1': 292, 'rot0': 296, 'rot3': 163, 'rot2': 136, 'state': 'normal', 'yaw': 8.2, 'datetime': '2018-10-05 20:21:00.398211', 'mgs': 0, 'volt': 0.8252, 'depth': 0.394, 'time': 57, 'pitch': -21.55, 'roll': -5.93, 'pres': 169}
{'lipoC2': 7.68, 'lipoC3S1': 3.81, 'temp': 28.75, 'lipoC3S3': 11.54, 'lipoC3S2': 7.64, 'rot1': 292, 'rot0': 296, 'rot3': 163, 'rot2': 136, 'state': 'normal', 'yaw': 8.02, 'datetime': '2018-10-05 20:21:00.503686', 'mgs': 0, 'volt': 0.8252, 'depth': 0.394, 'time': 57, 'pitch': -21.46, 'roll': -6.07, 'pres': 169}
{'lipoC2': 7.69, 'lipoC3S1': 3.81, 'temp': 28.75, 'lipoC3S3': 11.54, 'lipoC3S2': 7.64, 'rot1': 292, 'rot0': 296, 'rot3': 163, 'rot2': 136, 'state': 'normal', 'yaw': 7.79, 'datetime': '2018-10-05 20:21:00.608028', 'mgs': 0, 'volt': 0.8252, 'depth': 0.394, 'time': 57, 'pitch': -21.35, 'roll': -6.2, 'pres': 169}
{'lipoC2': 7.68, 'lipoC3S1': 3.82, 'temp': 28.75, 'lipoC3S3': 11.54, 'lipoC3S2': 7.63, 'rot1': 292, 'rot0': 296, 'rot3': 163, 'rot2': 136, 'state': 'normal', 'yaw': 7.68, 'datetime': '2018-10-05 20:21:00.713404', 'mgs': 0, 'volt': 0.8252, 'depth': 0.394, 'time': 57, 'pitch': -21.57, 'roll': -6.36, 'pres': 169}
{'lipoC2': 7.69, 'lipoC3S1': 3.82, 'temp': 28.75, 'lipoC3S3': 11.54, 'lipoC3S2': 7.63, 'rot1': 292, 'rot0': 296, 'rot3': 163, 'rot2': 136, 'state': 'normal', 'yaw': 7.63, 'datetime': '2018-10-05 20:21:00.817670', 'mgs': 0, 'volt': 0.8301, 'depth': 0.47, 'time': 57, 'pitch': -22.27, 'roll': -6.52, 'pres': 170}
{'lipoC2': 7.68, 'lipoC3S1': 3.82, 'temp': 28.75, 'lipoC3S3': 11.54, 'lipoC3S2': 7.63, 'rot1': 292, 'rot0': 296, 'rot3': 163, 'rot2': 136, 'state': 'normal', 'yaw': 7.71, 'datetime': '2018-10-05 20:21:00.922003', 'mgs': 0, 'volt': 0.8301, 'depth': 0.47, 'time': 58, 'pitch': -22.99, 'roll': -6.66, 'pres': 170}
{'lipoC2': 7.68, 'lipoC3S1': 3.82, 'temp': 28.75, 'lipoC3S3': 11.54, 'lipoC3S2': 7.64, 'rot1': 292, 'rot0': 296, 'rot3': 163, 'rot2': 136, 'state': 'normal', 'yaw': 8.0, 'datetime': '2018-10-05 20:21:01.034571', 'mgs': 0, 'volt': 0.8301, 'depth': 0.47, 'time': 58, 'pitch': -23.4, 'roll': -6.86, 'pres': 170}
{'lipoC2': 7.68, 'lipoC3S1': 3.81, 'temp': 28.75, 'lipoC3S3': 11.54, 'lipoC3S2': 7.63, 'rot1': 292, 'rot0': 296, 'rot3': 163, 'rot2': 136, 'state': 'normal', 'yaw': 8.32, 'datetime': '2018-10-05 20:21:01.127854', 'mgs': 0, 'volt': 0.8301, 'depth': 0.47, 'time': 58, 'pitch': -23.73, 'roll': -6.89, 'pres': 170}
{'lipoC2': 7.68, 'lipoC3S1': 3.82, 'temp': 28.75, 'lipoC3S3': 11.54, 'lipoC3S2': 7.64, 'rot1': 292, 'rot0': 296, 'rot3': 163, 'rot2': 136, 'state': 'normal', 'yaw': 8.67, 'datetime': '2018-10-05 20:21:01.231373', 'mgs': 0, 'volt': 0.8301, 'depth': 0.47, 'time': 58, 'pitch': -23.99, 'roll': -6.75, 'pres': 170}
{'lipoC2': 7.69, 'lipoC3S1': 3.82, 'temp': 28.75, 'lipoC3S3': 11.54, 'lipoC3S2': 7.64, 'rot1': 292, 'rot0': 296, 'rot3': 163, 'rot2': 136, 'state': 'normal', 'yaw': 8.75, 'datetime': '2018-10-05 20:21:01.335544', 'mgs': 0, 'volt': 0.8301, 'depth': 0.47, 'time': 58, 'pitch': -24.37, 'roll': -6.18, 'pres': 170}
{'lipoC2': 7.69, 'lipoC3S1': 3.82, 'temp': 28.75, 'lipoC3S3': 11.54, 'lipoC3S2': 7.64, 'rot1': 292, 'rot0': 296, 'rot3': 163, 'rot2': 136, 'state': 'normal', 'yaw': 8.57, 'datetime': '2018-10-05 20:21:01.440189', 'mgs': 0, 'volt': 0.8301, 'depth': 0.47, 'time': 58, 'pitch': -24.75, 'roll': -5.44, 'pres': 170}
{'lipoC2': 7.68, 'lipoC3S1': 3.82, 'temp': 28.75, 'lipoC3S3': 11.54, 'lipoC3S2': 7.64, 'rot1': 292, 'rot0': 296, 'rot3': 163, 'rot2': 136, 'state': 'normal', 'yaw': 8.35, 'datetime': '2018-10-05 20:21:01.544567', 'mgs': 0, 'volt': 0.8301, 'depth': 0.47, 'time': 58, 'pitch': -24.87, 'roll': -4.76, 'pres': 170}
{'lipoC2': 7.68, 'lipoC3S1': 3.82, 'temp': 28.75, 'lipoC3S3': 11.54, 'lipoC3S2': 7.64, 'rot1': 292, 'rot0': 296, 'rot3': 163, 'rot2': 136, 'state': 'normal', 'yaw': 8.49, 'datetime': '2018-10-05 20:21:01.648833', 'mgs': 0, 'volt': 0.8301, 'depth': 0.47, 'time': 58, 'pitch': -24.64, 'roll': -4.67, 'pres': 170}
{'lipoC2': 7.68, 'lipoC3S1': 3.82, 'temp': 28.75, 'lipoC3S3': 11.54, 'lipoC3S2': 7.64, 'rot1': 292, 'rot0': 296, 'rot3': 163, 'rot2': 136, 'state': 'normal', 'yaw': 8.98, 'datetime': '2018-10-05 20:21:01.753941', 'mgs': 0, 'volt': 0.8252, 'depth': 0.394, 'time': 58, 'pitch': -24.14, 'roll': -5.12, 'pres': 169}
{'lipoC2': 7.68, 'lipoC3S1': 3.82, 'temp': 28.75, 'lipoC3S3': 11.54, 'lipoC3S2': 7.64, 'rot1': 292, 'rot0': 296, 'rot3': 163, 'rot2': 136, 'state': 'normal', 'yaw': 9.51, 'datetime': '2018-10-05 20:21:01.858304', 'mgs': 0, 'volt': 0.8252, 'depth': 0.394, 'time': 58, 'pitch': -23.68, 'roll': -5.89, 'pres': 169}
{'lipoC2': 7.68, 'lipoC3S1': 3.81, 'temp': 28.75, 'lipoC3S3': 11.54, 'lipoC3S2': 7.64, 'rot1': 292, 'rot0': 296, 'rot3': 163, 'rot2': 136, 'state': 'normal', 'yaw': 9.92, 'datetime': '2018-10-05 20:21:01.963625', 'mgs': 0, 'volt': 0.8252, 'depth': 0.394, 'time': 59, 'pitch': -23.29, 'roll': -6.69, 'pres': 169}
{'lipoC2': 7.68, 'lipoC3S1': 3.82, 'temp': 28.75, 'lipoC3S3': 11.54, 'lipoC3S2': 7.64, 'rot1': 292, 'rot0': 296, 'rot3': 163, 'rot2': 136, 'state': 'normal', 'yaw': 10.06, 'datetime': '2018-10-05 20:21:02.067891', 'mgs': 0, 'volt': 0.8252, 'depth': 0.394, 'time': 59, 'pitch': -22.85, 'roll': -7.29, 'pres': 169}
{'lipoC2': 7.68, 'lipoC3S1': 3.82, 'temp': 28.75, 'lipoC3S3': 11.54, 'lipoC3S2': 7.64, 'rot1': 292, 'rot0': 296, 'rot3': 163, 'rot2': 136, 'state': 'normal', 'yaw': 10.17, 'datetime': '2018-10-05 20:21:02.172166', 'mgs': 0, 'volt': 0.8252, 'depth': 0.394, 'time': 59, 'pitch': -21.99, 'roll': -7.65, 'pres': 169}
{'lipoC2': 7.69, 'lipoC3S1': 3.82, 'temp': 28.69, 'lipoC3S3': 11.54, 'lipoC3S2': 7.64, 'rot1': 292, 'rot0': 296, 'rot3': 163, 'rot2': 136, 'state': 'normal', 'yaw': 9.87, 'datetime': '2018-10-05 20:21:02.276412', 'mgs': 0, 'volt': 0.8252, 'depth': 0.394, 'time': 59, 'pitch': -20.85, 'roll': -7.51, 'pres': 169}
{'lipoC2': 7.68, 'lipoC3S1': 3.82, 'temp': 28.69, 'lipoC3S3': 11.54, 'lipoC3S2': 7.64, 'rot1': 292, 'rot0': 296, 'rot3': 163, 'rot2': 136, 'state': 'normal', 'yaw': 9.49, 'datetime': '2018-10-05 20:21:02.380915', 'mgs': 0, 'volt': 0.8252, 'depth': 0.394, 'time': 59, 'pitch': -19.65, 'roll': -7.16, 'pres': 169}
{'lipoC2': 7.68, 'lipoC3S1': 3.82, 'temp': 28.75, 'lipoC3S3': 11.54, 'lipoC3S2': 7.63, 'rot1': 292, 'rot0': 296, 'rot3': 163, 'rot2': 136, 'state': 'normal', 'yaw': 9.34, 'datetime': '2018-10-05 20:21:02.484795', 'mgs': 0, 'volt': 0.8252, 'depth': 0.394, 'time': 59, 'pitch': -18.69, 'roll': -6.98, 'pres': 169}
{'lipoC2': 7.68, 'lipoC3S1': 3.82, 'temp': 28.75, 'lipoC3S3': 11.54, 'lipoC3S2': 7.64, 'rot1': 292, 'rot0': 296, 'rot3': 163, 'rot2': 136, 'state': 'normal', 'yaw': 9.61, 'datetime': '2018-10-05 20:21:02.589058', 'mgs': 0, 'volt': 0.8203, 'depth': 0.317, 'time': 59, 'pitch': -18.09, 'roll': -7.05, 'pres': 168}
{'lipoC2': 7.69, 'lipoC3S1': 3.82, 'temp': 28.75, 'lipoC3S3': 11.54, 'lipoC3S2': 7.64, 'rot1': 292, 'rot0': 296, 'rot3': 163, 'rot2': 136, 'state': 'normal', 'yaw': 9.83, 'datetime': '2018-10-05 20:21:02.693665', 'mgs': 0, 'volt': 0.8203, 'depth': 0.317, 'time': 59, 'pitch': -18.32, 'roll': -6.93, 'pres': 168}
{'lipoC2': 7.68, 'lipoC3S1': 3.82, 'temp': 28.75, 'lipoC3S3': 11.54, 'lipoC3S2': 7.64, 'rot1': 292, 'rot0': 296, 'rot3': 163, 'rot2': 136, 'state': 'normal', 'yaw': 10.39, 'datetime': '2018-10-05 20:21:02.797928', 'mgs': 0, 'volt': 0.8203, 'depth': 0.317, 'time': 59, 'pitch': -18.79, 'roll': -6.9, 'pres': 168}
{'lipoC2': 7.68, 'lipoC3S1': 3.82, 'temp': 28.75, 'lipoC3S3': 11.54, 'lipoC3S2': 7.64, 'rot1': 292, 'rot0': 296, 'rot3': 163, 'rot2': 136, 'state': 'normal', 'yaw': 11.0, 'datetime': '2018-10-05 20:21:02.902653', 'mgs': 0, 'volt': 0.8203, 'depth': 0.317, 'time': 59, 'pitch': -19.22, 'roll': -6.83, 'pres': 168}
{'lipoC2': 7.69, 'lipoC3S1': 3.82, 'temp': 28.75, 'lipoC3S3': 11.54, 'lipoC3S2': 7.64, 'rot1': 292, 'rot0': 296, 'rot3': 163, 'rot2': 136, 'state': 'normal', 'yaw': 11.21, 'datetime': '2018-10-05 20:21:03.007456', 'mgs': 0, 'volt': 0.8203, 'depth': 0.317, 'time': 60, 'pitch': -19.63, 'roll': -6.45, 'pres': 168}
{'lipoC2': 7.69, 'lipoC3S1': 3.82, 'temp': 28.75, 'lipoC3S3': 11.54, 'lipoC3S2': 7.64, 'rot1': 292, 'rot0': 296, 'rot3': 163, 'rot2': 136, 'state': 'normal', 'yaw': 10.68, 'datetime': '2018-10-05 20:21:03.111682', 'mgs': 0, 'volt': 0.8203, 'depth': 0.317, 'time': 60, 'pitch': -19.79, 'roll': -5.5, 'pres': 168}
{'lipoC2': 7.69, 'lipoC3S1': 3.82, 'temp': 28.69, 'lipoC3S3': 11.54, 'lipoC3S2': 7.64, 'rot1': 292, 'rot0': 296, 'rot3': 163, 'rot2': 136, 'state': 'normal', 'yaw': 9.99, 'datetime': '2018-10-05 20:21:03.217144', 'mgs': 0, 'volt': 0.8252, 'depth': 0.394, 'time': 60, 'pitch': -19.75, 'roll': -4.62, 'pres': 169}
{'lipoC2': 7.68, 'lipoC3S1': 3.82, 'temp': 28.69, 'lipoC3S3': 11.54, 'lipoC3S2': 7.64, 'rot1': 292, 'rot0': 296, 'rot3': 163, 'rot2': 136, 'state': 'normal', 'yaw': 9.38, 'datetime': '2018-10-05 20:21:03.321445', 'mgs': 0, 'volt': 0.8203, 'depth': 0.317, 'time': 60, 'pitch': -19.91, 'roll': -4.02, 'pres': 168}
{'lipoC2': 7.68, 'lipoC3S1': 3.82, 'temp': 28.75, 'lipoC3S3': 11.54, 'lipoC3S2': 7.64, 'rot1': 292, 'rot0': 296, 'rot3': 163, 'rot2': 136, 'state': 'normal', 'yaw': 8.79, 'datetime': '2018-10-05 20:21:03.425686', 'mgs': 0, 'volt': 0.8252, 'depth': 0.394, 'time': 60, 'pitch': -20.61, 'roll': -3.82, 'pres': 169}
{'lipoC2': 7.68, 'lipoC3S1': 3.82, 'temp': 28.75, 'lipoC3S3': 11.54, 'lipoC3S2': 7.64, 'rot1': 292, 'rot0': 296, 'rot3': 163, 'rot2': 136, 'state': 'normal', 'yaw': 8.54, 'datetime': '2018-10-05 20:21:03.529843', 'mgs': 0, 'volt': 0.8252, 'depth': 0.394, 'time': 60, 'pitch': -21.24, 'roll': -4.25, 'pres': 169}
{'lipoC2': 7.68, 'lipoC3S1': 3.82, 'temp': 28.75, 'lipoC3S3': 11.54, 'lipoC3S2': 7.64, 'rot1': 292, 'rot0': 296, 'rot3': 163, 'rot2': 136, 'state': 'normal', 'yaw': 8.27, 'datetime': '2018-10-05 20:21:03.634015', 'mgs': 0, 'volt': 0.8252, 'depth': 0.394, 'time': 60, 'pitch': -21.41, 'roll': -4.81, 'pres': 169}
{'lipoC2': 7.69, 'lipoC3S1': 3.82, 'temp': 28.75, 'lipoC3S3': 11.54, 'lipoC3S2': 7.63, 'rot1': 292, 'rot0': 296, 'rot3': 163, 'rot2': 136, 'state': 'normal', 'yaw': 7.96, 'datetime': '2018-10-05 20:21:03.738334', 'mgs': 0, 'volt': 0.8252, 'depth': 0.394, 'time': 60, 'pitch': -21.31, 'roll': -5.4, 'pres': 169}
{'lipoC2': 7.68, 'lipoC3S1': 3.82, 'temp': 28.75, 'lipoC3S3': 11.54, 'lipoC3S2': 7.64, 'rot1': 292, 'rot0': 296, 'rot3': 163, 'rot2': 136, 'state': 'normal', 'yaw': 7.6, 'datetime': '2018-10-05 20:21:03.842834', 'mgs': 0, 'volt': 0.8203, 'depth': 0.317, 'time': 60, 'pitch': -21.19, 'roll': -6.06, 'pres': 168}
{'lipoC2': 7.68, 'lipoC3S1': 3.82, 'temp': 28.75, 'lipoC3S3': 11.54, 'lipoC3S2': 7.64, 'rot1': 292, 'rot0': 296, 'rot3': 163, 'rot2': 136, 'state': 'normal', 'yaw': 7.56, 'datetime': '2018-10-05 20:21:03.948153', 'mgs': 0, 'volt': 0.8252, 'depth': 0.394, 'time': 61, 'pitch': -21.28, 'roll': -6.85, 'pres': 169}
{'lipoC2': 7.68, 'lipoC3S1': 3.82, 'temp': 28.75, 'lipoC3S3': 11.54, 'lipoC3S2': 7.64, 'rot1': 292, 'rot0': 296, 'rot3': 163, 'rot2': 136, 'state': 'normal', 'yaw': 7.75, 'datetime': '2018-10-05 20:21:04.052887', 'mgs': 0, 'volt': 0.8252, 'depth': 0.394, 'time': 61, 'pitch': -21.61, 'roll': -7.71, 'pres': 169}
{'lipoC2': 7.68, 'lipoC3S1': 3.82, 'temp': 28.75, 'lipoC3S3': 11.54, 'lipoC3S2': 7.64, 'rot1': 292, 'rot0': 296, 'rot3': 163, 'rot2': 136, 'state': 'normal', 'yaw': 7.89, 'datetime': '2018-10-05 20:21:04.157925', 'mgs': 0, 'volt': 0.8203, 'depth': 0.317, 'time': 61, 'pitch': -21.91, 'roll': -8.18, 'pres': 168}
{'lipoC2': 7.68, 'lipoC3S1': 3.82, 'temp': 28.75, 'lipoC3S3': 11.54, 'lipoC3S2': 7.64, 'rot1': 292, 'rot0': 296, 'rot3': 163, 'rot2': 136, 'state': 'normal', 'yaw': 7.97, 'datetime': '2018-10-05 20:21:04.262166', 'mgs': 0, 'volt': 0.8203, 'depth': 0.317, 'time': 61, 'pitch': -22.03, 'roll': -8.31, 'pres': 168}
{'lipoC2': 7.68, 'lipoC3S1': 3.82, 'temp': 28.75, 'lipoC3S3': 11.54, 'lipoC3S2': 7.64, 'rot1': 292, 'rot0': 296, 'rot3': 163, 'rot2': 136, 'state': 'normal', 'yaw': 8.21, 'datetime': '2018-10-05 20:21:04.367611', 'mgs': 0, 'volt': 0.8252, 'depth': 0.394, 'time': 61, 'pitch': -22.09, 'roll': -8.2, 'pres': 169}
{'lipoC2': 7.68, 'lipoC3S1': 3.82, 'temp': 28.75, 'lipoC3S3': 11.54, 'lipoC3S2': 7.64, 'rot1': 292, 'rot0': 296, 'rot3': 163, 'rot2': 136, 'state': 'normal', 'yaw': 8.69, 'datetime': '2018-10-05 20:21:04.471895', 'mgs': 0, 'volt': 0.8252, 'depth': 0.394, 'time': 61, 'pitch': -22.21, 'roll': -7.89, 'pres': 169}
{'lipoC2': 7.68, 'lipoC3S1': 3.82, 'temp': 28.75, 'lipoC3S3': 11.54, 'lipoC3S2': 7.64, 'rot1': 292, 'rot0': 296, 'rot3': 163, 'rot2': 136, 'state': 'normal', 'yaw': 9.22, 'datetime': '2018-10-05 20:21:04.576216', 'mgs': 0, 'volt': 0.8252, 'depth': 0.394, 'time': 61, 'pitch': -22.36, 'roll': -7.45, 'pres': 169}
{'lipoC2': 7.68, 'lipoC3S1': 3.82, 'temp': 28.69, 'lipoC3S3': 11.54, 'lipoC3S2': 7.64, 'rot1': 292, 'rot0': 296, 'rot3': 163, 'rot2': 136, 'state': 'normal', 'yaw': 9.67, 'datetime': '2018-10-05 20:21:04.680394', 'mgs': 0, 'volt': 0.8301, 'depth': 0.47, 'time': 61, 'pitch': -22.42, 'roll': -6.89, 'pres': 170}
{'lipoC2': 7.68, 'lipoC3S1': 3.82, 'temp': 28.69, 'lipoC3S3': 11.54, 'lipoC3S2': 7.64, 'rot1': 292, 'rot0': 296, 'rot3': 163, 'rot2': 136, 'state': 'normal', 'yaw': 10.07, 'datetime': '2018-10-05 20:21:04.784710', 'mgs': 0, 'volt': 0.8301, 'depth': 0.47, 'time': 61, 'pitch': -22.38, 'roll': -6.25, 'pres': 170}
{'lipoC2': 7.68, 'lipoC3S1': 3.82, 'temp': 28.75, 'lipoC3S3': 11.54, 'lipoC3S2': 7.64, 'rot1': 292, 'rot0': 296, 'rot3': 163, 'rot2': 136, 'state': 'normal', 'yaw': 10.37, 'datetime': '2018-10-05 20:21:04.888791', 'mgs': 0, 'volt': 0.8301, 'depth': 0.47, 'time': 61, 'pitch': -22.35, 'roll': -5.78, 'pres': 170}
{'lipoC2': 7.68, 'lipoC3S1': 3.82, 'temp': 28.75, 'lipoC3S3': 11.54, 'lipoC3S2': 7.64, 'rot1': 292, 'rot0': 296, 'rot3': 163, 'rot2': 136, 'state': 'normal', 'yaw': 10.67, 'datetime': '2018-10-05 20:21:04.993122', 'mgs': 0, 'volt': 0.8301, 'depth': 0.47, 'time': 62, 'pitch': -22.33, 'roll': -5.48, 'pres': 170}
{'lipoC2': 7.68, 'lipoC3S1': 3.82, 'temp': 28.75, 'lipoC3S3': 11.54, 'lipoC3S2': 7.64, 'rot1': 292, 'rot0': 296, 'rot3': 163, 'rot2': 136, 'state': 'normal', 'yaw': 10.91, 'datetime': '2018-10-05 20:21:05.097280', 'mgs': 1, 'volt': 0.8301, 'depth': 0.47, 'time': 62, 'pitch': -22.55, 'roll': -5.28, 'pres': 170}
{'lipoC2': 7.68, 'lipoC3S1': 3.82, 'temp': 28.69, 'lipoC3S3': 11.54, 'lipoC3S2': 7.64, 'rot1': 0, 'rot0': 0, 'rot3': 0, 'rot2': 0, 'state': 'normal', 'yaw': 0.0, 'datetime': '2018-10-05 20:21:11.133547', 'mgs': 0, 'volt': 0.835, 'depth': 0.546, 'time': 1, 'pitch': -17.92, 'roll': -3.93, 'pres': 171}
{'lipoC2': 7.68, 'lipoC3S1': 3.82, 'temp': 28.69, 'lipoC3S3': 11.54, 'lipoC3S2': 7.64, 'rot1': 0, 'rot0': 0, 'rot3': 0, 'rot2': 0, 'state': 'normal', 'yaw': -0.06, 'datetime': '2018-10-05 20:21:14.176591', 'mgs': 0, 'volt': 0.835, 'depth': 0.546, 'time': 1, 'pitch': -17.29, 'roll': -3.36, 'pres': 171}
{'lipoC2': 7.69, 'lipoC3S1': 3.82, 'temp': 28.75, 'lipoC3S3': 11.55, 'lipoC3S2': 7.64, 'rot1': 0, 'rot0': 0, 'rot3': 0, 'rot2': 0, 'state': 'normal', 'yaw': -0.09, 'datetime': '2018-10-05 20:21:14.213751', 'mgs': 0, 'volt': 0.8398, 'depth': 0.623, 'time': 1, 'pitch': -17.04, 'roll': -2.78, 'pres': 172}
{'lipoC2': 7.68, 'lipoC3S1': 3.82, 'temp': 28.75, 'lipoC3S3': 11.54, 'lipoC3S2': 7.64, 'rot1': 0, 'rot0': 0, 'rot3': 0, 'rot2': 0, 'state': 'normal', 'yaw': -0.1, 'datetime': '2018-10-05 20:21:14.226345', 'mgs': 0, 'volt': 0.835, 'depth': 0.546, 'time': 1, 'pitch': -17.01, 'roll': -2.18, 'pres': 171}
{'lipoC2': 7.68, 'lipoC3S1': 3.82, 'temp': 28.75, 'lipoC3S3': 11.55, 'lipoC3S2': 7.64, 'rot1': 0, 'rot0': 0, 'rot3': 0, 'rot2': 0, 'state': 'normal', 'yaw': -0.11, 'datetime': '2018-10-05 20:21:14.243243', 'mgs': 0, 'volt': 0.8398, 'depth': 0.623, 'time': 1, 'pitch': -17.04, 'roll': -1.52, 'pres': 172}
{'lipoC2': 7.68, 'lipoC3S1': 3.82, 'temp': 28.75, 'lipoC3S3': 11.55, 'lipoC3S2': 7.64, 'rot1': 0, 'rot0': 0, 'rot3': 0, 'rot2': 0, 'state': 'normal', 'yaw': -0.12, 'datetime': '2018-10-05 20:21:14.259449', 'mgs': 0, 'volt': 0.8398, 'depth': 0.623, 'time': 1, 'pitch': -17.11, 'roll': -0.93, 'pres': 172}
{'lipoC2': 7.68, 'lipoC3S1': 3.82, 'temp': 28.75, 'lipoC3S3': 11.55, 'lipoC3S2': 7.64, 'rot1': 0, 'rot0': 0, 'rot3': 0, 'rot2': 0, 'state': 'normal', 'yaw': -0.14, 'datetime': '2018-10-05 20:21:14.269591', 'mgs': 0, 'volt': 0.8398, 'depth': 0.623, 'time': 1, 'pitch': -17.22, 'roll': -0.38, 'pres': 172}
{'lipoC2': 7.68, 'lipoC3S1': 3.82, 'temp': 28.75, 'lipoC3S3': 11.54, 'lipoC3S2': 7.64, 'rot1': 0, 'rot0': 0, 'rot3': 0, 'rot2': 0, 'state': 'normal', 'yaw': -0.11, 'datetime': '2018-10-05 20:21:14.285655', 'mgs': 0, 'volt': 0.8398, 'depth': 0.623, 'time': 1, 'pitch': -17.27, 'roll': 0.11, 'pres': 172}
{'lipoC2': 7.68, 'lipoC3S1': 3.82, 'temp': 28.75, 'lipoC3S3': 11.54, 'lipoC3S2': 7.64, 'rot1': 0, 'rot0': 0, 'rot3': 0, 'rot2': 0, 'state': 'normal', 'yaw': -0.02, 'datetime': '2018-10-05 20:21:14.302096', 'mgs': 0, 'volt': 0.8398, 'depth': 0.623, 'time': 2, 'pitch': -17.15, 'roll': 0.37, 'pres': 172}
{'lipoC2': 7.69, 'lipoC3S1': 3.82, 'temp': 28.75, 'lipoC3S3': 11.54, 'lipoC3S2': 7.64, 'rot1': 0, 'rot0': 0, 'rot3': 0, 'rot2': 0, 'state': 'normal', 'yaw': -0.04, 'datetime': '2018-10-05 20:21:14.312428', 'mgs': 0, 'volt': 0.8398, 'depth': 0.623, 'time': 2, 'pitch': -16.69, 'roll': 0.56, 'pres': 172}
{'lipoC2': 7.68, 'lipoC3S1': 3.82, 'temp': 28.75, 'lipoC3S3': 11.54, 'lipoC3S2': 7.64, 'rot1': 0, 'rot0': 0, 'rot3': 0, 'rot2': 0, 'state': 'normal', 'yaw': -0.2, 'datetime': '2018-10-05 20:21:14.329233', 'mgs': 0, 'volt': 0.8398, 'depth': 0.623, 'time': 2, 'pitch': -16.23, 'roll': 0.66, 'pres': 172}
{'lipoC2': 7.69, 'lipoC3S1': 3.82, 'temp': 28.75, 'lipoC3S3': 11.54, 'lipoC3S2': 7.64, 'rot1': 0, 'rot0': 0, 'rot3': 0, 'rot2': 0, 'state': 'normal', 'yaw': -0.35, 'datetime': '2018-10-05 20:21:14.346529', 'mgs': 0, 'volt': 0.8398, 'depth': 0.623, 'time': 2, 'pitch': -16.14, 'roll': 0.59, 'pres': 172}
{'lipoC2': 7.68, 'lipoC3S1': 3.82, 'temp': 28.75, 'lipoC3S3': 11.55, 'lipoC3S2': 7.64, 'rot1': 0, 'rot0': 0, 'rot3': 0, 'rot2': 0, 'state': 'normal', 'yaw': -0.47, 'datetime': '2018-10-05 20:21:14.356717', 'mgs': 0, 'volt': 0.8447, 'depth': 0.699, 'time': 2, 'pitch': -16.39, 'roll': 0.31, 'pres': 173}
{'lipoC2': 7.68, 'lipoC3S1': 3.82, 'temp': 28.75, 'lipoC3S3': 11.54, 'lipoC3S2': 7.64, 'rot1': 0, 'rot0': 0, 'rot3': 0, 'rot2': 0, 'state': 'normal', 'yaw': -0.66, 'datetime': '2018-10-05 20:21:14.373082', 'mgs': 0, 'volt': 0.8398, 'depth': 0.623, 'time': 2, 'pitch': -16.7, 'roll': -0.06, 'pres': 172}
{'lipoC2': 7.69, 'lipoC3S1': 3.82, 'temp': 28.81, 'lipoC3S3': 11.54, 'lipoC3S2': 7.64, 'rot1': 0, 'rot0': 0, 'rot3': 0, 'rot2': 0, 'state': 'normal', 'yaw': -0.93, 'datetime': '2018-10-05 20:21:14.389358', 'mgs': 0, 'volt': 0.8447, 'depth': 0.699, 'time': 2, 'pitch': -16.8, 'roll': -0.37, 'pres': 173}
{'lipoC2': 7.69, 'lipoC3S1': 3.82, 'temp': 28.81, 'lipoC3S3': 11.55, 'lipoC3S2': 7.64, 'rot1': 0, 'rot0': 0, 'rot3': 0, 'rot2': 0, 'state': 'normal', 'yaw': -1.19, 'datetime': '2018-10-05 20:21:14.399576', 'mgs': 0, 'volt': 0.8398, 'depth': 0.623, 'time': 2, 'pitch': -16.65, 'roll': -0.7, 'pres': 172}
{'lipoC2': 7.69, 'lipoC3S1': 3.82, 'temp': 28.75, 'lipoC3S3': 11.55, 'lipoC3S2': 7.64, 'rot1': 0, 'rot0': 0, 'rot3': 0, 'rot2': 0, 'state': 'normal', 'yaw': -1.41, 'datetime': '2018-10-05 20:21:14.415742', 'mgs': 0, 'volt': 0.8447, 'depth': 0.699, 'time': 2, 'pitch': -16.32, 'roll': -1.08, 'pres': 173}
{'lipoC2': 7.68, 'lipoC3S1': 3.82, 'temp': 28.75, 'lipoC3S3': 11.54, 'lipoC3S2': 7.64, 'rot1': 0, 'rot0': 0, 'rot3': 0, 'rot2': 0, 'state': 'normal', 'yaw': -1.57, 'datetime': '2018-10-05 20:21:14.432633', 'mgs': 0, 'volt': 0.8398, 'depth': 0.623, 'time': 3, 'pitch': -16.08, 'roll': -1.39, 'pres': 172}
{'lipoC2': 7.69, 'lipoC3S1': 3.82, 'temp': 28.75, 'lipoC3S3': 11.54, 'lipoC3S2': 7.64, 'rot1': 0, 'rot0': 0, 'rot3': 0, 'rot2': 0, 'state': 'normal', 'yaw': -1.73, 'datetime': '2018-10-05 20:21:14.443610', 'mgs': 0, 'volt': 0.8398, 'depth': 0.623, 'time': 3, 'pitch': -16.04, 'roll': -1.62, 'pres': 172}
{'lipoC2': 7.68, 'lipoC3S1': 3.82, 'temp': 28.75, 'lipoC3S3': 11.54, 'lipoC3S2': 7.64, 'rot1': 0, 'rot0': 0, 'rot3': 0, 'rot2': 0, 'state': 'normal', 'yaw': -1.84, 'datetime': '2018-10-05 20:21:14.459912', 'mgs': 0, 'volt': 0.8398, 'depth': 0.623, 'time': 3, 'pitch': -16.23, 'roll': -1.78, 'pres': 172}
{'lipoC2': 7.68, 'lipoC3S1': 3.82, 'temp': 28.75, 'lipoC3S3': 11.54, 'lipoC3S2': 7.64, 'rot1': 0, 'rot0': 0, 'rot3': 0, 'rot2': 0, 'state': 'normal', 'yaw': -1.88, 'datetime': '2018-10-05 20:21:14.476197', 'mgs': 0, 'volt': 0.8398, 'depth': 0.623, 'time': 3, 'pitch': -16.49, 'roll': -1.85, 'pres': 172}
{'lipoC2': 7.69, 'lipoC3S1': 3.82, 'temp': 28.75, 'lipoC3S3': 11.54, 'lipoC3S2': 7.64, 'rot1': 0, 'rot0': 0, 'rot3': 0, 'rot2': 0, 'state': 'normal', 'yaw': -1.88, 'datetime': '2018-10-05 20:21:14.486318', 'mgs': 0, 'volt': 0.8398, 'depth': 0.623, 'time': 3, 'pitch': -16.65, 'roll': -1.84, 'pres': 172}
{'lipoC2': 7.69, 'lipoC3S1': 3.82, 'temp': 28.75, 'lipoC3S3': 11.55, 'lipoC3S2': 7.64, 'rot1': 0, 'rot0': 0, 'rot3': 0, 'rot2': 0, 'state': 'normal', 'yaw': -1.88, 'datetime': '2018-10-05 20:21:14.502504', 'mgs': 0, 'volt': 0.8398, 'depth': 0.623, 'time': 3, 'pitch': -16.63, 'roll': -1.72, 'pres': 172}
{'lipoC2': 7.69, 'lipoC3S1': 3.82, 'temp': 28.75, 'lipoC3S3': 11.55, 'lipoC3S2': 7.64, 'rot1': 0, 'rot0': 0, 'rot3': 0, 'rot2': 0, 'state': 'normal', 'yaw': -1.88, 'datetime': '2018-10-05 20:21:14.518950', 'mgs': 0, 'volt': 0.8398, 'depth': 0.623, 'time': 3, 'pitch': -16.48, 'roll': -1.52, 'pres': 172}
{'lipoC2': 7.69, 'lipoC3S1': 3.82, 'temp': 28.75, 'lipoC3S3': 11.55, 'lipoC3S2': 7.64, 'rot1': 0, 'rot0': 0, 'rot3': 0, 'rot2': 0, 'state': 'normal', 'yaw': -1.89, 'datetime': '2018-10-05 20:21:14.529184', 'mgs': 0, 'volt': 0.8398, 'depth': 0.623, 'time': 3, 'pitch': -16.38, 'roll': -1.27, 'pres': 172}
{'lipoC2': 7.69, 'lipoC3S1': 3.82, 'temp': 28.75, 'lipoC3S3': 11.55, 'lipoC3S2': 7.64, 'rot1': 0, 'rot0': 0, 'rot3': 0, 'rot2': 0, 'state': 'normal', 'yaw': -1.89, 'datetime': '2018-10-05 20:21:14.546372', 'mgs': 0, 'volt': 0.8398, 'depth': 0.623, 'time': 3, 'pitch': -16.32, 'roll': -0.96, 'pres': 172}
{'lipoC2': 7.68, 'lipoC3S1': 3.82, 'temp': 28.75, 'lipoC3S3': 11.54, 'lipoC3S2': 7.64, 'rot1': 0, 'rot0': 0, 'rot3': 0, 'rot2': 0, 'state': 'normal', 'yaw': -1.89, 'datetime': '2018-10-05 20:21:14.562812', 'mgs': 0, 'volt': 0.8398, 'depth': 0.623, 'time': 3, 'pitch': -16.42, 'roll': -0.69, 'pres': 172}
{'lipoC2': 7.69, 'lipoC3S1': 3.82, 'temp': 28.75, 'lipoC3S3': 11.54, 'lipoC3S2': 7.64, 'rot1': 0, 'rot0': 0, 'rot3': 0, 'rot2': 0, 'state': 'normal', 'yaw': -1.89, 'datetime': '2018-10-05 20:21:14.572968', 'mgs': 0, 'volt': 0.8398, 'depth': 0.623, 'time': 4, 'pitch': -16.62, 'roll': -0.48, 'pres': 172}
{'lipoC2': 7.69, 'lipoC3S1': 3.82, 'temp': 28.75, 'lipoC3S3': 11.54, 'lipoC3S2': 7.64, 'rot1': 0, 'rot0': 0, 'rot3': 0, 'rot2': 0, 'state': 'normal', 'yaw': -1.9, 'datetime': '2018-10-05 20:21:14.589232', 'mgs': 0, 'volt': 0.8447, 'depth': 0.699, 'time': 4, 'pitch': -16.8, 'roll': -0.32, 'pres': 173}
{'lipoC2': 7.69, 'lipoC3S1': 3.82, 'temp': 28.75, 'lipoC3S3': 11.54, 'lipoC3S2': 7.64, 'rot1': 0, 'rot0': 0, 'rot3': 0, 'rot2': 0, 'state': 'normal', 'yaw': -1.9, 'datetime': '2018-10-05 20:21:14.605514', 'mgs': 0, 'volt': 0.8398, 'depth': 0.623, 'time': 4, 'pitch': -16.82, 'roll': -0.26, 'pres': 172}
{'lipoC2': 7.68, 'lipoC3S1': 3.82, 'temp': 28.75, 'lipoC3S3': 11.54, 'lipoC3S2': 7.64, 'rot1': 0, 'rot0': 0, 'rot3': 0, 'rot2': 0, 'state': 'normal', 'yaw': -1.9, 'datetime': '2018-10-05 20:21:14.615657', 'mgs': 0, 'volt': 0.8398, 'depth': 0.623, 'time': 4, 'pitch': -16.68, 'roll': -0.24, 'pres': 172}
{'lipoC2': 7.69, 'lipoC3S1': 3.82, 'temp': 28.75, 'lipoC3S3': 11.55, 'lipoC3S2': 7.64, 'rot1': 0, 'rot0': 0, 'rot3': 0, 'rot2': 0, 'state': 'normal', 'yaw': -1.91, 'datetime': '2018-10-05 20:21:14.631908', 'mgs': 0, 'volt': 0.8447, 'depth': 0.699, 'time': 4, 'pitch': -16.48, 'roll': -0.26, 'pres': 173}
{'lipoC2': 7.69, 'lipoC3S1': 3.82, 'temp': 28.75, 'lipoC3S3': 11.55, 'lipoC3S2': 7.64, 'rot1': 0, 'rot0': 0, 'rot3': 0, 'rot2': 0, 'state': 'normal', 'yaw': -1.92, 'datetime': '2018-10-05 20:21:14.649048', 'mgs': 0, 'volt': 0.8398, 'depth': 0.623, 'time': 4, 'pitch': -16.36, 'roll': -0.36, 'pres': 172}
{'lipoC2': 7.69, 'lipoC3S1': 3.82, 'temp': 28.75, 'lipoC3S3': 11.55, 'lipoC3S2': 7.64, 'rot1': 0, 'rot0': 0, 'rot3': 0, 'rot2': 0, 'state': 'normal', 'yaw': -1.93, 'datetime': '2018-10-05 20:21:14.659601', 'mgs': 0, 'volt': 0.8398, 'depth': 0.623, 'time': 4, 'pitch': -16.35, 'roll': -0.52, 'pres': 172}
{'lipoC2': 7.69, 'lipoC3S1': 3.82, 'temp': 28.75, 'lipoC3S3': 11.55, 'lipoC3S2': 7.64, 'rot1': 0, 'rot0': 0, 'rot3': 0, 'rot2': 0, 'state': 'normal', 'yaw': -2.02, 'datetime': '2018-10-05 20:21:14.675791', 'mgs': 0, 'volt': 0.8398, 'depth': 0.623, 'time': 4, 'pitch': -16.47, 'roll': -0.74, 'pres': 172}
{'lipoC2': 7.69, 'lipoC3S1': 3.82, 'temp': 28.75, 'lipoC3S3': 11.55, 'lipoC3S2': 7.64, 'rot1': 0, 'rot0': 0, 'rot3': 0, 'rot2': 0, 'state': 'normal', 'yaw': -2.12, 'datetime': '2018-10-05 20:21:14.692347', 'mgs': 0, 'volt': 0.8447, 'depth': 0.699, 'time': 4, 'pitch': -16.67, 'roll': -0.99, 'pres': 173}
{'lipoC2': 7.68, 'lipoC3S1': 3.82, 'temp': 28.75, 'lipoC3S3': 11.54, 'lipoC3S2': 7.64, 'rot1': 0, 'rot0': 0, 'rot3': 0, 'rot2': 0, 'state': 'normal', 'yaw': -2.23, 'datetime': '2018-10-05 20:21:14.702831', 'mgs': 0, 'volt': 0.8398, 'depth': 0.623, 'time': 4, 'pitch': -16.83, 'roll': -1.24, 'pres': 172}
{'lipoC2': 7.68, 'lipoC3S1': 3.82, 'temp': 28.75, 'lipoC3S3': 11.55, 'lipoC3S2': 7.64, 'rot1': 0, 'rot0': 0, 'rot3': 0, 'rot2': 0, 'state': 'normal', 'yaw': -2.37, 'datetime': '2018-10-05 20:21:14.719141', 'mgs': 0, 'volt': 0.8398, 'depth': 0.623, 'time': 5, 'pitch': -16.84, 'roll': -1.51, 'pres': 172}
{'lipoC2': 7.68, 'lipoC3S1': 3.82, 'temp': 28.75, 'lipoC3S3': 11.54, 'lipoC3S2': 7.64, 'rot1': 0, 'rot0': 0, 'rot3': 0, 'rot2': 0, 'state': 'normal', 'yaw': -2.47, 'datetime': '2018-10-05 20:21:14.735294', 'mgs': 0, 'volt': 0.8398, 'depth': 0.623, 'time': 5, 'pitch': -16.82, 'roll': -1.77, 'pres': 172}
{'lipoC2': 7.68, 'lipoC3S1': 3.82, 'temp': 28.75, 'lipoC3S3': 11.55, 'lipoC3S2': 7.64, 'rot1': 0, 'rot0': 0, 'rot3': 0, 'rot2': 0, 'state': 'normal', 'yaw': -2.49, 'datetime': '2018-10-05 20:21:14.746201', 'mgs': 0, 'volt': 0.8398, 'depth': 0.623, 'time': 5, 'pitch': -16.71, 'roll': -2.02, 'pres': 172}
{'lipoC2': 7.68, 'lipoC3S1': 3.82, 'temp': 28.75, 'lipoC3S3': 11.54, 'lipoC3S2': 7.64, 'rot1': 0, 'rot0': 0, 'rot3': 0, 'rot2': 0, 'state': 'normal', 'yaw': -2.58, 'datetime': '2018-10-05 20:21:14.762915', 'mgs': 0, 'volt': 0.8398, 'depth': 0.623, 'time': 5, 'pitch': -16.66, 'roll': -2.2, 'pres': 172}
{'lipoC2': 7.68, 'lipoC3S1': 3.82, 'temp': 28.75, 'lipoC3S3': 11.55, 'lipoC3S2': 7.64, 'rot1': 0, 'rot0': 0, 'rot3': 0, 'rot2': 0, 'state': 'normal', 'yaw': -2.67, 'datetime': '2018-10-05 20:21:14.779139', 'mgs': 0, 'volt': 0.8447, 'depth': 0.699, 'time': 5, 'pitch': -16.78, 'roll': -2.26, 'pres': 173}
{'lipoC2': 7.68, 'lipoC3S1': 3.82, 'temp': 28.75, 'lipoC3S3': 11.55, 'lipoC3S2': 7.64, 'rot1': 0, 'rot0': 0, 'rot3': 0, 'rot2': 0, 'state': 'normal', 'yaw': -2.74, 'datetime': '2018-10-05 20:21:14.789287', 'mgs': 0, 'volt': 0.8447, 'depth': 0.699, 'time': 5, 'pitch': -17.04, 'roll': -2.24, 'pres': 173}
{'lipoC2': 7.69, 'lipoC3S1': 3.82, 'temp': 28.75, 'lipoC3S3': 11.55, 'lipoC3S2': 7.64, 'rot1': 0, 'rot0': 0, 'rot3': 0, 'rot2': 0, 'state': 'normal', 'yaw': -2.73, 'datetime': '2018-10-05 20:21:14.805450', 'mgs': 0, 'volt': 0.8447, 'depth': 0.699, 'time': 5, 'pitch': -17.27, 'roll': -2.23, 'pres': 173}
{'lipoC2': 7.69, 'lipoC3S1': 3.82, 'temp': 28.75, 'lipoC3S3': 11.55, 'lipoC3S2': 7.64, 'rot1': 0, 'rot0': 0, 'rot3': 0, 'rot2': 0, 'state': 'normal', 'yaw': -2.73, 'datetime': '2018-10-05 20:21:14.821760', 'mgs': 0, 'volt': 0.8447, 'depth': 0.699, 'time': 5, 'pitch': -17.42, 'roll': -2.14, 'pres': 173}
{'lipoC2': 7.69, 'lipoC3S1': 3.82, 'temp': 28.75, 'lipoC3S3': 11.55, 'lipoC3S2': 7.64, 'rot1': 0, 'rot0': 0, 'rot3': 0, 'rot2': 0, 'state': 'normal', 'yaw': -2.72, 'datetime': '2018-10-05 20:21:14.831915', 'mgs': 0, 'volt': 0.8447, 'depth': 0.699, 'time': 5, 'pitch': -17.52, 'roll': -1.96, 'pres': 173}
{'lipoC2': 7.68, 'lipoC3S1': 3.8, 'temp': 28.75, 'lipoC3S3': 11.42, 'lipoC3S2': 7.53, 'rot1': 0, 'rot0': 0, 'rot3': 0, 'rot2': 0, 'state': 'normal', 'yaw': -2.72, 'datetime': '2018-10-05 20:21:14.848791', 'mgs': 0, 'volt': 0.8594, 'depth': 0.928, 'time': 6, 'pitch': -17.52, 'roll': -1.76, 'pres': 176}
{'lipoC2': 7.68, 'lipoC3S1': 3.8, 'temp': 28.75, 'lipoC3S3': 11.46, 'lipoC3S2': 7.56, 'rot1': 0, 'rot0': 0, 'rot3': 1, 'rot2': 1, 'state': 'normal', 'yaw': -2.74, 'datetime': '2018-10-05 20:21:14.865534', 'mgs': 0, 'volt': 0.8496, 'depth': 0.775, 'time': 6, 'pitch': -17.21, 'roll': -1.44, 'pres': 174}
{'lipoC2': 7.68, 'lipoC3S1': 3.79, 'temp': 28.75, 'lipoC3S3': 11.48, 'lipoC3S2': 7.6, 'rot1': 0, 'rot0': 0, 'rot3': 2, 'rot2': 2, 'state': 'normal', 'yaw': -2.73, 'datetime': '2018-10-05 20:21:14.875676', 'mgs': 0, 'volt': 0.8594, 'depth': 0.928, 'time': 6, 'pitch': -16.5, 'roll': -0.98, 'pres': 176}
{'lipoC2': 7.67, 'lipoC3S1': 3.79, 'temp': 28.69, 'lipoC3S3': 11.5, 'lipoC3S2': 7.59, 'rot1': 0, 'rot0': 0, 'rot3': 3, 'rot2': 2, 'state': 'normal', 'yaw': -2.56, 'datetime': '2018-10-05 20:21:14.891938', 'mgs': 0, 'volt': 0.8545, 'depth': 0.851, 'time': 6, 'pitch': -15.63, 'roll': -0.43, 'pres': 175}
{'lipoC2': 7.68, 'lipoC3S1': 3.78, 'temp': 28.69, 'lipoC3S3': 11.48, 'lipoC3S2': 7.59, 'rot1': 0, 'rot0': 0, 'rot3': 4, 'rot2': 3, 'state': 'normal', 'yaw': -2.35, 'datetime': '2018-10-05 20:21:14.908402', 'mgs': 0, 'volt': 0.8594, 'depth': 0.928, 'time': 6, 'pitch': -15.04, 'roll': 0.07, 'pres': 176}
{'lipoC2': 7.68, 'lipoC3S1': 3.78, 'temp': 28.75, 'lipoC3S3': 11.46, 'lipoC3S2': 7.57, 'rot1': 0, 'rot0': 0, 'rot3': 5, 'rot2': 4, 'state': 'normal', 'yaw': -2.29, 'datetime': '2018-10-05 20:21:14.918576', 'mgs': 0, 'volt': 0.8203, 'depth': 0.317, 'time': 6, 'pitch': -14.64, 'roll': 0.67, 'pres': 168}
{'lipoC2': 7.68, 'lipoC3S1': 3.77, 'temp': 28.75, 'lipoC3S3': 11.48, 'lipoC3S2': 7.57, 'rot1': 0, 'rot0': 0, 'rot3': 6, 'rot2': 5, 'state': 'normal', 'yaw': -2.26, 'datetime': '2018-10-05 20:21:14.934741', 'mgs': 0, 'volt': 0.835, 'depth': 0.546, 'time': 6, 'pitch': -14.2, 'roll': 1.36, 'pres': 171}
{'lipoC2': 7.68, 'lipoC3S1': 3.78, 'temp': 28.75, 'lipoC3S3': 11.48, 'lipoC3S2': 7.58, 'rot1': 0, 'rot0': 0, 'rot3': 7, 'rot2': 5, 'state': 'normal', 'yaw': -2.12, 'datetime': '2018-10-05 20:21:14.951554', 'mgs': 0, 'volt': 0.8496, 'depth': 0.775, 'time': 6, 'pitch': -13.71, 'roll': 1.85, 'pres': 174}
{'lipoC2': 7.68, 'lipoC3S1': 3.8, 'temp': 28.69, 'lipoC3S3': 11.44, 'lipoC3S2': 7.6, 'rot1': 0, 'rot0': 0, 'rot3': 8, 'rot2': 6, 'state': 'normal', 'yaw': -1.92, 'datetime': '2018-10-05 20:21:14.962511', 'mgs': 0, 'volt': 0.835, 'depth': 0.546, 'time': 6, 'pitch': -12.96, 'roll': 2.16, 'pres': 171}
{'lipoC2': 7.68, 'lipoC3S1': 3.8, 'temp': 28.69, 'lipoC3S3': 11.44, 'lipoC3S2': 7.55, 'rot1': 0, 'rot0': 0, 'rot3': 9, 'rot2': 7, 'state': 'normal', 'yaw': -1.77, 'datetime': '2018-10-05 20:21:14.978752', 'mgs': 0, 'volt': 0.8398, 'depth': 0.623, 'time': 6, 'pitch': -11.99, 'roll': 2.39, 'pres': 172}
{'lipoC2': 7.68, 'lipoC3S1': 3.8, 'temp': 28.69, 'lipoC3S3': 11.44, 'lipoC3S2': 7.55, 'rot1': 0, 'rot0': 0, 'rot3': 10, 'rot2': 8, 'state': 'normal', 'yaw': -1.71, 'datetime': '2018-10-05 20:21:14.995048', 'mgs': 0, 'volt': 0.835, 'depth': 0.546, 'time': 7, 'pitch': -11.19, 'roll': 2.53, 'pres': 171}
{'lipoC2': 7.68, 'lipoC3S1': 3.79, 'temp': 28.69, 'lipoC3S3': 11.43, 'lipoC3S2': 7.59, 'rot1': 0, 'rot0': 0, 'rot3': 11, 'rot2': 8, 'state': 'normal', 'yaw': -1.74, 'datetime': '2018-10-05 20:21:15.005216', 'mgs': 0, 'volt': 0.835, 'depth': 0.546, 'time': 7, 'pitch': -10.37, 'roll': 2.7, 'pres': 171}
