{'lipoC2': 0.0, 'lipoC3S1': 3.94, 'temp': 26.44, 'lipoC3S3': 11.92, 'lipoC3S2': 7.87, 'rot1': 20, 'rot0': 18, 'rot3': 38, 'rot2': 33, 'state': 'normal', 'yaw': -50.06, 'datetime': '2018-10-03 17:28:05.984866', 'mgs': 0, 'volt': 0.9912, 'depth': 2.988, 'time': 18, 'pitch': -1.36, 'roll': 77.8, 'pres': 203}
{'lipoC2': 0.0, 'lipoC3S1': 3.94, 'temp': 26.38, 'lipoC3S3': 11.9, 'lipoC3S2': 7.87, 'rot1': 0, 'rot0': 0, 'rot3': 0, 'rot2': 0, 'state': 'normal', 'yaw': 0.0, 'datetime': '2018-10-03 17:28:06.008738', 'mgs': 0, 'volt': 1.0156, 'depth': 3.369, 'time': 1, 'pitch': -4.5, 'roll': 22.38, 'pres': 208}
{'lipoC2': 0.0, 'lipoC3S1': 3.94, 'temp': 26.38, 'lipoC3S3': 11.9, 'lipoC3S2': 7.87, 'rot1': 0, 'rot0': 0, 'rot3': 0, 'rot2': 0, 'state': 'normal', 'yaw': -0.01, 'datetime': '2018-10-03 17:28:06.032633', 'mgs': 0, 'volt': 1.0156, 'depth': 3.369, 'time': 1, 'pitch': -5.17, 'roll': 16.25, 'pres': 208}
{'lipoC2': 0.0, 'lipoC3S1': 3.94, 'temp': 26.38, 'lipoC3S3': 11.9, 'lipoC3S2': 7.87, 'rot1': 0, 'rot0': 0, 'rot3': 0, 'rot2': 0, 'state': 'normal', 'yaw': -0.08, 'datetime': '2018-10-03 17:28:06.049588', 'mgs': 0, 'volt': 1.0156, 'depth': 3.369, 'time': 1, 'pitch': -5.63, 'roll': 12.12, 'pres': 208}
{'lipoC2': 0.0, 'lipoC3S1': 3.94, 'temp': 26.38, 'lipoC3S3': 11.9, 'lipoC3S2': 7.87, 'rot1': 0, 'rot0': 0, 'rot3': 0, 'rot2': 0, 'state': 'normal', 'yaw': -0.22, 'datetime': '2018-10-03 17:28:06.060615', 'mgs': 0, 'volt': 1.0156, 'depth': 3.369, 'time': 1, 'pitch': -5.95, 'roll': 9.06, 'pres': 208}
{'lipoC2': 0.0, 'lipoC3S1': 3.94, 'temp': 26.38, 'lipoC3S3': 11.92, 'lipoC3S2': 7.87, 'rot1': 0, 'rot0': 0, 'rot3': 0, 'rot2': 0, 'state': 'normal', 'yaw': -0.43, 'datetime': '2018-10-03 17:28:06.072465', 'mgs': 0, 'volt': 1.0156, 'depth': 3.369, 'time': 1, 'pitch': -6.15, 'roll': 6.57, 'pres': 208}
{'lipoC2': 0.0, 'lipoC3S1': 3.94, 'temp': 26.38, 'lipoC3S3': 11.92, 'lipoC3S2': 7.87, 'rot1': 0, 'rot0': 0, 'rot3': 0, 'rot2': 0, 'state': 'normal', 'yaw': -0.69, 'datetime': '2018-10-03 17:28:06.082447', 'mgs': 0, 'volt': 1.0156, 'depth': 3.369, 'time': 1, 'pitch': -6.27, 'roll': 4.97, 'pres': 208}
{'lipoC2': 0.0, 'lipoC3S1': 3.94, 'temp': 26.38, 'lipoC3S3': 11.9, 'lipoC3S2': 7.87, 'rot1': 0, 'rot0': 0, 'rot3': 0, 'rot2': 0, 'state': 'normal', 'yaw': -1.01, 'datetime': '2018-10-03 17:28:06.092511', 'mgs': 0, 'volt': 1.0205, 'depth': 3.445, 'time': 1, 'pitch': -6.35, 'roll': 4.01, 'pres': 209}
{'lipoC2': 0.0, 'lipoC3S1': 3.94, 'temp': 26.44, 'lipoC3S3': 11.9, 'lipoC3S2': 7.87, 'rot1': 0, 'rot0': 0, 'rot3': 0, 'rot2': 0, 'state': 'normal', 'yaw': -1.37, 'datetime': '2018-10-03 17:28:06.102381', 'mgs': 0, 'volt': 1.0254, 'depth': 3.522, 'time': 1, 'pitch': -6.39, 'roll': 3.39, 'pres': 210}
{'lipoC2': 0.0, 'lipoC3S1': 3.94, 'temp': 26.44, 'lipoC3S3': 11.9, 'lipoC3S2': 7.87, 'rot1': 0, 'rot0': 0, 'rot3': 0, 'rot2': 0, 'state': 'normal', 'yaw': -1.76, 'datetime': '2018-10-03 17:28:06.112325', 'mgs': 0, 'volt': 1.0205, 'depth': 3.445, 'time': 2, 'pitch': -6.44, 'roll': 2.96, 'pres': 209}
{'lipoC2': 0.0, 'lipoC3S1': 3.94, 'temp': 26.38, 'lipoC3S3': 11.92, 'lipoC3S2': 7.87, 'rot1': 0, 'rot0': 0, 'rot3': 0, 'rot2': 0, 'state': 'normal', 'yaw': -2.09, 'datetime': '2018-10-03 17:28:06.122199', 'mgs': 0, 'volt': 1.0205, 'depth': 3.445, 'time': 2, 'pitch': -6.61, 'roll': 2.45, 'pres': 209}
{'lipoC2': 0.0, 'lipoC3S1': 3.94, 'temp': 26.38, 'lipoC3S3': 11.9, 'lipoC3S2': 7.87, 'rot1': 0, 'rot0': 0, 'rot3': 0, 'rot2': 0, 'state': 'normal', 'yaw': -2.38, 'datetime': '2018-10-03 17:28:06.132166', 'mgs': 0, 'volt': 1.0254, 'depth': 3.522, 'time': 2, 'pitch': -6.89, 'roll': 2.43, 'pres': 210}
{'lipoC2': 0.0, 'lipoC3S1': 3.94, 'temp': 26.38, 'lipoC3S3': 11.9, 'lipoC3S2': 7.87, 'rot1': 0, 'rot0': 0, 'rot3': 0, 'rot2': 0, 'state': 'normal', 'yaw': -2.64, 'datetime': '2018-10-03 17:28:06.142628', 'mgs': 0, 'volt': 1.0254, 'depth': 3.522, 'time': 2, 'pitch': -7.18, 'roll': 2.36, 'pres': 210}
{'lipoC2': 0.0, 'lipoC3S1': 3.94, 'temp': 26.38, 'lipoC3S3': 11.92, 'lipoC3S2': 7.87, 'rot1': 0, 'rot0': 0, 'rot3': 0, 'rot2': 0, 'state': 'normal', 'yaw': -2.89, 'datetime': '2018-10-03 17:28:06.158285', 'mgs': 0, 'volt': 1.0254, 'depth': 3.522, 'time': 2, 'pitch': -7.37, 'roll': 2.33, 'pres': 210}
{'lipoC2': 0.0, 'lipoC3S1': 3.94, 'temp': 26.38, 'lipoC3S3': 11.92, 'lipoC3S2': 7.87, 'rot1': 0, 'rot0': 0, 'rot3': 0, 'rot2': 0, 'state': 'normal', 'yaw': -3.11, 'datetime': '2018-10-03 17:28:06.171019', 'mgs': 0, 'volt': 1.0205, 'depth': 3.445, 'time': 2, 'pitch': -7.45, 'roll': 2.23, 'pres': 209}
{'lipoC2': 0.0, 'lipoC3S1': 3.94, 'temp': 26.38, 'lipoC3S3': 11.92, 'lipoC3S2': 7.87, 'rot1': 0, 'rot0': 0, 'rot3': 0, 'rot2': 0, 'state': 'normal', 'yaw': -3.32, 'datetime': '2018-10-03 17:28:06.183407', 'mgs': 0, 'volt': 1.0254, 'depth': 3.522, 'time': 2, 'pitch': -7.48, 'roll': 2.03, 'pres': 210}
{'lipoC2': 0.0, 'lipoC3S1': 3.94, 'temp': 26.38, 'lipoC3S3': 11.92, 'lipoC3S2': 7.87, 'rot1': 0, 'rot0': 0, 'rot3': 0, 'rot2': 0, 'state': 'normal', 'yaw': -3.52, 'datetime': '2018-10-03 17:28:06.193985', 'mgs': 0, 'volt': 1.0254, 'depth': 3.522, 'time': 2, 'pitch': -7.44, 'roll': 1.95, 'pres': 210}
{'lipoC2': 0.0, 'lipoC3S1': 3.94, 'temp': 26.38, 'lipoC3S3': 11.9, 'lipoC3S2': 7.87, 'rot1': 0, 'rot0': 0, 'rot3': 0, 'rot2': 0, 'state': 'normal', 'yaw': -3.72, 'datetime': '2018-10-03 17:28:06.204162', 'mgs': 0, 'volt': 1.0254, 'depth': 3.522, 'time': 2, 'pitch': -7.34, 'roll': 1.93, 'pres': 210}
{'lipoC2': 0.0, 'lipoC3S1': 3.94, 'temp': 26.38, 'lipoC3S3': 11.92, 'lipoC3S2': 7.87, 'rot1': 0, 'rot0': 0, 'rot3': 0, 'rot2': 0, 'state': 'normal', 'yaw': -3.95, 'datetime': '2018-10-03 17:28:06.274837', 'mgs': 0, 'volt': 1.0254, 'depth': 3.522, 'time': 3, 'pitch': -7.18, 'roll': 1.93, 'pres': 210}
{'lipoC2': 0.0, 'lipoC3S1': 3.94, 'temp': 26.38, 'lipoC3S3': 11.9, 'lipoC3S2': 7.87, 'rot1': 0, 'rot0': 0, 'rot3': 0, 'rot2': 0, 'state': 'normal', 'yaw': -4.15, 'datetime': '2018-10-03 17:28:06.377910', 'mgs': 0, 'volt': 1.0254, 'depth': 3.522, 'time': 3, 'pitch': -7.02, 'roll': 1.97, 'pres': 210}
{'lipoC2': 0.0, 'lipoC3S1': 3.94, 'temp': 26.31, 'lipoC3S3': 11.92, 'lipoC3S2': 7.87, 'rot1': 0, 'rot0': 0, 'rot3': 0, 'rot2': 0, 'state': 'normal', 'yaw': -4.36, 'datetime': '2018-10-03 17:28:06.481042', 'mgs': 0, 'volt': 1.0254, 'depth': 3.522, 'time': 3, 'pitch': -6.86, 'roll': 2.0, 'pres': 210}
{'lipoC2': 0.0, 'lipoC3S1': 3.94, 'temp': 26.31, 'lipoC3S3': 11.92, 'lipoC3S2': 7.87, 'rot1': 0, 'rot0': 0, 'rot3': 0, 'rot2': 0, 'state': 'normal', 'yaw': -4.57, 'datetime': '2018-10-03 17:28:06.584167', 'mgs': 0, 'volt': 1.0254, 'depth': 3.522, 'time': 3, 'pitch': -6.73, 'roll': 1.99, 'pres': 210}
{'lipoC2': 0.0, 'lipoC3S1': 3.94, 'temp': 26.38, 'lipoC3S3': 11.92, 'lipoC3S2': 7.87, 'rot1': 0, 'rot0': 0, 'rot3': 0, 'rot2': 0, 'state': 'normal', 'yaw': -4.75, 'datetime': '2018-10-03 17:28:06.687309', 'mgs': 0, 'volt': 1.0254, 'depth': 3.522, 'time': 3, 'pitch': -6.71, 'roll': 1.72, 'pres': 210}
{'lipoC2': 0.0, 'lipoC3S1': 3.94, 'temp': 26.38, 'lipoC3S3': 11.9, 'lipoC3S2': 7.87, 'rot1': 0, 'rot0': 0, 'rot3': 0, 'rot2': 0, 'state': 'normal', 'yaw': -4.95, 'datetime': '2018-10-03 17:28:06.800668', 'mgs': 0, 'volt': 1.0254, 'depth': 3.522, 'time': 3, 'pitch': -6.69, 'roll': 1.46, 'pres': 210}
{'lipoC2': 0.0, 'lipoC3S1': 3.94, 'temp': 26.38, 'lipoC3S3': 11.92, 'lipoC3S2': 7.87, 'rot1': 0, 'rot0': 0, 'rot3': 0, 'rot2': 0, 'state': 'normal', 'yaw': -5.14, 'datetime': '2018-10-03 17:28:06.906549', 'mgs': 0, 'volt': 1.0254, 'depth': 3.522, 'time': 3, 'pitch': -6.65, 'roll': 1.23, 'pres': 210}
{'lipoC2': 0.0, 'lipoC3S1': 3.94, 'temp': 26.38, 'lipoC3S3': 11.92, 'lipoC3S2': 7.88, 'rot1': 0, 'rot0': 0, 'rot3': 0, 'rot2': 0, 'state': 'normal', 'yaw': -5.36, 'datetime': '2018-10-03 17:28:07.006982', 'mgs': 0, 'volt': 1.0254, 'depth': 3.522, 'time': 3, 'pitch': -6.6, 'roll': 1.02, 'pres': 210}
{'lipoC2': 0.0, 'lipoC3S1': 3.94, 'temp': 26.38, 'lipoC3S3': 11.92, 'lipoC3S2': 7.88, 'rot1': 0, 'rot0': 0, 'rot3': 0, 'rot2': 0, 'state': 'normal', 'yaw': -5.52, 'datetime': '2018-10-03 17:28:07.110184', 'mgs': 0, 'volt': 1.0254, 'depth': 3.522, 'time': 3, 'pitch': -6.57, 'roll': 1.05, 'pres': 210}
{'lipoC2': 0.0, 'lipoC3S1': 3.94, 'temp': 26.44, 'lipoC3S3': 11.92, 'lipoC3S2': 7.88, 'rot1': 0, 'rot0': 0, 'rot3': 0, 'rot2': 0, 'state': 'normal', 'yaw': -5.68, 'datetime': '2018-10-03 17:28:07.214114', 'mgs': 0, 'volt': 1.0254, 'depth': 3.522, 'time': 3, 'pitch': -6.59, 'roll': 1.18, 'pres': 210}
{'lipoC2': 0.0, 'lipoC3S1': 3.94, 'temp': 26.44, 'lipoC3S3': 11.92, 'lipoC3S2': 7.87, 'rot1': 0, 'rot0': 0, 'rot3': 0, 'rot2': 0, 'state': 'normal', 'yaw': -5.85, 'datetime': '2018-10-03 17:28:07.317122', 'mgs': 0, 'volt': 1.0254, 'depth': 3.522, 'time': 4, 'pitch': -6.66, 'roll': 1.33, 'pres': 210}
{'lipoC2': 0.0, 'lipoC3S1': 3.94, 'temp': 26.38, 'lipoC3S3': 11.92, 'lipoC3S2': 7.87, 'rot1': 0, 'rot0': 0, 'rot3': 0, 'rot2': 0, 'state': 'normal', 'yaw': -5.99, 'datetime': '2018-10-03 17:28:07.420250', 'mgs': 0, 'volt': 1.0254, 'depth': 3.522, 'time': 4, 'pitch': -6.75, 'roll': 1.44, 'pres': 210}
{'lipoC2': 0.0, 'lipoC3S1': 3.94, 'temp': 26.38, 'lipoC3S3': 11.92, 'lipoC3S2': 7.87, 'rot1': 0, 'rot0': 0, 'rot3': 0, 'rot2': 0, 'state': 'normal', 'yaw': -6.13, 'datetime': '2018-10-03 17:28:07.524649', 'mgs': 0, 'volt': 1.0254, 'depth': 3.522, 'time': 4, 'pitch': -6.83, 'roll': 1.55, 'pres': 210}
{'lipoC2': 0.0, 'lipoC3S1': 3.94, 'temp': 26.38, 'lipoC3S3': 11.92, 'lipoC3S2': 7.87, 'rot1': 0, 'rot0': 0, 'rot3': 0, 'rot2': 0, 'state': 'normal', 'yaw': -6.3, 'datetime': '2018-10-03 17:28:07.627807', 'mgs': 0, 'volt': 1.0254, 'depth': 3.522, 'time': 4, 'pitch': -6.93, 'roll': 1.68, 'pres': 210}
{'lipoC2': 0.0, 'lipoC3S1': 3.94, 'temp': 26.38, 'lipoC3S3': 11.9, 'lipoC3S2': 7.87, 'rot1': 0, 'rot0': 0, 'rot3': 0, 'rot2': 0, 'state': 'normal', 'yaw': -6.44, 'datetime': '2018-10-03 17:28:07.730914', 'mgs': 0, 'volt': 1.0254, 'depth': 3.522, 'time': 4, 'pitch': -7.03, 'roll': 1.76, 'pres': 210}
{'lipoC2': 0.0, 'lipoC3S1': 3.94, 'temp': 26.38, 'lipoC3S3': 11.92, 'lipoC3S2': 7.87, 'rot1': 0, 'rot0': 0, 'rot3': 0, 'rot2': 0, 'state': 'normal', 'yaw': -6.57, 'datetime': '2018-10-03 17:28:07.835627', 'mgs': 0, 'volt': 1.0254, 'depth': 3.522, 'time': 4, 'pitch': -7.12, 'roll': 1.83, 'pres': 210}
{'lipoC2': 0.0, 'lipoC3S1': 3.94, 'temp': 26.38, 'lipoC3S3': 11.92, 'lipoC3S2': 7.87, 'rot1': 0, 'rot0': 0, 'rot3': 0, 'rot2': 0, 'state': 'normal', 'yaw': -6.7, 'datetime': '2018-10-03 17:28:07.938533', 'mgs': 0, 'volt': 1.0254, 'depth': 3.522, 'time': 4, 'pitch': -7.18, 'roll': 1.84, 'pres': 210}
{'lipoC2': 0.0, 'lipoC3S1': 3.94, 'temp': 26.38, 'lipoC3S3': 11.92, 'lipoC3S2': 7.88, 'rot1': 0, 'rot0': 0, 'rot3': 0, 'rot2': 0, 'state': 'normal', 'yaw': -6.82, 'datetime': '2018-10-03 17:28:08.041665', 'mgs': 0, 'volt': 1.0254, 'depth': 3.522, 'time': 4, 'pitch': -7.18, 'roll': 1.81, 'pres': 210}
{'lipoC2': 0.0, 'lipoC3S1': 3.94, 'temp': 26.44, 'lipoC3S3': 11.92, 'lipoC3S2': 7.87, 'rot1': 0, 'rot0': 0, 'rot3': 0, 'rot2': 0, 'state': 'normal', 'yaw': -6.92, 'datetime': '2018-10-03 17:28:08.146617', 'mgs': 0, 'volt': 1.0254, 'depth': 3.522, 'time': 4, 'pitch': -7.17, 'roll': 1.74, 'pres': 210}
{'lipoC2': 0.0, 'lipoC3S1': 3.94, 'temp': 26.44, 'lipoC3S3': 11.92, 'lipoC3S2': 7.87, 'rot1': 0, 'rot0': 0, 'rot3': 0, 'rot2': 0, 'state': 'normal', 'yaw': -7.0, 'datetime': '2018-10-03 17:28:08.248091', 'mgs': 0, 'volt': 1.0254, 'depth': 3.522, 'time': 4, 'pitch': -7.14, 'roll': 1.58, 'pres': 210}
{'lipoC2': 0.0, 'lipoC3S1': 3.94, 'temp': 26.44, 'lipoC3S3': 11.92, 'lipoC3S2': 7.87, 'rot1': 0, 'rot0': 0, 'rot3': 0, 'rot2': 0, 'state': 'normal', 'yaw': -7.06, 'datetime': '2018-10-03 17:28:08.351293', 'mgs': 0, 'volt': 1.0254, 'depth': 3.522, 'time': 5, 'pitch': -7.08, 'roll': 1.34, 'pres': 210}
{'lipoC2': 0.0, 'lipoC3S1': 3.94, 'temp': 26.38, 'lipoC3S3': 11.92, 'lipoC3S2': 7.87, 'rot1': 0, 'rot0': 0, 'rot3': 0, 'rot2': 0, 'state': 'normal', 'yaw': -7.1, 'datetime': '2018-10-03 17:28:08.454636', 'mgs': 0, 'volt': 1.0254, 'depth': 3.522, 'time': 5, 'pitch': -7.02, 'roll': 1.12, 'pres': 210}
{'lipoC2': 0.0, 'lipoC3S1': 3.94, 'temp': 26.38, 'lipoC3S3': 11.92, 'lipoC3S2': 7.88, 'rot1': 0, 'rot0': 0, 'rot3': 0, 'rot2': 0, 'state': 'normal', 'yaw': -7.14, 'datetime': '2018-10-03 17:28:08.557599', 'mgs': 0, 'volt': 1.0254, 'depth': 3.522, 'time': 5, 'pitch': -6.96, 'roll': 0.9, 'pres': 210}
{'lipoC2': 0.0, 'lipoC3S1': 3.94, 'temp': 26.38, 'lipoC3S3': 11.92, 'lipoC3S2': 7.87, 'rot1': 0, 'rot0': 0, 'rot3': 0, 'rot2': 0, 'state': 'normal', 'yaw': -7.18, 'datetime': '2018-10-03 17:28:08.660698', 'mgs': 0, 'volt': 1.0254, 'depth': 3.522, 'time': 5, 'pitch': -6.87, 'roll': 0.74, 'pres': 210}
{'lipoC2': 0.0, 'lipoC3S1': 3.94, 'temp': 26.38, 'lipoC3S3': 11.92, 'lipoC3S2': 7.88, 'rot1': 0, 'rot0': 0, 'rot3': 0, 'rot2': 0, 'state': 'normal', 'yaw': -7.17, 'datetime': '2018-10-03 17:28:08.763816', 'mgs': 0, 'volt': 1.0205, 'depth': 3.445, 'time': 5, 'pitch': -6.79, 'roll': 0.8, 'pres': 209}
{'lipoC2': 0.0, 'lipoC3S1': 3.94, 'temp': 26.44, 'lipoC3S3': 11.92, 'lipoC3S2': 7.88, 'rot1': 0, 'rot0': 0, 'rot3': 0, 'rot2': 0, 'state': 'normal', 'yaw': -7.17, 'datetime': '2018-10-03 17:28:08.866994', 'mgs': 0, 'volt': 1.0254, 'depth': 3.522, 'time': 5, 'pitch': -6.77, 'roll': 0.9, 'pres': 210}
{'lipoC2': 0.0, 'lipoC3S1': 3.94, 'temp': 26.44, 'lipoC3S3': 11.92, 'lipoC3S2': 7.88, 'rot1': 0, 'rot0': 0, 'rot3': 0, 'rot2': 0, 'state': 'normal', 'yaw': -7.2, 'datetime': '2018-10-03 17:28:08.966915', 'mgs': 0, 'volt': 1.0254, 'depth': 3.522, 'time': 5, 'pitch': -6.73, 'roll': 1.03, 'pres': 210}
{'lipoC2': 0.0, 'lipoC3S1': 3.94, 'temp': 26.44, 'lipoC3S3': 11.92, 'lipoC3S2': 7.88, 'rot1': 0, 'rot0': 0, 'rot3': 0, 'rot2': 0, 'state': 'normal', 'yaw': -7.28, 'datetime': '2018-10-03 17:28:09.073770', 'mgs': 0, 'volt': 1.0254, 'depth': 3.522, 'time': 5, 'pitch': -6.62, 'roll': 1.19, 'pres': 210}
{'lipoC2': 0.0, 'lipoC3S1': 3.94, 'temp': 26.44, 'lipoC3S3': 11.92, 'lipoC3S2': 7.87, 'rot1': 0, 'rot0': 0, 'rot3': 0, 'rot2': 0, 'state': 'normal', 'yaw': -7.36, 'datetime': '2018-10-03 17:28:09.177448', 'mgs': 0, 'volt': 1.0254, 'depth': 3.522, 'time': 5, 'pitch': -6.53, 'roll': 1.35, 'pres': 210}
{'lipoC2': 0.0, 'lipoC3S1': 3.94, 'temp': 26.44, 'lipoC3S3': 11.92, 'lipoC3S2': 7.88, 'rot1': 0, 'rot0': 0, 'rot3': 0, 'rot2': 0, 'state': 'normal', 'yaw': -7.43, 'datetime': '2018-10-03 17:28:09.281256', 'mgs': 0, 'volt': 1.0254, 'depth': 3.522, 'time': 6, 'pitch': -6.49, 'roll': 1.49, 'pres': 210}
{'lipoC2': 0.0, 'lipoC3S1': 3.94, 'temp': 26.38, 'lipoC3S3': 11.92, 'lipoC3S2': 7.87, 'rot1': 0, 'rot0': 0, 'rot3': 0, 'rot2': 0, 'state': 'normal', 'yaw': -7.52, 'datetime': '2018-10-03 17:28:09.384272', 'mgs': 0, 'volt': 1.0254, 'depth': 3.522, 'time': 6, 'pitch': -6.45, 'roll': 1.62, 'pres': 210}
{'lipoC2': 0.0, 'lipoC3S1': 3.94, 'temp': 26.38, 'lipoC3S3': 11.92, 'lipoC3S2': 7.87, 'rot1': 0, 'rot0': 0, 'rot3': 0, 'rot2': 0, 'state': 'normal', 'yaw': -7.56, 'datetime': '2018-10-03 17:28:09.488274', 'mgs': 0, 'volt': 1.0254, 'depth': 3.522, 'time': 6, 'pitch': -6.49, 'roll': 1.7, 'pres': 210}
{'lipoC2': 0.0, 'lipoC3S1': 3.94, 'temp': 26.38, 'lipoC3S3': 11.92, 'lipoC3S2': 7.88, 'rot1': 0, 'rot0': 0, 'rot3': 0, 'rot2': 0, 'state': 'normal', 'yaw': -7.57, 'datetime': '2018-10-03 17:28:09.592356', 'mgs': 0, 'volt': 1.0254, 'depth': 3.522, 'time': 6, 'pitch': -6.58, 'roll': 1.75, 'pres': 210}
{'lipoC2': 0.0, 'lipoC3S1': 3.94, 'temp': 26.38, 'lipoC3S3': 11.92, 'lipoC3S2': 7.88, 'rot1': 0, 'rot0': 0, 'rot3': 0, 'rot2': 0, 'state': 'normal', 'yaw': -7.58, 'datetime': '2018-10-03 17:28:09.695519', 'mgs': 0, 'volt': 1.0254, 'depth': 3.522, 'time': 6, 'pitch': -6.69, 'roll': 1.77, 'pres': 210}
{'lipoC2': 0.0, 'lipoC3S1': 3.94, 'temp': 26.38, 'lipoC3S3': 11.92, 'lipoC3S2': 7.88, 'rot1': 0, 'rot0': 0, 'rot3': 0, 'rot2': 0, 'state': 'normal', 'yaw': -7.58, 'datetime': '2018-10-03 17:28:09.798568', 'mgs': 0, 'volt': 1.0254, 'depth': 3.522, 'time': 6, 'pitch': -6.8, 'roll': 1.77, 'pres': 210}
{'lipoC2': 0.0, 'lipoC3S1': 3.94, 'temp': 26.44, 'lipoC3S3': 11.92, 'lipoC3S2': 7.87, 'rot1': 0, 'rot0': 0, 'rot3': 0, 'rot2': 0, 'state': 'normal', 'yaw': -7.59, 'datetime': '2018-10-03 17:28:09.905904', 'mgs': 0, 'volt': 1.0254, 'depth': 3.522, 'time': 6, 'pitch': -6.9, 'roll': 1.77, 'pres': 210}
{'lipoC2': 0.0, 'lipoC3S1': 3.94, 'temp': 26.44, 'lipoC3S3': 11.92, 'lipoC3S2': 7.88, 'rot1': 0, 'rot0': 0, 'rot3': 0, 'rot2': 0, 'state': 'normal', 'yaw': -7.59, 'datetime': '2018-10-03 17:28:10.005839', 'mgs': 0, 'volt': 1.0254, 'depth': 3.522, 'time': 6, 'pitch': -7.01, 'roll': 1.74, 'pres': 210}
{'lipoC2': 0.0, 'lipoC3S1': 3.94, 'temp': 26.44, 'lipoC3S3': 11.92, 'lipoC3S2': 7.88, 'rot1': 0, 'rot0': 0, 'rot3': 0, 'rot2': 0, 'state': 'normal', 'yaw': -7.59, 'datetime': '2018-10-03 17:28:10.109470', 'mgs': 0, 'volt': 1.0254, 'depth': 3.522, 'time': 6, 'pitch': -7.13, 'roll': 1.61, 'pres': 210}
{'lipoC2': 0.0, 'lipoC3S1': 3.94, 'temp': 26.44, 'lipoC3S3': 11.92, 'lipoC3S2': 7.87, 'rot1': 0, 'rot0': 0, 'rot3': 0, 'rot2': 0, 'state': 'normal', 'yaw': -7.59, 'datetime': '2018-10-03 17:28:10.212256', 'mgs': 0, 'volt': 1.0254, 'depth': 3.522, 'time': 6, 'pitch': -7.24, 'roll': 1.43, 'pres': 210}
{'lipoC2': 0.0, 'lipoC3S1': 3.94, 'temp': 26.38, 'lipoC3S3': 11.92, 'lipoC3S2': 7.88, 'rot1': 0, 'rot0': 0, 'rot3': 0, 'rot2': 0, 'state': 'normal', 'yaw': -7.6, 'datetime': '2018-10-03 17:28:10.315432', 'mgs': 0, 'volt': 1.0254, 'depth': 3.522, 'time': 7, 'pitch': -7.32, 'roll': 1.16, 'pres': 210}
{'lipoC2': 0.0, 'lipoC3S1': 3.94, 'temp': 26.38, 'lipoC3S3': 11.92, 'lipoC3S2': 7.88, 'rot1': 0, 'rot0': 0, 'rot3': 0, 'rot2': 0, 'state': 'normal', 'yaw': -7.59, 'datetime': '2018-10-03 17:28:10.418389', 'mgs': 0, 'volt': 1.0254, 'depth': 3.522, 'time': 7, 'pitch': -7.33, 'roll': 0.9, 'pres': 210}
{'lipoC2': 0.0, 'lipoC3S1': 3.94, 'temp': 26.38, 'lipoC3S3': 11.92, 'lipoC3S2': 7.88, 'rot1': 0, 'rot0': 0, 'rot3': 0, 'rot2': 0, 'state': 'normal', 'yaw': -7.63, 'datetime': '2018-10-03 17:28:10.522060', 'mgs': 0, 'volt': 1.0254, 'depth': 3.522, 'time': 7, 'pitch': -7.33, 'roll': 0.6, 'pres': 210}
{'lipoC2': 0.0, 'lipoC3S1': 3.94, 'temp': 26.44, 'lipoC3S3': 11.92, 'lipoC3S2': 7.88, 'rot1': 0, 'rot0': 0, 'rot3': 0, 'rot2': 0, 'state': 'normal', 'yaw': -7.7, 'datetime': '2018-10-03 17:28:10.625432', 'mgs': 0, 'volt': 1.0254, 'depth': 3.522, 'time': 7, 'pitch': -7.33, 'roll': 0.53, 'pres': 210}
{'lipoC2': 0.0, 'lipoC3S1': 3.94, 'temp': 26.44, 'lipoC3S3': 11.92, 'lipoC3S2': 7.88, 'rot1': 0, 'rot0': 0, 'rot3': 0, 'rot2': 0, 'state': 'normal', 'yaw': -7.76, 'datetime': '2018-10-03 17:28:10.728503', 'mgs': 0, 'volt': 1.0254, 'depth': 3.522, 'time': 7, 'pitch': -7.32, 'roll': 0.67, 'pres': 210}
{'lipoC2': 0.0, 'lipoC3S1': 3.94, 'temp': 26.38, 'lipoC3S3': 11.92, 'lipoC3S2': 7.87, 'rot1': 0, 'rot0': 0, 'rot3': 0, 'rot2': 0, 'state': 'normal', 'yaw': -7.82, 'datetime': '2018-10-03 17:28:10.833019', 'mgs': 0, 'volt': 1.0254, 'depth': 3.522, 'time': 7, 'pitch': -7.29, 'roll': 0.84, 'pres': 210}
{'lipoC2': 0.0, 'lipoC3S1': 3.94, 'temp': 26.38, 'lipoC3S3': 11.92, 'lipoC3S2': 7.88, 'rot1': 0, 'rot0': 0, 'rot3': 0, 'rot2': 0, 'state': 'normal', 'yaw': -7.86, 'datetime': '2018-10-03 17:28:10.936417', 'mgs': 0, 'volt': 1.0254, 'depth': 3.522, 'time': 7, 'pitch': -7.25, 'roll': 1.0, 'pres': 210}
{'lipoC2': 0.0, 'lipoC3S1': 3.94, 'temp': 26.44, 'lipoC3S3': 11.92, 'lipoC3S2': 7.88, 'rot1': 0, 'rot0': 0, 'rot3': 0, 'rot2': 0, 'state': 'normal', 'yaw': -7.85, 'datetime': '2018-10-03 17:28:11.039622', 'mgs': 0, 'volt': 1.0254, 'depth': 3.522, 'time': 7, 'pitch': -7.22, 'roll': 1.05, 'pres': 210}
{'lipoC2': 0.0, 'lipoC3S1': 3.94, 'temp': 26.44, 'lipoC3S3': 11.92, 'lipoC3S2': 7.87, 'rot1': 0, 'rot0': 0, 'rot3': 0, 'rot2': 0, 'state': 'normal', 'yaw': -7.85, 'datetime': '2018-10-03 17:28:11.143316', 'mgs': 0, 'volt': 1.0254, 'depth': 3.522, 'time': 7, 'pitch': -7.21, 'roll': 1.08, 'pres': 210}
{'lipoC2': 0.0, 'lipoC3S1': 3.94, 'temp': 26.44, 'lipoC3S3': 11.92, 'lipoC3S2': 7.88, 'rot1': 0, 'rot0': 0, 'rot3': 0, 'rot2': 0, 'state': 'normal', 'yaw': -7.85, 'datetime': '2018-10-03 17:28:11.247382', 'mgs': 0, 'volt': 1.0254, 'depth': 3.522, 'time': 7, 'pitch': -7.28, 'roll': 1.05, 'pres': 210}
{'lipoC2': 0.0, 'lipoC3S1': 3.94, 'temp': 26.44, 'lipoC3S3': 11.92, 'lipoC3S2': 7.88, 'rot1': 0, 'rot0': 0, 'rot3': 0, 'rot2': 0, 'state': 'normal', 'yaw': -7.85, 'datetime': '2018-10-03 17:28:11.350396', 'mgs': 0, 'volt': 1.0254, 'depth': 3.522, 'time': 8, 'pitch': -7.35, 'roll': 1.01, 'pres': 210}
{'lipoC2': 0.0, 'lipoC3S1': 3.94, 'temp': 26.44, 'lipoC3S3': 11.92, 'lipoC3S2': 7.88, 'rot1': 0, 'rot0': 0, 'rot3': 0, 'rot2': 0, 'state': 'normal', 'yaw': -7.77, 'datetime': '2018-10-03 17:28:11.453997', 'mgs': 0, 'volt': 1.0254, 'depth': 3.522, 'time': 8, 'pitch': -7.47, 'roll': 0.99, 'pres': 210}
{'lipoC2': 0.0, 'lipoC3S1': 3.94, 'temp': 26.38, 'lipoC3S3': 11.92, 'lipoC3S2': 7.88, 'rot1': 0, 'rot0': 0, 'rot3': 0, 'rot2': 0, 'state': 'normal', 'yaw': -7.64, 'datetime': '2018-10-03 17:28:11.556681', 'mgs': 0, 'volt': 1.0254, 'depth': 3.522, 'time': 8, 'pitch': -7.7, 'roll': 0.96, 'pres': 210}
{'lipoC2': 0.0, 'lipoC3S1': 3.94, 'temp': 26.38, 'lipoC3S3': 11.92, 'lipoC3S2': 7.88, 'rot1': 0, 'rot0': 0, 'rot3': 0, 'rot2': 0, 'state': 'normal', 'yaw': -7.53, 'datetime': '2018-10-03 17:28:11.660003', 'mgs': 0, 'volt': 1.0205, 'depth': 3.445, 'time': 8, 'pitch': -8.03, 'roll': 0.89, 'pres': 209}
{'lipoC2': 0.0, 'lipoC3S1': 3.94, 'temp': 26.38, 'lipoC3S3': 11.92, 'lipoC3S2': 7.88, 'rot1': 0, 'rot0': 0, 'rot3': 0, 'rot2': 0, 'state': 'normal', 'yaw': -7.5, 'datetime': '2018-10-03 17:28:11.763134', 'mgs': 0, 'volt': 1.0254, 'depth': 3.522, 'time': 8, 'pitch': -8.31, 'roll': 0.67, 'pres': 210}
{'lipoC2': 0.0, 'lipoC3S1': 3.94, 'temp': 26.38, 'lipoC3S3': 11.92, 'lipoC3S2': 7.88, 'rot1': 0, 'rot0': 0, 'rot3': 0, 'rot2': 0, 'state': 'normal', 'yaw': -7.44, 'datetime': '2018-10-03 17:28:11.866199', 'mgs': 0, 'volt': 1.0205, 'depth': 3.445, 'time': 8, 'pitch': -8.52, 'roll': 0.29, 'pres': 209}
{'lipoC2': 0.0, 'lipoC3S1': 3.94, 'temp': 26.38, 'lipoC3S3': 11.92, 'lipoC3S2': 7.88, 'rot1': 0, 'rot0': 0, 'rot3': 0, 'rot2': 0, 'state': 'normal', 'yaw': -7.31, 'datetime': '2018-10-03 17:28:11.969427', 'mgs': 0, 'volt': 1.0254, 'depth': 3.522, 'time': 8, 'pitch': -8.41, 'roll': 0.03, 'pres': 210}
{'lipoC2': 0.0, 'lipoC3S1': 3.94, 'temp': 26.44, 'lipoC3S3': 11.92, 'lipoC3S2': 7.88, 'rot1': 0, 'rot0': 0, 'rot3': 0, 'rot2': 0, 'state': 'normal', 'yaw': -7.19, 'datetime': '2018-10-03 17:28:12.072866', 'mgs': 0, 'volt': 1.0254, 'depth': 3.522, 'time': 8, 'pitch': -8.03, 'roll': 0.14, 'pres': 210}
{'lipoC2': 0.0, 'lipoC3S1': 3.94, 'temp': 26.44, 'lipoC3S3': 11.92, 'lipoC3S2': 7.88, 'rot1': 0, 'rot0': 0, 'rot3': 0, 'rot2': 0, 'state': 'normal', 'yaw': -7.05, 'datetime': '2018-10-03 17:28:12.175707', 'mgs': 0, 'volt': 1.0254, 'depth': 3.522, 'time': 8, 'pitch': -7.84, 'roll': 0.12, 'pres': 210}
{'lipoC2': 0.0, 'lipoC3S1': 3.94, 'temp': 26.38, 'lipoC3S3': 11.92, 'lipoC3S2': 7.88, 'rot1': 0, 'rot0': 0, 'rot3': 0, 'rot2': 0, 'state': 'normal', 'yaw': -6.89, 'datetime': '2018-10-03 17:28:12.279800', 'mgs': 0, 'volt': 1.0254, 'depth': 3.522, 'time': 9, 'pitch': -7.7, 'roll': 0.2, 'pres': 210}
{'lipoC2': 0.0, 'lipoC3S1': 3.94, 'temp': 26.38, 'lipoC3S3': 11.92, 'lipoC3S2': 7.88, 'rot1': 0, 'rot0': 0, 'rot3': 0, 'rot2': 0, 'state': 'normal', 'yaw': -6.74, 'datetime': '2018-10-03 17:28:12.382949', 'mgs': 0, 'volt': 1.0254, 'depth': 3.522, 'time': 9, 'pitch': -7.58, 'roll': 0.16, 'pres': 210}
{'lipoC2': 0.0, 'lipoC3S1': 3.94, 'temp': 26.44, 'lipoC3S3': 11.92, 'lipoC3S2': 7.87, 'rot1': 0, 'rot0': 0, 'rot3': 0, 'rot2': 0, 'state': 'normal', 'yaw': -6.62, 'datetime': '2018-10-03 17:28:12.486438', 'mgs': 0, 'volt': 1.0254, 'depth': 3.522, 'time': 9, 'pitch': -7.52, 'roll': 0.2, 'pres': 210}
{'lipoC2': 0.0, 'lipoC3S1': 3.94, 'temp': 26.44, 'lipoC3S3': 11.92, 'lipoC3S2': 7.88, 'rot1': 0, 'rot0': 0, 'rot3': 0, 'rot2': 0, 'state': 'normal', 'yaw': -6.49, 'datetime': '2018-10-03 17:28:12.590507', 'mgs': 0, 'volt': 1.0254, 'depth': 3.522, 'time': 9, 'pitch': -7.43, 'roll': 0.19, 'pres': 210}
{'lipoC2': 0.0, 'lipoC3S1': 3.94, 'temp': 26.44, 'lipoC3S3': 11.92, 'lipoC3S2': 7.88, 'rot1': 0, 'rot0': 0, 'rot3': 0, 'rot2': 0, 'state': 'normal', 'yaw': -6.37, 'datetime': '2018-10-03 17:28:12.693723', 'mgs': 0, 'volt': 1.0254, 'depth': 3.522, 'time': 9, 'pitch': -7.34, 'roll': 0.16, 'pres': 210}
{'lipoC2': 0.0, 'lipoC3S1': 3.94, 'temp': 26.38, 'lipoC3S3': 11.92, 'lipoC3S2': 7.88, 'rot1': 0, 'rot0': 0, 'rot3': 0, 'rot2': 0, 'state': 'normal', 'yaw': -6.26, 'datetime': '2018-10-03 17:28:12.797095', 'mgs': 0, 'volt': 1.0205, 'depth': 3.445, 'time': 9, 'pitch': -7.31, 'roll': 0.13, 'pres': 209}
{'lipoC2': 0.0, 'lipoC3S1': 3.94, 'temp': 26.38, 'lipoC3S3': 11.92, 'lipoC3S2': 7.88, 'rot1': 0, 'rot0': 0, 'rot3': 0, 'rot2': 0, 'state': 'normal', 'yaw': -6.17, 'datetime': '2018-10-03 17:28:12.902908', 'mgs': 0, 'volt': 1.0254, 'depth': 3.522, 'time': 9, 'pitch': -7.26, 'roll': 0.09, 'pres': 210}
{'lipoC2': 0.0, 'lipoC3S1': 3.94, 'temp': 26.38, 'lipoC3S3': 11.92, 'lipoC3S2': 7.88, 'rot1': 0, 'rot0': 0, 'rot3': 0, 'rot2': 0, 'state': 'normal', 'yaw': -6.09, 'datetime': '2018-10-03 17:28:13.001112', 'mgs': 0, 'volt': 1.0254, 'depth': 3.522, 'time': 9, 'pitch': -7.21, 'roll': 0.05, 'pres': 210}
{'lipoC2': 0.0, 'lipoC3S1': 3.94, 'temp': 26.38, 'lipoC3S3': 11.92, 'lipoC3S2': 7.87, 'rot1': 0, 'rot0': 0, 'rot3': 0, 'rot2': 0, 'state': 'normal', 'yaw': -6.07, 'datetime': '2018-10-03 17:28:13.104268', 'mgs': 0, 'volt': 1.0254, 'depth': 3.522, 'time': 9, 'pitch': -7.11, 'roll': 0.04, 'pres': 210}
{'lipoC2': 0.0, 'lipoC3S1': 3.94, 'temp': 26.38, 'lipoC3S3': 11.92, 'lipoC3S2': 7.88, 'rot1': 0, 'rot0': 0, 'rot3': 0, 'rot2': 0, 'state': 'normal', 'yaw': -6.06, 'datetime': '2018-10-03 17:28:13.207729', 'mgs': 0, 'volt': 1.0254, 'depth': 3.522, 'time': 9, 'pitch': -7.05, 'roll': 0.07, 'pres': 210}
{'lipoC2': 0.0, 'lipoC3S1': 3.94, 'temp': 26.38, 'lipoC3S3': 11.92, 'lipoC3S2': 7.88, 'rot1': 0, 'rot0': 0, 'rot3': 0, 'rot2': 0, 'state': 'normal', 'yaw': -6.0, 'datetime': '2018-10-03 17:28:13.310857', 'mgs': 0, 'volt': 1.0303, 'depth': 3.598, 'time': 10, 'pitch': -6.96, 'roll': 0.18, 'pres': 211}
{'lipoC2': 0.0, 'lipoC3S1': 3.94, 'temp': 26.38, 'lipoC3S3': 11.92, 'lipoC3S2': 7.88, 'rot1': 0, 'rot0': 0, 'rot3': 0, 'rot2': 0, 'state': 'normal', 'yaw': -5.83, 'datetime': '2018-10-03 17:28:13.414144', 'mgs': 0, 'volt': 1.0254, 'depth': 3.522, 'time': 10, 'pitch': -6.98, 'roll': 0.14, 'pres': 210}
{'lipoC2': 0.0, 'lipoC3S1': 3.94, 'temp': 26.44, 'lipoC3S3': 11.92, 'lipoC3S2': 7.88, 'rot1': 0, 'rot0': 0, 'rot3': 0, 'rot2': 0, 'state': 'normal', 'yaw': -5.33, 'datetime': '2018-10-03 17:28:13.517351', 'mgs': 0, 'volt': 1.0254, 'depth': 3.522, 'time': 10, 'pitch': -7.0, 'roll': 0.2, 'pres': 210}
{'lipoC2': 0.0, 'lipoC3S1': 3.94, 'temp': 26.44, 'lipoC3S3': 11.92, 'lipoC3S2': 7.87, 'rot1': 0, 'rot0': 0, 'rot3': 0, 'rot2': 0, 'state': 'normal', 'yaw': -4.32, 'datetime': '2018-10-03 17:28:13.620656', 'mgs': 0, 'volt': 1.0254, 'depth': 3.522, 'time': 10, 'pitch': -6.82, 'roll': 0.11, 'pres': 210}
{'lipoC2': 0.0, 'lipoC3S1': 3.94, 'temp': 26.44, 'lipoC3S3': 11.92, 'lipoC3S2': 7.87, 'rot1': 0, 'rot0': 0, 'rot3': 0, 'rot2': 0, 'state': 'normal', 'yaw': -2.42, 'datetime': '2018-10-03 17:28:13.723904', 'mgs': 0, 'volt': 1.0254, 'depth': 3.522, 'time': 10, 'pitch': -6.36, 'roll': 0.07, 'pres': 210}
{'lipoC2': 0.0, 'lipoC3S1': 3.94, 'temp': 26.44, 'lipoC3S3': 11.92, 'lipoC3S2': 7.88, 'rot1': 0, 'rot0': 0, 'rot3': 0, 'rot2': 0, 'state': 'normal', 'yaw': -0.03, 'datetime': '2018-10-03 17:28:13.824985', 'mgs': 0, 'volt': 1.0303, 'depth': 3.598, 'time': 10, 'pitch': -5.61, 'roll': 0.07, 'pres': 211}
{'lipoC2': 0.0, 'lipoC3S1': 3.94, 'temp': 26.38, 'lipoC3S3': 11.92, 'lipoC3S2': 7.88, 'rot1': 0, 'rot0': 0, 'rot3': 0, 'rot2': 0, 'state': 'normal', 'yaw': 2.92, 'datetime': '2018-10-03 17:28:13.931113', 'mgs': 0, 'volt': 1.0303, 'depth': 3.598, 'time': 10, 'pitch': -4.61, 'roll': 0.05, 'pres': 211}
{'lipoC2': 0.0, 'lipoC3S1': 3.94, 'temp': 26.38, 'lipoC3S3': 11.92, 'lipoC3S2': 7.88, 'rot1': 0, 'rot0': 0, 'rot3': 0, 'rot2': 0, 'state': 'normal', 'yaw': 6.58, 'datetime': '2018-10-03 17:28:14.034481', 'mgs': 0, 'volt': 1.0303, 'depth': 3.598, 'time': 10, 'pitch': -3.44, 'roll': 0.07, 'pres': 211}
{'lipoC2': 0.0, 'lipoC3S1': 3.94, 'temp': 26.38, 'lipoC3S3': 11.92, 'lipoC3S2': 7.88, 'rot1': 0, 'rot0': 0, 'rot3': 0, 'rot2': 0, 'state': 'normal', 'yaw': 10.04, 'datetime': '2018-10-03 17:28:14.138242', 'mgs': 0, 'volt': 1.0303, 'depth': 3.598, 'time': 10, 'pitch': -2.3, 'roll': 0.05, 'pres': 211}
{'lipoC2': 0.0, 'lipoC3S1': 3.94, 'temp': 26.44, 'lipoC3S3': 11.92, 'lipoC3S2': 7.88, 'rot1': 0, 'rot0': 0, 'rot3': 0, 'rot2': 0, 'state': 'normal', 'yaw': 13.44, 'datetime': '2018-10-03 17:28:14.242077', 'mgs': 0, 'volt': 1.0352, 'depth': 3.674, 'time': 10, 'pitch': -1.09, 'roll': 0.01, 'pres': 212}
{'lipoC2': 0.0, 'lipoC3S1': 3.94, 'temp': 26.44, 'lipoC3S3': 11.92, 'lipoC3S2': 7.88, 'rot1': 0, 'rot0': 0, 'rot3': 0, 'rot2': 0, 'state': 'normal', 'yaw': 17.19, 'datetime': '2018-10-03 17:28:14.345398', 'mgs': 0, 'volt': 1.0303, 'depth': 3.598, 'time': 11, 'pitch': -0.05, 'roll': 0.03, 'pres': 211}
{'lipoC2': 0.0, 'lipoC3S1': 3.94, 'temp': 26.38, 'lipoC3S3': 11.92, 'lipoC3S2': 7.88, 'rot1': 0, 'rot0': 0, 'rot3': 0, 'rot2': 0, 'state': 'normal', 'yaw': 20.68, 'datetime': '2018-10-03 17:28:14.448826', 'mgs': 0, 'volt': 1.0352, 'depth': 3.674, 'time': 11, 'pitch': 0.74, 'roll': 0.03, 'pres': 212}
{'lipoC2': 0.0, 'lipoC3S1': 3.94, 'temp': 26.38, 'lipoC3S3': 11.92, 'lipoC3S2': 7.88, 'rot1': 0, 'rot0': 0, 'rot3': 0, 'rot2': 0, 'state': 'normal', 'yaw': 24.28, 'datetime': '2018-10-03 17:28:14.553020', 'mgs': 0, 'volt': 1.0352, 'depth': 3.674, 'time': 11, 'pitch': 1.22, 'roll': 0.05, 'pres': 212}
{'lipoC2': 0.0, 'lipoC3S1': 3.94, 'temp': 26.44, 'lipoC3S3': 11.92, 'lipoC3S2': 7.88, 'rot1': 0, 'rot0': 0, 'rot3': 0, 'rot2': 0, 'state': 'normal', 'yaw': 28.28, 'datetime': '2018-10-03 17:28:14.656239', 'mgs': 0, 'volt': 1.0352, 'depth': 3.674, 'time': 11, 'pitch': 1.56, 'roll': 0.06, 'pres': 212}
{'lipoC2': 0.0, 'lipoC3S1': 3.94, 'temp': 26.44, 'lipoC3S3': 11.92, 'lipoC3S2': 7.88, 'rot1': 0, 'rot0': 0, 'rot3': 0, 'rot2': 0, 'state': 'normal', 'yaw': 31.97, 'datetime': '2018-10-03 17:28:14.759473', 'mgs': 0, 'volt': 1.0303, 'depth': 3.598, 'time': 11, 'pitch': 1.79, 'roll': 0.11, 'pres': 211}
{'lipoC2': 0.0, 'lipoC3S1': 3.94, 'temp': 26.44, 'lipoC3S3': 11.92, 'lipoC3S2': 7.88, 'rot1': 0, 'rot0': 0, 'rot3': 0, 'rot2': 0, 'state': 'normal', 'yaw': 35.51, 'datetime': '2018-10-03 17:28:14.862681', 'mgs': 0, 'volt': 1.0303, 'depth': 3.598, 'time': 11, 'pitch': 2.27, 'roll': 0.26, 'pres': 211}
{'lipoC2': 0.0, 'lipoC3S1': 3.94, 'temp': 26.44, 'lipoC3S3': 11.92, 'lipoC3S2': 7.87, 'rot1': 0, 'rot0': 0, 'rot3': 0, 'rot2': 0, 'state': 'normal', 'yaw': 38.48, 'datetime': '2018-10-03 17:28:14.965955', 'mgs': 0, 'volt': 1.0352, 'depth': 3.674, 'time': 11, 'pitch': 4.19, 'roll': 0.41, 'pres': 212}
{'lipoC2': 0.0, 'lipoC3S1': 3.94, 'temp': 26.44, 'lipoC3S3': 11.92, 'lipoC3S2': 7.88, 'rot1': 0, 'rot0': 0, 'rot3': 0, 'rot2': 0, 'state': 'normal', 'yaw': 41.36, 'datetime': '2018-10-03 17:28:15.063278', 'mgs': 0, 'volt': 1.0352, 'depth': 3.674, 'time': 11, 'pitch': 5.51, 'roll': 0.96, 'pres': 212}
{'lipoC2': 0.0, 'lipoC3S1': 3.94, 'temp': 26.38, 'lipoC3S3': 11.92, 'lipoC3S2': 7.88, 'rot1': 0, 'rot0': 0, 'rot3': 0, 'rot2': 0, 'state': 'normal', 'yaw': 44.11, 'datetime': '2018-10-03 17:28:15.166471', 'mgs': 0, 'volt': 1.0352, 'depth': 3.674, 'time': 11, 'pitch': 6.0, 'roll': 1.72, 'pres': 212}
{'lipoC2': 0.0, 'lipoC3S1': 3.94, 'temp': 26.38, 'lipoC3S3': 11.92, 'lipoC3S2': 7.88, 'rot1': 0, 'rot0': 0, 'rot3': 0, 'rot2': 0, 'state': 'normal', 'yaw': 46.86, 'datetime': '2018-10-03 17:28:15.269732', 'mgs': 0, 'volt': 1.0352, 'depth': 3.674, 'time': 11, 'pitch': 5.74, 'roll': 2.33, 'pres': 212}
{'lipoC2': 0.0, 'lipoC3S1': 3.94, 'temp': 26.44, 'lipoC3S3': 11.92, 'lipoC3S2': 7.88, 'rot1': 0, 'rot0': 0, 'rot3': 0, 'rot2': 0, 'state': 'normal', 'yaw': 49.2, 'datetime': '2018-10-03 17:28:15.373030', 'mgs': 0, 'volt': 1.0352, 'depth': 3.674, 'time': 12, 'pitch': 4.9, 'roll': 2.63, 'pres': 212}
{'lipoC2': 0.0, 'lipoC3S1': 3.94, 'temp': 26.44, 'lipoC3S3': 11.92, 'lipoC3S2': 7.88, 'rot1': 0, 'rot0': 0, 'rot3': 0, 'rot2': 0, 'state': 'normal', 'yaw': 51.56, 'datetime': '2018-10-03 17:28:15.476241', 'mgs': 0, 'volt': 1.0303, 'depth': 3.598, 'time': 12, 'pitch': 3.39, 'roll': 2.53, 'pres': 211}
{'lipoC2': 0.0, 'lipoC3S1': 3.94, 'temp': 26.44, 'lipoC3S3': 11.92, 'lipoC3S2': 7.88, 'rot1': 0, 'rot0': 0, 'rot3': 0, 'rot2': 0, 'state': 'normal', 'yaw': 54.1, 'datetime': '2018-10-03 17:28:15.580105', 'mgs': 0, 'volt': 1.0303, 'depth': 3.598, 'time': 12, 'pitch': 1.2, 'roll': 2.4, 'pres': 211}
{'lipoC2': 0.0, 'lipoC3S1': 3.94, 'temp': 26.38, 'lipoC3S3': 11.92, 'lipoC3S2': 7.88, 'rot1': 0, 'rot0': 0, 'rot3': 0, 'rot2': 0, 'state': 'normal', 'yaw': 57.05, 'datetime': '2018-10-03 17:28:15.683375', 'mgs': 0, 'volt': 1.0254, 'depth': 3.522, 'time': 12, 'pitch': -1.52, 'roll': 2.34, 'pres': 210}
{'lipoC2': 0.0, 'lipoC3S1': 3.94, 'temp': 26.38, 'lipoC3S3': 11.92, 'lipoC3S2': 7.88, 'rot1': 0, 'rot0': 0, 'rot3': 0, 'rot2': 0, 'state': 'normal', 'yaw': 59.78, 'datetime': '2018-10-03 17:28:15.787303', 'mgs': 0, 'volt': 1.0205, 'depth': 3.445, 'time': 12, 'pitch': -3.91, 'roll': 2.25, 'pres': 209}
{'lipoC2': 0.0, 'lipoC3S1': 3.94, 'temp': 26.44, 'lipoC3S3': 11.92, 'lipoC3S2': 7.88, 'rot1': 0, 'rot0': 0, 'rot3': 0, 'rot2': 0, 'state': 'normal', 'yaw': 62.48, 'datetime': '2018-10-03 17:28:15.891204', 'mgs': 0, 'volt': 1.0156, 'depth': 3.369, 'time': 12, 'pitch': -5.98, 'roll': 2.21, 'pres': 208}
{'lipoC2': 0.0, 'lipoC3S1': 3.94, 'temp': 26.44, 'lipoC3S3': 11.92, 'lipoC3S2': 7.87, 'rot1': 0, 'rot0': 0, 'rot3': 0, 'rot2': 0, 'state': 'normal', 'yaw': 65.36, 'datetime': '2018-10-03 17:28:15.994465', 'mgs': 0, 'volt': 1.0156, 'depth': 3.369, 'time': 12, 'pitch': -7.85, 'roll': 2.3, 'pres': 208}
{'lipoC2': 0.0, 'lipoC3S1': 3.94, 'temp': 26.44, 'lipoC3S3': 11.92, 'lipoC3S2': 7.88, 'rot1': 0, 'rot0': 0, 'rot3': 0, 'rot2': 0, 'state': 'normal', 'yaw': 67.84, 'datetime': '2018-10-03 17:28:16.098857', 'mgs': 0, 'volt': 1.0156, 'depth': 3.369, 'time': 12, 'pitch': -9.28, 'roll': 2.42, 'pres': 208}
{'lipoC2': 0.0, 'lipoC3S1': 3.94, 'temp': 26.44, 'lipoC3S3': 11.92, 'lipoC3S2': 7.88, 'rot1': 0, 'rot0': 0, 'rot3': 0, 'rot2': 0, 'state': 'normal', 'yaw': 70.36, 'datetime': '2018-10-03 17:28:16.202848', 'mgs': 0, 'volt': 1.0156, 'depth': 3.369, 'time': 12, 'pitch': -10.64, 'roll': 2.62, 'pres': 208}
{'lipoC2': 0.0, 'lipoC3S1': 3.94, 'temp': 26.44, 'lipoC3S3': 11.92, 'lipoC3S2': 7.88, 'rot1': 0, 'rot0': 0, 'rot3': 0, 'rot2': 0, 'state': 'normal', 'yaw': 72.53, 'datetime': '2018-10-03 17:28:16.305854', 'mgs': 0, 'volt': 1.0107, 'depth': 3.293, 'time': 13, 'pitch': -11.54, 'roll': 2.7, 'pres': 207}
{'lipoC2': 0.0, 'lipoC3S1': 3.94, 'temp': 26.44, 'lipoC3S3': 11.92, 'lipoC3S2': 7.88, 'rot1': 0, 'rot0': 0, 'rot3': 0, 'rot2': 0, 'state': 'normal', 'yaw': 74.01, 'datetime': '2018-10-03 17:28:16.409112', 'mgs': 0, 'volt': 1.0205, 'depth': 3.445, 'time': 13, 'pitch': -10.68, 'roll': 2.49, 'pres': 209}
{'lipoC2': 0.0, 'lipoC3S1': 3.94, 'temp': 26.44, 'lipoC3S3': 11.92, 'lipoC3S2': 7.88, 'rot1': 0, 'rot0': 0, 'rot3': 0, 'rot2': 0, 'state': 'normal', 'yaw': 75.3, 'datetime': '2018-10-03 17:28:16.512605', 'mgs': 0, 'volt': 1.0205, 'depth': 3.445, 'time': 13, 'pitch': -9.44, 'roll': 2.32, 'pres': 209}
{'lipoC2': 0.0, 'lipoC3S1': 3.94, 'temp': 26.44, 'lipoC3S3': 11.92, 'lipoC3S2': 7.88, 'rot1': 0, 'rot0': 0, 'rot3': 0, 'rot2': 0, 'state': 'normal', 'yaw': 76.89, 'datetime': '2018-10-03 17:28:16.615800', 'mgs': 0, 'volt': 1.0254, 'depth': 3.522, 'time': 13, 'pitch': -8.18, 'roll': 2.12, 'pres': 210}
{'lipoC2': 0.0, 'lipoC3S1': 3.94, 'temp': 26.44, 'lipoC3S3': 11.92, 'lipoC3S2': 7.88, 'rot1': 0, 'rot0': 0, 'rot3': 0, 'rot2': 0, 'state': 'normal', 'yaw': 78.58, 'datetime': '2018-10-03 17:28:16.719114', 'mgs': 0, 'volt': 1.0254, 'depth': 3.522, 'time': 13, 'pitch': -7.23, 'roll': 1.65, 'pres': 210}
{'lipoC2': 0.0, 'lipoC3S1': 3.94, 'temp': 26.44, 'lipoC3S3': 11.92, 'lipoC3S2': 7.88, 'rot1': 0, 'rot0': 0, 'rot3': 0, 'rot2': 0, 'state': 'normal', 'yaw': 80.42, 'datetime': '2018-10-03 17:28:16.822359', 'mgs': 0, 'volt': 1.0254, 'depth': 3.522, 'time': 13, 'pitch': -6.22, 'roll': 0.92, 'pres': 210}
{'lipoC2': 0.0, 'lipoC3S1': 3.94, 'temp': 26.44, 'lipoC3S3': 11.92, 'lipoC3S2': 7.88, 'rot1': 0, 'rot0': 0, 'rot3': 0, 'rot2': 0, 'state': 'normal', 'yaw': 82.76, 'datetime': '2018-10-03 17:28:16.925611', 'mgs': 0, 'volt': 1.0254, 'depth': 3.522, 'time': 13, 'pitch': -5.35, 'roll': 0.38, 'pres': 210}
{'lipoC2': 0.0, 'lipoC3S1': 3.94, 'temp': 26.44, 'lipoC3S3': 11.92, 'lipoC3S2': 7.88, 'rot1': 0, 'rot0': 0, 'rot3': 0, 'rot2': 0, 'state': 'normal', 'yaw': 85.13, 'datetime': '2018-10-03 17:28:17.028875', 'mgs': 0, 'volt': 1.0254, 'depth': 3.522, 'time': 13, 'pitch': -4.8, 'roll': 0.19, 'pres': 210}
{'lipoC2': 0.0, 'lipoC3S1': 3.94, 'temp': 26.44, 'lipoC3S3': 11.92, 'lipoC3S2': 7.88, 'rot1': 0, 'rot0': 0, 'rot3': 0, 'rot2': 0, 'state': 'normal', 'yaw': 87.69, 'datetime': '2018-10-03 17:28:17.132161', 'mgs': 0, 'volt': 1.0254, 'depth': 3.522, 'time': 13, 'pitch': -4.37, 'roll': 0.33, 'pres': 210}
{'lipoC2': 0.0, 'lipoC3S1': 3.94, 'temp': 26.44, 'lipoC3S3': 11.92, 'lipoC3S2': 7.87, 'rot1': 0, 'rot0': 0, 'rot3': 0, 'rot2': 0, 'state': 'normal', 'yaw': 90.5, 'datetime': '2018-10-03 17:28:17.235435', 'mgs': 0, 'volt': 1.0303, 'depth': 3.598, 'time': 13, 'pitch': -4.34, 'roll': 0.45, 'pres': 211}
{'lipoC2': 0.0, 'lipoC3S1': 3.94, 'temp': 26.44, 'lipoC3S3': 11.92, 'lipoC3S2': 7.88, 'rot1': 0, 'rot0': 0, 'rot3': 0, 'rot2': 0, 'state': 'normal', 'yaw': 92.95, 'datetime': '2018-10-03 17:28:17.338659', 'mgs': 0, 'volt': 1.0254, 'depth': 3.522, 'time': 14, 'pitch': -4.64, 'roll': 0.18, 'pres': 210}
{'lipoC2': 0.0, 'lipoC3S1': 3.94, 'temp': 26.44, 'lipoC3S3': 11.92, 'lipoC3S2': 7.88, 'rot1': 0, 'rot0': 0, 'rot3': 0, 'rot2': 0, 'state': 'normal', 'yaw': 95.32, 'datetime': '2018-10-03 17:28:17.443277', 'mgs': 0, 'volt': 1.0254, 'depth': 3.522, 'time': 14, 'pitch': -5.4, 'roll': 0.37, 'pres': 210}
{'lipoC2': 0.0, 'lipoC3S1': 3.94, 'temp': 26.44, 'lipoC3S3': 11.92, 'lipoC3S2': 7.88, 'rot1': 0, 'rot0': 0, 'rot3': 0, 'rot2': 0, 'state': 'normal', 'yaw': 97.54, 'datetime': '2018-10-03 17:28:17.546441', 'mgs': 0, 'volt': 1.0254, 'depth': 3.522, 'time': 14, 'pitch': -6.29, 'roll': 0.26, 'pres': 210}
{'lipoC2': 0.0, 'lipoC3S1': 3.94, 'temp': 26.44, 'lipoC3S3': 11.92, 'lipoC3S2': 7.88, 'rot1': 0, 'rot0': 0, 'rot3': 0, 'rot2': 0, 'state': 'normal', 'yaw': 99.09, 'datetime': '2018-10-03 17:28:17.649740', 'mgs': 0, 'volt': 1.0254, 'depth': 3.522, 'time': 14, 'pitch': -7.49, 'roll': 0.4, 'pres': 210}
{'lipoC2': 0.0, 'lipoC3S1': 3.94, 'temp': 26.44, 'lipoC3S3': 11.92, 'lipoC3S2': 7.88, 'rot1': 0, 'rot0': 0, 'rot3': 0, 'rot2': 0, 'state': 'normal', 'yaw': 99.94, 'datetime': '2018-10-03 17:28:17.754255', 'mgs': 0, 'volt': 1.0254, 'depth': 3.522, 'time': 14, 'pitch': -8.55, 'roll': 0.46, 'pres': 210}
{'lipoC2': 0.0, 'lipoC3S1': 3.94, 'temp': 26.44, 'lipoC3S3': 11.92, 'lipoC3S2': 7.88, 'rot1': 0, 'rot0': 0, 'rot3': 0, 'rot2': 0, 'state': 'normal', 'yaw': 100.02, 'datetime': '2018-10-03 17:28:17.857439', 'mgs': 0, 'volt': 1.0254, 'depth': 3.522, 'time': 14, 'pitch': -8.56, 'roll': 0.51, 'pres': 210}
{'lipoC2': 0.0, 'lipoC3S1': 3.94, 'temp': 26.44, 'lipoC3S3': 11.92, 'lipoC3S2': 7.88, 'rot1': 0, 'rot0': 0, 'rot3': 0, 'rot2': 0, 'state': 'normal', 'yaw': 99.94, 'datetime': '2018-10-03 17:28:17.960698', 'mgs': 0, 'volt': 1.0254, 'depth': 3.522, 'time': 14, 'pitch': -8.42, 'roll': 0.51, 'pres': 210}
{'lipoC2': 0.0, 'lipoC3S1': 3.94, 'temp': 26.38, 'lipoC3S3': 11.92, 'lipoC3S2': 7.88, 'rot1': 0, 'rot0': 0, 'rot3': 0, 'rot2': 0, 'state': 'normal', 'yaw': 99.95, 'datetime': '2018-10-03 17:28:18.064428', 'mgs': 0, 'volt': 1.0254, 'depth': 3.522, 'time': 14, 'pitch': -8.22, 'roll': 0.52, 'pres': 210}
{'lipoC2': 0.0, 'lipoC3S1': 3.94, 'temp': 26.38, 'lipoC3S3': 11.92, 'lipoC3S2': 7.88, 'rot1': 0, 'rot0': 0, 'rot3': 0, 'rot2': 0, 'state': 'normal', 'yaw': 99.79, 'datetime': '2018-10-03 17:28:18.167465', 'mgs': 0, 'volt': 1.0254, 'depth': 3.522, 'time': 14, 'pitch': -8.14, 'roll': 0.56, 'pres': 210}
{'lipoC2': 0.0, 'lipoC3S1': 3.94, 'temp': 26.38, 'lipoC3S3': 11.92, 'lipoC3S2': 7.88, 'rot1': 0, 'rot0': 0, 'rot3': 0, 'rot2': 0, 'state': 'normal', 'yaw': 99.48, 'datetime': '2018-10-03 17:28:18.270725', 'mgs': 0, 'volt': 1.0254, 'depth': 3.522, 'time': 14, 'pitch': -8.05, 'roll': 0.59, 'pres': 210}
{'lipoC2': 0.0, 'lipoC3S1': 3.94, 'temp': 26.44, 'lipoC3S3': 11.92, 'lipoC3S2': 7.88, 'rot1': 0, 'rot0': 0, 'rot3': 0, 'rot2': 0, 'state': 'normal', 'yaw': 99.01, 'datetime': '2018-10-03 17:28:18.373970', 'mgs': 0, 'volt': 1.0254, 'depth': 3.522, 'time': 15, 'pitch': -8.02, 'roll': 0.58, 'pres': 210}
{'lipoC2': 0.0, 'lipoC3S1': 3.94, 'temp': 26.44, 'lipoC3S3': 11.92, 'lipoC3S2': 7.88, 'rot1': 0, 'rot0': 0, 'rot3': 0, 'rot2': 0, 'state': 'normal', 'yaw': 98.55, 'datetime': '2018-10-03 17:28:18.477392', 'mgs': 0, 'volt': 1.0254, 'depth': 3.522, 'time': 15, 'pitch': -8.12, 'roll': 0.6, 'pres': 210}
{'lipoC2': 0.0, 'lipoC3S1': 3.94, 'temp': 26.44, 'lipoC3S3': 11.92, 'lipoC3S2': 7.88, 'rot1': 0, 'rot0': 0, 'rot3': 0, 'rot2': 0, 'state': 'normal', 'yaw': 98.03, 'datetime': '2018-10-03 17:28:18.580568', 'mgs': 0, 'volt': 1.0254, 'depth': 3.522, 'time': 15, 'pitch': -7.99, 'roll': 0.63, 'pres': 210}
{'lipoC2': 0.0, 'lipoC3S1': 3.94, 'temp': 26.44, 'lipoC3S3': 11.92, 'lipoC3S2': 7.88, 'rot1': 0, 'rot0': 0, 'rot3': 0, 'rot2': 0, 'state': 'normal', 'yaw': 97.31, 'datetime': '2018-10-03 17:28:18.683833', 'mgs': 0, 'volt': 1.0254, 'depth': 3.522, 'time': 15, 'pitch': -7.76, 'roll': 0.7, 'pres': 210}
{'lipoC2': 0.0, 'lipoC3S1': 3.94, 'temp': 26.44, 'lipoC3S3': 11.92, 'lipoC3S2': 7.88, 'rot1': 0, 'rot0': 0, 'rot3': 0, 'rot2': 0, 'state': 'normal', 'yaw': 96.51, 'datetime': '2018-10-03 17:28:18.787219', 'mgs': 0, 'volt': 1.0254, 'depth': 3.522, 'time': 15, 'pitch': -7.8, 'roll': 0.63, 'pres': 210}
{'lipoC2': 0.0, 'lipoC3S1': 3.94, 'temp': 26.44, 'lipoC3S3': 11.92, 'lipoC3S2': 7.88, 'rot1': 0, 'rot0': 0, 'rot3': 0, 'rot2': 0, 'state': 'normal', 'yaw': 95.97, 'datetime': '2018-10-03 17:28:18.890376', 'mgs': 0, 'volt': 1.0205, 'depth': 3.445, 'time': 15, 'pitch': -8.04, 'roll': 0.5, 'pres': 209}
{'lipoC2': 0.0, 'lipoC3S1': 3.94, 'temp': 26.44, 'lipoC3S3': 11.92, 'lipoC3S2': 7.88, 'rot1': 0, 'rot0': 0, 'rot3': 0, 'rot2': 0, 'state': 'normal', 'yaw': 96.12, 'datetime': '2018-10-03 17:28:18.993664', 'mgs': 0, 'volt': 1.0205, 'depth': 3.445, 'time': 15, 'pitch': -8.21, 'roll': 0.47, 'pres': 209}
{'lipoC2': 0.0, 'lipoC3S1': 3.94, 'temp': 26.38, 'lipoC3S3': 11.92, 'lipoC3S2': 7.88, 'rot1': 0, 'rot0': 0, 'rot3': 0, 'rot2': 0, 'state': 'normal', 'yaw': 96.22, 'datetime': '2018-10-03 17:28:19.098198', 'mgs': 0, 'volt': 1.0205, 'depth': 3.445, 'time': 15, 'pitch': -8.28, 'roll': 0.45, 'pres': 209}
{'lipoC2': 0.0, 'lipoC3S1': 3.94, 'temp': 26.38, 'lipoC3S3': 11.92, 'lipoC3S2': 7.88, 'rot1': 0, 'rot0': 0, 'rot3': 0, 'rot2': 0, 'state': 'normal', 'yaw': 96.31, 'datetime': '2018-10-03 17:28:19.205682', 'mgs': 0, 'volt': 1.0205, 'depth': 3.445, 'time': 15, 'pitch': -8.16, 'roll': 0.49, 'pres': 209}
{'lipoC2': 0.0, 'lipoC3S1': 3.94, 'temp': 26.38, 'lipoC3S3': 11.92, 'lipoC3S2': 7.88, 'rot1': 0, 'rot0': 0, 'rot3': 0, 'rot2': 0, 'state': 'normal', 'yaw': 96.42, 'datetime': '2018-10-03 17:28:19.310666', 'mgs': 0, 'volt': 1.0156, 'depth': 3.369, 'time': 16, 'pitch': -8.03, 'roll': 0.57, 'pres': 208}
{'lipoC2': 0.0, 'lipoC3S1': 3.94, 'temp': 26.38, 'lipoC3S3': 11.92, 'lipoC3S2': 7.88, 'rot1': 0, 'rot0': 0, 'rot3': 0, 'rot2': 0, 'state': 'normal', 'yaw': 96.54, 'datetime': '2018-10-03 17:28:19.415212', 'mgs': 0, 'volt': 1.0205, 'depth': 3.445, 'time': 16, 'pitch': -8.13, 'roll': 0.57, 'pres': 209}
{'lipoC2': 0.0, 'lipoC3S1': 3.94, 'temp': 26.44, 'lipoC3S3': 11.92, 'lipoC3S2': 7.88, 'rot1': 0, 'rot0': 0, 'rot3': 0, 'rot2': 0, 'state': 'normal', 'yaw': 96.76, 'datetime': '2018-10-03 17:28:19.518463', 'mgs': 0, 'volt': 1.0205, 'depth': 3.445, 'time': 16, 'pitch': -8.28, 'roll': 0.4, 'pres': 209}
{'lipoC2': 0.0, 'lipoC3S1': 3.94, 'temp': 26.44, 'lipoC3S3': 11.92, 'lipoC3S2': 7.88, 'rot1': 0, 'rot0': 0, 'rot3': 0, 'rot2': 0, 'state': 'normal', 'yaw': 96.93, 'datetime': '2018-10-03 17:28:19.621696', 'mgs': 0, 'volt': 1.0205, 'depth': 3.445, 'time': 16, 'pitch': -8.25, 'roll': 0.26, 'pres': 209}
{'lipoC2': 0.0, 'lipoC3S1': 3.94, 'temp': 26.44, 'lipoC3S3': 11.92, 'lipoC3S2': 7.88, 'rot1': 0, 'rot0': 0, 'rot3': 0, 'rot2': 0, 'state': 'normal', 'yaw': 97.1, 'datetime': '2018-10-03 17:28:19.725019', 'mgs': 0, 'volt': 1.0205, 'depth': 3.445, 'time': 16, 'pitch': -8.11, 'roll': 0.2, 'pres': 209}
{'lipoC2': 0.0, 'lipoC3S1': 3.94, 'temp': 26.38, 'lipoC3S3': 11.92, 'lipoC3S2': 7.88, 'rot1': 0, 'rot0': 0, 'rot3': 0, 'rot2': 0, 'state': 'normal', 'yaw': 97.29, 'datetime': '2018-10-03 17:28:19.828397', 'mgs': 0, 'volt': 1.0205, 'depth': 3.445, 'time': 16, 'pitch': -7.9, 'roll': 0.17, 'pres': 209}
{'lipoC2': 0.0, 'lipoC3S1': 3.94, 'temp': 26.38, 'lipoC3S3': 11.92, 'lipoC3S2': 7.88, 'rot1': 0, 'rot0': 0, 'rot3': 0, 'rot2': 0, 'state': 'normal', 'yaw': 97.49, 'datetime': '2018-10-03 17:28:19.931693', 'mgs': 0, 'volt': 1.0205, 'depth': 3.445, 'time': 16, 'pitch': -7.6, 'roll': 0.14, 'pres': 209}
{'lipoC2': 0.0, 'lipoC3S1': 3.94, 'temp': 26.38, 'lipoC3S3': 11.92, 'lipoC3S2': 7.88, 'rot1': 0, 'rot0': 0, 'rot3': 0, 'rot2': 0, 'state': 'normal', 'yaw': 97.69, 'datetime': '2018-10-03 17:28:20.034956', 'mgs': 0, 'volt': 1.0205, 'depth': 3.445, 'time': 16, 'pitch': -7.29, 'roll': 0.18, 'pres': 209}
{'lipoC2': 0.0, 'lipoC3S1': 3.94, 'temp': 26.38, 'lipoC3S3': 11.92, 'lipoC3S2': 7.88, 'rot1': 0, 'rot0': 0, 'rot3': 0, 'rot2': 0, 'state': 'normal', 'yaw': 97.89, 'datetime': '2018-10-03 17:28:20.138245', 'mgs': 0, 'volt': 1.0205, 'depth': 3.445, 'time': 16, 'pitch': -6.99, 'roll': 0.27, 'pres': 209}
{'lipoC2': 0.0, 'lipoC3S1': 3.94, 'temp': 26.38, 'lipoC3S3': 11.92, 'lipoC3S2': 7.88, 'rot1': 0, 'rot0': 0, 'rot3': 0, 'rot2': 0, 'state': 'normal', 'yaw': 98.11, 'datetime': '2018-10-03 17:28:20.241438', 'mgs': 0, 'volt': 1.0205, 'depth': 3.445, 'time': 16, 'pitch': -6.69, 'roll': 0.39, 'pres': 209}
{'lipoC2': 0.0, 'lipoC3S1': 3.94, 'temp': 26.38, 'lipoC3S3': 11.92, 'lipoC3S2': 7.88, 'rot1': 0, 'rot0': 0, 'rot3': 0, 'rot2': 0, 'state': 'normal', 'yaw': 98.31, 'datetime': '2018-10-03 17:28:20.344765', 'mgs': 0, 'volt': 1.0205, 'depth': 3.445, 'time': 17, 'pitch': -6.46, 'roll': 0.53, 'pres': 209}
{'lipoC2': 0.0, 'lipoC3S1': 3.94, 'temp': 26.38, 'lipoC3S3': 11.92, 'lipoC3S2': 7.88, 'rot1': 0, 'rot0': 0, 'rot3': 0, 'rot2': 0, 'state': 'normal', 'yaw': 98.51, 'datetime': '2018-10-03 17:28:20.449436', 'mgs': 0, 'volt': 1.0254, 'depth': 3.522, 'time': 17, 'pitch': -6.3, 'roll': 0.7, 'pres': 210}
{'lipoC2': 0.0, 'lipoC3S1': 3.94, 'temp': 26.38, 'lipoC3S3': 11.92, 'lipoC3S2': 7.88, 'rot1': 0, 'rot0': 0, 'rot3': 0, 'rot2': 0, 'state': 'normal', 'yaw': 98.73, 'datetime': '2018-10-03 17:28:20.552472', 'mgs': 0, 'volt': 1.0205, 'depth': 3.445, 'time': 17, 'pitch': -6.21, 'roll': 0.9, 'pres': 209}
{'lipoC2': 0.0, 'lipoC3S1': 3.94, 'temp': 26.38, 'lipoC3S3': 11.92, 'lipoC3S2': 7.88, 'rot1': 0, 'rot0': 0, 'rot3': 0, 'rot2': 0, 'state': 'normal', 'yaw': 98.93, 'datetime': '2018-10-03 17:28:20.655687', 'mgs': 0, 'volt': 1.0205, 'depth': 3.445, 'time': 17, 'pitch': -6.21, 'roll': 1.09, 'pres': 209}
{'lipoC2': 0.0, 'lipoC3S1': 3.94, 'temp': 26.38, 'lipoC3S3': 11.92, 'lipoC3S2': 7.87, 'rot1': 0, 'rot0': 0, 'rot3': 0, 'rot2': 0, 'state': 'normal', 'yaw': 99.13, 'datetime': '2018-10-03 17:28:20.760315', 'mgs': 0, 'volt': 1.0254, 'depth': 3.522, 'time': 17, 'pitch': -6.21, 'roll': 1.26, 'pres': 210}
{'lipoC2': 0.0, 'lipoC3S1': 3.94, 'temp': 26.38, 'lipoC3S3': 11.92, 'lipoC3S2': 7.88, 'rot1': 0, 'rot0': 0, 'rot3': 0, 'rot2': 0, 'state': 'normal', 'yaw': 99.35, 'datetime': '2018-10-03 17:28:20.863533', 'mgs': 0, 'volt': 1.0254, 'depth': 3.522, 'time': 17, 'pitch': -6.22, 'roll': 1.41, 'pres': 210}
{'lipoC2': 0.0, 'lipoC3S1': 3.94, 'temp': 26.38, 'lipoC3S3': 11.92, 'lipoC3S2': 7.88, 'rot1': 0, 'rot0': 0, 'rot3': 0, 'rot2': 0, 'state': 'normal', 'yaw': 99.56, 'datetime': '2018-10-03 17:28:20.966825', 'mgs': 0, 'volt': 1.0254, 'depth': 3.522, 'time': 17, 'pitch': -6.26, 'roll': 1.52, 'pres': 210}
{'lipoC2': 0.0, 'lipoC3S1': 3.94, 'temp': 26.38, 'lipoC3S3': 11.92, 'lipoC3S2': 7.88, 'rot1': 0, 'rot0': 0, 'rot3': 0, 'rot2': 0, 'state': 'normal', 'yaw': 99.76, 'datetime': '2018-10-03 17:28:21.071289', 'mgs': 0, 'volt': 1.0254, 'depth': 3.522, 'time': 17, 'pitch': -6.36, 'roll': 1.6, 'pres': 210}
{'lipoC2': 0.0, 'lipoC3S1': 3.94, 'temp': 26.38, 'lipoC3S3': 11.92, 'lipoC3S2': 7.88, 'rot1': 0, 'rot0': 0, 'rot3': 0, 'rot2': 0, 'state': 'normal', 'yaw': 100.0, 'datetime': '2018-10-03 17:28:21.174801', 'mgs': 0, 'volt': 1.0254, 'depth': 3.522, 'time': 17, 'pitch': -6.53, 'roll': 1.62, 'pres': 210}
{'lipoC2': 0.0, 'lipoC3S1': 3.94, 'temp': 26.38, 'lipoC3S3': 11.92, 'lipoC3S2': 7.88, 'rot1': 0, 'rot0': 0, 'rot3': 0, 'rot2': 0, 'state': 'normal', 'yaw': 100.21, 'datetime': '2018-10-03 17:28:21.275997', 'mgs': 0, 'volt': 1.0254, 'depth': 3.522, 'time': 17, 'pitch': -6.73, 'roll': 1.59, 'pres': 210}
{'lipoC2': 0.0, 'lipoC3S1': 3.94, 'temp': 26.38, 'lipoC3S3': 11.92, 'lipoC3S2': 7.87, 'rot1': 0, 'rot0': 0, 'rot3': 0, 'rot2': 0, 'state': 'normal', 'yaw': 100.43, 'datetime': '2018-10-03 17:28:21.374757', 'mgs': 0, 'volt': 1.0254, 'depth': 3.522, 'time': 18, 'pitch': -6.94, 'roll': 1.57, 'pres': 210}
{'lipoC2': 0.0, 'lipoC3S1': 3.94, 'temp': 26.38, 'lipoC3S3': 11.92, 'lipoC3S2': 7.88, 'rot1': 0, 'rot0': 0, 'rot3': 0, 'rot2': 0, 'state': 'normal', 'yaw': 100.66, 'datetime': '2018-10-03 17:28:21.477747', 'mgs': 0, 'volt': 1.0303, 'depth': 3.598, 'time': 18, 'pitch': -7.13, 'roll': 1.36, 'pres': 211}
{'lipoC2': 0.0, 'lipoC3S1': 3.94, 'temp': 26.38, 'lipoC3S3': 11.92, 'lipoC3S2': 7.88, 'rot1': 0, 'rot0': 0, 'rot3': 0, 'rot2': 0, 'state': 'normal', 'yaw': 100.88, 'datetime': '2018-10-03 17:28:21.580997', 'mgs': 0, 'volt': 1.0254, 'depth': 3.522, 'time': 18, 'pitch': -7.32, 'roll': 1.11, 'pres': 210}
{'lipoC2': 0.0, 'lipoC3S1': 3.94, 'temp': 26.38, 'lipoC3S3': 11.92, 'lipoC3S2': 7.88, 'rot1': 0, 'rot0': 0, 'rot3': 0, 'rot2': 0, 'state': 'normal', 'yaw': 101.1, 'datetime': '2018-10-03 17:28:21.684270', 'mgs': 0, 'volt': 1.0254, 'depth': 3.522, 'time': 18, 'pitch': -7.51, 'roll': 0.88, 'pres': 210}
{'lipoC2': 0.0, 'lipoC3S1': 3.94, 'temp': 26.38, 'lipoC3S3': 11.92, 'lipoC3S2': 7.88, 'rot1': 0, 'rot0': 0, 'rot3': 0, 'rot2': 0, 'state': 'normal', 'yaw': 101.26, 'datetime': '2018-10-03 17:28:21.787783', 'mgs': 0, 'volt': 1.0254, 'depth': 3.522, 'time': 18, 'pitch': -7.76, 'roll': 0.85, 'pres': 210}
{'lipoC2': 0.0, 'lipoC3S1': 3.94, 'temp': 26.38, 'lipoC3S3': 11.92, 'lipoC3S2': 7.88, 'rot1': 0, 'rot0': 0, 'rot3': 0, 'rot2': 0, 'state': 'normal', 'yaw': 101.43, 'datetime': '2018-10-03 17:28:21.891029', 'mgs': 0, 'volt': 1.0254, 'depth': 3.522, 'time': 18, 'pitch': -8.05, 'roll': 0.82, 'pres': 210}
{'lipoC2': 0.0, 'lipoC3S1': 3.94, 'temp': 26.38, 'lipoC3S3': 11.92, 'lipoC3S2': 7.88, 'rot1': 0, 'rot0': 0, 'rot3': 0, 'rot2': 0, 'state': 'normal', 'yaw': 101.6, 'datetime': '2018-10-03 17:28:22.001101', 'mgs': 0, 'volt': 1.0254, 'depth': 3.522, 'time': 18, 'pitch': -8.25, 'roll': 0.8, 'pres': 210}
{'lipoC2': 0.0, 'lipoC3S1': 3.94, 'temp': 26.38, 'lipoC3S3': 11.92, 'lipoC3S2': 7.88, 'rot1': 0, 'rot0': 0, 'rot3': 0, 'rot2': 0, 'state': 'normal', 'yaw': 101.79, 'datetime': '2018-10-03 17:28:22.105217', 'mgs': 0, 'volt': 1.0254, 'depth': 3.522, 'time': 18, 'pitch': -8.38, 'roll': 0.76, 'pres': 210}
{'lipoC2': 0.0, 'lipoC3S1': 3.94, 'temp': 26.38, 'lipoC3S3': 11.92, 'lipoC3S2': 7.88, 'rot1': 0, 'rot0': 0, 'rot3': 0, 'rot2': 0, 'state': 'normal', 'yaw': 102.01, 'datetime': '2018-10-03 17:28:22.208333', 'mgs': 0, 'volt': 1.0254, 'depth': 3.522, 'time': 18, 'pitch': -8.46, 'roll': 0.72, 'pres': 210}
{'lipoC2': 0.0, 'lipoC3S1': 3.94, 'temp': 26.38, 'lipoC3S3': 11.92, 'lipoC3S2': 7.88, 'rot1': 0, 'rot0': 0, 'rot3': 0, 'rot2': 0, 'state': 'normal', 'yaw': 102.21, 'datetime': '2018-10-03 17:28:22.312843', 'mgs': 0, 'volt': 1.0254, 'depth': 3.522, 'time': 19, 'pitch': -8.42, 'roll': 0.68, 'pres': 210}
{'lipoC2': 0.0, 'lipoC3S1': 3.94, 'temp': 26.44, 'lipoC3S3': 11.92, 'lipoC3S2': 7.88, 'rot1': 0, 'rot0': 0, 'rot3': 0, 'rot2': 0, 'state': 'normal', 'yaw': 102.41, 'datetime': '2018-10-03 17:28:22.416480', 'mgs': 0, 'volt': 1.0254, 'depth': 3.522, 'time': 19, 'pitch': -8.36, 'roll': 0.65, 'pres': 210}
{'lipoC2': 0.0, 'lipoC3S1': 3.94, 'temp': 26.44, 'lipoC3S3': 11.92, 'lipoC3S2': 7.88, 'rot1': 0, 'rot0': 0, 'rot3': 0, 'rot2': 0, 'state': 'normal', 'yaw': 102.62, 'datetime': '2018-10-03 17:28:22.519682', 'mgs': 0, 'volt': 1.0254, 'depth': 3.522, 'time': 19, 'pitch': -8.2, 'roll': 0.65, 'pres': 210}
{'lipoC2': 0.0, 'lipoC3S1': 3.94, 'temp': 26.44, 'lipoC3S3': 11.92, 'lipoC3S2': 7.88, 'rot1': 0, 'rot0': 0, 'rot3': 0, 'rot2': 0, 'state': 'normal', 'yaw': 102.81, 'datetime': '2018-10-03 17:28:22.624234', 'mgs': 0, 'volt': 1.0254, 'depth': 3.522, 'time': 19, 'pitch': -7.98, 'roll': 0.67, 'pres': 210}
{'lipoC2': 0.0, 'lipoC3S1': 3.94, 'temp': 26.38, 'lipoC3S3': 11.92, 'lipoC3S2': 7.88, 'rot1': 0, 'rot0': 0, 'rot3': 0, 'rot2': 0, 'state': 'normal', 'yaw': 103.03, 'datetime': '2018-10-03 17:28:22.727951', 'mgs': 0, 'volt': 1.0254, 'depth': 3.522, 'time': 19, 'pitch': -7.7, 'roll': 0.69, 'pres': 210}
{'lipoC2': 0.0, 'lipoC3S1': 3.94, 'temp': 26.38, 'lipoC3S3': 11.92, 'lipoC3S2': 7.88, 'rot1': 0, 'rot0': 0, 'rot3': 0, 'rot2': 0, 'state': 'normal', 'yaw': 103.25, 'datetime': '2018-10-03 17:28:22.831074', 'mgs': 0, 'volt': 1.0205, 'depth': 3.445, 'time': 19, 'pitch': -7.76, 'roll': 0.77, 'pres': 209}
{'lipoC2': 0.0, 'lipoC3S1': 3.94, 'temp': 26.38, 'lipoC3S3': 11.92, 'lipoC3S2': 7.88, 'rot1': 0, 'rot0': 0, 'rot3': 0, 'rot2': 0, 'state': 'normal', 'yaw': 103.51, 'datetime': '2018-10-03 17:28:22.934349', 'mgs': 0, 'volt': 1.0254, 'depth': 3.522, 'time': 19, 'pitch': -8.05, 'roll': 0.8, 'pres': 210}
{'lipoC2': 0.0, 'lipoC3S1': 3.94, 'temp': 26.38, 'lipoC3S3': 11.92, 'lipoC3S2': 7.88, 'rot1': 0, 'rot0': 0, 'rot3': 0, 'rot2': 0, 'state': 'normal', 'yaw': 103.75, 'datetime': '2018-10-03 17:28:23.037808', 'mgs': 0, 'volt': 1.0205, 'depth': 3.445, 'time': 19, 'pitch': -8.24, 'roll': 0.77, 'pres': 209}
{'lipoC2': 0.0, 'lipoC3S1': 3.94, 'temp': 26.44, 'lipoC3S3': 11.92, 'lipoC3S2': 7.88, 'rot1': 0, 'rot0': 0, 'rot3': 0, 'rot2': 0, 'state': 'normal', 'yaw': 104.0, 'datetime': '2018-10-03 17:28:23.141049', 'mgs': 0, 'volt': 1.0254, 'depth': 3.522, 'time': 19, 'pitch': -8.34, 'roll': 0.74, 'pres': 210}
{'lipoC2': 0.0, 'lipoC3S1': 3.94, 'temp': 26.44, 'lipoC3S3': 11.92, 'lipoC3S2': 7.88, 'rot1': 0, 'rot0': 0, 'rot3': 0, 'rot2': 0, 'state': 'normal', 'yaw': 104.22, 'datetime': '2018-10-03 17:28:23.244485', 'mgs': 0, 'volt': 1.0205, 'depth': 3.445, 'time': 19, 'pitch': -8.34, 'roll': 0.71, 'pres': 209}
{'lipoC2': 0.0, 'lipoC3S1': 3.94, 'temp': 26.44, 'lipoC3S3': 11.92, 'lipoC3S2': 7.88, 'rot1': 0, 'rot0': 0, 'rot3': 0, 'rot2': 0, 'state': 'normal', 'yaw': 104.44, 'datetime': '2018-10-03 17:28:23.347576', 'mgs': 0, 'volt': 1.0205, 'depth': 3.445, 'time': 20, 'pitch': -8.29, 'roll': 0.68, 'pres': 209}
{'lipoC2': 0.0, 'lipoC3S1': 3.94, 'temp': 26.38, 'lipoC3S3': 11.92, 'lipoC3S2': 7.88, 'rot1': 0, 'rot0': 0, 'rot3': 0, 'rot2': 0, 'state': 'normal', 'yaw': 104.67, 'datetime': '2018-10-03 17:28:23.451051', 'mgs': 0, 'volt': 1.0205, 'depth': 3.445, 'time': 20, 'pitch': -8.1, 'roll': 0.64, 'pres': 209}
{'lipoC2': 0.0, 'lipoC3S1': 3.94, 'temp': 26.38, 'lipoC3S3': 11.92, 'lipoC3S2': 7.88, 'rot1': 0, 'rot0': 0, 'rot3': 0, 'rot2': 0, 'state': 'normal', 'yaw': 104.88, 'datetime': '2018-10-03 17:28:23.554112', 'mgs': 0, 'volt': 1.0205, 'depth': 3.445, 'time': 20, 'pitch': -7.85, 'roll': 0.61, 'pres': 209}
{'lipoC2': 0.0, 'lipoC3S1': 3.94, 'temp': 26.38, 'lipoC3S3': 11.92, 'lipoC3S2': 7.88, 'rot1': 0, 'rot0': 0, 'rot3': 0, 'rot2': 0, 'state': 'normal', 'yaw': 105.09, 'datetime': '2018-10-03 17:28:23.657365', 'mgs': 0, 'volt': 1.0254, 'depth': 3.522, 'time': 20, 'pitch': -7.56, 'roll': 0.6, 'pres': 210}
{'lipoC2': 0.0, 'lipoC3S1': 3.94, 'temp': 26.38, 'lipoC3S3': 11.92, 'lipoC3S2': 7.88, 'rot1': 0, 'rot0': 0, 'rot3': 0, 'rot2': 0, 'state': 'normal', 'yaw': 105.31, 'datetime': '2018-10-03 17:28:23.760657', 'mgs': 0, 'volt': 1.0254, 'depth': 3.522, 'time': 20, 'pitch': -7.22, 'roll': 0.66, 'pres': 210}
{'lipoC2': 0.0, 'lipoC3S1': 3.94, 'temp': 26.38, 'lipoC3S3': 11.92, 'lipoC3S2': 7.88, 'rot1': 0, 'rot0': 0, 'rot3': 0, 'rot2': 0, 'state': 'normal', 'yaw': 105.51, 'datetime': '2018-10-03 17:28:23.863919', 'mgs': 0, 'volt': 1.0254, 'depth': 3.522, 'time': 20, 'pitch': -6.95, 'roll': 0.72, 'pres': 210}
{'lipoC2': 0.0, 'lipoC3S1': 3.94, 'temp': 26.38, 'lipoC3S3': 11.92, 'lipoC3S2': 7.88, 'rot1': 0, 'rot0': 0, 'rot3': 0, 'rot2': 0, 'state': 'normal', 'yaw': 105.69, 'datetime': '2018-10-03 17:28:23.968500', 'mgs': 0, 'volt': 1.0254, 'depth': 3.522, 'time': 20, 'pitch': -6.72, 'roll': 0.8, 'pres': 210}
{'lipoC2': 0.0, 'lipoC3S1': 3.94, 'temp': 26.38, 'lipoC3S3': 11.92, 'lipoC3S2': 7.88, 'rot1': 0, 'rot0': 0, 'rot3': 0, 'rot2': 0, 'state': 'normal', 'yaw': 105.93, 'datetime': '2018-10-03 17:28:24.071724', 'mgs': 0, 'volt': 1.0254, 'depth': 3.522, 'time': 20, 'pitch': -6.61, 'roll': 0.81, 'pres': 210}
{'lipoC2': 0.0, 'lipoC3S1': 3.94, 'temp': 26.44, 'lipoC3S3': 11.92, 'lipoC3S2': 7.88, 'rot1': 0, 'rot0': 0, 'rot3': 0, 'rot2': 0, 'state': 'normal', 'yaw': 106.17, 'datetime': '2018-10-03 17:28:24.175039', 'mgs': 0, 'volt': 1.0254, 'depth': 3.522, 'time': 20, 'pitch': -6.64, 'roll': 0.74, 'pres': 210}
{'lipoC2': 0.0, 'lipoC3S1': 3.94, 'temp': 26.44, 'lipoC3S3': 11.92, 'lipoC3S2': 7.88, 'rot1': 0, 'rot0': 0, 'rot3': 0, 'rot2': 0, 'state': 'normal', 'yaw': 106.46, 'datetime': '2018-10-03 17:28:24.278965', 'mgs': 0, 'volt': 1.0254, 'depth': 3.522, 'time': 20, 'pitch': -6.54, 'roll': 0.68, 'pres': 210}
{'lipoC2': 0.0, 'lipoC3S1': 3.94, 'temp': 26.44, 'lipoC3S3': 11.92, 'lipoC3S2': 7.88, 'rot1': 0, 'rot0': 0, 'rot3': 0, 'rot2': 0, 'state': 'normal', 'yaw': 106.61, 'datetime': '2018-10-03 17:28:24.382634', 'mgs': 0, 'volt': 1.0254, 'depth': 3.522, 'time': 21, 'pitch': -6.17, 'roll': 0.87, 'pres': 210}
{'lipoC2': 0.0, 'lipoC3S1': 3.94, 'temp': 26.44, 'lipoC3S3': 11.92, 'lipoC3S2': 7.88, 'rot1': 0, 'rot0': 0, 'rot3': 0, 'rot2': 0, 'state': 'normal', 'yaw': 106.78, 'datetime': '2018-10-03 17:28:24.485886', 'mgs': 0, 'volt': 1.0254, 'depth': 3.522, 'time': 21, 'pitch': -5.84, 'roll': 0.92, 'pres': 210}
{'lipoC2': 0.0, 'lipoC3S1': 3.94, 'temp': 26.44, 'lipoC3S3': 11.92, 'lipoC3S2': 7.88, 'rot1': 0, 'rot0': 0, 'rot3': 0, 'rot2': 0, 'state': 'normal', 'yaw': 106.8, 'datetime': '2018-10-03 17:28:24.589214', 'mgs': 0, 'volt': 1.0254, 'depth': 3.522, 'time': 21, 'pitch': -5.24, 'roll': 1.0, 'pres': 210}
{'lipoC2': 0.0, 'lipoC3S1': 3.94, 'temp': 26.44, 'lipoC3S3': 11.92, 'lipoC3S2': 7.88, 'rot1': 0, 'rot0': 0, 'rot3': 0, 'rot2': 0, 'state': 'normal', 'yaw': 106.5, 'datetime': '2018-10-03 17:28:24.692694', 'mgs': 0, 'volt': 1.0254, 'depth': 3.522, 'time': 21, 'pitch': -5.24, 'roll': 1.16, 'pres': 210}
{'lipoC2': 0.0, 'lipoC3S1': 3.94, 'temp': 26.44, 'lipoC3S3': 11.92, 'lipoC3S2': 7.88, 'rot1': 0, 'rot0': 0, 'rot3': 0, 'rot2': 0, 'state': 'normal', 'yaw': 105.95, 'datetime': '2018-10-03 17:28:24.796042', 'mgs': 0, 'volt': 1.0254, 'depth': 3.522, 'time': 21, 'pitch': -6.17, 'roll': 1.3, 'pres': 210}
{'lipoC2': 0.0, 'lipoC3S1': 3.94, 'temp': 26.38, 'lipoC3S3': 11.92, 'lipoC3S2': 7.88, 'rot1': 0, 'rot0': 0, 'rot3': 0, 'rot2': 0, 'state': 'normal', 'yaw': 105.47, 'datetime': '2018-10-03 17:28:24.899182', 'mgs': 0, 'volt': 1.0254, 'depth': 3.522, 'time': 21, 'pitch': -6.7, 'roll': 0.99, 'pres': 210}
