{'lipoC2': 7.24, 'lipoC3S1': 3.82, 'temp': 26.06, 'lipoC3S3': 11.55, 'lipoC3S2': 7.65, 'rot1': 0, 'rot0': 0, 'rot3': 0, 'rot2': 0, 'state': 'normal', 'yaw': -77.25, 'datetime': '2018-10-09 20:39:24.363847', 'mgs': 0, 'volt': 0.8594, 'depth': 0.928, 'time': 222, 'pitch': -9.44, 'roll': -4.25, 'pres': 176}
{'lipoC2': 7.23, 'lipoC3S1': 3.82, 'temp': 26.0, 'lipoC3S3': 11.55, 'lipoC3S2': 7.65, 'rot1': 0, 'rot0': 0, 'rot3': 0, 'rot2': 0, 'state': 'normal', 'yaw': -75.94, 'datetime': '2018-10-09 20:39:27.391262', 'mgs': 0, 'volt': 0.8643, 'depth': 1.004, 'time': 222, 'pitch': -11.31, 'roll': -3.06, 'pres': 177}
{'lipoC2': 7.24, 'lipoC3S1': 3.82, 'temp': 26.0, 'lipoC3S3': 11.55, 'lipoC3S2': 7.65, 'rot1': 0, 'rot0': 0, 'rot3': 0, 'rot2': 0, 'state': 'normal', 'yaw': -74.38, 'datetime': '2018-10-09 20:39:27.414460', 'mgs': 0, 'volt': 0.8643, 'depth': 1.004, 'time': 222, 'pitch': -12.31, 'roll': -2.0, 'pres': 177}
{'lipoC2': 7.24, 'lipoC3S1': 3.82, 'temp': 26.0, 'lipoC3S3': 11.55, 'lipoC3S2': 7.65, 'rot1': 0, 'rot0': 0, 'rot3': 0, 'rot2': 0, 'state': 'normal', 'yaw': -72.69, 'datetime': '2018-10-09 20:39:27.432974', 'mgs': 0, 'volt': 0.8643, 'depth': 1.004, 'time': 222, 'pitch': -12.06, 'roll': -1.0, 'pres': 177}
{'lipoC2': 7.24, 'lipoC3S1': 3.82, 'temp': 26.06, 'lipoC3S3': 11.55, 'lipoC3S2': 7.65, 'rot1': 0, 'rot0': 0, 'rot3': 0, 'rot2': 0, 'state': 'normal', 'yaw': -71.94, 'datetime': '2018-10-09 20:39:27.442980', 'mgs': 0, 'volt': 0.8643, 'depth': 1.004, 'time': 223, 'pitch': -11.19, 'roll': 0.31, 'pres': 177}
{'lipoC2': 7.24, 'lipoC3S1': 3.82, 'temp': 26.06, 'lipoC3S3': 11.55, 'lipoC3S2': 7.65, 'rot1': 0, 'rot0': 0, 'rot3': 0, 'rot2': 0, 'state': 'normal', 'yaw': -71.63, 'datetime': '2018-10-09 20:39:27.452860', 'mgs': 0, 'volt': 0.8691, 'depth': 1.08, 'time': 223, 'pitch': -10.31, 'roll': 1.94, 'pres': 178}
{'lipoC2': 7.24, 'lipoC3S1': 3.82, 'temp': 26.06, 'lipoC3S3': 11.55, 'lipoC3S2': 7.65, 'rot1': 0, 'rot0': 0, 'rot3': 0, 'rot2': 0, 'state': 'normal', 'yaw': -71.88, 'datetime': '2018-10-09 20:39:27.462781', 'mgs': 0, 'volt': 0.8691, 'depth': 1.08, 'time': 223, 'pitch': -9.44, 'roll': 3.75, 'pres': 178}
{'lipoC2': 7.24, 'lipoC3S1': 3.82, 'temp': 26.06, 'lipoC3S3': 11.55, 'lipoC3S2': 7.65, 'rot1': 0, 'rot0': 0, 'rot3': 0, 'rot2': 0, 'state': 'normal', 'yaw': -72.63, 'datetime': '2018-10-09 20:39:27.472676', 'mgs': 0, 'volt': 0.8691, 'depth': 1.08, 'time': 223, 'pitch': -8.63, 'roll': 5.44, 'pres': 178}
{'lipoC2': 7.24, 'lipoC3S1': 3.82, 'temp': 26.06, 'lipoC3S3': 11.55, 'lipoC3S2': 7.65, 'rot1': 0, 'rot0': 0, 'rot3': 0, 'rot2': 0, 'state': 'normal', 'yaw': -73.69, 'datetime': '2018-10-09 20:39:27.482540', 'mgs': 0, 'volt': 0.8691, 'depth': 1.08, 'time': 223, 'pitch': -8.25, 'roll': 6.81, 'pres': 178}
{'lipoC2': 7.24, 'lipoC3S1': 3.82, 'temp': 26.06, 'lipoC3S3': 11.55, 'lipoC3S2': 7.65, 'rot1': 0, 'rot0': 0, 'rot3': 0, 'rot2': 0, 'state': 'normal', 'yaw': -74.81, 'datetime': '2018-10-09 20:39:27.492390', 'mgs': 0, 'volt': 0.874, 'depth': 1.157, 'time': 223, 'pitch': -8.69, 'roll': 7.56, 'pres': 179}
{'lipoC2': 7.24, 'lipoC3S1': 3.82, 'temp': 26.06, 'lipoC3S3': 11.55, 'lipoC3S2': 7.64, 'rot1': 0, 'rot0': 0, 'rot3': 0, 'rot2': 0, 'state': 'normal', 'yaw': -75.94, 'datetime': '2018-10-09 20:39:27.502380', 'mgs': 0, 'volt': 0.874, 'depth': 1.157, 'time': 223, 'pitch': -9.94, 'roll': 7.75, 'pres': 179}
{'lipoC2': 7.24, 'lipoC3S1': 3.82, 'temp': 26.06, 'lipoC3S3': 11.55, 'lipoC3S2': 7.64, 'rot1': 0, 'rot0': 0, 'rot3': 0, 'rot2': 0, 'state': 'normal', 'yaw': -77.0, 'datetime': '2018-10-09 20:39:27.512399', 'mgs': 0, 'volt': 0.874, 'depth': 1.157, 'time': 223, 'pitch': -11.5, 'roll': 7.5, 'pres': 179}
{'lipoC2': 7.24, 'lipoC3S1': 3.82, 'temp': 26.06, 'lipoC3S3': 11.54, 'lipoC3S2': 7.64, 'rot1': 0, 'rot0': 0, 'rot3': 0, 'rot2': 0, 'state': 'normal', 'yaw': -77.88, 'datetime': '2018-10-09 20:39:27.522295', 'mgs': 0, 'volt': 0.874, 'depth': 1.157, 'time': 223, 'pitch': -13.25, 'roll': 6.75, 'pres': 179}
{'lipoC2': 7.24, 'lipoC3S1': 3.82, 'temp': 26.06, 'lipoC3S3': 11.55, 'lipoC3S2': 7.64, 'rot1': 0, 'rot0': 0, 'rot3': 0, 'rot2': 0, 'state': 'normal', 'yaw': -78.63, 'datetime': '2018-10-09 20:39:27.532261', 'mgs': 0, 'volt': 0.874, 'depth': 1.157, 'time': 223, 'pitch': -14.13, 'roll': 5.38, 'pres': 179}
{'lipoC2': 7.24, 'lipoC3S1': 3.82, 'temp': 26.06, 'lipoC3S3': 11.55, 'lipoC3S2': 7.64, 'rot1': 0, 'rot0': 0, 'rot3': 0, 'rot2': 0, 'state': 'normal', 'yaw': -78.63, 'datetime': '2018-10-09 20:39:27.542420', 'mgs': 0, 'volt': 0.8789, 'depth': 1.233, 'time': 224, 'pitch': -14.25, 'roll': 3.63, 'pres': 180}
{'lipoC2': 7.24, 'lipoC3S1': 3.82, 'temp': 26.06, 'lipoC3S3': 11.55, 'lipoC3S2': 7.64, 'rot1': 0, 'rot0': 0, 'rot3': 0, 'rot2': 0, 'state': 'normal', 'yaw': -78.0, 'datetime': '2018-10-09 20:39:27.552346', 'mgs': 0, 'volt': 0.874, 'depth': 1.157, 'time': 224, 'pitch': -13.94, 'roll': 1.88, 'pres': 179}
{'lipoC2': 7.24, 'lipoC3S1': 3.82, 'temp': 26.06, 'lipoC3S3': 11.55, 'lipoC3S2': 7.64, 'rot1': 0, 'rot0': 0, 'rot3': 0, 'rot2': 0, 'state': 'normal', 'yaw': -77.31, 'datetime': '2018-10-09 20:39:27.562236', 'mgs': 0, 'volt': 0.874, 'depth': 1.157, 'time': 224, 'pitch': -12.63, 'roll': 0.13, 'pres': 179}
{'lipoC2': 7.24, 'lipoC3S1': 3.82, 'temp': 26.06, 'lipoC3S3': 11.55, 'lipoC3S2': 7.64, 'rot1': 0, 'rot0': 0, 'rot3': 0, 'rot2': 0, 'state': 'normal', 'yaw': -76.81, 'datetime': '2018-10-09 20:39:27.572103', 'mgs': 0, 'volt': 0.874, 'depth': 1.157, 'time': 224, 'pitch': -11.25, 'roll': -0.94, 'pres': 179}
{'lipoC2': 7.24, 'lipoC3S1': 3.82, 'temp': 26.06, 'lipoC3S3': 11.55, 'lipoC3S2': 7.64, 'rot1': 0, 'rot0': 0, 'rot3': 0, 'rot2': 0, 'state': 'normal', 'yaw': -76.44, 'datetime': '2018-10-09 20:39:27.581970', 'mgs': 0, 'volt': 0.874, 'depth': 1.157, 'time': 224, 'pitch': -9.81, 'roll': -1.69, 'pres': 179}
{'lipoC2': 7.23, 'lipoC3S1': 3.82, 'temp': 26.06, 'lipoC3S3': 11.55, 'lipoC3S2': 7.64, 'rot1': 0, 'rot0': 0, 'rot3': 0, 'rot2': 0, 'state': 'normal', 'yaw': -76.25, 'datetime': '2018-10-09 20:39:27.591852', 'mgs': 0, 'volt': 0.874, 'depth': 1.157, 'time': 224, 'pitch': -8.69, 'roll': -2.0, 'pres': 179}
{'lipoC2': 7.24, 'lipoC3S1': 3.82, 'temp': 26.06, 'lipoC3S3': 11.55, 'lipoC3S2': 7.64, 'rot1': 0, 'rot0': 0, 'rot3': 0, 'rot2': 0, 'state': 'normal', 'yaw': -76.19, 'datetime': '2018-10-09 20:39:27.601696', 'mgs': 0, 'volt': 0.8789, 'depth': 1.233, 'time': 224, 'pitch': -7.88, 'roll': -2.0, 'pres': 180}
{'lipoC2': 7.24, 'lipoC3S1': 3.82, 'temp': 26.06, 'lipoC3S3': 11.55, 'lipoC3S2': 7.64, 'rot1': 0, 'rot0': 0, 'rot3': 0, 'rot2': 0, 'state': 'normal', 'yaw': -76.19, 'datetime': '2018-10-09 20:39:27.612054', 'mgs': 0, 'volt': 0.874, 'depth': 1.157, 'time': 224, 'pitch': -7.0, 'roll': -1.69, 'pres': 179}
{'lipoC2': 7.23, 'lipoC3S1': 3.82, 'temp': 26.06, 'lipoC3S3': 11.55, 'lipoC3S2': 7.64, 'rot1': 0, 'rot0': 0, 'rot3': 0, 'rot2': 0, 'state': 'normal', 'yaw': -76.06, 'datetime': '2018-10-09 20:39:30.652069', 'mgs': 0, 'volt': 0.874, 'depth': 1.157, 'time': 224, 'pitch': -6.25, 'roll': -1.44, 'pres': 179}
{'lipoC2': 7.24, 'lipoC3S1': 3.82, 'temp': 26.06, 'lipoC3S3': 11.55, 'lipoC3S2': 7.64, 'rot1': 0, 'rot0': 0, 'rot3': 0, 'rot2': 0, 'state': 'normal', 'yaw': -76.0, 'datetime': '2018-10-09 20:39:30.683646', 'mgs': 0, 'volt': 0.874, 'depth': 1.157, 'time': 225, 'pitch': -5.44, 'roll': -1.13, 'pres': 179}
{'lipoC2': 7.24, 'lipoC3S1': 3.82, 'temp': 26.06, 'lipoC3S3': 11.55, 'lipoC3S2': 7.64, 'rot1': 0, 'rot0': 0, 'rot3': 0, 'rot2': 0, 'state': 'normal', 'yaw': -76.0, 'datetime': '2018-10-09 20:39:30.715169', 'mgs': 0, 'volt': 0.874, 'depth': 1.157, 'time': 225, 'pitch': -4.94, 'roll': -0.75, 'pres': 179}
{'lipoC2': 7.24, 'lipoC3S1': 3.82, 'temp': 26.06, 'lipoC3S3': 11.55, 'lipoC3S2': 7.64, 'rot1': 0, 'rot0': 0, 'rot3': 0, 'rot2': 0, 'state': 'normal', 'yaw': -76.13, 'datetime': '2018-10-09 20:39:30.733248', 'mgs': 0, 'volt': 0.874, 'depth': 1.157, 'time': 225, 'pitch': -4.81, 'roll': -0.31, 'pres': 179}
{'lipoC2': 7.24, 'lipoC3S1': 3.82, 'temp': 26.06, 'lipoC3S3': 11.55, 'lipoC3S2': 7.64, 'rot1': 0, 'rot0': 0, 'rot3': 0, 'rot2': 0, 'state': 'normal', 'yaw': -76.31, 'datetime': '2018-10-09 20:39:30.749852', 'mgs': 0, 'volt': 0.8691, 'depth': 1.08, 'time': 225, 'pitch': -4.88, 'roll': 0.0, 'pres': 178}
{'lipoC2': 7.23, 'lipoC3S1': 3.82, 'temp': 26.06, 'lipoC3S3': 11.55, 'lipoC3S2': 7.64, 'rot1': 0, 'rot0': 0, 'rot3': 0, 'rot2': 0, 'state': 'normal', 'yaw': -76.5, 'datetime': '2018-10-09 20:39:30.766504', 'mgs': 0, 'volt': 0.8691, 'depth': 1.08, 'time': 225, 'pitch': -5.19, 'roll': 0.44, 'pres': 178}
{'lipoC2': 7.24, 'lipoC3S1': 3.82, 'temp': 26.0, 'lipoC3S3': 11.55, 'lipoC3S2': 7.65, 'rot1': 0, 'rot0': 0, 'rot3': 0, 'rot2': 0, 'state': 'normal', 'yaw': 0.0, 'datetime': '2018-10-09 20:39:30.782961', 'mgs': 0, 'volt': 0.8789, 'depth': 1.233, 'time': 1, 'pitch': -5.38, 'roll': -1.19, 'pres': 180}
{'lipoC2': 7.24, 'lipoC3S1': 3.82, 'temp': 26.0, 'lipoC3S3': 11.55, 'lipoC3S2': 7.64, 'rot1': 0, 'rot0': 0, 'rot3': 0, 'rot2': 0, 'state': 'normal', 'yaw': 0.0, 'datetime': '2018-10-09 20:39:30.799275', 'mgs': 0, 'volt': 0.8789, 'depth': 1.233, 'time': 1, 'pitch': -5.5, 'roll': -1.06, 'pres': 180}
{'lipoC2': 7.24, 'lipoC3S1': 3.82, 'temp': 26.06, 'lipoC3S3': 11.55, 'lipoC3S2': 7.64, 'rot1': 0, 'rot0': 0, 'rot3': 0, 'rot2': 0, 'state': 'normal', 'yaw': 0.0, 'datetime': '2018-10-09 20:39:30.815285', 'mgs': 0, 'volt': 0.8789, 'depth': 1.233, 'time': 2, 'pitch': -5.63, 'roll': -0.94, 'pres': 180}
{'lipoC2': 7.24, 'lipoC3S1': 3.82, 'temp': 26.06, 'lipoC3S3': 11.55, 'lipoC3S2': 7.64, 'rot1': 0, 'rot0': 0, 'rot3': 0, 'rot2': 0, 'state': 'normal', 'yaw': 0.06, 'datetime': '2018-10-09 20:39:30.831290', 'mgs': 0, 'volt': 0.8838, 'depth': 1.309, 'time': 2, 'pitch': -5.75, 'roll': -0.81, 'pres': 181}
{'lipoC2': 7.24, 'lipoC3S1': 3.82, 'temp': 26.06, 'lipoC3S3': 11.55, 'lipoC3S2': 7.64, 'rot1': 0, 'rot0': 0, 'rot3': 0, 'rot2': 0, 'state': 'normal', 'yaw': 0.06, 'datetime': '2018-10-09 20:39:30.847315', 'mgs': 0, 'volt': 0.8838, 'depth': 1.309, 'time': 2, 'pitch': -5.88, 'roll': -0.75, 'pres': 181}
{'lipoC2': 7.24, 'lipoC3S1': 3.82, 'temp': 26.06, 'lipoC3S3': 11.54, 'lipoC3S2': 7.64, 'rot1': 0, 'rot0': 0, 'rot3': 0, 'rot2': 0, 'state': 'normal', 'yaw': 0.06, 'datetime': '2018-10-09 20:39:30.863298', 'mgs': 0, 'volt': 0.8838, 'depth': 1.309, 'time': 2, 'pitch': -6.06, 'roll': -0.75, 'pres': 181}
{'lipoC2': 7.24, 'lipoC3S1': 3.82, 'temp': 26.06, 'lipoC3S3': 11.55, 'lipoC3S2': 7.65, 'rot1': 0, 'rot0': 0, 'rot3': 0, 'rot2': 0, 'state': 'normal', 'yaw': 0.06, 'datetime': '2018-10-09 20:39:30.879305', 'mgs': 0, 'volt': 0.8838, 'depth': 1.309, 'time': 2, 'pitch': -6.19, 'roll': -0.75, 'pres': 181}
{'lipoC2': 7.24, 'lipoC3S1': 3.82, 'temp': 26.06, 'lipoC3S3': 11.55, 'lipoC3S2': 7.65, 'rot1': 0, 'rot0': 0, 'rot3': 0, 'rot2': 0, 'state': 'normal', 'yaw': 0.06, 'datetime': '2018-10-09 20:39:30.895296', 'mgs': 0, 'volt': 0.8887, 'depth': 1.385, 'time': 2, 'pitch': -6.31, 'roll': -0.75, 'pres': 182}
{'lipoC2': 7.24, 'lipoC3S1': 3.82, 'temp': 26.06, 'lipoC3S3': 11.55, 'lipoC3S2': 7.65, 'rot1': 0, 'rot0': 0, 'rot3': 0, 'rot2': 0, 'state': 'normal', 'yaw': 0.06, 'datetime': '2018-10-09 20:39:30.911259', 'mgs': 0, 'volt': 0.8838, 'depth': 1.309, 'time': 2, 'pitch': -6.31, 'roll': -0.81, 'pres': 181}
{'lipoC2': 7.24, 'lipoC3S1': 3.82, 'temp': 26.06, 'lipoC3S3': 11.55, 'lipoC3S2': 7.65, 'rot1': 0, 'rot0': 0, 'rot3': 0, 'rot2': 0, 'state': 'normal', 'yaw': 0.0, 'datetime': '2018-10-09 20:39:30.927251', 'mgs': 0, 'volt': 0.8887, 'depth': 1.385, 'time': 2, 'pitch': -6.31, 'roll': -0.88, 'pres': 182}
{'lipoC2': 7.24, 'lipoC3S1': 3.82, 'temp': 26.06, 'lipoC3S3': 11.55, 'lipoC3S2': 7.65, 'rot1': 0, 'rot0': 0, 'rot3': 0, 'rot2': 0, 'state': 'normal', 'yaw': 0.0, 'datetime': '2018-10-09 20:39:30.943305', 'mgs': 0, 'volt': 0.8887, 'depth': 1.385, 'time': 2, 'pitch': -6.25, 'roll': -1.0, 'pres': 182}
{'lipoC2': 7.24, 'lipoC3S1': 3.82, 'temp': 26.06, 'lipoC3S3': 11.55, 'lipoC3S2': 7.65, 'rot1': 0, 'rot0': 0, 'rot3': 0, 'rot2': 0, 'state': 'normal', 'yaw': 0.0, 'datetime': '2018-10-09 20:39:30.959288', 'mgs': 0, 'volt': 0.8936, 'depth': 1.462, 'time': 2, 'pitch': -6.19, 'roll': -1.13, 'pres': 183}
{'lipoC2': 7.23, 'lipoC3S1': 3.82, 'temp': 26.06, 'lipoC3S3': 11.55, 'lipoC3S2': 7.65, 'rot1': 0, 'rot0': 0, 'rot3': 0, 'rot2': 0, 'state': 'normal', 'yaw': 0.0, 'datetime': '2018-10-09 20:39:30.975296', 'mgs': 0, 'volt': 0.8936, 'depth': 1.462, 'time': 3, 'pitch': -6.0, 'roll': -1.19, 'pres': 183}
{'lipoC2': 7.22, 'lipoC3S1': 3.72, 'temp': 25.88, 'lipoC3S3': 11.42, 'lipoC3S2': 7.49, 'rot1': 0, 'rot0': 0, 'rot3': 0, 'rot2': 0, 'state': 'normal', 'yaw': 0.0, 'datetime': '2018-10-09 20:39:30.991407', 'mgs': 0, 'volt': 0.9375, 'depth': 2.148, 'time': 3, 'pitch': -5.88, 'roll': -1.31, 'pres': 192}
{'lipoC2': 7.22, 'lipoC3S1': 3.78, 'temp': 25.88, 'lipoC3S3': 11.47, 'lipoC3S2': 7.58, 'rot1': 0, 'rot0': 0, 'rot3': 1, 'rot2': 1, 'state': 'normal', 'yaw': 0.0, 'datetime': '2018-10-09 20:39:31.007416', 'mgs': 0, 'volt': 0.9131, 'depth': 1.767, 'time': 3, 'pitch': -5.69, 'roll': -1.44, 'pres': 187}
{'lipoC2': 7.22, 'lipoC3S1': 3.79, 'temp': 25.88, 'lipoC3S3': 11.42, 'lipoC3S2': 7.6, 'rot1': 0, 'rot0': 0, 'rot3': 2, 'rot2': 2, 'state': 'normal', 'yaw': 0.0, 'datetime': '2018-10-09 20:39:31.023495', 'mgs': 0, 'volt': 0.9082, 'depth': 1.691, 'time': 3, 'pitch': -5.19, 'roll': -1.75, 'pres': 186}
{'lipoC2': 7.23, 'lipoC3S1': 3.8, 'temp': 26.13, 'lipoC3S3': 11.42, 'lipoC3S2': 7.54, 'rot1': 0, 'rot0': 0, 'rot3': 2, 'rot2': 3, 'state': 'normal', 'yaw': 0.06, 'datetime': '2018-10-09 20:39:31.039538', 'mgs': 0, 'volt': 0.9033, 'depth': 1.614, 'time': 3, 'pitch': -4.5, 'roll': -2.19, 'pres': 185}
{'lipoC2': 7.23, 'lipoC3S1': 3.8, 'temp': 26.13, 'lipoC3S3': 11.43, 'lipoC3S2': 7.54, 'rot1': 0, 'rot0': 0, 'rot3': 3, 'rot2': 3, 'state': 'normal', 'yaw': 0.13, 'datetime': '2018-10-09 20:39:31.055569', 'mgs': 0, 'volt': 0.8984, 'depth': 1.538, 'time': 3, 'pitch': -3.75, 'roll': -2.69, 'pres': 184}
{'lipoC2': 7.23, 'lipoC3S1': 3.76, 'temp': 26.13, 'lipoC3S3': 11.43, 'lipoC3S2': 7.54, 'rot1': 0, 'rot0': 0, 'rot3': 4, 'rot2': 4, 'state': 'normal', 'yaw': 0.25, 'datetime': '2018-10-09 20:39:31.071658', 'mgs': 0, 'volt': 0.8887, 'depth': 1.385, 'time': 3, 'pitch': -3.0, 'roll': -3.25, 'pres': 182}
{'lipoC2': 7.23, 'lipoC3S1': 3.79, 'temp': 26.13, 'lipoC3S3': 11.43, 'lipoC3S2': 7.54, 'rot1': 0, 'rot0': 0, 'rot3': 5, 'rot2': 5, 'state': 'normal', 'yaw': 0.25, 'datetime': '2018-10-09 20:39:31.087680', 'mgs': 0, 'volt': 0.8936, 'depth': 1.462, 'time': 3, 'pitch': -2.31, 'roll': -3.75, 'pres': 183}
{'lipoC2': 7.23, 'lipoC3S1': 3.76, 'temp': 26.0, 'lipoC3S3': 11.43, 'lipoC3S2': 7.55, 'rot1': 0, 'rot0': 0, 'rot3': 6, 'rot2': 6, 'state': 'normal', 'yaw': 0.38, 'datetime': '2018-10-09 20:39:31.103666', 'mgs': 0, 'volt': 0.8838, 'depth': 1.309, 'time': 3, 'pitch': -1.75, 'roll': -4.13, 'pres': 181}
{'lipoC2': 7.23, 'lipoC3S1': 3.76, 'temp': 26.0, 'lipoC3S3': 11.44, 'lipoC3S2': 7.56, 'rot1': 0, 'rot0': 0, 'rot3': 7, 'rot2': 6, 'state': 'normal', 'yaw': 0.5, 'datetime': '2018-10-09 20:39:31.119660', 'mgs': 0, 'volt': 0.8789, 'depth': 1.233, 'time': 3, 'pitch': -1.25, 'roll': -4.38, 'pres': 180}
{'lipoC2': 7.23, 'lipoC3S1': 3.76, 'temp': 26.0, 'lipoC3S3': 11.47, 'lipoC3S2': 7.56, 'rot1': 0, 'rot0': 0, 'rot3': 8, 'rot2': 7, 'state': 'normal', 'yaw': 0.56, 'datetime': '2018-10-09 20:39:31.135722', 'mgs': 0, 'volt': 0.8936, 'depth': 1.462, 'time': 4, 'pitch': -0.88, 'roll': -4.44, 'pres': 183}
{'lipoC2': 7.23, 'lipoC3S1': 3.77, 'temp': 25.94, 'lipoC3S3': 11.47, 'lipoC3S2': 7.57, 'rot1': 0, 'rot0': 0, 'rot3': 9, 'rot2': 8, 'state': 'normal', 'yaw': 0.69, 'datetime': '2018-10-09 20:39:31.151739', 'mgs': 0, 'volt': 0.8936, 'depth': 1.462, 'time': 4, 'pitch': -0.56, 'roll': -4.44, 'pres': 183}
{'lipoC2': 7.23, 'lipoC3S1': 3.76, 'temp': 25.94, 'lipoC3S3': 11.46, 'lipoC3S2': 7.56, 'rot1': 0, 'rot0': 0, 'rot3': 10, 'rot2': 9, 'state': 'normal', 'yaw': 0.88, 'datetime': '2018-10-09 20:39:31.167748', 'mgs': 0, 'volt': 0.8936, 'depth': 1.462, 'time': 4, 'pitch': -0.31, 'roll': -4.38, 'pres': 183}
{'lipoC2': 7.23, 'lipoC3S1': 3.76, 'temp': 26.06, 'lipoC3S3': 11.46, 'lipoC3S2': 7.56, 'rot1': 0, 'rot0': 0, 'rot3': 11, 'rot2': 10, 'state': 'normal', 'yaw': 1.0, 'datetime': '2018-10-09 20:39:31.183792', 'mgs': 0, 'volt': 0.874, 'depth': 1.157, 'time': 4, 'pitch': -0.19, 'roll': -4.25, 'pres': 179}
{'lipoC2': 7.23, 'lipoC3S1': 3.8, 'temp': 26.06, 'lipoC3S3': 11.43, 'lipoC3S2': 7.55, 'rot1': 0, 'rot0': 0, 'rot3': 12, 'rot2': 10, 'state': 'normal', 'yaw': 1.13, 'datetime': '2018-10-09 20:39:31.199900', 'mgs': 0, 'volt': 0.8643, 'depth': 1.004, 'time': 4, 'pitch': -0.25, 'roll': -4.06, 'pres': 177}
{'lipoC2': 7.23, 'lipoC3S1': 3.79, 'temp': 26.06, 'lipoC3S3': 11.48, 'lipoC3S2': 7.6, 'rot1': 0, 'rot0': 0, 'rot3': 13, 'rot2': 11, 'state': 'normal', 'yaw': 1.19, 'datetime': '2018-10-09 20:39:31.216195', 'mgs': 0, 'volt': 0.8691, 'depth': 1.08, 'time': 4, 'pitch': -0.5, 'roll': -3.63, 'pres': 178}
{'lipoC2': 7.23, 'lipoC3S1': 3.77, 'temp': 26.06, 'lipoC3S3': 11.47, 'lipoC3S2': 7.57, 'rot1': 0, 'rot0': 0, 'rot3': 14, 'rot2': 12, 'state': 'normal', 'yaw': 1.19, 'datetime': '2018-10-09 20:39:31.232312', 'mgs': 0, 'volt': 0.8691, 'depth': 1.08, 'time': 4, 'pitch': -0.81, 'roll': -3.0, 'pres': 178}
{'lipoC2': 7.23, 'lipoC3S1': 3.77, 'temp': 26.06, 'lipoC3S3': 11.46, 'lipoC3S2': 7.57, 'rot1': 0, 'rot0': 0, 'rot3': 15, 'rot2': 13, 'state': 'normal', 'yaw': 1.13, 'datetime': '2018-10-09 20:39:31.248431', 'mgs': 0, 'volt': 0.8447, 'depth': 0.699, 'time': 4, 'pitch': -1.06, 'roll': -2.44, 'pres': 173}
{'lipoC2': 7.23, 'lipoC3S1': 3.8, 'temp': 26.06, 'lipoC3S3': 11.44, 'lipoC3S2': 7.55, 'rot1': 0, 'rot0': 0, 'rot3': 16, 'rot2': 13, 'state': 'normal', 'yaw': 1.06, 'datetime': '2018-10-09 20:39:31.264531', 'mgs': 0, 'volt': 0.8496, 'depth': 0.775, 'time': 4, 'pitch': -1.25, 'roll': -1.88, 'pres': 174}
{'lipoC2': 7.23, 'lipoC3S1': 3.8, 'temp': 26.06, 'lipoC3S3': 11.43, 'lipoC3S2': 7.55, 'rot1': 0, 'rot0': 0, 'rot3': 18, 'rot2': 14, 'state': 'normal', 'yaw': 1.0, 'datetime': '2018-10-09 20:39:31.280595', 'mgs': 0, 'volt': 0.8496, 'depth': 0.775, 'time': 5, 'pitch': -1.5, 'roll': -1.56, 'pres': 174}
{'lipoC2': 7.23, 'lipoC3S1': 3.79, 'temp': 26.0, 'lipoC3S3': 11.48, 'lipoC3S2': 7.6, 'rot1': 0, 'rot0': 0, 'rot3': 19, 'rot2': 15, 'state': 'normal', 'yaw': 0.88, 'datetime': '2018-10-09 20:39:31.296653', 'mgs': 0, 'volt': 0.8545, 'depth': 0.851, 'time': 5, 'pitch': -1.81, 'roll': -1.5, 'pres': 175}
{'lipoC2': 7.23, 'lipoC3S1': 3.79, 'temp': 26.0, 'lipoC3S3': 11.48, 'lipoC3S2': 7.61, 'rot1': 0, 'rot0': 0, 'rot3': 20, 'rot2': 16, 'state': 'normal', 'yaw': 0.88, 'datetime': '2018-10-09 20:39:31.312217', 'mgs': 0, 'volt': 0.8496, 'depth': 0.775, 'time': 5, 'pitch': -2.06, 'roll': -1.56, 'pres': 174}
{'lipoC2': 7.23, 'lipoC3S1': 3.78, 'temp': 26.0, 'lipoC3S3': 11.47, 'lipoC3S2': 7.58, 'rot1': 0, 'rot0': 0, 'rot3': 21, 'rot2': 17, 'state': 'normal', 'yaw': 0.88, 'datetime': '2018-10-09 20:39:31.327762', 'mgs': 0, 'volt': 0.8496, 'depth': 0.775, 'time': 5, 'pitch': -2.31, 'roll': -1.69, 'pres': 174}
{'lipoC2': 7.23, 'lipoC3S1': 3.81, 'temp': 26.0, 'lipoC3S3': 11.47, 'lipoC3S2': 7.57, 'rot1': 0, 'rot0': 0, 'rot3': 22, 'rot2': 17, 'state': 'normal', 'yaw': 0.81, 'datetime': '2018-10-09 20:39:31.343369', 'mgs': 0, 'volt': 0.8301, 'depth': 0.47, 'time': 5, 'pitch': -2.56, 'roll': -1.81, 'pres': 170}
{'lipoC2': 7.23, 'lipoC3S1': 3.8, 'temp': 26.0, 'lipoC3S3': 11.44, 'lipoC3S2': 7.6, 'rot1': 0, 'rot0': 0, 'rot3': 23, 'rot2': 18, 'state': 'normal', 'yaw': 0.75, 'datetime': '2018-10-09 20:39:31.358892', 'mgs': 0, 'volt': 0.8398, 'depth': 0.623, 'time': 5, 'pitch': -2.63, 'roll': -1.88, 'pres': 172}
{'lipoC2': 7.23, 'lipoC3S1': 3.78, 'temp': 26.06, 'lipoC3S3': 11.48, 'lipoC3S2': 7.6, 'rot1': 0, 'rot0': 0, 'rot3': 24, 'rot2': 19, 'state': 'normal', 'yaw': 0.75, 'datetime': '2018-10-09 20:39:31.374410', 'mgs': 0, 'volt': 0.8496, 'depth': 0.775, 'time': 5, 'pitch': -2.69, 'roll': -1.81, 'pres': 174}
{'lipoC2': 7.24, 'lipoC3S1': 3.78, 'temp': 26.06, 'lipoC3S3': 11.48, 'lipoC3S2': 7.59, 'rot1': 0, 'rot0': 0, 'rot3': 26, 'rot2': 20, 'state': 'normal', 'yaw': 0.69, 'datetime': '2018-10-09 20:39:31.389911', 'mgs': 0, 'volt': 0.8447, 'depth': 0.699, 'time': 5, 'pitch': -2.63, 'roll': -1.69, 'pres': 173}
{'lipoC2': 7.23, 'lipoC3S1': 3.77, 'temp': 26.0, 'lipoC3S3': 11.43, 'lipoC3S2': 7.55, 'rot1': 0, 'rot0': 0, 'rot3': 27, 'rot2': 21, 'state': 'normal', 'yaw': 0.63, 'datetime': '2018-10-09 20:39:31.405459', 'mgs': 0, 'volt': 0.8252, 'depth': 0.394, 'time': 5, 'pitch': -2.56, 'roll': -1.5, 'pres': 169}
{'lipoC2': 7.23, 'lipoC3S1': 3.81, 'temp': 26.0, 'lipoC3S3': 11.43, 'lipoC3S2': 7.59, 'rot1': 0, 'rot0': 0, 'rot3': 28, 'rot2': 22, 'state': 'normal', 'yaw': 0.56, 'datetime': '2018-10-09 20:39:31.421098', 'mgs': 0, 'volt': 0.8398, 'depth': 0.623, 'time': 5, 'pitch': -2.44, 'roll': -1.31, 'pres': 172}
{'lipoC2': 7.23, 'lipoC3S1': 3.79, 'temp': 26.0, 'lipoC3S3': 11.48, 'lipoC3S2': 7.61, 'rot1': 0, 'rot0': 0, 'rot3': 29, 'rot2': 22, 'state': 'normal', 'yaw': 0.44, 'datetime': '2018-10-09 20:39:31.436696', 'mgs': 0, 'volt': 0.8398, 'depth': 0.623, 'time': 6, 'pitch': -2.38, 'roll': -1.06, 'pres': 172}
{'lipoC2': 7.24, 'lipoC3S1': 3.77, 'temp': 26.06, 'lipoC3S3': 11.48, 'lipoC3S2': 7.57, 'rot1': 0, 'rot0': 0, 'rot3': 30, 'rot2': 23, 'state': 'normal', 'yaw': 0.31, 'datetime': '2018-10-09 20:39:31.452282', 'mgs': 0, 'volt': 0.8496, 'depth': 0.775, 'time': 6, 'pitch': -2.25, 'roll': -0.81, 'pres': 174}
{'lipoC2': 7.22, 'lipoC3S1': 3.75, 'temp': 26.06, 'lipoC3S3': 11.38, 'lipoC3S2': 7.52, 'rot1': 0, 'rot0': 0, 'rot3': 31, 'rot2': 24, 'state': 'normal', 'yaw': 0.19, 'datetime': '2018-10-09 20:39:31.467958', 'mgs': 0, 'volt': 0.835, 'depth': 0.546, 'time': 6, 'pitch': -2.25, 'roll': -0.63, 'pres': 171}
{'lipoC2': 7.23, 'lipoC3S1': 3.8, 'temp': 26.13, 'lipoC3S3': 11.43, 'lipoC3S2': 7.56, 'rot1': 1, 'rot0': 1, 'rot3': 32, 'rot2': 25, 'state': 'normal', 'yaw': -0.63, 'datetime': '2018-10-09 20:39:31.483574', 'mgs': 0, 'volt': 0.8398, 'depth': 0.623, 'time': 6, 'pitch': -2.19, 'roll': -0.31, 'pres': 172}
{'lipoC2': 7.22, 'lipoC3S1': 3.78, 'temp': 26.13, 'lipoC3S3': 11.47, 'lipoC3S2': 7.59, 'rot1': 1, 'rot0': 1, 'rot3': 33, 'rot2': 26, 'state': 'normal', 'yaw': -1.88, 'datetime': '2018-10-09 20:39:31.499203', 'mgs': 0, 'volt': 0.8496, 'depth': 0.775, 'time': 6, 'pitch': -1.94, 'roll': -0.13, 'pres': 174}
{'lipoC2': 7.23, 'lipoC3S1': 3.79, 'temp': 26.0, 'lipoC3S3': 11.43, 'lipoC3S2': 7.6, 'rot1': 1, 'rot0': 2, 'rot3': 34, 'rot2': 27, 'state': 'normal', 'yaw': -3.0, 'datetime': '2018-10-09 20:39:31.514828', 'mgs': 0, 'volt': 0.8447, 'depth': 0.699, 'time': 6, 'pitch': -1.69, 'roll': -0.13, 'pres': 173}
{'lipoC2': 7.23, 'lipoC3S1': 3.77, 'temp': 26.0, 'lipoC3S3': 11.44, 'lipoC3S2': 7.57, 'rot1': 2, 'rot0': 2, 'rot3': 36, 'rot2': 27, 'state': 'normal', 'yaw': -4.13, 'datetime': '2018-10-09 20:39:31.530423', 'mgs': 0, 'volt': 0.8496, 'depth': 0.775, 'time': 6, 'pitch': -1.56, 'roll': -0.25, 'pres': 174}
{'lipoC2': 7.23, 'lipoC3S1': 3.78, 'temp': 26.0, 'lipoC3S3': 11.47, 'lipoC3S2': 7.59, 'rot1': 2, 'rot0': 2, 'rot3': 37, 'rot2': 28, 'state': 'normal', 'yaw': -5.13, 'datetime': '2018-10-09 20:39:31.546039', 'mgs': 0, 'volt': 0.8496, 'depth': 0.775, 'time': 6, 'pitch': -1.5, 'roll': -0.44, 'pres': 174}
{'lipoC2': 7.23, 'lipoC3S1': 3.77, 'temp': 25.94, 'lipoC3S3': 11.44, 'lipoC3S2': 7.56, 'rot1': 2, 'rot0': 2, 'rot3': 38, 'rot2': 29, 'state': 'normal', 'yaw': -6.06, 'datetime': '2018-10-09 20:39:31.561656', 'mgs': 0, 'volt': 0.835, 'depth': 0.546, 'time': 6, 'pitch': -1.44, 'roll': -0.56, 'pres': 171}
{'lipoC2': 7.23, 'lipoC3S1': 3.8, 'temp': 25.94, 'lipoC3S3': 11.42, 'lipoC3S2': 7.55, 'rot1': 2, 'rot0': 3, 'rot3': 39, 'rot2': 30, 'state': 'normal', 'yaw': -7.0, 'datetime': '2018-10-09 20:39:31.577235', 'mgs': 0, 'volt': 0.8398, 'depth': 0.623, 'time': 6, 'pitch': -1.44, 'roll': -0.69, 'pres': 172}
{'lipoC2': 7.23, 'lipoC3S1': 3.78, 'temp': 26.0, 'lipoC3S3': 11.47, 'lipoC3S2': 7.59, 'rot1': 3, 'rot0': 3, 'rot3': 40, 'rot2': 31, 'state': 'normal', 'yaw': -7.88, 'datetime': '2018-10-09 20:39:31.592920', 'mgs': 0, 'volt': 0.8496, 'depth': 0.775, 'time': 7, 'pitch': -1.56, 'roll': -0.88, 'pres': 174}
{'lipoC2': 7.23, 'lipoC3S1': 3.77, 'temp': 26.0, 'lipoC3S3': 11.46, 'lipoC3S2': 7.58, 'rot1': 3, 'rot0': 3, 'rot3': 41, 'rot2': 32, 'state': 'normal', 'yaw': -8.69, 'datetime': '2018-10-09 20:39:31.673552', 'mgs': 0, 'volt': 0.8545, 'depth': 0.851, 'time': 7, 'pitch': -1.75, 'roll': -1.13, 'pres': 175}
{'lipoC2': 7.23, 'lipoC3S1': 3.77, 'temp': 25.94, 'lipoC3S3': 11.47, 'lipoC3S2': 7.57, 'rot1': 3, 'rot0': 3, 'rot3': 42, 'rot2': 32, 'state': 'normal', 'yaw': -9.56, 'datetime': '2018-10-09 20:39:31.776842', 'mgs': 0, 'volt': 0.8398, 'depth': 0.623, 'time': 7, 'pitch': -1.88, 'roll': -1.25, 'pres': 172}
{'lipoC2': 7.23, 'lipoC3S1': 3.78, 'temp': 25.94, 'lipoC3S3': 11.44, 'lipoC3S2': 7.56, 'rot1': 3, 'rot0': 4, 'rot3': 43, 'rot2': 33, 'state': 'normal', 'yaw': -10.56, 'datetime': '2018-10-09 20:39:31.880730', 'mgs': 0, 'volt': 0.835, 'depth': 0.546, 'time': 7, 'pitch': -2.0, 'roll': -1.38, 'pres': 171}
{'lipoC2': 7.23, 'lipoC3S1': 3.8, 'temp': 25.94, 'lipoC3S3': 11.43, 'lipoC3S2': 7.57, 'rot1': 4, 'rot0': 4, 'rot3': 45, 'rot2': 34, 'state': 'normal', 'yaw': -11.5, 'datetime': '2018-10-09 20:39:31.982338', 'mgs': 0, 'volt': 0.8398, 'depth': 0.623, 'time': 7, 'pitch': -2.0, 'roll': -1.31, 'pres': 172}
{'lipoC2': 7.23, 'lipoC3S1': 3.78, 'temp': 26.06, 'lipoC3S3': 11.5, 'lipoC3S2': 7.59, 'rot1': 4, 'rot0': 4, 'rot3': 46, 'rot2': 35, 'state': 'normal', 'yaw': -12.56, 'datetime': '2018-10-09 20:39:32.085020', 'mgs': 0, 'volt': 0.8545, 'depth': 0.851, 'time': 7, 'pitch': -1.88, 'roll': -1.13, 'pres': 175}
{'lipoC2': 7.23, 'lipoC3S1': 3.77, 'temp': 26.06, 'lipoC3S3': 11.46, 'lipoC3S2': 7.56, 'rot1': 5, 'rot0': 5, 'rot3': 47, 'rot2': 36, 'state': 'normal', 'yaw': -13.69, 'datetime': '2018-10-09 20:39:32.191699', 'mgs': 0, 'volt': 0.835, 'depth': 0.546, 'time': 7, 'pitch': -1.81, 'roll': -0.88, 'pres': 171}
{'lipoC2': 7.23, 'lipoC3S1': 3.8, 'temp': 26.06, 'lipoC3S3': 11.42, 'lipoC3S2': 7.55, 'rot1': 5, 'rot0': 5, 'rot3': 48, 'rot2': 37, 'state': 'normal', 'yaw': -14.81, 'datetime': '2018-10-09 20:39:32.298152', 'mgs': 0, 'volt': 0.835, 'depth': 0.546, 'time': 7, 'pitch': -1.81, 'roll': -0.63, 'pres': 171}
{'lipoC2': 7.23, 'lipoC3S1': 3.79, 'temp': 26.06, 'lipoC3S3': 11.42, 'lipoC3S2': 7.59, 'rot1': 5, 'rot0': 6, 'rot3': 49, 'rot2': 37, 'state': 'normal', 'yaw': -16.06, 'datetime': '2018-10-09 20:39:32.400052', 'mgs': 0, 'volt': 0.8496, 'depth': 0.775, 'time': 7, 'pitch': -1.88, 'roll': -0.38, 'pres': 174}
{'lipoC2': 7.23, 'lipoC3S1': 3.77, 'temp': 26.06, 'lipoC3S3': 11.47, 'lipoC3S2': 7.57, 'rot1': 6, 'rot0': 6, 'rot3': 50, 'rot2': 38, 'state': 'normal', 'yaw': -17.31, 'datetime': '2018-10-09 20:39:32.502813', 'mgs': 0, 'volt': 0.8545, 'depth': 0.851, 'time': 7, 'pitch': -1.88, 'roll': -0.19, 'pres': 175}
{'lipoC2': 7.23, 'lipoC3S1': 3.79, 'temp': 26.06, 'lipoC3S3': 11.43, 'lipoC3S2': 7.55, 'rot1': 6, 'rot0': 6, 'rot3': 51, 'rot2': 39, 'state': 'normal', 'yaw': -18.81, 'datetime': '2018-10-09 20:39:32.605848', 'mgs': 0, 'volt': 0.8301, 'depth': 0.47, 'time': 8, 'pitch': -1.88, 'roll': -0.06, 'pres': 170}
{'lipoC2': 7.23, 'lipoC3S1': 3.81, 'temp': 26.06, 'lipoC3S3': 11.4, 'lipoC3S2': 7.59, 'rot1': 7, 'rot0': 7, 'rot3': 52, 'rot2': 40, 'state': 'normal', 'yaw': -20.25, 'datetime': '2018-10-09 20:39:32.708873', 'mgs': 0, 'volt': 0.8447, 'depth': 0.699, 'time': 8, 'pitch': -1.81, 'roll': 0.0, 'pres': 173}
{'lipoC2': 7.23, 'lipoC3S1': 3.77, 'temp': 26.06, 'lipoC3S3': 11.47, 'lipoC3S2': 7.51, 'rot1': 7, 'rot0': 7, 'rot3': 53, 'rot2': 41, 'state': 'normal', 'yaw': -21.75, 'datetime': '2018-10-09 20:39:32.808288', 'mgs': 0, 'volt': 0.8496, 'depth': 0.775, 'time': 8, 'pitch': -1.75, 'roll': 0.0, 'pres': 174}
{'lipoC2': 7.23, 'lipoC3S1': 3.76, 'temp': 26.06, 'lipoC3S3': 11.43, 'lipoC3S2': 7.55, 'rot1': 7, 'rot0': 8, 'rot3': 54, 'rot2': 42, 'state': 'normal', 'yaw': -23.38, 'datetime': '2018-10-09 20:39:32.914897', 'mgs': 0, 'volt': 0.835, 'depth': 0.546, 'time': 8, 'pitch': -1.69, 'roll': 0.0, 'pres': 171}
{'lipoC2': 7.23, 'lipoC3S1': 3.79, 'temp': 26.06, 'lipoC3S3': 11.42, 'lipoC3S2': 7.54, 'rot1': 8, 'rot0': 8, 'rot3': 56, 'rot2': 42, 'state': 'normal', 'yaw': -25.25, 'datetime': '2018-10-09 20:39:33.017517', 'mgs': 0, 'volt': 0.8643, 'depth': 1.004, 'time': 8, 'pitch': -1.69, 'roll': 0.0, 'pres': 177}
{'lipoC2': 7.23, 'lipoC3S1': 3.76, 'temp': 26.06, 'lipoC3S3': 11.4, 'lipoC3S2': 7.58, 'rot1': 8, 'rot0': 9, 'rot3': 57, 'rot2': 43, 'state': 'normal', 'yaw': -27.06, 'datetime': '2018-10-09 20:39:33.120260', 'mgs': 0, 'volt': 0.8447, 'depth': 0.699, 'time': 8, 'pitch': -1.75, 'roll': -0.06, 'pres': 173}
{'lipoC2': 7.23, 'lipoC3S1': 3.78, 'temp': 26.06, 'lipoC3S3': 11.47, 'lipoC3S2': 7.56, 'rot1': 9, 'rot0': 10, 'rot3': 58, 'rot2': 44, 'state': 'normal', 'yaw': -29.0, 'datetime': '2018-10-09 20:39:33.224198', 'mgs': 0, 'volt': 0.8496, 'depth': 0.775, 'time': 8, 'pitch': -1.81, 'roll': -0.06, 'pres': 174}
{'lipoC2': 7.23, 'lipoC3S1': 3.77, 'temp': 26.06, 'lipoC3S3': 11.42, 'lipoC3S2': 7.56, 'rot1': 9, 'rot0': 10, 'rot3': 59, 'rot2': 45, 'state': 'normal', 'yaw': -31.13, 'datetime': '2018-10-09 20:39:33.327696', 'mgs': 0, 'volt': 0.8496, 'depth': 0.775, 'time': 8, 'pitch': -1.81, 'roll': -0.06, 'pres': 174}
{'lipoC2': 7.23, 'lipoC3S1': 3.79, 'temp': 26.06, 'lipoC3S3': 11.42, 'lipoC3S2': 7.54, 'rot1': 10, 'rot0': 11, 'rot3': 60, 'rot2': 46, 'state': 'normal', 'yaw': -33.56, 'datetime': '2018-10-09 20:39:33.430779', 'mgs': 0, 'volt': 0.8643, 'depth': 1.004, 'time': 8, 'pitch': -1.81, 'roll': -0.06, 'pres': 177}
{'lipoC2': 7.23, 'lipoC3S1': 3.76, 'temp': 26.06, 'lipoC3S3': 11.32, 'lipoC3S2': 7.55, 'rot1': 11, 'rot0': 12, 'rot3': 61, 'rot2': 47, 'state': 'normal', 'yaw': -36.0, 'datetime': '2018-10-09 20:39:33.534817', 'mgs': 0, 'volt': 0.8545, 'depth': 0.851, 'time': 9, 'pitch': -1.75, 'roll': 0.0, 'pres': 175}
{'lipoC2': 7.23, 'lipoC3S1': 3.82, 'temp': 26.06, 'lipoC3S3': 11.4, 'lipoC3S2': 7.58, 'rot1': 11, 'rot0': 12, 'rot3': 62, 'rot2': 48, 'state': 'normal', 'yaw': -38.56, 'datetime': '2018-10-09 20:39:33.638719', 'mgs': 0, 'volt': 0.8447, 'depth': 0.699, 'time': 9, 'pitch': -1.75, 'roll': 0.06, 'pres': 173}
{'lipoC2': 7.24, 'lipoC3S1': 3.76, 'temp': 26.06, 'lipoC3S3': 11.43, 'lipoC3S2': 7.54, 'rot1': 12, 'rot0': 13, 'rot3': 63, 'rot2': 49, 'state': 'normal', 'yaw': -41.5, 'datetime': '2018-10-09 20:39:33.741782', 'mgs': 0, 'volt': 0.835, 'depth': 0.546, 'time': 9, 'pitch': -1.69, 'roll': 0.19, 'pres': 171}
{'lipoC2': 7.23, 'lipoC3S1': 3.71, 'temp': 26.06, 'lipoC3S3': 11.39, 'lipoC3S2': 7.59, 'rot1': 13, 'rot0': 14, 'rot3': 65, 'rot2': 49, 'state': 'normal', 'yaw': -44.44, 'datetime': '2018-10-09 20:39:33.845040', 'mgs': 0, 'volt': 0.8447, 'depth': 0.699, 'time': 9, 'pitch': -1.63, 'roll': 0.25, 'pres': 173}
{'lipoC2': 7.22, 'lipoC3S1': 3.76, 'temp': 26.06, 'lipoC3S3': 11.4, 'lipoC3S2': 7.53, 'rot1': 13, 'rot0': 14, 'rot3': 66, 'rot2': 50, 'state': 'normal', 'yaw': -47.5, 'datetime': '2018-10-09 20:39:33.948084', 'mgs': 0, 'volt': 0.835, 'depth': 0.546, 'time': 9, 'pitch': -1.56, 'roll': 0.38, 'pres': 171}
{'lipoC2': 7.23, 'lipoC3S1': 3.76, 'temp': 26.06, 'lipoC3S3': 11.46, 'lipoC3S2': 7.48, 'rot1': 14, 'rot0': 15, 'rot3': 67, 'rot2': 51, 'state': 'normal', 'yaw': -51.19, 'datetime': '2018-10-09 20:39:34.050972', 'mgs': 0, 'volt': 0.8496, 'depth': 0.775, 'time': 9, 'pitch': -1.44, 'roll': 0.5, 'pres': 174}
{'lipoC2': 7.23, 'lipoC3S1': 3.79, 'temp': 26.06, 'lipoC3S3': 11.39, 'lipoC3S2': 7.53, 'rot1': 15, 'rot0': 16, 'rot3': 68, 'rot2': 52, 'state': 'normal', 'yaw': -54.69, 'datetime': '2018-10-09 20:39:34.153998', 'mgs': 0, 'volt': 0.8789, 'depth': 1.233, 'time': 9, 'pitch': -1.25, 'roll': 0.56, 'pres': 180}
{'lipoC2': 7.23, 'lipoC3S1': 3.76, 'temp': 26.06, 'lipoC3S3': 11.35, 'lipoC3S2': 7.54, 'rot1': 16, 'rot0': 17, 'rot3': 69, 'rot2': 53, 'state': 'normal', 'yaw': -58.44, 'datetime': '2018-10-09 20:39:34.259083', 'mgs': 0, 'volt': 0.8496, 'depth': 0.775, 'time': 9, 'pitch': -1.06, 'roll': 0.69, 'pres': 174}
{'lipoC2': 7.23, 'lipoC3S1': 3.78, 'temp': 26.06, 'lipoC3S3': 11.44, 'lipoC3S2': 7.53, 'rot1': 16, 'rot0': 18, 'rot3': 70, 'rot2': 54, 'state': 'normal', 'yaw': -62.5, 'datetime': '2018-10-09 20:39:34.360272', 'mgs': 0, 'volt': 0.8496, 'depth': 0.775, 'time': 9, 'pitch': -0.94, 'roll': 0.81, 'pres': 174}
{'lipoC2': 7.23, 'lipoC3S1': 3.79, 'temp': 26.06, 'lipoC3S3': 11.38, 'lipoC3S2': 7.52, 'rot1': 17, 'rot0': 19, 'rot3': 71, 'rot2': 55, 'state': 'normal', 'yaw': -67.19, 'datetime': '2018-10-09 20:39:34.463341', 'mgs': 0, 'volt': 0.8594, 'depth': 0.928, 'time': 9, 'pitch': -0.94, 'roll': 1.0, 'pres': 176}
{'lipoC2': 7.23, 'lipoC3S1': 3.75, 'temp': 26.06, 'lipoC3S3': 11.27, 'lipoC3S2': 7.52, 'rot1': 18, 'rot0': 20, 'rot3': 72, 'rot2': 55, 'state': 'normal', 'yaw': -71.81, 'datetime': '2018-10-09 20:39:34.566643', 'mgs': 0, 'volt': 0.8252, 'depth': 0.394, 'time': 10, 'pitch': -0.94, 'roll': 1.25, 'pres': 169}
{'lipoC2': 7.23, 'lipoC3S1': 3.76, 'temp': 26.06, 'lipoC3S3': 11.43, 'lipoC3S2': 7.46, 'rot1': 19, 'rot0': 21, 'rot3': 73, 'rot2': 56, 'state': 'normal', 'yaw': -76.75, 'datetime': '2018-10-09 20:39:34.670843', 'mgs': 0, 'volt': 0.8496, 'depth': 0.775, 'time': 10, 'pitch': -1.0, 'roll': 1.56, 'pres': 174}
{'lipoC2': 7.23, 'lipoC3S1': 3.75, 'temp': 26.06, 'lipoC3S3': 11.36, 'lipoC3S2': 7.56, 'rot1': 20, 'rot0': 22, 'rot3': 74, 'rot2': 57, 'state': 'normal', 'yaw': -82.56, 'datetime': '2018-10-09 20:39:34.774019', 'mgs': 0, 'volt': 0.8447, 'depth': 0.699, 'time': 10, 'pitch': -1.0, 'roll': 1.94, 'pres': 173}
{'lipoC2': 7.23, 'lipoC3S1': 3.75, 'temp': 26.06, 'lipoC3S3': 11.32, 'lipoC3S2': 7.51, 'rot1': 21, 'rot0': 23, 'rot3': 76, 'rot2': 58, 'state': 'normal', 'yaw': -88.06, 'datetime': '2018-10-09 20:39:34.877927', 'mgs': 0, 'volt': 0.8496, 'depth': 0.775, 'time': 10, 'pitch': -0.94, 'roll': 2.19, 'pres': 174}
{'lipoC2': 7.23, 'lipoC3S1': 3.75, 'temp': 26.0, 'lipoC3S3': 11.43, 'lipoC3S2': 7.45, 'rot1': 23, 'rot0': 24, 'rot3': 77, 'rot2': 59, 'state': 'normal', 'yaw': -93.88, 'datetime': '2018-10-09 20:39:34.982384', 'mgs': 0, 'volt': 0.8447, 'depth': 0.699, 'time': 10, 'pitch': -0.94, 'roll': 2.38, 'pres': 173}
{'lipoC2': 7.23, 'lipoC3S1': 3.74, 'temp': 26.0, 'lipoC3S3': 11.34, 'lipoC3S2': 7.55, 'rot1': 24, 'rot0': 26, 'rot3': 78, 'rot2': 60, 'state': 'normal', 'yaw': -100.56, 'datetime': '2018-10-09 20:39:35.085423', 'mgs': 0, 'volt': 0.8252, 'depth': 0.394, 'time': 10, 'pitch': -1.0, 'roll': 2.56, 'pres': 169}
{'lipoC2': 7.23, 'lipoC3S1': 3.78, 'temp': 26.06, 'lipoC3S3': 11.35, 'lipoC3S2': 7.56, 'rot1': 25, 'rot0': 27, 'rot3': 79, 'rot2': 61, 'state': 'normal', 'yaw': -107.0, 'datetime': '2018-10-09 20:39:35.189794', 'mgs': 0, 'volt': 0.9131, 'depth': 1.767, 'time': 10, 'pitch': -0.94, 'roll': 2.69, 'pres': 187}
{'lipoC2': 7.23, 'lipoC3S1': 3.74, 'temp': 26.06, 'lipoC3S3': 11.18, 'lipoC3S2': 7.49, 'rot1': 26, 'rot0': 28, 'rot3': 80, 'rot2': 62, 'state': 'normal', 'yaw': -113.75, 'datetime': '2018-10-09 20:39:35.293963', 'mgs': 0, 'volt': 0.8301, 'depth': 0.47, 'time': 10, 'pitch': -0.69, 'roll': 2.88, 'pres': 170}
{'lipoC2': 7.23, 'lipoC3S1': 3.74, 'temp': 26.06, 'lipoC3S3': 11.35, 'lipoC3S2': 7.37, 'rot1': 27, 'rot0': 30, 'rot3': 81, 'rot2': 63, 'state': 'normal', 'yaw': -121.44, 'datetime': '2018-10-09 20:39:35.397176', 'mgs': 0, 'volt': 0.8496, 'depth': 0.775, 'time': 10, 'pitch': -0.31, 'roll': 3.0, 'pres': 174}
{'lipoC2': 7.23, 'lipoC3S1': 3.64, 'temp': 26.06, 'lipoC3S3': 11.39, 'lipoC3S2': 7.51, 'rot1': 29, 'rot0': 31, 'rot3': 82, 'rot2': 63, 'state': 'normal', 'yaw': -128.75, 'datetime': '2018-10-09 20:39:35.500356', 'mgs': 0, 'volt': 0.8447, 'depth': 0.699, 'time': 10, 'pitch': 0.0, 'roll': 3.06, 'pres': 173}
{'lipoC2': 7.23, 'lipoC3S1': 3.77, 'temp': 26.06, 'lipoC3S3': 11.31, 'lipoC3S2': 7.52, 'rot1': 30, 'rot0': 33, 'rot3': 83, 'rot2': 64, 'state': 'normal', 'yaw': -136.25, 'datetime': '2018-10-09 20:39:35.603682', 'mgs': 0, 'volt': 0.9082, 'depth': 1.691, 'time': 11, 'pitch': 0.31, 'roll': 3.0, 'pres': 186}
{'lipoC2': 7.22, 'lipoC3S1': 3.77, 'temp': 26.0, 'lipoC3S3': 11.03, 'lipoC3S2': 7.5, 'rot1': 31, 'rot0': 34, 'rot3': 84, 'rot2': 65, 'state': 'normal', 'yaw': -144.81, 'datetime': '2018-10-09 20:39:35.706879', 'mgs': 0, 'volt': 0.8496, 'depth': 0.775, 'time': 11, 'pitch': 0.44, 'roll': 2.94, 'pres': 174}
{'lipoC2': 7.23, 'lipoC3S1': 3.73, 'temp': 26.0, 'lipoC3S3': 11.14, 'lipoC3S2': 7.28, 'rot1': 34, 'rot0': 36, 'rot3': 85, 'rot2': 66, 'state': 'normal', 'yaw': -152.81, 'datetime': '2018-10-09 20:39:35.810082', 'mgs': 0, 'volt': 0.835, 'depth': 0.546, 'time': 11, 'pitch': 0.5, 'roll': 2.88, 'pres': 171}
{'lipoC2': 7.23, 'lipoC3S1': 3.68, 'temp': 26.06, 'lipoC3S3': 11.34, 'lipoC3S2': 7.38, 'rot1': 35, 'rot0': 37, 'rot3': 86, 'rot2': 67, 'state': 'normal', 'yaw': -161.0, 'datetime': '2018-10-09 20:39:35.907902', 'mgs': 0, 'volt': 0.8496, 'depth': 0.775, 'time': 11, 'pitch': 0.5, 'roll': 2.88, 'pres': 174}
{'lipoC2': 7.23, 'lipoC3S1': 3.63, 'temp': 26.06, 'lipoC3S3': 11.35, 'lipoC3S2': 7.46, 'rot1': 36, 'rot0': 39, 'rot3': 87, 'rot2': 68, 'state': 'normal', 'yaw': -170.31, 'datetime': '2018-10-09 20:39:36.012880', 'mgs': 0, 'volt': 0.8203, 'depth': 0.317, 'time': 11, 'pitch': 0.56, 'roll': 3.0, 'pres': 168}
{'lipoC2': 7.19, 'lipoC3S1': 3.74, 'temp': 26.06, 'lipoC3S3': 11.26, 'lipoC3S2': 7.5, 'rot1': 38, 'rot0': 41, 'rot3': 89, 'rot2': 69, 'state': 'normal', 'yaw': -179.06, 'datetime': '2018-10-09 20:39:36.118269', 'mgs': 0, 'volt': 0.9229, 'depth': 1.92, 'time': 11, 'pitch': 0.63, 'roll': 3.13, 'pres': 189}
{'lipoC2': 7.19, 'lipoC3S1': 3.76, 'temp': 26.0, 'lipoC3S3': 11.01, 'lipoC3S2': 7.45, 'rot1': 40, 'rot0': 43, 'rot3': 90, 'rot2': 70, 'state': 'normal', 'yaw': 171.94, 'datetime': '2018-10-09 20:39:36.224177', 'mgs': 0, 'volt': 0.9082, 'depth': 1.691, 'time': 11, 'pitch': 0.88, 'roll': 3.25, 'pres': 186}
{'lipoC2': 7.22, 'lipoC3S1': 3.74, 'temp': 26.0, 'lipoC3S3': 11.06, 'lipoC3S2': 7.47, 'rot1': 41, 'rot0': 44, 'rot3': 91, 'rot2': 70, 'state': 'normal', 'yaw': 161.94, 'datetime': '2018-10-09 20:39:36.327302', 'mgs': 0, 'volt': 0.8301, 'depth': 0.47, 'time': 11, 'pitch': 1.19, 'roll': 3.31, 'pres': 170}
{'lipoC2': 7.23, 'lipoC3S1': 3.62, 'temp': 26.06, 'lipoC3S3': 11.36, 'lipoC3S2': 7.42, 'rot1': 42, 'rot0': 45, 'rot3': 92, 'rot2': 71, 'state': 'normal', 'yaw': 155.19, 'datetime': '2018-10-09 20:39:36.430683', 'mgs': 0, 'volt': 0.8496, 'depth': 0.775, 'time': 11, 'pitch': 1.13, 'roll': 2.63, 'pres': 174}
{'lipoC2': 7.23, 'lipoC3S1': 3.69, 'temp': 26.06, 'lipoC3S3': 11.31, 'lipoC3S2': 7.53, 'rot1': 44, 'rot0': 47, 'rot3': 93, 'rot2': 72, 'state': 'normal', 'yaw': 150.88, 'datetime': '2018-10-09 20:39:36.534706', 'mgs': 0, 'volt': 0.9229, 'depth': 1.92, 'time': 12, 'pitch': 0.88, 'roll': 1.44, 'pres': 189}
{'lipoC2': 7.21, 'lipoC3S1': 3.77, 'temp': 26.06, 'lipoC3S3': 11.31, 'lipoC3S2': 7.48, 'rot1': 45, 'rot0': 48, 'rot3': 94, 'rot2': 73, 'state': 'normal', 'yaw': 148.06, 'datetime': '2018-10-09 20:39:36.637920', 'mgs': 0, 'volt': 0.874, 'depth': 1.157, 'time': 12, 'pitch': 0.88, 'roll': 0.06, 'pres': 179}
{'lipoC2': 7.23, 'lipoC3S1': 3.74, 'temp': 26.06, 'lipoC3S3': 11.23, 'lipoC3S2': 7.31, 'rot1': 47, 'rot0': 49, 'rot3': 95, 'rot2': 74, 'state': 'normal', 'yaw': 147.13, 'datetime': '2018-10-09 20:39:36.741042', 'mgs': 0, 'volt': 0.8301, 'depth': 0.47, 'time': 12, 'pitch': 1.06, 'roll': -0.81, 'pres': 170}
{'lipoC2': 7.23, 'lipoC3S1': 3.62, 'temp': 26.06, 'lipoC3S3': 11.38, 'lipoC3S2': 7.42, 'rot1': 48, 'rot0': 51, 'rot3': 96, 'rot2': 75, 'state': 'normal', 'yaw': 147.63, 'datetime': '2018-10-09 20:39:36.845033', 'mgs': 0, 'volt': 0.8496, 'depth': 0.775, 'time': 12, 'pitch': 1.13, 'roll': -1.5, 'pres': 174}
{'lipoC2': 7.23, 'lipoC3S1': 3.74, 'temp': 26.06, 'lipoC3S3': 11.32, 'lipoC3S2': 7.37, 'rot1': 50, 'rot0': 52, 'rot3': 97, 'rot2': 76, 'state': 'normal', 'yaw': 149.56, 'datetime': '2018-10-09 20:39:36.948699', 'mgs': 0, 'volt': 0.8496, 'depth': 0.775, 'time': 12, 'pitch': 1.06, 'roll': -1.94, 'pres': 174}
{'lipoC2': 7.23, 'lipoC3S1': 3.69, 'temp': 26.06, 'lipoC3S3': 11.32, 'lipoC3S2': 7.53, 'rot1': 51, 'rot0': 54, 'rot3': 98, 'rot2': 77, 'state': 'normal', 'yaw': 152.31, 'datetime': '2018-10-09 20:39:37.051994', 'mgs': 0, 'volt': 0.791, 'depth': -0.14, 'time': 12, 'pitch': 0.69, 'roll': -2.25, 'pres': 162}
{'lipoC2': 7.21, 'lipoC3S1': 3.77, 'temp': 26.06, 'lipoC3S3': 11.31, 'lipoC3S2': 7.48, 'rot1': 53, 'rot0': 55, 'rot3': 99, 'rot2': 77, 'state': 'normal', 'yaw': 155.94, 'datetime': '2018-10-09 20:39:37.155117', 'mgs': 0, 'volt': 0.8936, 'depth': 1.462, 'time': 12, 'pitch': 0.31, 'roll': -2.56, 'pres': 183}
{'lipoC2': 7.21, 'lipoC3S1': 3.76, 'temp': 26.06, 'lipoC3S3': 11.29, 'lipoC3S2': 7.47, 'rot1': 54, 'rot0': 56, 'rot3': 101, 'rot2': 78, 'state': 'normal', 'yaw': 160.25, 'datetime': '2018-10-09 20:39:37.258469', 'mgs': 0, 'volt': 0.8643, 'depth': 1.004, 'time': 12, 'pitch': 0.06, 'roll': -2.88, 'pres': 177}
{'lipoC2': 7.22, 'lipoC3S1': 3.74, 'temp': 26.06, 'lipoC3S3': 11.14, 'lipoC3S2': 7.46, 'rot1': 56, 'rot0': 58, 'rot3': 102, 'rot2': 79, 'state': 'normal', 'yaw': 165.94, 'datetime': '2018-10-09 20:39:37.361781', 'mgs': 0, 'volt': 0.835, 'depth': 0.546, 'time': 12, 'pitch': 0.0, 'roll': -3.31, 'pres': 171}
{'lipoC2': 7.23, 'lipoC3S1': 3.6, 'temp': 26.06, 'lipoC3S3': 11.32, 'lipoC3S2': 7.36, 'rot1': 57, 'rot0': 59, 'rot3': 103, 'rot2': 80, 'state': 'normal', 'yaw': 171.75, 'datetime': '2018-10-09 20:39:37.465010', 'mgs': 0, 'volt': 0.8447, 'depth': 0.699, 'time': 12, 'pitch': 0.13, 'roll': -3.69, 'pres': 173}
{'lipoC2': 7.23, 'lipoC3S1': 3.65, 'temp': 26.06, 'lipoC3S3': 11.35, 'lipoC3S2': 7.47, 'rot1': 59, 'rot0': 61, 'rot3': 104, 'rot2': 81, 'state': 'normal', 'yaw': 178.19, 'datetime': '2018-10-09 20:39:37.568334', 'mgs': 0, 'volt': 0.8398, 'depth': 0.623, 'time': 13, 'pitch': 0.5, 'roll': -4.06, 'pres': 172}
{'lipoC2': 7.24, 'lipoC3S1': 3.69, 'temp': 26.06, 'lipoC3S3': 11.27, 'lipoC3S2': 7.51, 'rot1': 60, 'rot0': 63, 'rot3': 105, 'rot2': 82, 'state': 'normal', 'yaw': -174.25, 'datetime': '2018-10-09 20:39:37.671693', 'mgs': 0, 'volt': 0.8447, 'depth': 0.699, 'time': 13, 'pitch': 1.0, 'roll': -4.5, 'pres': 173}
{'lipoC2': 7.24, 'lipoC3S1': 3.76, 'temp': 26.06, 'lipoC3S3': 11.26, 'lipoC3S2': 7.46, 'rot1': 61, 'rot0': 65, 'rot3': 106, 'rot2': 83, 'state': 'normal', 'yaw': -169.44, 'datetime': '2018-10-09 20:39:37.775068', 'mgs': 0, 'volt': 0.9033, 'depth': 1.614, 'time': 13, 'pitch': 0.63, 'roll': -4.19, 'pres': 185}
{'lipoC2': 7.24, 'lipoC3S1': 3.76, 'temp': 26.13, 'lipoC3S3': 11.26, 'lipoC3S2': 7.5, 'rot1': 63, 'rot0': 67, 'rot3': 107, 'rot2': 84, 'state': 'normal', 'yaw': -167.25, 'datetime': '2018-10-09 20:39:37.879618', 'mgs': 0, 'volt': 0.9082, 'depth': 1.691, 'time': 13, 'pitch': 0.13, 'roll': -3.25, 'pres': 186}
{'lipoC2': 7.23, 'lipoC3S1': 3.76, 'temp': 26.13, 'lipoC3S3': 11.05, 'lipoC3S2': 7.46, 'rot1': 64, 'rot0': 69, 'rot3': 108, 'rot2': 84, 'state': 'normal', 'yaw': -167.31, 'datetime': '2018-10-09 20:39:37.982851', 'mgs': 0, 'volt': 0.8984, 'depth': 1.538, 'time': 13, 'pitch': -0.25, 'roll': -1.94, 'pres': 184}
{'lipoC2': 7.23, 'lipoC3S1': 3.61, 'temp': 26.13, 'lipoC3S3': 11.34, 'lipoC3S2': 7.4, 'rot1': 66, 'rot0': 70, 'rot3': 110, 'rot2': 85, 'state': 'normal', 'yaw': -169.19, 'datetime': '2018-10-09 20:39:38.086669', 'mgs': 0, 'volt': 0.8545, 'depth': 0.851, 'time': 13, 'pitch': -0.69, 'roll': -0.63, 'pres': 175}
{'lipoC2': 7.23, 'lipoC3S1': 3.74, 'temp': 26.13, 'lipoC3S3': 11.34, 'lipoC3S2': 7.39, 'rot1': 68, 'rot0': 72, 'rot3': 111, 'rot2': 86, 'state': 'normal', 'yaw': -172.56, 'datetime': '2018-10-09 20:39:38.191035', 'mgs': 0, 'volt': 0.8496, 'depth': 0.775, 'time': 13, 'pitch': -1.19, 'roll': 0.44, 'pres': 174}
{'lipoC2': 7.23, 'lipoC3S1': 3.62, 'temp': 26.13, 'lipoC3S3': 11.34, 'lipoC3S2': 7.45, 'rot1': 70, 'rot0': 74, 'rot3': 112, 'rot2': 87, 'state': 'normal', 'yaw': -177.19, 'datetime': '2018-10-09 20:39:38.294451', 'mgs': 0, 'volt': 0.8545, 'depth': 0.851, 'time': 13, 'pitch': -1.44, 'roll': 1.5, 'pres': 175}
{'lipoC2': 7.23, 'lipoC3S1': 3.63, 'temp': 26.06, 'lipoC3S3': 11.31, 'lipoC3S2': 7.44, 'rot1': 72, 'rot0': 76, 'rot3': 113, 'rot2': 88, 'state': 'normal', 'yaw': 178.94, 'datetime': '2018-10-09 20:39:38.398831', 'mgs': 0, 'volt': 0.7959, 'depth': -0.064, 'time': 13, 'pitch': -1.94, 'roll': 2.13, 'pres': 163}
{'lipoC2': 7.21, 'lipoC3S1': 3.75, 'temp': 26.06, 'lipoC3S3': 11.01, 'lipoC3S2': 7.44, 'rot1': 73, 'rot0': 78, 'rot3': 114, 'rot2': 89, 'state': 'normal', 'yaw': 174.44, 'datetime': '2018-10-09 20:39:38.502976', 'mgs': 0, 'volt': 0.8887, 'depth': 1.385, 'time': 13, 'pitch': -1.63, 'roll': 2.81, 'pres': 182}
{'lipoC2': 7.21, 'lipoC3S1': 3.73, 'temp': 26.06, 'lipoC3S3': 11.38, 'lipoC3S2': 7.44, 'rot1': 74, 'rot0': 79, 'rot3': 115, 'rot2': 90, 'state': 'normal', 'yaw': 168.31, 'datetime': '2018-10-09 20:39:38.606150', 'mgs': 0, 'volt': 0.8301, 'depth': 0.47, 'time': 14, 'pitch': -1.0, 'roll': 3.31, 'pres': 170}
{'lipoC2': 7.23, 'lipoC3S1': 3.73, 'temp': 26.06, 'lipoC3S3': 11.22, 'lipoC3S2': 7.3, 'rot1': 76, 'rot0': 80, 'rot3': 116, 'rot2': 91, 'state': 'normal', 'yaw': 164.31, 'datetime': '2018-10-09 20:39:38.709345', 'mgs': 0, 'volt': 0.8447, 'depth': 0.699, 'time': 14, 'pitch': -0.25, 'roll': 2.75, 'pres': 173}
{'lipoC2': 7.23, 'lipoC3S1': 3.62, 'temp': 26.06, 'lipoC3S3': 11.35, 'lipoC3S2': 7.41, 'rot1': 77, 'rot0': 81, 'rot3': 117, 'rot2': 92, 'state': 'normal', 'yaw': 162.44, 'datetime': '2018-10-09 20:39:38.813345', 'mgs': 0, 'volt': 0.8496, 'depth': 0.775, 'time': 14, 'pitch': 0.44, 'roll': 1.38, 'pres': 174}
{'lipoC2': 7.23, 'lipoC3S1': 3.69, 'temp': 26.06, 'lipoC3S3': 11.27, 'lipoC3S2': 7.51, 'rot1': 79, 'rot0': 83, 'rot3': 118, 'rot2': 93, 'state': 'normal', 'yaw': 162.69, 'datetime': '2018-10-09 20:39:38.915993', 'mgs': 0, 'volt': 0.9229, 'depth': 1.92, 'time': 14, 'pitch': 1.25, 'roll': -0.38, 'pres': 189}
{'lipoC2': 7.21, 'lipoC3S1': 3.76, 'temp': 26.06, 'lipoC3S3': 11.27, 'lipoC3S2': 7.45, 'rot1': 80, 'rot0': 84, 'rot3': 119, 'rot2': 93, 'state': 'normal', 'yaw': 164.69, 'datetime': '2018-10-09 20:39:39.019211', 'mgs': 0, 'volt': 0.8838, 'depth': 1.309, 'time': 14, 'pitch': 1.5, 'roll': -1.88, 'pres': 181}
{'lipoC2': 7.22, 'lipoC3S1': 3.74, 'temp': 26.13, 'lipoC3S3': 11.09, 'lipoC3S2': 7.47, 'rot1': 82, 'rot0': 86, 'rot3': 120, 'rot2': 94, 'state': 'normal', 'yaw': 167.75, 'datetime': '2018-10-09 20:39:39.122410', 'mgs': 0, 'volt': 0.8398, 'depth': 0.623, 'time': 14, 'pitch': 1.5, 'roll': -3.06, 'pres': 172}
{'lipoC2': 7.23, 'lipoC3S1': 3.73, 'temp': 26.13, 'lipoC3S3': 11.22, 'lipoC3S2': 7.3, 'rot1': 83, 'rot0': 87, 'rot3': 121, 'rot2': 95, 'state': 'normal', 'yaw': 170.75, 'datetime': '2018-10-09 20:39:39.225683', 'mgs': 0, 'volt': 0.835, 'depth': 0.546, 'time': 14, 'pitch': 0.69, 'roll': -3.81, 'pres': 171}
{'lipoC2': 7.23, 'lipoC3S1': 3.6, 'temp': 26.06, 'lipoC3S3': 11.35, 'lipoC3S2': 7.38, 'rot1': 85, 'rot0': 89, 'rot3': 123, 'rot2': 96, 'state': 'normal', 'yaw': 173.69, 'datetime': '2018-10-09 20:39:39.328926', 'mgs': 0, 'volt': 0.8545, 'depth': 0.851, 'time': 14, 'pitch': 1.13, 'roll': -4.44, 'pres': 175}
{'lipoC2': 7.23, 'lipoC3S1': 3.65, 'temp': 26.06, 'lipoC3S3': 11.34, 'lipoC3S2': 7.46, 'rot1': 87, 'rot0': 90, 'rot3': 124, 'rot2': 97, 'state': 'normal', 'yaw': 177.25, 'datetime': '2018-10-09 20:39:39.433428', 'mgs': 0, 'volt': 0.8691, 'depth': 1.08, 'time': 14, 'pitch': 2.13, 'roll': -4.81, 'pres': 178}
{'lipoC2': 7.21, 'lipoC3S1': 3.67, 'temp': 26.13, 'lipoC3S3': 11.26, 'lipoC3S2': 7.5, 'rot1': 88, 'rot0': 92, 'rot3': 125, 'rot2': 98, 'state': 'normal', 'yaw': -178.5, 'datetime': '2018-10-09 20:39:39.536687', 'mgs': 0, 'volt': 0.9668, 'depth': 2.606, 'time': 15, 'pitch': 3.38, 'roll': -5.0, 'pres': 198}
