{'lipoC2': 8.13, 'lipoC3S1': 3.96, 'temp': 26.06, 'lipoC3S3': 11.98, 'lipoC3S2': 7.92, 'rot1': 132, 'rot0': 119, 'rot3': 0, 'rot2': 0, 'state': 'normal', 'yaw': -13.11, 'datetime': '2018-10-09 09:57:01.344862', 'mgs': 1, 'volt': 0.0, 'depth': -12.5, 'time': 26, 'pitch': 0.73, 'roll': 3.98, 'pres': 0}
{'lipoC2': 8.13, 'lipoC3S1': 3.96, 'temp': 26.06, 'lipoC3S3': 11.98, 'lipoC3S2': 7.92, 'rot1': 132, 'rot0': 119, 'rot3': 0, 'rot2': 0, 'state': 'normal', 'yaw': -13.11, 'datetime': '2018-10-09 09:57:04.376544', 'mgs': 1, 'volt': 0.0, 'depth': -12.5, 'time': 26, 'pitch': 0.73, 'roll': 3.98, 'pres': 0}
{'lipoC2': 8.13, 'lipoC3S1': 3.96, 'temp': 26.06, 'lipoC3S3': 11.97, 'lipoC3S2': 7.92, 'rot1': 132, 'rot0': 119, 'rot3': 0, 'rot2': 0, 'state': 'normal', 'yaw': -13.11, 'datetime': '2018-10-09 09:57:04.401264', 'mgs': 1, 'volt': 0.0, 'depth': -12.5, 'time': 26, 'pitch': 0.73, 'roll': 3.98, 'pres': 0}
{'lipoC2': 8.13, 'lipoC3S1': 3.96, 'temp': 26.13, 'lipoC3S3': 11.97, 'lipoC3S2': 7.93, 'rot1': 132, 'rot0': 119, 'rot3': 0, 'rot2': 0, 'state': 'normal', 'yaw': -13.11, 'datetime': '2018-10-09 09:57:04.433836', 'mgs': 1, 'volt': 0.0, 'depth': -12.5, 'time': 26, 'pitch': 0.73, 'roll': 3.98, 'pres': 0}
{'lipoC2': 8.13, 'lipoC3S1': 3.96, 'temp': 26.13, 'lipoC3S3': 11.97, 'lipoC3S2': 7.92, 'rot1': 132, 'rot0': 119, 'rot3': 0, 'rot2': 0, 'state': 'normal', 'yaw': -13.11, 'datetime': '2018-10-09 09:57:04.452705', 'mgs': 1, 'volt': 0.0, 'depth': -12.5, 'time': 27, 'pitch': 0.73, 'roll': 3.98, 'pres': 0}
{'lipoC2': 8.13, 'lipoC3S1': 3.96, 'temp': 26.13, 'lipoC3S3': 11.97, 'lipoC3S2': 7.92, 'rot1': 132, 'rot0': 119, 'rot3': 0, 'rot2': 0, 'state': 'normal', 'yaw': -13.11, 'datetime': '2018-10-09 09:57:04.470093', 'mgs': 1, 'volt': 0.0, 'depth': -12.5, 'time': 27, 'pitch': 0.73, 'roll': 3.98, 'pres': 0}
{'lipoC2': 8.13, 'lipoC3S1': 3.96, 'temp': 26.13, 'lipoC3S3': 11.97, 'lipoC3S2': 7.92, 'rot1': 132, 'rot0': 119, 'rot3': 0, 'rot2': 0, 'state': 'normal', 'yaw': -13.11, 'datetime': '2018-10-09 09:57:04.486766', 'mgs': 1, 'volt': 0.0, 'depth': -12.5, 'time': 27, 'pitch': 0.73, 'roll': 3.98, 'pres': 0}
{'lipoC2': 8.13, 'lipoC3S1': 3.96, 'temp': 26.13, 'lipoC3S3': 11.97, 'lipoC3S2': 7.92, 'rot1': 132, 'rot0': 119, 'rot3': 0, 'rot2': 0, 'state': 'normal', 'yaw': -13.11, 'datetime': '2018-10-09 09:57:04.503339', 'mgs': 1, 'volt': 0.0, 'depth': -12.5, 'time': 27, 'pitch': 0.73, 'roll': 3.98, 'pres': 0}
{'lipoC2': 8.13, 'lipoC3S1': 3.96, 'temp': 26.13, 'lipoC3S3': 11.97, 'lipoC3S2': 7.92, 'rot1': 132, 'rot0': 119, 'rot3': 0, 'rot2': 0, 'state': 'normal', 'yaw': -13.11, 'datetime': '2018-10-09 09:57:04.519978', 'mgs': 1, 'volt': 0.0, 'depth': -12.5, 'time': 27, 'pitch': 0.73, 'roll': 3.98, 'pres': 0}
{'lipoC2': 8.13, 'lipoC3S1': 3.96, 'temp': 26.13, 'lipoC3S3': 11.97, 'lipoC3S2': 7.92, 'rot1': 132, 'rot0': 119, 'rot3': 0, 'rot2': 0, 'state': 'normal', 'yaw': -13.11, 'datetime': '2018-10-09 09:57:04.536647', 'mgs': 1, 'volt': 0.0, 'depth': -12.5, 'time': 27, 'pitch': 0.73, 'roll': 3.98, 'pres': 0}
{'lipoC2': 8.13, 'lipoC3S1': 3.96, 'temp': 26.13, 'lipoC3S3': 11.97, 'lipoC3S2': 7.92, 'rot1': 132, 'rot0': 119, 'rot3': 0, 'rot2': 0, 'state': 'normal', 'yaw': -13.11, 'datetime': '2018-10-09 09:57:04.553413', 'mgs': 1, 'volt': 0.0, 'depth': -12.5, 'time': 27, 'pitch': 0.73, 'roll': 3.98, 'pres': 0}
{'lipoC2': 8.13, 'lipoC3S1': 3.96, 'temp': 26.13, 'lipoC3S3': 11.97, 'lipoC3S2': 7.92, 'rot1': 132, 'rot0': 119, 'rot3': 0, 'rot2': 0, 'state': 'normal', 'yaw': -13.11, 'datetime': '2018-10-09 09:57:04.570947', 'mgs': 1, 'volt': 0.0, 'depth': -12.5, 'time': 27, 'pitch': 0.73, 'roll': 3.98, 'pres': 0}
{'lipoC2': 8.13, 'lipoC3S1': 3.96, 'temp': 26.13, 'lipoC3S3': 11.97, 'lipoC3S2': 7.92, 'rot1': 132, 'rot0': 119, 'rot3': 0, 'rot2': 0, 'state': 'normal', 'yaw': -13.11, 'datetime': '2018-10-09 09:57:04.587626', 'mgs': 1, 'volt': 0.0, 'depth': -12.5, 'time': 27, 'pitch': 0.73, 'roll': 3.98, 'pres': 0}
{'lipoC2': 8.13, 'lipoC3S1': 3.96, 'temp': 26.13, 'lipoC3S3': 11.97, 'lipoC3S2': 7.92, 'rot1': 132, 'rot0': 119, 'rot3': 0, 'rot2': 0, 'state': 'normal', 'yaw': -13.11, 'datetime': '2018-10-09 09:57:04.604220', 'mgs': 1, 'volt': 0.0, 'depth': -12.5, 'time': 27, 'pitch': 0.73, 'roll': 3.98, 'pres': 0}
{'lipoC2': 8.13, 'lipoC3S1': 3.96, 'temp': 26.13, 'lipoC3S3': 11.97, 'lipoC3S2': 7.92, 'rot1': 132, 'rot0': 119, 'rot3': 0, 'rot2': 0, 'state': 'normal', 'yaw': -13.11, 'datetime': '2018-10-09 09:57:04.621016', 'mgs': 1, 'volt': 0.0, 'depth': -12.5, 'time': 28, 'pitch': 0.73, 'roll': 3.98, 'pres': 0}
{'lipoC2': 8.13, 'lipoC3S1': 3.96, 'temp': 26.13, 'lipoC3S3': 11.97, 'lipoC3S2': 7.92, 'rot1': 132, 'rot0': 119, 'rot3': 0, 'rot2': 0, 'state': 'normal', 'yaw': -13.11, 'datetime': '2018-10-09 09:57:04.637633', 'mgs': 1, 'volt': 0.0, 'depth': -12.5, 'time': 28, 'pitch': 0.73, 'roll': 3.98, 'pres': 0}
{'lipoC2': 8.13, 'lipoC3S1': 3.96, 'temp': 26.13, 'lipoC3S3': 11.97, 'lipoC3S2': 7.92, 'rot1': 132, 'rot0': 119, 'rot3': 0, 'rot2': 0, 'state': 'normal', 'yaw': -13.11, 'datetime': '2018-10-09 09:57:04.654239', 'mgs': 1, 'volt': 0.0, 'depth': -12.5, 'time': 28, 'pitch': 0.73, 'roll': 3.98, 'pres': 0}
{'lipoC2': 8.13, 'lipoC3S1': 3.96, 'temp': 26.13, 'lipoC3S3': 11.97, 'lipoC3S2': 7.92, 'rot1': 132, 'rot0': 119, 'rot3': 0, 'rot2': 0, 'state': 'normal', 'yaw': -13.11, 'datetime': '2018-10-09 09:57:04.671737', 'mgs': 1, 'volt': 0.0, 'depth': -12.5, 'time': 28, 'pitch': 0.73, 'roll': 3.98, 'pres': 0}
{'lipoC2': 8.13, 'lipoC3S1': 3.96, 'temp': 26.13, 'lipoC3S3': 11.97, 'lipoC3S2': 7.92, 'rot1': 132, 'rot0': 119, 'rot3': 0, 'rot2': 0, 'state': 'normal', 'yaw': -13.11, 'datetime': '2018-10-09 09:57:04.688440', 'mgs': 1, 'volt': 0.0, 'depth': -12.5, 'time': 28, 'pitch': 0.73, 'roll': 3.98, 'pres': 0}
{'lipoC2': 8.13, 'lipoC3S1': 3.96, 'temp': 26.13, 'lipoC3S3': 11.97, 'lipoC3S2': 7.92, 'rot1': 132, 'rot0': 119, 'rot3': 0, 'rot2': 0, 'state': 'normal', 'yaw': -13.11, 'datetime': '2018-10-09 09:57:04.705013', 'mgs': 1, 'volt': 0.0, 'depth': -12.5, 'time': 28, 'pitch': 0.73, 'roll': 3.98, 'pres': 0}
{'lipoC2': 8.13, 'lipoC3S1': 3.96, 'temp': 26.13, 'lipoC3S3': 11.97, 'lipoC3S2': 7.92, 'rot1': 132, 'rot0': 119, 'rot3': 0, 'rot2': 0, 'state': 'normal', 'yaw': -13.11, 'datetime': '2018-10-09 09:57:04.721695', 'mgs': 1, 'volt': 0.0, 'depth': -12.5, 'time': 28, 'pitch': 0.73, 'roll': 3.98, 'pres': 0}
{'lipoC2': 8.13, 'lipoC3S1': 3.96, 'temp': 26.13, 'lipoC3S3': 11.97, 'lipoC3S2': 7.92, 'rot1': 132, 'rot0': 119, 'rot3': 0, 'rot2': 0, 'state': 'normal', 'yaw': -13.11, 'datetime': '2018-10-09 09:57:04.738252', 'mgs': 1, 'volt': 0.0, 'depth': -12.5, 'time': 28, 'pitch': 0.73, 'roll': 3.98, 'pres': 0}
{'lipoC2': 8.13, 'lipoC3S1': 3.96, 'temp': 26.06, 'lipoC3S3': 11.97, 'lipoC3S2': 7.92, 'rot1': 132, 'rot0': 119, 'rot3': 0, 'rot2': 0, 'state': 'normal', 'yaw': -13.11, 'datetime': '2018-10-09 09:57:04.754846', 'mgs': 1, 'volt': 0.0, 'depth': -12.5, 'time': 28, 'pitch': 0.73, 'roll': 3.98, 'pres': 0}
{'lipoC2': 8.13, 'lipoC3S1': 3.96, 'temp': 26.06, 'lipoC3S3': 11.97, 'lipoC3S2': 7.92, 'rot1': 132, 'rot0': 119, 'rot3': 0, 'rot2': 0, 'state': 'normal', 'yaw': -13.11, 'datetime': '2018-10-09 09:57:04.772332', 'mgs': 1, 'volt': 0.0, 'depth': -12.5, 'time': 28, 'pitch': 0.73, 'roll': 3.98, 'pres': 0}
{'lipoC2': 8.13, 'lipoC3S1': 3.96, 'temp': 26.13, 'lipoC3S3': 11.97, 'lipoC3S2': 7.92, 'rot1': 132, 'rot0': 119, 'rot3': 0, 'rot2': 0, 'state': 'normal', 'yaw': -13.11, 'datetime': '2018-10-09 09:57:04.789101', 'mgs': 1, 'volt': 0.0, 'depth': -12.5, 'time': 29, 'pitch': 0.73, 'roll': 3.98, 'pres': 0}
{'lipoC2': 8.13, 'lipoC3S1': 3.96, 'temp': 26.13, 'lipoC3S3': 11.97, 'lipoC3S2': 7.92, 'rot1': 132, 'rot0': 119, 'rot3': 0, 'rot2': 0, 'state': 'normal', 'yaw': -13.11, 'datetime': '2018-10-09 09:57:04.805727', 'mgs': 1, 'volt': 0.0, 'depth': -12.5, 'time': 29, 'pitch': 0.73, 'roll': 3.98, 'pres': 0}
{'lipoC2': 8.13, 'lipoC3S1': 3.96, 'temp': 26.13, 'lipoC3S3': 11.97, 'lipoC3S2': 7.92, 'rot1': 0, 'rot0': 0, 'rot3': 0, 'rot2': 0, 'state': 'normal', 'yaw': 0.0, 'datetime': '2018-10-09 09:57:04.822117', 'mgs': 1, 'volt': 0.0, 'depth': -12.5, 'time': 1, 'pitch': 0.73, 'roll': 3.98, 'pres': 0}
{'lipoC2': 8.13, 'lipoC3S1': 3.96, 'temp': 26.13, 'lipoC3S3': 11.97, 'lipoC3S2': 7.92, 'rot1': 0, 'rot0': 0, 'rot3': 0, 'rot2': 0, 'state': 'normal', 'yaw': 0.0, 'datetime': '2018-10-09 09:57:04.838514', 'mgs': 1, 'volt': 0.0, 'depth': -12.5, 'time': 1, 'pitch': 0.73, 'roll': 3.98, 'pres': 0}
{'lipoC2': 8.13, 'lipoC3S1': 3.96, 'temp': 26.13, 'lipoC3S3': 11.98, 'lipoC3S2': 7.92, 'rot1': 0, 'rot0': 0, 'rot3': 0, 'rot2': 0, 'state': 'normal', 'yaw': 0.0, 'datetime': '2018-10-09 09:57:04.855082', 'mgs': 1, 'volt': 0.0, 'depth': -12.5, 'time': 1, 'pitch': 0.73, 'roll': 3.98, 'pres': 0}
{'lipoC2': 8.13, 'lipoC3S1': 3.96, 'temp': 26.13, 'lipoC3S3': 11.98, 'lipoC3S2': 7.93, 'rot1': 0, 'rot0': 0, 'rot3': 0, 'rot2': 0, 'state': 'normal', 'yaw': 0.0, 'datetime': '2018-10-09 09:57:04.872358', 'mgs': 1, 'volt': 0.0, 'depth': -12.5, 'time': 1, 'pitch': 0.73, 'roll': 3.98, 'pres': 0}
{'lipoC2': 8.13, 'lipoC3S1': 3.96, 'temp': 26.13, 'lipoC3S3': 11.98, 'lipoC3S2': 7.93, 'rot1': 0, 'rot0': 0, 'rot3': 0, 'rot2': 0, 'state': 'normal', 'yaw': 0.0, 'datetime': '2018-10-09 09:57:04.889111', 'mgs': 1, 'volt': 0.0, 'depth': -12.5, 'time': 1, 'pitch': 0.73, 'roll': 3.98, 'pres': 0}
{'lipoC2': 8.13, 'lipoC3S1': 3.96, 'temp': 26.13, 'lipoC3S3': 11.98, 'lipoC3S2': 7.93, 'rot1': 0, 'rot0': 0, 'rot3': 0, 'rot2': 0, 'state': 'normal', 'yaw': 0.0, 'datetime': '2018-10-09 09:57:04.905492', 'mgs': 1, 'volt': 0.0, 'depth': -12.5, 'time': 1, 'pitch': 0.73, 'roll': 3.98, 'pres': 0}
{'lipoC2': 8.13, 'lipoC3S1': 3.96, 'temp': 26.13, 'lipoC3S3': 11.98, 'lipoC3S2': 7.92, 'rot1': 0, 'rot0': 0, 'rot3': 0, 'rot2': 0, 'state': 'normal', 'yaw': 0.0, 'datetime': '2018-10-09 09:57:04.921325', 'mgs': 1, 'volt': 0.0, 'depth': -12.5, 'time': 1, 'pitch': 0.73, 'roll': 3.98, 'pres': 0}
{'lipoC2': 8.13, 'lipoC3S1': 3.96, 'temp': 26.13, 'lipoC3S3': 11.97, 'lipoC3S2': 7.92, 'rot1': 0, 'rot0': 0, 'rot3': 0, 'rot2': 0, 'state': 'normal', 'yaw': 0.0, 'datetime': '2018-10-09 09:57:04.937110', 'mgs': 1, 'volt': 0.0, 'depth': -12.5, 'time': 1, 'pitch': 0.73, 'roll': 3.98, 'pres': 0}
{'lipoC2': 8.13, 'lipoC3S1': 3.96, 'temp': 26.13, 'lipoC3S3': 11.97, 'lipoC3S2': 7.92, 'rot1': 0, 'rot0': 0, 'rot3': 0, 'rot2': 0, 'state': 'normal', 'yaw': 0.0, 'datetime': '2018-10-09 09:57:04.952945', 'mgs': 1, 'volt': 0.0, 'depth': -12.5, 'time': 2, 'pitch': 0.73, 'roll': 3.98, 'pres': 0}
{'lipoC2': 8.13, 'lipoC3S1': 3.96, 'temp': 26.06, 'lipoC3S3': 11.97, 'lipoC3S2': 7.92, 'rot1': 0, 'rot0': 0, 'rot3': 0, 'rot2': 0, 'state': 'normal', 'yaw': 0.0, 'datetime': '2018-10-09 09:57:04.969174', 'mgs': 1, 'volt': 0.0, 'depth': -12.5, 'time': 2, 'pitch': 0.73, 'roll': 3.98, 'pres': 0}
{'lipoC2': 8.13, 'lipoC3S1': 3.96, 'temp': 26.06, 'lipoC3S3': 11.97, 'lipoC3S2': 7.92, 'rot1': 0, 'rot0': 0, 'rot3': 0, 'rot2': 0, 'state': 'normal', 'yaw': 0.0, 'datetime': '2018-10-09 09:57:04.985993', 'mgs': 1, 'volt': 0.0, 'depth': -12.5, 'time': 2, 'pitch': 0.73, 'roll': 3.98, 'pres': 0}
{'lipoC2': 8.13, 'lipoC3S1': 3.96, 'temp': 26.06, 'lipoC3S3': 11.97, 'lipoC3S2': 7.92, 'rot1': 0, 'rot0': 0, 'rot3': 0, 'rot2': 0, 'state': 'normal', 'yaw': 0.0, 'datetime': '2018-10-09 09:57:05.001915', 'mgs': 1, 'volt': 0.0, 'depth': -12.5, 'time': 2, 'pitch': 0.73, 'roll': 3.98, 'pres': 0}
{'lipoC2': 8.13, 'lipoC3S1': 3.96, 'temp': 26.13, 'lipoC3S3': 11.97, 'lipoC3S2': 7.93, 'rot1': 0, 'rot0': 0, 'rot3': 0, 'rot2': 0, 'state': 'normal', 'yaw': 0.0, 'datetime': '2018-10-09 09:57:05.017881', 'mgs': 1, 'volt': 0.0, 'depth': -12.5, 'time': 2, 'pitch': 0.73, 'roll': 3.98, 'pres': 0}
{'lipoC2': 8.13, 'lipoC3S1': 3.96, 'temp': 26.13, 'lipoC3S3': 11.98, 'lipoC3S2': 7.93, 'rot1': 0, 'rot0': 0, 'rot3': 0, 'rot2': 0, 'state': 'normal', 'yaw': 0.0, 'datetime': '2018-10-09 09:57:05.033748', 'mgs': 1, 'volt': 0.0, 'depth': -12.5, 'time': 2, 'pitch': 0.73, 'roll': 3.98, 'pres': 0}
{'lipoC2': 8.13, 'lipoC3S1': 3.96, 'temp': 26.13, 'lipoC3S3': 11.97, 'lipoC3S2': 7.92, 'rot1': 0, 'rot0': 0, 'rot3': 0, 'rot2': 0, 'state': 'normal', 'yaw': 0.0, 'datetime': '2018-10-09 09:57:05.049574', 'mgs': 1, 'volt': 0.0, 'depth': -12.5, 'time': 2, 'pitch': 0.73, 'roll': 3.98, 'pres': 0}
{'lipoC2': 8.13, 'lipoC3S1': 3.96, 'temp': 26.13, 'lipoC3S3': 11.98, 'lipoC3S2': 7.92, 'rot1': 0, 'rot0': 0, 'rot3': 0, 'rot2': 0, 'state': 'normal', 'yaw': 0.0, 'datetime': '2018-10-09 09:57:05.065398', 'mgs': 1, 'volt': 0.0, 'depth': -12.5, 'time': 2, 'pitch': 0.73, 'roll': 3.98, 'pres': 0}
{'lipoC2': 8.13, 'lipoC3S1': 3.96, 'temp': 26.13, 'lipoC3S3': 11.98, 'lipoC3S2': 7.92, 'rot1': 0, 'rot0': 0, 'rot3': 0, 'rot2': 0, 'state': 'normal', 'yaw': 0.0, 'datetime': '2018-10-09 09:57:05.082270', 'mgs': 1, 'volt': 0.0, 'depth': -12.5, 'time': 2, 'pitch': 0.73, 'roll': 3.98, 'pres': 0}
{'lipoC2': 8.13, 'lipoC3S1': 3.86, 'temp': 26.13, 'lipoC3S3': 11.92, 'lipoC3S2': 7.89, 'rot1': 1, 'rot0': 0, 'rot3': 0, 'rot2': 0, 'state': 'normal', 'yaw': 0.0, 'datetime': '2018-10-09 09:57:05.098340', 'mgs': 1, 'volt': 0.0, 'depth': -12.5, 'time': 3, 'pitch': 0.73, 'roll': 3.98, 'pres': 0}
{'lipoC2': 8.13, 'lipoC3S1': 3.93, 'temp': 26.13, 'lipoC3S3': 11.94, 'lipoC3S2': 7.9, 'rot1': 3, 'rot0': 1, 'rot3': 0, 'rot2': 0, 'state': 'normal', 'yaw': 0.0, 'datetime': '2018-10-09 09:57:05.114250', 'mgs': 1, 'volt': 0.0, 'depth': -12.5, 'time': 3, 'pitch': 0.73, 'roll': 3.98, 'pres': 0}
{'lipoC2': 8.13, 'lipoC3S1': 3.95, 'temp': 26.06, 'lipoC3S3': 11.93, 'lipoC3S2': 7.86, 'rot1': 5, 'rot0': 2, 'rot3': 0, 'rot2': 0, 'state': 'normal', 'yaw': 0.0, 'datetime': '2018-10-09 09:57:05.130126', 'mgs': 1, 'volt': 0.0, 'depth': -12.5, 'time': 3, 'pitch': 0.73, 'roll': 3.98, 'pres': 0}
{'lipoC2': 8.13, 'lipoC3S1': 3.96, 'temp': 26.06, 'lipoC3S3': 11.94, 'lipoC3S2': 7.9, 'rot1': 6, 'rot0': 4, 'rot3': 0, 'rot2': 0, 'state': 'normal', 'yaw': 0.0, 'datetime': '2018-10-09 09:57:05.146036', 'mgs': 1, 'volt': 0.0, 'depth': -12.5, 'time': 3, 'pitch': 0.73, 'roll': 3.98, 'pres': 0}
{'lipoC2': 8.13, 'lipoC3S1': 3.95, 'temp': 26.13, 'lipoC3S3': 11.83, 'lipoC3S2': 7.89, 'rot1': 8, 'rot0': 5, 'rot3': 0, 'rot2': 0, 'state': 'normal', 'yaw': 0.0, 'datetime': '2018-10-09 09:57:05.161872', 'mgs': 1, 'volt': 0.0, 'depth': -12.5, 'time': 3, 'pitch': 0.73, 'roll': 3.98, 'pres': 0}
{'lipoC2': 8.13, 'lipoC3S1': 3.9, 'temp': 26.13, 'lipoC3S3': 11.94, 'lipoC3S2': 7.93, 'rot1': 10, 'rot0': 7, 'rot3': 0, 'rot2': 0, 'state': 'normal', 'yaw': -0.0, 'datetime': '2018-10-09 09:57:05.178231', 'mgs': 1, 'volt': 0.0, 'depth': -12.5, 'time': 3, 'pitch': 0.72, 'roll': 3.98, 'pres': 0}
{'lipoC2': 8.13, 'lipoC3S1': 3.99, 'temp': 26.13, 'lipoC3S3': 11.93, 'lipoC3S2': 7.9, 'rot1': 12, 'rot0': 9, 'rot3': 0, 'rot2': 0, 'state': 'normal', 'yaw': -0.0, 'datetime': '2018-10-09 09:57:05.195004', 'mgs': 1, 'volt': 0.0293, 'depth': -12.042, 'time': 3, 'pitch': 0.72, 'roll': 3.98, 'pres': 6}
{'lipoC2': 8.13, 'lipoC3S1': 3.91, 'temp': 26.13, 'lipoC3S3': 11.94, 'lipoC3S2': 7.9, 'rot1': 13, 'rot0': 11, 'rot3': 0, 'rot2': 0, 'state': 'normal', 'yaw': 0.0, 'datetime': '2018-10-09 09:57:05.211048', 'mgs': 1, 'volt': 0.0, 'depth': -12.5, 'time': 3, 'pitch': 0.73, 'roll': 3.98, 'pres': 0}
{'lipoC2': 8.13, 'lipoC3S1': 3.95, 'temp': 26.13, 'lipoC3S3': 11.92, 'lipoC3S2': 7.79, 'rot1': 15, 'rot0': 12, 'rot3': 0, 'rot2': 0, 'state': 'normal', 'yaw': -0.0, 'datetime': '2018-10-09 09:57:05.298986', 'mgs': 1, 'volt': 0.0, 'depth': -12.5, 'time': 3, 'pitch': 0.72, 'roll': 3.98, 'pres': 0}
{'lipoC2': 8.13, 'lipoC3S1': 3.95, 'temp': 26.06, 'lipoC3S3': 11.96, 'lipoC3S2': 7.82, 'rot1': 17, 'rot0': 14, 'rot3': 0, 'rot2': 0, 'state': 'normal', 'yaw': -0.0, 'datetime': '2018-10-09 09:57:05.402451', 'mgs': 1, 'volt': 0.0, 'depth': -12.5, 'time': 3, 'pitch': 0.71, 'roll': 3.99, 'pres': 0}
{'lipoC2': 8.12, 'lipoC3S1': 3.95, 'temp': 26.06, 'lipoC3S3': 11.93, 'lipoC3S2': 7.89, 'rot1': 19, 'rot0': 16, 'rot3': 0, 'rot2': 0, 'state': 'normal', 'yaw': -0.0, 'datetime': '2018-10-09 09:57:05.507139', 'mgs': 1, 'volt': 0.0, 'depth': -12.5, 'time': 4, 'pitch': 0.7, 'roll': 3.98, 'pres': 0}
{'lipoC2': 8.12, 'lipoC3S1': 3.95, 'temp': 26.13, 'lipoC3S3': 11.93, 'lipoC3S2': 7.89, 'rot1': 20, 'rot0': 18, 'rot3': 0, 'rot2': 0, 'state': 'normal', 'yaw': -0.0, 'datetime': '2018-10-09 09:57:05.610658', 'mgs': 1, 'volt': 0.0, 'depth': -12.5, 'time': 4, 'pitch': 0.7, 'roll': 3.98, 'pres': 0}
{'lipoC2': 8.12, 'lipoC3S1': 3.95, 'temp': 26.13, 'lipoC3S3': 11.93, 'lipoC3S2': 7.9, 'rot1': 22, 'rot0': 20, 'rot3': 0, 'rot2': 0, 'state': 'normal', 'yaw': -0.0, 'datetime': '2018-10-09 09:57:05.714237', 'mgs': 1, 'volt': 0.0, 'depth': -12.5, 'time': 4, 'pitch': 0.7, 'roll': 3.98, 'pres': 0}
{'lipoC2': 8.13, 'lipoC3S1': 3.94, 'temp': 26.13, 'lipoC3S3': 11.94, 'lipoC3S2': 7.9, 'rot1': 24, 'rot0': 22, 'rot3': 0, 'rot2': 0, 'state': 'normal', 'yaw': -0.0, 'datetime': '2018-10-09 09:57:05.818968', 'mgs': 1, 'volt': 0.0, 'depth': -12.5, 'time': 4, 'pitch': 0.7, 'roll': 3.98, 'pres': 0}
{'lipoC2': 8.13, 'lipoC3S1': 3.95, 'temp': 26.13, 'lipoC3S3': 11.93, 'lipoC3S2': 7.9, 'rot1': 26, 'rot0': 23, 'rot3': 0, 'rot2': 0, 'state': 'normal', 'yaw': -0.0, 'datetime': '2018-10-09 09:57:05.926655', 'mgs': 1, 'volt': 0.0, 'depth': -12.5, 'time': 4, 'pitch': 0.7, 'roll': 3.98, 'pres': 0}
{'lipoC2': 8.13, 'lipoC3S1': 3.93, 'temp': 26.13, 'lipoC3S3': 11.94, 'lipoC3S2': 7.9, 'rot1': 27, 'rot0': 25, 'rot3': 0, 'rot2': 0, 'state': 'normal', 'yaw': -0.0, 'datetime': '2018-10-09 09:57:06.030875', 'mgs': 1, 'volt': 0.0, 'depth': -12.5, 'time': 4, 'pitch': 0.7, 'roll': 3.98, 'pres': 0}
{'lipoC2': 8.13, 'lipoC3S1': 3.93, 'temp': 26.06, 'lipoC3S3': 11.93, 'lipoC3S2': 7.9, 'rot1': 29, 'rot0': 27, 'rot3': 0, 'rot2': 0, 'state': 'normal', 'yaw': -0.0, 'datetime': '2018-10-09 09:57:06.135470', 'mgs': 1, 'volt': 0.0, 'depth': -12.5, 'time': 4, 'pitch': 0.7, 'roll': 3.98, 'pres': 0}
{'lipoC2': 8.13, 'lipoC3S1': 3.95, 'temp': 26.06, 'lipoC3S3': 11.93, 'lipoC3S2': 7.9, 'rot1': 31, 'rot0': 29, 'rot3': 0, 'rot2': 0, 'state': 'normal', 'yaw': -0.0, 'datetime': '2018-10-09 09:57:06.238802', 'mgs': 1, 'volt': 0.0, 'depth': -12.5, 'time': 4, 'pitch': 0.7, 'roll': 3.98, 'pres': 0}
{'lipoC2': 8.13, 'lipoC3S1': 3.96, 'temp': 26.13, 'lipoC3S3': 11.93, 'lipoC3S2': 7.9, 'rot1': 33, 'rot0': 31, 'rot3': 0, 'rot2': 0, 'state': 'normal', 'yaw': -0.0, 'datetime': '2018-10-09 09:57:06.342324', 'mgs': 1, 'volt': 0.0244, 'depth': -12.119, 'time': 4, 'pitch': 0.7, 'roll': 3.98, 'pres': 5}
{'lipoC2': 8.13, 'lipoC3S1': 3.95, 'temp': 26.13, 'lipoC3S3': 11.98, 'lipoC3S2': 7.89, 'rot1': 34, 'rot0': 32, 'rot3': 0, 'rot2': 0, 'state': 'normal', 'yaw': -0.0, 'datetime': '2018-10-09 09:57:06.446318', 'mgs': 1, 'volt': 0.0, 'depth': -12.5, 'time': 4, 'pitch': 0.7, 'roll': 3.98, 'pres': 0}
{'lipoC2': 8.13, 'lipoC3S1': 3.95, 'temp': 26.13, 'lipoC3S3': 11.83, 'lipoC3S2': 7.89, 'rot1': 36, 'rot0': 34, 'rot3': 0, 'rot2': 0, 'state': 'normal', 'yaw': -0.0, 'datetime': '2018-10-09 09:57:06.549808', 'mgs': 1, 'volt': 0.0, 'depth': -12.5, 'time': 5, 'pitch': 0.7, 'roll': 3.98, 'pres': 0}
{'lipoC2': 8.13, 'lipoC3S1': 3.95, 'temp': 26.13, 'lipoC3S3': 11.93, 'lipoC3S2': 7.89, 'rot1': 38, 'rot0': 36, 'rot3': 0, 'rot2': 0, 'state': 'normal', 'yaw': -0.0, 'datetime': '2018-10-09 09:57:06.654462', 'mgs': 1, 'volt': 0.0049, 'depth': -12.424, 'time': 5, 'pitch': 0.7, 'roll': 3.98, 'pres': 1}
{'lipoC2': 8.13, 'lipoC3S1': 3.95, 'temp': 26.13, 'lipoC3S3': 11.93, 'lipoC3S2': 7.89, 'rot1': 40, 'rot0': 38, 'rot3': 0, 'rot2': 0, 'state': 'normal', 'yaw': -0.0, 'datetime': '2018-10-09 09:57:06.758039', 'mgs': 1, 'volt': 0.0049, 'depth': -12.424, 'time': 5, 'pitch': 0.7, 'roll': 3.98, 'pres': 1}
{'lipoC2': 8.13, 'lipoC3S1': 3.95, 'temp': 26.06, 'lipoC3S3': 11.93, 'lipoC3S2': 7.89, 'rot1': 41, 'rot0': 40, 'rot3': 0, 'rot2': 0, 'state': 'normal', 'yaw': -0.0, 'datetime': '2018-10-09 09:57:06.861453', 'mgs': 1, 'volt': 0.0049, 'depth': -12.424, 'time': 5, 'pitch': 0.72, 'roll': 3.98, 'pres': 1}
{'lipoC2': 8.13, 'lipoC3S1': 3.9, 'temp': 26.06, 'lipoC3S3': 11.93, 'lipoC3S2': 7.92, 'rot1': 43, 'rot0': 41, 'rot3': 0, 'rot2': 0, 'state': 'normal', 'yaw': 0.0, 'datetime': '2018-10-09 09:57:06.966158', 'mgs': 1, 'volt': 0.0, 'depth': -12.5, 'time': 5, 'pitch': 0.73, 'roll': 3.98, 'pres': 0}
{'lipoC2': 8.13, 'lipoC3S1': 3.93, 'temp': 26.13, 'lipoC3S3': 11.93, 'lipoC3S2': 7.9, 'rot1': 45, 'rot0': 43, 'rot3': 0, 'rot2': 0, 'state': 'normal', 'yaw': 0.0, 'datetime': '2018-10-09 09:57:07.069648', 'mgs': 1, 'volt': 0.0, 'depth': -12.5, 'time': 5, 'pitch': 0.74, 'roll': 3.98, 'pres': 0}
{'lipoC2': 8.13, 'lipoC3S1': 3.89, 'temp': 26.13, 'lipoC3S3': 11.93, 'lipoC3S2': 7.9, 'rot1': 47, 'rot0': 45, 'rot3': 0, 'rot2': 0, 'state': 'normal', 'yaw': -0.03, 'datetime': '2018-10-09 09:57:07.173355', 'mgs': 1, 'volt': 0.0, 'depth': -12.5, 'time': 5, 'pitch': 0.74, 'roll': 3.98, 'pres': 0}
{'lipoC2': 8.13, 'lipoC3S1': 3.95, 'temp': 26.19, 'lipoC3S3': 11.92, 'lipoC3S2': 7.9, 'rot1': 49, 'rot0': 47, 'rot3': 0, 'rot2': 0, 'state': 'normal', 'yaw': -0.19, 'datetime': '2018-10-09 09:57:07.277828', 'mgs': 1, 'volt': 0.0, 'depth': -12.5, 'time': 5, 'pitch': 0.75, 'roll': 3.98, 'pres': 0}
{'lipoC2': 8.13, 'lipoC3S1': 3.95, 'temp': 26.19, 'lipoC3S3': 11.96, 'lipoC3S2': 7.82, 'rot1': 50, 'rot0': 49, 'rot3': 0, 'rot2': 0, 'state': 'normal', 'yaw': -0.51, 'datetime': '2018-10-09 09:57:07.381495', 'mgs': 1, 'volt': 0.0, 'depth': -12.5, 'time': 5, 'pitch': 0.77, 'roll': 3.98, 'pres': 0}
{'lipoC2': 8.13, 'lipoC3S1': 3.9, 'temp': 26.19, 'lipoC3S3': 11.93, 'lipoC3S2': 7.94, 'rot1': 52, 'rot0': 50, 'rot3': 0, 'rot2': 0, 'state': 'normal', 'yaw': -1.02, 'datetime': '2018-10-09 09:57:07.485532', 'mgs': 1, 'volt': 0.0, 'depth': -12.5, 'time': 6, 'pitch': 0.81, 'roll': 3.97, 'pres': 0}
{'lipoC2': 8.13, 'lipoC3S1': 3.94, 'temp': 26.13, 'lipoC3S3': 11.93, 'lipoC3S2': 7.86, 'rot1': 54, 'rot0': 52, 'rot3': 0, 'rot2': 0, 'state': 'normal', 'yaw': -1.72, 'datetime': '2018-10-09 09:57:07.590146', 'mgs': 1, 'volt': 0.0, 'depth': -12.5, 'time': 6, 'pitch': 0.85, 'roll': 3.96, 'pres': 0}
{'lipoC2': 8.13, 'lipoC3S1': 3.89, 'temp': 26.13, 'lipoC3S3': 11.93, 'lipoC3S2': 7.89, 'rot1': 56, 'rot0': 54, 'rot3': 0, 'rot2': 0, 'state': 'normal', 'yaw': -2.66, 'datetime': '2018-10-09 09:57:07.693462', 'mgs': 1, 'volt': 0.0, 'depth': -12.5, 'time': 6, 'pitch': 0.92, 'roll': 3.94, 'pres': 0}
{'lipoC2': 8.13, 'lipoC3S1': 3.91, 'temp': 26.13, 'lipoC3S3': 11.93, 'lipoC3S2': 7.92, 'rot1': 57, 'rot0': 56, 'rot3': 0, 'rot2': 0, 'state': 'normal', 'yaw': -3.62, 'datetime': '2018-10-09 09:57:07.796949', 'mgs': 1, 'volt': 0.0, 'depth': -12.5, 'time': 6, 'pitch': 0.99, 'roll': 3.93, 'pres': 0}
{'lipoC2': 8.13, 'lipoC3S1': 3.95, 'temp': 26.13, 'lipoC3S3': 11.97, 'lipoC3S2': 7.84, 'rot1': 59, 'rot0': 58, 'rot3': 0, 'rot2': 0, 'state': 'normal', 'yaw': -4.67, 'datetime': '2018-10-09 09:57:07.900562', 'mgs': 1, 'volt': 0.0, 'depth': -12.5, 'time': 6, 'pitch': 1.06, 'roll': 3.91, 'pres': 0}
{'lipoC2': 8.13, 'lipoC3S1': 3.95, 'temp': 26.13, 'lipoC3S3': 11.93, 'lipoC3S2': 7.87, 'rot1': 61, 'rot0': 59, 'rot3': 0, 'rot2': 0, 'state': 'normal', 'yaw': -5.85, 'datetime': '2018-10-09 09:57:08.004028', 'mgs': 1, 'volt': 0.0, 'depth': -12.5, 'time': 6, 'pitch': 1.14, 'roll': 3.89, 'pres': 0}
{'lipoC2': 8.13, 'lipoC3S1': 3.89, 'temp': 26.13, 'lipoC3S3': 11.93, 'lipoC3S2': 7.9, 'rot1': 62, 'rot0': 61, 'rot3': 0, 'rot2': 0, 'state': 'normal', 'yaw': -6.92, 'datetime': '2018-10-09 09:57:08.107576', 'mgs': 1, 'volt': 0.0, 'depth': -12.5, 'time': 6, 'pitch': 1.21, 'roll': 3.86, 'pres': 0}
{'lipoC2': 8.13, 'lipoC3S1': 3.9, 'temp': 26.13, 'lipoC3S3': 11.93, 'lipoC3S2': 7.92, 'rot1': 64, 'rot0': 63, 'rot3': 0, 'rot2': 0, 'state': 'normal', 'yaw': -7.98, 'datetime': '2018-10-09 09:57:08.210955', 'mgs': 1, 'volt': 0.0, 'depth': -12.5, 'time': 6, 'pitch': 1.29, 'roll': 3.84, 'pres': 0}
{'lipoC2': 8.13, 'lipoC3S1': 3.91, 'temp': 26.13, 'lipoC3S3': 11.93, 'lipoC3S2': 7.9, 'rot1': 66, 'rot0': 64, 'rot3': 0, 'rot2': 0, 'state': 'normal', 'yaw': -9.1, 'datetime': '2018-10-09 09:57:08.314278', 'mgs': 1, 'volt': 0.0, 'depth': -12.5, 'time': 6, 'pitch': 1.36, 'roll': 3.81, 'pres': 0}
{'lipoC2': 8.13, 'lipoC3S1': 3.93, 'temp': 26.13, 'lipoC3S3': 11.93, 'lipoC3S2': 7.9, 'rot1': 68, 'rot0': 66, 'rot3': 0, 'rot2': 0, 'state': 'normal', 'yaw': -10.01, 'datetime': '2018-10-09 09:57:08.417825', 'mgs': 1, 'volt': 0.0, 'depth': -12.5, 'time': 6, 'pitch': 1.42, 'roll': 3.79, 'pres': 0}
{'lipoC2': 8.13, 'lipoC3S1': 3.95, 'temp': 26.06, 'lipoC3S3': 11.94, 'lipoC3S2': 7.88, 'rot1': 70, 'rot0': 68, 'rot3': 0, 'rot2': 0, 'state': 'normal', 'yaw': -10.85, 'datetime': '2018-10-09 09:57:08.522570', 'mgs': 1, 'volt': 0.0, 'depth': -12.5, 'time': 7, 'pitch': 1.47, 'roll': 3.77, 'pres': 0}
{'lipoC2': 8.13, 'lipoC3S1': 3.95, 'temp': 26.06, 'lipoC3S3': 11.96, 'lipoC3S2': 7.83, 'rot1': 71, 'rot0': 69, 'rot3': 0, 'rot2': 0, 'state': 'normal', 'yaw': -11.7, 'datetime': '2018-10-09 09:57:08.626078', 'mgs': 1, 'volt': 0.0, 'depth': -12.5, 'time': 7, 'pitch': 1.53, 'roll': 3.75, 'pres': 0}
{'lipoC2': 8.12, 'lipoC3S1': 3.95, 'temp': 26.13, 'lipoC3S3': 11.92, 'lipoC3S2': 7.89, 'rot1': 73, 'rot0': 71, 'rot3': 0, 'rot2': 0, 'state': 'normal', 'yaw': -12.4, 'datetime': '2018-10-09 09:57:08.730776', 'mgs': 1, 'volt': 0.0, 'depth': -12.5, 'time': 7, 'pitch': 1.58, 'roll': 3.73, 'pres': 0}
{'lipoC2': 8.13, 'lipoC3S1': 3.95, 'temp': 26.13, 'lipoC3S3': 11.93, 'lipoC3S2': 7.9, 'rot1': 75, 'rot0': 72, 'rot3': 0, 'rot2': 0, 'state': 'normal', 'yaw': -13.09, 'datetime': '2018-10-09 09:57:08.834764', 'mgs': 1, 'volt': 0.0146, 'depth': -12.271, 'time': 7, 'pitch': 1.62, 'roll': 3.71, 'pres': 3}
{'lipoC2': 8.13, 'lipoC3S1': 3.95, 'temp': 26.13, 'lipoC3S3': 11.93, 'lipoC3S2': 7.89, 'rot1': 77, 'rot0': 74, 'rot3': 0, 'rot2': 0, 'state': 'normal', 'yaw': -13.67, 'datetime': '2018-10-09 09:57:08.937924', 'mgs': 1, 'volt': 0.0, 'depth': -12.5, 'time': 7, 'pitch': 1.66, 'roll': 3.69, 'pres': 0}
{'lipoC2': 8.13, 'lipoC3S1': 3.92, 'temp': 26.06, 'lipoC3S3': 11.93, 'lipoC3S2': 7.9, 'rot1': 78, 'rot0': 75, 'rot3': 0, 'rot2': 0, 'state': 'normal', 'yaw': -14.15, 'datetime': '2018-10-09 09:57:09.042737', 'mgs': 1, 'volt': 0.0, 'depth': -12.5, 'time': 7, 'pitch': 1.69, 'roll': 3.68, 'pres': 0}
{'lipoC2': 8.13, 'lipoC3S1': 3.9, 'temp': 26.06, 'lipoC3S3': 11.94, 'lipoC3S2': 7.93, 'rot1': 80, 'rot0': 76, 'rot3': 0, 'rot2': 0, 'state': 'normal', 'yaw': -14.55, 'datetime': '2018-10-09 09:57:09.146971', 'mgs': 1, 'volt': 0.0, 'depth': -12.5, 'time': 7, 'pitch': 1.72, 'roll': 3.67, 'pres': 0}
{'lipoC2': 8.13, 'lipoC3S1': 3.91, 'temp': 26.13, 'lipoC3S3': 11.93, 'lipoC3S2': 7.9, 'rot1': 82, 'rot0': 78, 'rot3': 0, 'rot2': 0, 'state': 'normal', 'yaw': -14.84, 'datetime': '2018-10-09 09:57:09.250055', 'mgs': 1, 'volt': 0.0, 'depth': -12.5, 'time': 7, 'pitch': 1.74, 'roll': 3.66, 'pres': 0}
{'lipoC2': 8.13, 'lipoC3S1': 3.93, 'temp': 26.13, 'lipoC3S3': 11.93, 'lipoC3S2': 7.9, 'rot1': 84, 'rot0': 79, 'rot3': 0, 'rot2': 0, 'state': 'normal', 'yaw': -15.09, 'datetime': '2018-10-09 09:57:09.352964', 'mgs': 1, 'volt': 0.0, 'depth': -12.5, 'time': 7, 'pitch': 1.76, 'roll': 3.65, 'pres': 0}
{'lipoC2': 8.13, 'lipoC3S1': 3.94, 'temp': 26.13, 'lipoC3S3': 11.93, 'lipoC3S2': 7.89, 'rot1': 85, 'rot0': 81, 'rot3': 0, 'rot2': 0, 'state': 'normal', 'yaw': -15.4, 'datetime': '2018-10-09 09:57:09.456451', 'mgs': 1, 'volt': 0.0, 'depth': -12.5, 'time': 7, 'pitch': 1.78, 'roll': 3.65, 'pres': 0}
{'lipoC2': 8.13, 'lipoC3S1': 3.96, 'temp': 26.13, 'lipoC3S3': 11.93, 'lipoC3S2': 7.89, 'rot1': 87, 'rot0': 82, 'rot3': 0, 'rot2': 0, 'state': 'normal', 'yaw': -15.71, 'datetime': '2018-10-09 09:57:09.559867', 'mgs': 1, 'volt': 0.0, 'depth': -12.5, 'time': 8, 'pitch': 1.8, 'roll': 3.64, 'pres': 0}
{'lipoC2': 8.13, 'lipoC3S1': 3.96, 'temp': 26.13, 'lipoC3S3': 11.93, 'lipoC3S2': 7.9, 'rot1': 89, 'rot0': 83, 'rot3': 0, 'rot2': 0, 'state': 'normal', 'yaw': -16.03, 'datetime': '2018-10-09 09:57:09.663326', 'mgs': 1, 'volt': 0.0, 'depth': -12.5, 'time': 8, 'pitch': 1.82, 'roll': 3.64, 'pres': 0}
{'lipoC2': 8.13, 'lipoC3S1': 3.92, 'temp': 26.13, 'lipoC3S3': 11.94, 'lipoC3S2': 7.9, 'rot1': 91, 'rot0': 85, 'rot3': 0, 'rot2': 0, 'state': 'normal', 'yaw': -16.51, 'datetime': '2018-10-09 09:57:09.766995', 'mgs': 1, 'volt': 0.0, 'depth': -12.5, 'time': 8, 'pitch': 1.87, 'roll': 3.62, 'pres': 0}
{'lipoC2': 8.13, 'lipoC3S1': 3.9, 'temp': 26.13, 'lipoC3S3': 11.93, 'lipoC3S2': 7.92, 'rot1': 92, 'rot0': 86, 'rot3': 0, 'rot2': 0, 'state': 'normal', 'yaw': -17.42, 'datetime': '2018-10-09 09:57:09.870545', 'mgs': 1, 'volt': 0.0, 'depth': -12.5, 'time': 8, 'pitch': 1.94, 'roll': 3.59, 'pres': 0}
{'lipoC2': 8.13, 'lipoC3S1': 3.95, 'temp': 26.06, 'lipoC3S3': 11.94, 'lipoC3S2': 7.86, 'rot1': 94, 'rot0': 87, 'rot3': 0, 'rot2': 0, 'state': 'normal', 'yaw': -18.69, 'datetime': '2018-10-09 09:57:09.975029', 'mgs': 1, 'volt': 0.0, 'depth': -12.5, 'time': 8, 'pitch': 2.0, 'roll': 3.55, 'pres': 0}
{'lipoC2': 8.13, 'lipoC3S1': 3.96, 'temp': 26.06, 'lipoC3S3': 11.93, 'lipoC3S2': 7.87, 'rot1': 96, 'rot0': 89, 'rot3': 0, 'rot2': 0, 'state': 'normal', 'yaw': -20.41, 'datetime': '2018-10-09 09:57:10.078514', 'mgs': 1, 'volt': 0.0, 'depth': -12.5, 'time': 8, 'pitch': 2.11, 'roll': 3.49, 'pres': 0}
{'lipoC2': 8.13, 'lipoC3S1': 3.91, 'temp': 26.13, 'lipoC3S3': 11.93, 'lipoC3S2': 7.89, 'rot1': 98, 'rot0': 90, 'rot3': 0, 'rot2': 0, 'state': 'normal', 'yaw': -21.99, 'datetime': '2018-10-09 09:57:10.181869', 'mgs': 1, 'volt': 0.0, 'depth': -12.5, 'time': 8, 'pitch': 2.2, 'roll': 3.43, 'pres': 0}
{'lipoC2': 8.14, 'lipoC3S1': 3.95, 'temp': 26.13, 'lipoC3S3': 11.9, 'lipoC3S2': 7.89, 'rot1': 99, 'rot0': 91, 'rot3': 0, 'rot2': 0, 'state': 'normal', 'yaw': -23.38, 'datetime': '2018-10-09 09:57:10.286706', 'mgs': 1, 'volt': 0.0, 'depth': -12.5, 'time': 8, 'pitch': 2.19, 'roll': 3.38, 'pres': 0}
{'lipoC2': 8.13, 'lipoC3S1': 3.95, 'temp': 26.13, 'lipoC3S3': 11.87, 'lipoC3S2': 7.89, 'rot1': 101, 'rot0': 92, 'rot3': 0, 'rot2': 0, 'state': 'normal', 'yaw': -24.79, 'datetime': '2018-10-09 09:57:10.390390', 'mgs': 1, 'volt': 0.0, 'depth': -12.5, 'time': 8, 'pitch': 2.15, 'roll': 3.32, 'pres': 0}
{'lipoC2': 8.13, 'lipoC3S1': 3.95, 'temp': 26.06, 'lipoC3S3': 11.89, 'lipoC3S2': 7.89, 'rot1': 103, 'rot0': 93, 'rot3': 0, 'rot2': 0, 'state': 'normal', 'yaw': -25.99, 'datetime': '2018-10-09 09:57:10.493818', 'mgs': 1, 'volt': 0.0, 'depth': -12.5, 'time': 9, 'pitch': 2.31, 'roll': 3.28, 'pres': 0}
{'lipoC2': 8.13, 'lipoC3S1': 3.94, 'temp': 26.06, 'lipoC3S3': 11.93, 'lipoC3S2': 7.9, 'rot1': 105, 'rot0': 94, 'rot3': 0, 'rot2': 0, 'state': 'normal', 'yaw': -27.4, 'datetime': '2018-10-09 09:57:10.598876', 'mgs': 1, 'volt': 0.0, 'depth': -12.5, 'time': 9, 'pitch': 2.52, 'roll': 3.29, 'pres': 0}
{'lipoC2': 8.13, 'lipoC3S1': 3.92, 'temp': 26.06, 'lipoC3S3': 11.93, 'lipoC3S2': 7.9, 'rot1': 106, 'rot0': 95, 'rot3': 0, 'rot2': 0, 'state': 'normal', 'yaw': -29.28, 'datetime': '2018-10-09 09:57:10.702240', 'mgs': 1, 'volt': 0.0, 'depth': -12.5, 'time': 9, 'pitch': 2.62, 'roll': 3.2, 'pres': 0}
{'lipoC2': 8.13, 'lipoC3S1': 3.93, 'temp': 26.06, 'lipoC3S3': 11.94, 'lipoC3S2': 7.9, 'rot1': 108, 'rot0': 96, 'rot3': 0, 'rot2': 0, 'state': 'normal', 'yaw': -31.07, 'datetime': '2018-10-09 09:57:10.805684', 'mgs': 1, 'volt': 0.0, 'depth': -12.5, 'time': 9, 'pitch': 2.68, 'roll': 3.13, 'pres': 0}
{'lipoC2': 8.13, 'lipoC3S1': 3.92, 'temp': 26.06, 'lipoC3S3': 11.94, 'lipoC3S2': 7.88, 'rot1': 110, 'rot0': 97, 'rot3': 0, 'rot2': 0, 'state': 'normal', 'yaw': -32.9, 'datetime': '2018-10-09 09:57:10.909315', 'mgs': 1, 'volt': 0.0, 'depth': -12.5, 'time': 9, 'pitch': 2.8, 'roll': 3.11, 'pres': 0}
{'lipoC2': 8.13, 'lipoC3S1': 3.95, 'temp': 26.06, 'lipoC3S3': 11.93, 'lipoC3S2': 7.85, 'rot1': 111, 'rot0': 98, 'rot3': 0, 'rot2': 0, 'state': 'normal', 'yaw': -35.06, 'datetime': '2018-10-09 09:57:11.012756', 'mgs': 1, 'volt': 0.0, 'depth': -12.5, 'time': 9, 'pitch': 2.96, 'roll': 3.0, 'pres': 0}
{'lipoC2': 8.13, 'lipoC3S1': 3.95, 'temp': 26.06, 'lipoC3S3': 11.94, 'lipoC3S2': 7.86, 'rot1': 113, 'rot0': 98, 'rot3': 0, 'rot2': 0, 'state': 'normal', 'yaw': -37.11, 'datetime': '2018-10-09 09:57:11.116400', 'mgs': 1, 'volt': 0.0, 'depth': -12.5, 'time': 9, 'pitch': 3.07, 'roll': 2.93, 'pres': 0}
{'lipoC2': 8.13, 'lipoC3S1': 3.95, 'temp': 26.13, 'lipoC3S3': 11.94, 'lipoC3S2': 7.83, 'rot1': 115, 'rot0': 99, 'rot3': 0, 'rot2': 0, 'state': 'normal', 'yaw': -39.08, 'datetime': '2018-10-09 09:57:11.226458', 'mgs': 1, 'volt': 0.0, 'depth': -12.5, 'time': 9, 'pitch': 3.17, 'roll': 2.84, 'pres': 0}
{'lipoC2': 8.13, 'lipoC3S1': 3.95, 'temp': 26.13, 'lipoC3S3': 11.9, 'lipoC3S2': 7.89, 'rot1': 117, 'rot0': 100, 'rot3': 0, 'rot2': 0, 'state': 'normal', 'yaw': -41.13, 'datetime': '2018-10-09 09:57:11.330191', 'mgs': 1, 'volt': 0.0, 'depth': -12.5, 'time': 9, 'pitch': 3.26, 'roll': 2.73, 'pres': 0}
{'lipoC2': 8.13, 'lipoC3S1': 3.95, 'temp': 26.13, 'lipoC3S3': 11.93, 'lipoC3S2': 7.9, 'rot1': 118, 'rot0': 100, 'rot3': 0, 'rot2': 0, 'state': 'normal', 'yaw': -42.85, 'datetime': '2018-10-09 09:57:11.433859', 'mgs': 1, 'volt': 0.0, 'depth': -12.5, 'time': 9, 'pitch': 3.35, 'roll': 2.64, 'pres': 0}
{'lipoC2': 8.13, 'lipoC3S1': 3.91, 'temp': 26.13, 'lipoC3S3': 11.94, 'lipoC3S2': 7.89, 'rot1': 120, 'rot0': 101, 'rot3': 0, 'rot2': 0, 'state': 'normal', 'yaw': -44.46, 'datetime': '2018-10-09 09:57:11.539010', 'mgs': 1, 'volt': 0.0, 'depth': -12.5, 'time': 10, 'pitch': 3.43, 'roll': 2.54, 'pres': 0}
{'lipoC2': 8.13, 'lipoC3S1': 3.95, 'temp': 26.13, 'lipoC3S3': 11.9, 'lipoC3S2': 7.89, 'rot1': 122, 'rot0': 101, 'rot3': 0, 'rot2': 0, 'state': 'normal', 'yaw': -46.15, 'datetime': '2018-10-09 09:57:11.642740', 'mgs': 1, 'volt': 0.0, 'depth': -12.5, 'time': 10, 'pitch': 3.5, 'roll': 2.44, 'pres': 0}
{'lipoC2': 8.13, 'lipoC3S1': 3.93, 'temp': 26.13, 'lipoC3S3': 11.94, 'lipoC3S2': 7.88, 'rot1': 124, 'rot0': 101, 'rot3': 0, 'rot2': 0, 'state': 'normal', 'yaw': -47.64, 'datetime': '2018-10-09 09:57:11.747838', 'mgs': 1, 'volt': 0.0, 'depth': -12.5, 'time': 10, 'pitch': 3.56, 'roll': 2.35, 'pres': 0}
{'lipoC2': 8.13, 'lipoC3S1': 3.95, 'temp': 26.13, 'lipoC3S3': 11.92, 'lipoC3S2': 7.89, 'rot1': 126, 'rot0': 101, 'rot3': 0, 'rot2': 0, 'state': 'normal', 'yaw': -49.22, 'datetime': '2018-10-09 09:57:11.852173', 'mgs': 1, 'volt': 0.0, 'depth': -12.5, 'time': 10, 'pitch': 3.65, 'roll': 2.25, 'pres': 0}
{'lipoC2': 8.13, 'lipoC3S1': 3.92, 'temp': 26.13, 'lipoC3S3': 11.94, 'lipoC3S2': 7.9, 'rot1': 127, 'rot0': 102, 'rot3': 0, 'rot2': 0, 'state': 'normal', 'yaw': -50.62, 'datetime': '2018-10-09 09:57:11.955799', 'mgs': 1, 'volt': 0.0, 'depth': -12.5, 'time': 10, 'pitch': 3.7, 'roll': 2.16, 'pres': 0}
{'lipoC2': 8.13, 'lipoC3S1': 3.95, 'temp': 26.13, 'lipoC3S3': 11.93, 'lipoC3S2': 7.9, 'rot1': 129, 'rot0': 102, 'rot3': 0, 'rot2': 0, 'state': 'normal', 'yaw': -51.93, 'datetime': '2018-10-09 09:57:12.060853', 'mgs': 1, 'volt': 0.0, 'depth': -12.5, 'time': 10, 'pitch': 3.75, 'roll': 2.08, 'pres': 0}
{'lipoC2': 8.13, 'lipoC3S1': 3.93, 'temp': 26.13, 'lipoC3S3': 11.94, 'lipoC3S2': 7.92, 'rot1': 131, 'rot0': 102, 'rot3': 0, 'rot2': 0, 'state': 'normal', 'yaw': -53.23, 'datetime': '2018-10-09 09:57:12.164562', 'mgs': 1, 'volt': 0.0, 'depth': -12.5, 'time': 10, 'pitch': 3.8, 'roll': 1.99, 'pres': 0}
{'lipoC2': 8.13, 'lipoC3S1': 3.95, 'temp': 26.13, 'lipoC3S3': 11.93, 'lipoC3S2': 7.89, 'rot1': 133, 'rot0': 102, 'rot3': 0, 'rot2': 0, 'state': 'normal', 'yaw': -54.26, 'datetime': '2018-10-09 09:57:12.268452', 'mgs': 1, 'volt': 0.0, 'depth': -12.5, 'time': 10, 'pitch': 3.83, 'roll': 1.92, 'pres': 0}
{'lipoC2': 8.13, 'lipoC3S1': 3.95, 'temp': 26.13, 'lipoC3S3': 11.94, 'lipoC3S2': 7.9, 'rot1': 134, 'rot0': 102, 'rot3': 0, 'rot2': 0, 'state': 'normal', 'yaw': -55.26, 'datetime': '2018-10-09 09:57:12.372245', 'mgs': 1, 'volt': 0.0, 'depth': -12.5, 'time': 10, 'pitch': 3.86, 'roll': 1.85, 'pres': 0}
{'lipoC2': 8.13, 'lipoC3S1': 3.93, 'temp': 26.13, 'lipoC3S3': 11.94, 'lipoC3S2': 7.9, 'rot1': 136, 'rot0': 102, 'rot3': 0, 'rot2': 0, 'state': 'normal', 'yaw': -56.19, 'datetime': '2018-10-09 09:57:12.476071', 'mgs': 1, 'volt': 0.0, 'depth': -12.5, 'time': 11, 'pitch': 3.89, 'roll': 1.79, 'pres': 0}
{'lipoC2': 8.13, 'lipoC3S1': 3.95, 'temp': 26.13, 'lipoC3S3': 11.93, 'lipoC3S2': 7.9, 'rot1': 138, 'rot0': 102, 'rot3': 0, 'rot2': 0, 'state': 'normal', 'yaw': -57.15, 'datetime': '2018-10-09 09:57:12.579823', 'mgs': 1, 'volt': 0.0, 'depth': -12.5, 'time': 11, 'pitch': 3.93, 'roll': 1.73, 'pres': 0}
{'lipoC2': 8.13, 'lipoC3S1': 3.95, 'temp': 26.13, 'lipoC3S3': 11.93, 'lipoC3S2': 7.9, 'rot1': 140, 'rot0': 102, 'rot3': 0, 'rot2': 0, 'state': 'normal', 'yaw': -58.19, 'datetime': '2018-10-09 09:57:12.683543', 'mgs': 1, 'volt': 0.0, 'depth': -12.5, 'time': 11, 'pitch': 3.96, 'roll': 1.66, 'pres': 0}
{'lipoC2': 8.13, 'lipoC3S1': 3.94, 'temp': 26.13, 'lipoC3S3': 11.94, 'lipoC3S2': 7.9, 'rot1': 141, 'rot0': 102, 'rot3': 0, 'rot2': 0, 'state': 'normal', 'yaw': -59.04, 'datetime': '2018-10-09 09:57:12.787320', 'mgs': 1, 'volt': 0.0, 'depth': -12.5, 'time': 11, 'pitch': 3.98, 'roll': 1.6, 'pres': 0}
{'lipoC2': 8.13, 'lipoC3S1': 3.95, 'temp': 26.13, 'lipoC3S3': 11.93, 'lipoC3S2': 7.9, 'rot1': 143, 'rot0': 102, 'rot3': 0, 'rot2': 0, 'state': 'normal', 'yaw': -59.87, 'datetime': '2018-10-09 09:57:12.892365', 'mgs': 1, 'volt': 0.0, 'depth': -12.5, 'time': 11, 'pitch': 4.01, 'roll': 1.54, 'pres': 0}
{'lipoC2': 8.13, 'lipoC3S1': 3.94, 'temp': 26.13, 'lipoC3S3': 11.94, 'lipoC3S2': 7.9, 'rot1': 145, 'rot0': 102, 'rot3': 0, 'rot2': 0, 'state': 'normal', 'yaw': -60.88, 'datetime': '2018-10-09 09:57:12.996181', 'mgs': 1, 'volt': 0.0, 'depth': -12.5, 'time': 11, 'pitch': 4.03, 'roll': 1.47, 'pres': 0}
{'lipoC2': 8.12, 'lipoC3S1': 3.95, 'temp': 26.13, 'lipoC3S3': 11.93, 'lipoC3S2': 7.9, 'rot1': 147, 'rot0': 102, 'rot3': 0, 'rot2': 0, 'state': 'normal', 'yaw': -61.79, 'datetime': '2018-10-09 09:57:13.101362', 'mgs': 1, 'volt': 0.0, 'depth': -12.5, 'time': 11, 'pitch': 4.06, 'roll': 1.4, 'pres': 0}
{'lipoC2': 8.13, 'lipoC3S1': 3.95, 'temp': 26.13, 'lipoC3S3': 11.94, 'lipoC3S2': 7.9, 'rot1': 148, 'rot0': 102, 'rot3': 0, 'rot2': 0, 'state': 'normal', 'yaw': -62.74, 'datetime': '2018-10-09 09:57:13.204993', 'mgs': 1, 'volt': 0.0, 'depth': -12.5, 'time': 11, 'pitch': 4.08, 'roll': 1.34, 'pres': 0}
{'lipoC2': 8.13, 'lipoC3S1': 3.95, 'temp': 26.13, 'lipoC3S3': 11.94, 'lipoC3S2': 7.88, 'rot1': 150, 'rot0': 102, 'rot3': 0, 'rot2': 0, 'state': 'normal', 'yaw': -63.52, 'datetime': '2018-10-09 09:57:13.308769', 'mgs': 1, 'volt': 0.0, 'depth': -12.5, 'time': 11, 'pitch': 4.1, 'roll': 1.28, 'pres': 0}
{'lipoC2': 8.13, 'lipoC3S1': 3.95, 'temp': 26.13, 'lipoC3S3': 11.94, 'lipoC3S2': 7.9, 'rot1': 152, 'rot0': 102, 'rot3': 0, 'rot2': 0, 'state': 'normal', 'yaw': -64.24, 'datetime': '2018-10-09 09:57:13.413972', 'mgs': 1, 'volt': 0.0, 'depth': -12.5, 'time': 11, 'pitch': 4.11, 'roll': 1.22, 'pres': 0}
{'lipoC2': 8.13, 'lipoC3S1': 3.92, 'temp': 26.13, 'lipoC3S3': 11.94, 'lipoC3S2': 7.9, 'rot1': 154, 'rot0': 102, 'rot3': 0, 'rot2': 0, 'state': 'normal', 'yaw': -64.92, 'datetime': '2018-10-09 09:57:13.517675', 'mgs': 1, 'volt': 0.0, 'depth': -12.5, 'time': 12, 'pitch': 4.13, 'roll': 1.18, 'pres': 0}
{'lipoC2': 8.13, 'lipoC3S1': 3.95, 'temp': 26.13, 'lipoC3S3': 11.89, 'lipoC3S2': 7.89, 'rot1': 156, 'rot0': 102, 'rot3': 0, 'rot2': 0, 'state': 'normal', 'yaw': -65.56, 'datetime': '2018-10-09 09:57:13.621343', 'mgs': 1, 'volt': 0.0, 'depth': -12.5, 'time': 12, 'pitch': 4.14, 'roll': 1.14, 'pres': 0}
{'lipoC2': 8.13, 'lipoC3S1': 3.95, 'temp': 26.13, 'lipoC3S3': 11.93, 'lipoC3S2': 7.9, 'rot1': 157, 'rot0': 102, 'rot3': 0, 'rot2': 0, 'state': 'normal', 'yaw': -66.25, 'datetime': '2018-10-09 09:57:13.725509', 'mgs': 1, 'volt': 0.0, 'depth': -12.5, 'time': 12, 'pitch': 4.16, 'roll': 1.08, 'pres': 0}
{'lipoC2': 8.13, 'lipoC3S1': 3.94, 'temp': 26.13, 'lipoC3S3': 11.94, 'lipoC3S2': 7.9, 'rot1': 159, 'rot0': 102, 'rot3': 0, 'rot2': 0, 'state': 'normal', 'yaw': -67.05, 'datetime': '2018-10-09 09:57:13.828959', 'mgs': 1, 'volt': 0.0, 'depth': -12.5, 'time': 12, 'pitch': 4.17, 'roll': 1.02, 'pres': 0}
{'lipoC2': 8.13, 'lipoC3S1': 3.95, 'temp': 26.13, 'lipoC3S3': 11.93, 'lipoC3S2': 7.84, 'rot1': 161, 'rot0': 102, 'rot3': 0, 'rot2': 0, 'state': 'normal', 'yaw': -67.85, 'datetime': '2018-10-09 09:57:13.932699', 'mgs': 1, 'volt': 0.0, 'depth': -12.5, 'time': 12, 'pitch': 4.18, 'roll': 0.97, 'pres': 0}
{'lipoC2': 8.13, 'lipoC3S1': 3.95, 'temp': 26.13, 'lipoC3S3': 11.94, 'lipoC3S2': 7.9, 'rot1': 163, 'rot0': 102, 'rot3': 0, 'rot2': 0, 'state': 'normal', 'yaw': -68.84, 'datetime': '2018-10-09 09:57:14.036607', 'mgs': 1, 'volt': 0.0, 'depth': -12.5, 'time': 12, 'pitch': 4.2, 'roll': 0.9, 'pres': 0}
{'lipoC2': 8.13, 'lipoC3S1': 3.92, 'temp': 26.13, 'lipoC3S3': 11.94, 'lipoC3S2': 7.89, 'rot1': 164, 'rot0': 102, 'rot3': 0, 'rot2': 0, 'state': 'normal', 'yaw': -70.33, 'datetime': '2018-10-09 09:57:14.140339', 'mgs': 1, 'volt': 0.0, 'depth': -12.5, 'time': 12, 'pitch': 4.22, 'roll': 0.79, 'pres': 0}
{'lipoC2': 8.13, 'lipoC3S1': 3.95, 'temp': 26.13, 'lipoC3S3': 11.93, 'lipoC3S2': 7.9, 'rot1': 166, 'rot0': 103, 'rot3': 0, 'rot2': 0, 'state': 'normal', 'yaw': -71.98, 'datetime': '2018-10-09 09:57:14.245443', 'mgs': 1, 'volt': 0.0, 'depth': -12.5, 'time': 12, 'pitch': 4.24, 'roll': 0.67, 'pres': 0}
{'lipoC2': 8.13, 'lipoC3S1': 3.92, 'temp': 26.13, 'lipoC3S3': 11.94, 'lipoC3S2': 7.9, 'rot1': 168, 'rot0': 103, 'rot3': 0, 'rot2': 0, 'state': 'normal', 'yaw': -74.38, 'datetime': '2018-10-09 09:57:14.349239', 'mgs': 1, 'volt': 0.0, 'depth': -12.5, 'time': 12, 'pitch': 4.27, 'roll': 0.59, 'pres': 0}
{'lipoC2': 8.13, 'lipoC3S1': 3.95, 'temp': 26.13, 'lipoC3S3': 11.94, 'lipoC3S2': 7.9, 'rot1': 170, 'rot0': 104, 'rot3': 0, 'rot2': 0, 'state': 'normal', 'yaw': -76.8, 'datetime': '2018-10-09 09:57:14.451971', 'mgs': 1, 'volt': 0.0, 'depth': -12.5, 'time': 12, 'pitch': 4.1, 'roll': 0.36, 'pres': 0}
{'lipoC2': 8.13, 'lipoC3S1': 3.95, 'temp': 26.25, 'lipoC3S3': 11.97, 'lipoC3S2': 7.87, 'rot1': 171, 'rot0': 104, 'rot3': 0, 'rot2': 0, 'state': 'normal', 'yaw': -79.05, 'datetime': '2018-10-09 09:57:14.551751', 'mgs': 1, 'volt': 0.0, 'depth': -12.5, 'time': 13, 'pitch': 3.89, 'roll': 0.23, 'pres': 0}
{'lipoC2': 8.13, 'lipoC3S1': 3.95, 'temp': 26.25, 'lipoC3S3': 11.93, 'lipoC3S2': 7.89, 'rot1': 173, 'rot0': 105, 'rot3': 0, 'rot2': 0, 'state': 'normal', 'yaw': -81.42, 'datetime': '2018-10-09 09:57:14.662047', 'mgs': 1, 'volt': 0.0, 'depth': -12.5, 'time': 13, 'pitch': 4.02, 'roll': 0.18, 'pres': 0}
{'lipoC2': 8.13, 'lipoC3S1': 3.95, 'temp': 26.25, 'lipoC3S3': 11.93, 'lipoC3S2': 7.87, 'rot1': 175, 'rot0': 105, 'rot3': 0, 'rot2': 0, 'state': 'normal', 'yaw': -83.5, 'datetime': '2018-10-09 09:57:14.767178', 'mgs': 1, 'volt': 0.0, 'depth': -12.5, 'time': 13, 'pitch': 4.13, 'roll': -0.02, 'pres': 0}
{'lipoC2': 8.12, 'lipoC3S1': 3.95, 'temp': 26.13, 'lipoC3S3': 11.96, 'lipoC3S2': 7.89, 'rot1': 177, 'rot0': 106, 'rot3': 0, 'rot2': 0, 'state': 'normal', 'yaw': -85.62, 'datetime': '2018-10-09 09:57:14.871646', 'mgs': 1, 'volt': 0.0, 'depth': -12.5, 'time': 13, 'pitch': 4.01, 'roll': -0.12, 'pres': 0}
{'lipoC2': 8.12, 'lipoC3S1': 3.95, 'temp': 26.13, 'lipoC3S3': 11.93, 'lipoC3S2': 7.89, 'rot1': 178, 'rot0': 107, 'rot3': 0, 'rot2': 0, 'state': 'normal', 'yaw': -87.44, 'datetime': '2018-10-09 09:57:14.964141', 'mgs': 1, 'volt': 0.0049, 'depth': -12.424, 'time': 13, 'pitch': 3.94, 'roll': -0.17, 'pres': 1}
{'lipoC2': 8.13, 'lipoC3S1': 3.94, 'temp': 26.13, 'lipoC3S3': 11.93, 'lipoC3S2': 7.85, 'rot1': 180, 'rot0': 108, 'rot3': 0, 'rot2': 0, 'state': 'normal', 'yaw': -89.18, 'datetime': '2018-10-09 09:57:15.067880', 'mgs': 1, 'volt': 0.0, 'depth': -12.5, 'time': 13, 'pitch': 4.0, 'roll': -0.32, 'pres': 0}
{'lipoC2': 8.13, 'lipoC3S1': 3.95, 'temp': 26.13, 'lipoC3S3': 11.87, 'lipoC3S2': 7.89, 'rot1': 182, 'rot0': 109, 'rot3': 0, 'rot2': 0, 'state': 'normal', 'yaw': -90.95, 'datetime': '2018-10-09 09:57:15.171609', 'mgs': 1, 'volt': 0.0, 'depth': -12.5, 'time': 13, 'pitch': 4.02, 'roll': -0.43, 'pres': 0}
{'lipoC2': 8.13, 'lipoC3S1': 3.95, 'temp': 26.13, 'lipoC3S3': 11.93, 'lipoC3S2': 7.89, 'rot1': 184, 'rot0': 110, 'rot3': 0, 'rot2': 0, 'state': 'normal', 'yaw': -92.4, 'datetime': '2018-10-09 09:57:15.275530', 'mgs': 1, 'volt': 0.0195, 'depth': -12.195, 'time': 13, 'pitch': 3.92, 'roll': -0.47, 'pres': 4}
{'lipoC2': 8.13, 'lipoC3S1': 3.95, 'temp': 26.13, 'lipoC3S3': 11.93, 'lipoC3S2': 7.87, 'rot1': 185, 'rot0': 111, 'rot3': 0, 'rot2': 0, 'state': 'normal', 'yaw': -93.76, 'datetime': '2018-10-09 09:57:15.379309', 'mgs': 1, 'volt': 0.0, 'depth': -12.5, 'time': 13, 'pitch': 3.88, 'roll': -0.57, 'pres': 0}
{'lipoC2': 8.13, 'lipoC3S1': 3.95, 'temp': 26.13, 'lipoC3S3': 11.88, 'lipoC3S2': 7.89, 'rot1': 187, 'rot0': 113, 'rot3': 0, 'rot2': 0, 'state': 'normal', 'yaw': -95.21, 'datetime': '2018-10-09 09:57:15.483077', 'mgs': 1, 'volt': 0.0, 'depth': -12.5, 'time': 14, 'pitch': 3.92, 'roll': -0.68, 'pres': 0}
{'lipoC2': 8.13, 'lipoC3S1': 3.93, 'temp': 26.13, 'lipoC3S3': 11.93, 'lipoC3S2': 7.89, 'rot1': 189, 'rot0': 114, 'rot3': 0, 'rot2': 0, 'state': 'normal', 'yaw': -96.46, 'datetime': '2018-10-09 09:57:15.587015', 'mgs': 1, 'volt': 0.0, 'depth': -12.5, 'time': 14, 'pitch': 3.93, 'roll': -0.74, 'pres': 0}
{'lipoC2': 8.13, 'lipoC3S1': 3.93, 'temp': 26.13, 'lipoC3S3': 11.93, 'lipoC3S2': 7.89, 'rot1': 191, 'rot0': 115, 'rot3': 0, 'rot2': 0, 'state': 'normal', 'yaw': -97.76, 'datetime': '2018-10-09 09:57:15.702117', 'mgs': 1, 'volt': 0.0, 'depth': -12.5, 'time': 14, 'pitch': 3.82, 'roll': -0.85, 'pres': 0}
{'lipoC2': 8.13, 'lipoC3S1': 3.94, 'temp': 26.13, 'lipoC3S3': 11.97, 'lipoC3S2': 7.82, 'rot1': 192, 'rot0': 116, 'rot3': 0, 'rot2': 0, 'state': 'normal', 'yaw': -99.28, 'datetime': '2018-10-09 09:57:15.805795', 'mgs': 1, 'volt': 0.0, 'depth': -12.5, 'time': 14, 'pitch': 3.79, 'roll': -0.94, 'pres': 0}
{'lipoC2': 8.13, 'lipoC3S1': 3.95, 'temp': 26.13, 'lipoC3S3': 11.93, 'lipoC3S2': 7.89, 'rot1': 194, 'rot0': 118, 'rot3': 0, 'rot2': 0, 'state': 'normal', 'yaw': -100.78, 'datetime': '2018-10-09 09:57:15.910977', 'mgs': 1, 'volt': 0.0, 'depth': -12.5, 'time': 14, 'pitch': 3.78, 'roll': -1.01, 'pres': 0}
{'lipoC2': 8.13, 'lipoC3S1': 3.95, 'temp': 26.13, 'lipoC3S3': 11.9, 'lipoC3S2': 7.83, 'rot1': 196, 'rot0': 119, 'rot3': 0, 'rot2': 0, 'state': 'normal', 'yaw': -102.41, 'datetime': '2018-10-09 09:57:16.014970', 'mgs': 1, 'volt': 0.0, 'depth': -12.5, 'time': 14, 'pitch': 3.75, 'roll': -1.06, 'pres': 0}
{'lipoC2': 8.13, 'lipoC3S1': 3.92, 'temp': 26.13, 'lipoC3S3': 11.93, 'lipoC3S2': 7.89, 'rot1': 198, 'rot0': 120, 'rot3': 0, 'rot2': 0, 'state': 'normal', 'yaw': -103.83, 'datetime': '2018-10-09 09:57:16.119934', 'mgs': 1, 'volt': 0.0, 'depth': -12.5, 'time': 14, 'pitch': 3.72, 'roll': -1.16, 'pres': 0}
{'lipoC2': 8.13, 'lipoC3S1': 3.94, 'temp': 26.13, 'lipoC3S3': 11.93, 'lipoC3S2': 7.89, 'rot1': 200, 'rot0': 122, 'rot3': 0, 'rot2': 0, 'state': 'normal', 'yaw': -105.5, 'datetime': '2018-10-09 09:57:16.224281', 'mgs': 1, 'volt': 0.0, 'depth': -12.5, 'time': 14, 'pitch': 3.65, 'roll': -1.34, 'pres': 0}
{'lipoC2': 8.13, 'lipoC3S1': 3.94, 'temp': 26.13, 'lipoC3S3': 11.92, 'lipoC3S2': 7.87, 'rot1': 201, 'rot0': 124, 'rot3': 0, 'rot2': 0, 'state': 'normal', 'yaw': -107.15, 'datetime': '2018-10-09 09:57:16.321716', 'mgs': 1, 'volt': 0.0, 'depth': -12.5, 'time': 14, 'pitch': 3.63, 'roll': -1.37, 'pres': 0}
{'lipoC2': 8.13, 'lipoC3S1': 3.95, 'temp': 26.13, 'lipoC3S3': 11.93, 'lipoC3S2': 7.89, 'rot1': 203, 'rot0': 125, 'rot3': 0, 'rot2': 0, 'state': 'normal', 'yaw': -109.01, 'datetime': '2018-10-09 09:57:16.432493', 'mgs': 1, 'volt': 0.0, 'depth': -12.5, 'time': 14, 'pitch': 3.59, 'roll': -1.47, 'pres': 0}
{'lipoC2': 8.13, 'lipoC3S1': 3.9, 'temp': 26.13, 'lipoC3S3': 11.93, 'lipoC3S2': 7.9, 'rot1': 205, 'rot0': 127, 'rot3': 0, 'rot2': 0, 'state': 'normal', 'yaw': -111.36, 'datetime': '2018-10-09 09:57:16.536075', 'mgs': 1, 'volt': 0.0, 'depth': -12.5, 'time': 15, 'pitch': 3.51, 'roll': -1.63, 'pres': 0}
{'lipoC2': 8.13, 'lipoC3S1': 3.95, 'temp': 26.13, 'lipoC3S3': 11.84, 'lipoC3S2': 7.88, 'rot1': 207, 'rot0': 129, 'rot3': 0, 'rot2': 0, 'state': 'normal', 'yaw': -113.75, 'datetime': '2018-10-09 09:57:16.639784', 'mgs': 1, 'volt': 0.0, 'depth': -12.5, 'time': 15, 'pitch': 3.43, 'roll': -1.74, 'pres': 0}
{'lipoC2': 8.13, 'lipoC3S1': 3.97, 'temp': 26.13, 'lipoC3S3': 11.92, 'lipoC3S2': 7.89, 'rot1': 208, 'rot0': 130, 'rot3': 0, 'rot2': 0, 'state': 'normal', 'yaw': -116.36, 'datetime': '2018-10-09 09:57:16.743684', 'mgs': 1, 'volt': 0.0195, 'depth': -12.195, 'time': 15, 'pitch': 3.36, 'roll': -1.84, 'pres': 4}
{'lipoC2': 8.13, 'lipoC3S1': 3.94, 'temp': 26.13, 'lipoC3S3': 11.92, 'lipoC3S2': 7.81, 'rot1': 210, 'rot0': 132, 'rot3': 0, 'rot2': 0, 'state': 'normal', 'yaw': -119.43, 'datetime': '2018-10-09 09:57:16.847638', 'mgs': 1, 'volt': 0.0, 'depth': -12.5, 'time': 15, 'pitch': 3.26, 'roll': -2.02, 'pres': 0}
{'lipoC2': 8.13, 'lipoC3S1': 3.98, 'temp': 26.13, 'lipoC3S3': 11.92, 'lipoC3S2': 7.89, 'rot1': 212, 'rot0': 134, 'rot3': 0, 'rot2': 0, 'state': 'normal', 'yaw': -122.32, 'datetime': '2018-10-09 09:57:16.951611', 'mgs': 1, 'volt': 0.0195, 'depth': -12.195, 'time': 15, 'pitch': 3.15, 'roll': -2.12, 'pres': 4}
{'lipoC2': 8.13, 'lipoC3S1': 3.94, 'temp': 26.13, 'lipoC3S3': 11.92, 'lipoC3S2': 7.89, 'rot1': 214, 'rot0': 136, 'rot3': 0, 'rot2': 0, 'state': 'normal', 'yaw': -125.26, 'datetime': '2018-10-09 09:57:17.049618', 'mgs': 1, 'volt': 0.0, 'depth': -12.5, 'time': 15, 'pitch': 3.04, 'roll': -2.24, 'pres': 0}
{'lipoC2': 8.13, 'lipoC3S1': 3.94, 'temp': 26.13, 'lipoC3S3': 11.9, 'lipoC3S2': 7.84, 'rot1': 215, 'rot0': 139, 'rot3': 0, 'rot2': 0, 'state': 'normal', 'yaw': -128.52, 'datetime': '2018-10-09 09:57:17.153316', 'mgs': 1, 'volt': 0.0, 'depth': -12.5, 'time': 15, 'pitch': 2.91, 'roll': -2.41, 'pres': 0}
{'lipoC2': 8.13, 'lipoC3S1': 3.9, 'temp': 26.13, 'lipoC3S3': 11.92, 'lipoC3S2': 7.89, 'rot1': 217, 'rot0': 141, 'rot3': 0, 'rot2': 0, 'state': 'normal', 'yaw': -131.45, 'datetime': '2018-10-09 09:57:17.258640', 'mgs': 1, 'volt': 0.0, 'depth': -12.5, 'time': 15, 'pitch': 2.78, 'roll': -2.53, 'pres': 0}
{'lipoC2': 8.13, 'lipoC3S1': 3.94, 'temp': 26.13, 'lipoC3S3': 11.9, 'lipoC3S2': 7.87, 'rot1': 219, 'rot0': 143, 'rot3': 0, 'rot2': 0, 'state': 'normal', 'yaw': -134.65, 'datetime': '2018-10-09 09:57:17.369152', 'mgs': 1, 'volt': 0.0, 'depth': -12.5, 'time': 15, 'pitch': 2.63, 'roll': -2.66, 'pres': 0}
{'lipoC2': 8.13, 'lipoC3S1': 3.91, 'temp': 26.13, 'lipoC3S3': 11.96, 'lipoC3S2': 7.84, 'rot1': 221, 'rot0': 146, 'rot3': 0, 'rot2': 0, 'state': 'normal', 'yaw': -137.51, 'datetime': '2018-10-09 09:57:17.474256', 'mgs': 1, 'volt': 0.0, 'depth': -12.5, 'time': 15, 'pitch': 2.51, 'roll': -2.79, 'pres': 0}
{'lipoC2': 8.13, 'lipoC3S1': 3.96, 'temp': 26.13, 'lipoC3S3': 11.9, 'lipoC3S2': 7.88, 'rot1': 223, 'rot0': 149, 'rot3': 0, 'rot2': 0, 'state': 'normal', 'yaw': -140.57, 'datetime': '2018-10-09 09:57:17.578284', 'mgs': 1, 'volt': 0.0, 'depth': -12.5, 'time': 16, 'pitch': 2.35, 'roll': -2.9, 'pres': 0}
{'lipoC2': 8.13, 'lipoC3S1': 3.95, 'temp': 26.13, 'lipoC3S3': 11.93, 'lipoC3S2': 7.82, 'rot1': 224, 'rot0': 152, 'rot3': 0, 'rot2': 0, 'state': 'normal', 'yaw': -143.28, 'datetime': '2018-10-09 09:57:17.682195', 'mgs': 1, 'volt': 0.0, 'depth': -12.5, 'time': 16, 'pitch': 2.19, 'roll': -3.0, 'pres': 0}
{'lipoC2': 8.13, 'lipoC3S1': 3.94, 'temp': 26.13, 'lipoC3S3': 11.9, 'lipoC3S2': 7.88, 'rot1': 226, 'rot0': 155, 'rot3': 0, 'rot2': 0, 'state': 'normal', 'yaw': -145.88, 'datetime': '2018-10-09 09:57:17.786186', 'mgs': 1, 'volt': 0.0, 'depth': -12.5, 'time': 16, 'pitch': 2.04, 'roll': -3.1, 'pres': 0}
{'lipoC2': 8.13, 'lipoC3S1': 3.9, 'temp': 26.13, 'lipoC3S3': 11.92, 'lipoC3S2': 7.89, 'rot1': 228, 'rot0': 157, 'rot3': 0, 'rot2': 0, 'state': 'normal', 'yaw': -148.57, 'datetime': '2018-10-09 09:57:17.890106', 'mgs': 1, 'volt': 0.0, 'depth': -12.5, 'time': 16, 'pitch': 1.9, 'roll': -3.18, 'pres': 0}
{'lipoC2': 8.13, 'lipoC3S1': 3.94, 'temp': 26.19, 'lipoC3S3': 11.88, 'lipoC3S2': 7.83, 'rot1': 230, 'rot0': 160, 'rot3': 0, 'rot2': 0, 'state': 'normal', 'yaw': -150.91, 'datetime': '2018-10-09 09:57:17.993771', 'mgs': 1, 'volt': 0.0, 'depth': -12.5, 'time': 16, 'pitch': 1.76, 'roll': -3.25, 'pres': 0}
{'lipoC2': 8.12, 'lipoC3S1': 3.95, 'temp': 26.19, 'lipoC3S3': 11.9, 'lipoC3S2': 7.88, 'rot1': 232, 'rot0': 164, 'rot3': 0, 'rot2': 0, 'state': 'normal', 'yaw': -153.12, 'datetime': '2018-10-09 09:57:18.097710', 'mgs': 1, 'volt': 0.0, 'depth': -12.5, 'time': 16, 'pitch': 1.63, 'roll': -3.31, 'pres': 0}
{'lipoC2': 8.13, 'lipoC3S1': 3.92, 'temp': 26.13, 'lipoC3S3': 11.94, 'lipoC3S2': 7.84, 'rot1': 233, 'rot0': 167, 'rot3': 0, 'rot2': 0, 'state': 'normal', 'yaw': -155.38, 'datetime': '2018-10-09 09:57:18.201401', 'mgs': 1, 'volt': 0.0, 'depth': -12.5, 'time': 16, 'pitch': 1.48, 'roll': -3.37, 'pres': 0}
{'lipoC2': 8.12, 'lipoC3S1': 3.94, 'temp': 26.13, 'lipoC3S3': 11.93, 'lipoC3S2': 7.88, 'rot1': 235, 'rot0': 170, 'rot3': 0, 'rot2': 0, 'state': 'normal', 'yaw': -157.26, 'datetime': '2018-10-09 09:57:18.305440', 'mgs': 1, 'volt': 0.0, 'depth': -12.5, 'time': 16, 'pitch': 1.36, 'roll': -3.41, 'pres': 0}
{'lipoC2': 8.12, 'lipoC3S1': 3.94, 'temp': 26.13, 'lipoC3S3': 11.9, 'lipoC3S2': 7.88, 'rot1': 237, 'rot0': 174, 'rot3': 0, 'rot2': 0, 'state': 'normal', 'yaw': -158.89, 'datetime': '2018-10-09 09:57:18.409874', 'mgs': 1, 'volt': 0.0049, 'depth': -12.424, 'time': 16, 'pitch': 1.24, 'roll': -3.44, 'pres': 1}
{'lipoC2': 8.13, 'lipoC3S1': 3.92, 'temp': 26.13, 'lipoC3S3': 11.96, 'lipoC3S2': 7.84, 'rot1': 239, 'rot0': 177, 'rot3': 0, 'rot2': 0, 'state': 'normal', 'yaw': -160.39, 'datetime': '2018-10-09 09:57:18.513764', 'mgs': 1, 'volt': 0.0, 'depth': -12.5, 'time': 17, 'pitch': 1.15, 'roll': -3.46, 'pres': 0}
{'lipoC2': 8.12, 'lipoC3S1': 3.94, 'temp': 26.13, 'lipoC3S3': 11.9, 'lipoC3S2': 7.88, 'rot1': 241, 'rot0': 180, 'rot3': 0, 'rot2': 0, 'state': 'normal', 'yaw': -161.52, 'datetime': '2018-10-09 09:57:18.618896', 'mgs': 1, 'volt': 0.0, 'depth': -12.5, 'time': 17, 'pitch': 1.09, 'roll': -3.48, 'pres': 0}
{'lipoC2': 8.13, 'lipoC3S1': 3.91, 'temp': 26.13, 'lipoC3S3': 11.89, 'lipoC3S2': 7.86, 'rot1': 242, 'rot0': 184, 'rot3': 0, 'rot2': 0, 'state': 'normal', 'yaw': -162.54, 'datetime': '2018-10-09 09:57:18.716455', 'mgs': 1, 'volt': 0.0, 'depth': -12.5, 'time': 17, 'pitch': 1.06, 'roll': -3.5, 'pres': 0}
{'lipoC2': 8.13, 'lipoC3S1': 3.92, 'temp': 26.13, 'lipoC3S3': 11.92, 'lipoC3S2': 7.93, 'rot1': 244, 'rot0': 187, 'rot3': 0, 'rot2': 0, 'state': 'normal', 'yaw': -163.36, 'datetime': '2018-10-09 09:57:18.828019', 'mgs': 1, 'volt': 0.0, 'depth': -12.5, 'time': 17, 'pitch': 1.02, 'roll': -3.51, 'pres': 0}
{'lipoC2': 8.12, 'lipoC3S1': 3.94, 'temp': 26.13, 'lipoC3S3': 11.87, 'lipoC3S2': 7.87, 'rot1': 246, 'rot0': 191, 'rot3': 0, 'rot2': 0, 'state': 'normal', 'yaw': -164.14, 'datetime': '2018-10-09 09:57:18.931858', 'mgs': 1, 'volt': 0.0, 'depth': -12.5, 'time': 17, 'pitch': 0.93, 'roll': -3.52, 'pres': 0}
{'lipoC2': 8.13, 'lipoC3S1': 3.93, 'temp': 26.13, 'lipoC3S3': 11.92, 'lipoC3S2': 7.88, 'rot1': 248, 'rot0': 195, 'rot3': 0, 'rot2': 0, 'state': 'normal', 'yaw': -164.73, 'datetime': '2018-10-09 09:57:19.035787', 'mgs': 1, 'volt': 0.0, 'depth': -12.5, 'time': 17, 'pitch': 0.88, 'roll': -3.51, 'pres': 0}
{'lipoC2': 8.13, 'lipoC3S1': 3.9, 'temp': 26.13, 'lipoC3S3': 11.88, 'lipoC3S2': 7.83, 'rot1': 250, 'rot0': 198, 'rot3': 0, 'rot2': 0, 'state': 'normal', 'yaw': -165.27, 'datetime': '2018-10-09 09:57:19.139609', 'mgs': 1, 'volt': 0.0, 'depth': -12.5, 'time': 17, 'pitch': 0.88, 'roll': -3.49, 'pres': 0}
{'lipoC2': 8.13, 'lipoC3S1': 3.94, 'temp': 26.13, 'lipoC3S3': 11.84, 'lipoC3S2': 7.87, 'rot1': 251, 'rot0': 202, 'rot3': 0, 'rot2': 0, 'state': 'normal', 'yaw': -165.82, 'datetime': '2018-10-09 09:57:19.243539', 'mgs': 1, 'volt': 0.0, 'depth': -12.5, 'time': 17, 'pitch': 0.88, 'roll': -3.48, 'pres': 0}
{'lipoC2': 8.13, 'lipoC3S1': 3.93, 'temp': 26.13, 'lipoC3S3': 11.92, 'lipoC3S2': 7.86, 'rot1': 253, 'rot0': 205, 'rot3': 0, 'rot2': 0, 'state': 'normal', 'yaw': -166.31, 'datetime': '2018-10-09 09:57:19.347897', 'mgs': 1, 'volt': 0.0, 'depth': -12.5, 'time': 17, 'pitch': 0.82, 'roll': -3.47, 'pres': 0}
{'lipoC2': 8.13, 'lipoC3S1': 3.94, 'temp': 26.19, 'lipoC3S3': 11.88, 'lipoC3S2': 7.84, 'rot1': 255, 'rot0': 209, 'rot3': 0, 'rot2': 0, 'state': 'normal', 'yaw': -166.75, 'datetime': '2018-10-09 09:57:19.444683', 'mgs': 1, 'volt': 0.0, 'depth': -12.5, 'time': 17, 'pitch': 0.74, 'roll': -3.48, 'pres': 0}
{'lipoC2': 8.12, 'lipoC3S1': 3.94, 'temp': 26.19, 'lipoC3S3': 11.9, 'lipoC3S2': 7.88, 'rot1': 257, 'rot0': 213, 'rot3': 0, 'rot2': 0, 'state': 'normal', 'yaw': -167.24, 'datetime': '2018-10-09 09:57:19.555230', 'mgs': 1, 'volt': 0.0, 'depth': -12.5, 'time': 18, 'pitch': 0.72, 'roll': -3.47, 'pres': 0}
{'lipoC2': 8.13, 'lipoC3S1': 3.96, 'temp': 26.19, 'lipoC3S3': 11.87, 'lipoC3S2': 7.85, 'rot1': 259, 'rot0': 217, 'rot3': 0, 'rot2': 0, 'state': 'normal', 'yaw': -167.64, 'datetime': '2018-10-09 09:57:19.652476', 'mgs': 1, 'volt': 0.0, 'depth': -12.5, 'time': 18, 'pitch': 0.72, 'roll': -3.48, 'pres': 0}
{'lipoC2': 8.12, 'lipoC3S1': 3.94, 'temp': 26.19, 'lipoC3S3': 11.88, 'lipoC3S2': 7.83, 'rot1': 260, 'rot0': 221, 'rot3': 0, 'rot2': 0, 'state': 'normal', 'yaw': -168.04, 'datetime': '2018-10-09 09:57:19.757207', 'mgs': 1, 'volt': 0.0, 'depth': -12.5, 'time': 18, 'pitch': 0.68, 'roll': -3.47, 'pres': 0}
{'lipoC2': 8.12, 'lipoC3S1': 3.93, 'temp': 26.19, 'lipoC3S3': 11.9, 'lipoC3S2': 7.88, 'rot1': 262, 'rot0': 224, 'rot3': 0, 'rot2': 0, 'state': 'normal', 'yaw': -168.44, 'datetime': '2018-10-09 09:57:19.860948', 'mgs': 1, 'volt': 0.0, 'depth': -12.5, 'time': 18, 'pitch': 0.64, 'roll': -3.47, 'pres': 0}
{'lipoC2': 8.12, 'lipoC3S1': 3.94, 'temp': 26.19, 'lipoC3S3': 11.85, 'lipoC3S2': 7.86, 'rot1': 264, 'rot0': 228, 'rot3': 0, 'rot2': 0, 'state': 'normal', 'yaw': -168.83, 'datetime': '2018-10-09 09:57:19.972556', 'mgs': 1, 'volt': 0.0, 'depth': -12.5, 'time': 18, 'pitch': 0.63, 'roll': -3.5, 'pres': 0}
{'lipoC2': 8.13, 'lipoC3S1': 3.91, 'temp': 26.19, 'lipoC3S3': 11.9, 'lipoC3S2': 7.91, 'rot1': 266, 'rot0': 232, 'rot3': 0, 'rot2': 1, 'state': 'normal', 'yaw': -169.27, 'datetime': '2018-10-09 09:57:20.069918', 'mgs': 1, 'volt': 0.0, 'depth': -12.5, 'time': 18, 'pitch': 0.63, 'roll': -3.49, 'pres': 0}
{'lipoC2': 8.13, 'lipoC3S1': 4.0, 'temp': 26.13, 'lipoC3S3': 11.84, 'lipoC3S2': 7.87, 'rot1': 267, 'rot0': 236, 'rot3': 0, 'rot2': 1, 'state': 'normal', 'yaw': -169.71, 'datetime': '2018-10-09 09:57:20.175087', 'mgs': 1, 'volt': 0.0049, 'depth': -12.424, 'time': 18, 'pitch': 0.57, 'roll': -3.47, 'pres': 1}
{'lipoC2': 8.13, 'lipoC3S1': 3.94, 'temp': 26.13, 'lipoC3S3': 11.88, 'lipoC3S2': 7.83, 'rot1': 269, 'rot0': 239, 'rot3': 0, 'rot2': 1, 'state': 'normal', 'yaw': -170.25, 'datetime': '2018-10-09 09:57:20.279258', 'mgs': 1, 'volt': 0.0, 'depth': -12.5, 'time': 18, 'pitch': 0.53, 'roll': -3.47, 'pres': 0}
{'lipoC2': 8.12, 'lipoC3S1': 3.94, 'temp': 26.19, 'lipoC3S3': 11.9, 'lipoC3S2': 7.88, 'rot1': 271, 'rot0': 243, 'rot3': 0, 'rot2': 1, 'state': 'normal', 'yaw': -170.74, 'datetime': '2018-10-09 09:57:20.383077', 'mgs': 1, 'volt': 0.0, 'depth': -12.5, 'time': 18, 'pitch': 0.47, 'roll': -3.47, 'pres': 0}
{'lipoC2': 8.13, 'lipoC3S1': 3.91, 'temp': 26.19, 'lipoC3S3': 11.89, 'lipoC3S2': 7.84, 'rot1': 273, 'rot0': 247, 'rot3': 0, 'rot2': 1, 'state': 'normal', 'yaw': -171.22, 'datetime': '2018-10-09 09:57:20.486969', 'mgs': 1, 'volt': 0.0, 'depth': -12.5, 'time': 19, 'pitch': 0.42, 'roll': -3.47, 'pres': 0}
{'lipoC2': 8.13, 'lipoC3S1': 3.94, 'temp': 26.19, 'lipoC3S3': 11.87, 'lipoC3S2': 7.87, 'rot1': 274, 'rot0': 251, 'rot3': 0, 'rot2': 1, 'state': 'normal', 'yaw': -171.7, 'datetime': '2018-10-09 09:57:20.597443', 'mgs': 1, 'volt': 0.0, 'depth': -12.5, 'time': 19, 'pitch': 0.39, 'roll': -3.47, 'pres': 0}
