{'lipoC2': 7.3, 'lipoC3S1': 3.84, 'temp': 26.75, 'lipoC3S3': 11.6, 'lipoC3S2': 7.68, 'rot1': 172, 'rot0': 173, 'rot3': 94, 'rot2': 88, 'state': 'normal', 'yaw': -170.36, 'datetime': '2018-10-09 20:14:46.907448', 'mgs': 0, 'volt': 0.8545, 'depth': 0.851, 'time': 67, 'pitch': -0.94, 'roll': 0.85, 'pres': 175}
{'lipoC2': 7.3, 'lipoC3S1': 3.84, 'temp': 26.75, 'lipoC3S3': 11.6, 'lipoC3S2': 7.68, 'rot1': 172, 'rot0': 173, 'rot3': 94, 'rot2': 88, 'state': 'normal', 'yaw': -170.12, 'datetime': '2018-10-09 20:14:49.936239', 'mgs': 0, 'volt': 0.8496, 'depth': 0.775, 'time': 67, 'pitch': -0.28, 'roll': 0.41, 'pres': 174}
{'lipoC2': 7.3, 'lipoC3S1': 3.84, 'temp': 26.75, 'lipoC3S3': 11.6, 'lipoC3S2': 7.68, 'rot1': 172, 'rot0': 173, 'rot3': 94, 'rot2': 88, 'state': 'normal', 'yaw': -169.88, 'datetime': '2018-10-09 20:14:49.979473', 'mgs': 0, 'volt': 0.8496, 'depth': 0.775, 'time': 68, 'pitch': 0.08, 'roll': -0.13, 'pres': 174}
{'lipoC2': 7.3, 'lipoC3S1': 3.84, 'temp': 26.75, 'lipoC3S3': 11.6, 'lipoC3S2': 7.69, 'rot1': 172, 'rot0': 173, 'rot3': 94, 'rot2': 88, 'state': 'normal', 'yaw': -169.93, 'datetime': '2018-10-09 20:14:50.019536', 'mgs': 0, 'volt': 0.8496, 'depth': 0.775, 'time': 68, 'pitch': 0.16, 'roll': -0.55, 'pres': 174}
{'lipoC2': 7.3, 'lipoC3S1': 3.84, 'temp': 26.81, 'lipoC3S3': 11.6, 'lipoC3S2': 7.68, 'rot1': 172, 'rot0': 173, 'rot3': 94, 'rot2': 88, 'state': 'normal', 'yaw': -170.52, 'datetime': '2018-10-09 20:14:50.048186', 'mgs': 0, 'volt': 0.8496, 'depth': 0.775, 'time': 68, 'pitch': -0.23, 'roll': -0.68, 'pres': 174}
{'lipoC2': 7.3, 'lipoC3S1': 3.84, 'temp': 26.81, 'lipoC3S3': 11.6, 'lipoC3S2': 7.68, 'rot1': 172, 'rot0': 173, 'rot3': 94, 'rot2': 88, 'state': 'normal', 'yaw': -171.16, 'datetime': '2018-10-09 20:14:50.066782', 'mgs': 0, 'volt': 0.8496, 'depth': 0.775, 'time': 68, 'pitch': -0.84, 'roll': -0.74, 'pres': 174}
{'lipoC2': 7.3, 'lipoC3S1': 3.84, 'temp': 26.81, 'lipoC3S3': 11.6, 'lipoC3S2': 7.68, 'rot1': 172, 'rot0': 173, 'rot3': 94, 'rot2': 88, 'state': 'normal', 'yaw': -171.63, 'datetime': '2018-10-09 20:14:50.086901', 'mgs': 0, 'volt': 0.8496, 'depth': 0.775, 'time': 68, 'pitch': -1.29, 'roll': -1.03, 'pres': 174}
{'lipoC2': 7.3, 'lipoC3S1': 3.84, 'temp': 26.81, 'lipoC3S3': 11.6, 'lipoC3S2': 7.69, 'rot1': 172, 'rot0': 173, 'rot3': 94, 'rot2': 88, 'state': 'normal', 'yaw': -171.61, 'datetime': '2018-10-09 20:14:50.107056', 'mgs': 0, 'volt': 0.8496, 'depth': 0.775, 'time': 68, 'pitch': -1.22, 'roll': -1.65, 'pres': 174}
{'lipoC2': 7.3, 'lipoC3S1': 3.84, 'temp': 26.81, 'lipoC3S3': 11.6, 'lipoC3S2': 7.68, 'rot1': 172, 'rot0': 173, 'rot3': 94, 'rot2': 88, 'state': 'normal', 'yaw': -171.21, 'datetime': '2018-10-09 20:14:50.127175', 'mgs': 0, 'volt': 0.8496, 'depth': 0.775, 'time': 68, 'pitch': -0.86, 'roll': -2.49, 'pres': 174}
{'lipoC2': 7.3, 'lipoC3S1': 3.84, 'temp': 26.81, 'lipoC3S3': 11.6, 'lipoC3S2': 7.68, 'rot1': 172, 'rot0': 173, 'rot3': 94, 'rot2': 88, 'state': 'normal', 'yaw': -170.75, 'datetime': '2018-10-09 20:14:50.147374', 'mgs': 0, 'volt': 0.8496, 'depth': 0.775, 'time': 68, 'pitch': -0.6, 'roll': -3.27, 'pres': 174}
{'lipoC2': 7.3, 'lipoC3S1': 3.84, 'temp': 26.81, 'lipoC3S3': 11.6, 'lipoC3S2': 7.68, 'rot1': 172, 'rot0': 173, 'rot3': 94, 'rot2': 88, 'state': 'normal', 'yaw': -170.48, 'datetime': '2018-10-09 20:14:50.167712', 'mgs': 0, 'volt': 0.8496, 'depth': 0.775, 'time': 68, 'pitch': -0.75, 'roll': -3.61, 'pres': 174}
{'lipoC2': 7.3, 'lipoC3S1': 3.84, 'temp': 26.81, 'lipoC3S3': 11.6, 'lipoC3S2': 7.68, 'rot1': 172, 'rot0': 173, 'rot3': 94, 'rot2': 88, 'state': 'normal', 'yaw': -170.38, 'datetime': '2018-10-09 20:14:50.184212', 'mgs': 0, 'volt': 0.8447, 'depth': 0.699, 'time': 69, 'pitch': -1.18, 'roll': -3.56, 'pres': 173}
{'lipoC2': 7.3, 'lipoC3S1': 3.84, 'temp': 26.81, 'lipoC3S3': 11.6, 'lipoC3S2': 7.68, 'rot1': 172, 'rot0': 173, 'rot3': 94, 'rot2': 88, 'state': 'normal', 'yaw': -170.39, 'datetime': '2018-10-09 20:14:50.204003', 'mgs': 0, 'volt': 0.8496, 'depth': 0.775, 'time': 69, 'pitch': -1.58, 'roll': -3.11, 'pres': 174}
{'lipoC2': 7.3, 'lipoC3S1': 3.84, 'temp': 26.81, 'lipoC3S3': 11.6, 'lipoC3S2': 7.68, 'rot1': 172, 'rot0': 173, 'rot3': 94, 'rot2': 88, 'state': 'normal', 'yaw': -170.16, 'datetime': '2018-10-09 20:14:50.224181', 'mgs': 0, 'volt': 0.8496, 'depth': 0.775, 'time': 69, 'pitch': -1.76, 'roll': -2.63, 'pres': 174}
{'lipoC2': 7.3, 'lipoC3S1': 3.84, 'temp': 26.81, 'lipoC3S3': 11.6, 'lipoC3S2': 7.68, 'rot1': 172, 'rot0': 173, 'rot3': 94, 'rot2': 88, 'state': 'normal', 'yaw': -169.58, 'datetime': '2018-10-09 20:14:50.244485', 'mgs': 0, 'volt': 0.8496, 'depth': 0.775, 'time': 69, 'pitch': -1.77, 'roll': -2.16, 'pres': 174}
{'lipoC2': 7.3, 'lipoC3S1': 3.84, 'temp': 26.81, 'lipoC3S3': 11.6, 'lipoC3S2': 7.68, 'rot1': 172, 'rot0': 173, 'rot3': 94, 'rot2': 88, 'state': 'normal', 'yaw': -169.04, 'datetime': '2018-10-09 20:14:50.264110', 'mgs': 0, 'volt': 0.8496, 'depth': 0.775, 'time': 69, 'pitch': -1.76, 'roll': -1.65, 'pres': 174}
{'lipoC2': 7.3, 'lipoC3S1': 3.84, 'temp': 26.81, 'lipoC3S3': 11.6, 'lipoC3S2': 7.68, 'rot1': 172, 'rot0': 173, 'rot3': 94, 'rot2': 88, 'state': 'normal', 'yaw': -168.54, 'datetime': '2018-10-09 20:14:50.283346', 'mgs': 0, 'volt': 0.8496, 'depth': 0.775, 'time': 69, 'pitch': -1.99, 'roll': -0.93, 'pres': 174}
{'lipoC2': 7.3, 'lipoC3S1': 3.84, 'temp': 26.81, 'lipoC3S3': 11.6, 'lipoC3S2': 7.68, 'rot1': 172, 'rot0': 173, 'rot3': 94, 'rot2': 88, 'state': 'normal', 'yaw': -168.07, 'datetime': '2018-10-09 20:14:50.303499', 'mgs': 0, 'volt': 0.8545, 'depth': 0.851, 'time': 69, 'pitch': -2.6, 'roll': -0.33, 'pres': 175}
{'lipoC2': 7.3, 'lipoC3S1': 3.84, 'temp': 26.75, 'lipoC3S3': 11.6, 'lipoC3S2': 7.68, 'rot1': 172, 'rot0': 173, 'rot3': 94, 'rot2': 88, 'state': 'normal', 'yaw': -167.41, 'datetime': '2018-10-09 20:14:50.323671', 'mgs': 0, 'volt': 0.8496, 'depth': 0.775, 'time': 69, 'pitch': -3.26, 'roll': 0.03, 'pres': 174}
{'lipoC2': 7.3, 'lipoC3S1': 3.84, 'temp': 26.75, 'lipoC3S3': 11.6, 'lipoC3S2': 7.68, 'rot1': 172, 'rot0': 173, 'rot3': 94, 'rot2': 88, 'state': 'normal', 'yaw': -166.67, 'datetime': '2018-10-09 20:14:50.343902', 'mgs': 0, 'volt': 0.8545, 'depth': 0.851, 'time': 69, 'pitch': -3.66, 'roll': 0.27, 'pres': 175}
{'lipoC2': 7.3, 'lipoC3S1': 3.84, 'temp': 26.81, 'lipoC3S3': 11.6, 'lipoC3S2': 7.68, 'rot1': 172, 'rot0': 173, 'rot3': 94, 'rot2': 88, 'state': 'normal', 'yaw': -166.22, 'datetime': '2018-10-09 20:14:50.363319', 'mgs': 0, 'volt': 0.8545, 'depth': 0.851, 'time': 69, 'pitch': -3.68, 'roll': 0.47, 'pres': 175}
{'lipoC2': 7.3, 'lipoC3S1': 3.84, 'temp': 26.81, 'lipoC3S3': 11.6, 'lipoC3S2': 7.68, 'rot1': 172, 'rot0': 173, 'rot3': 94, 'rot2': 88, 'state': 'normal', 'yaw': -165.99, 'datetime': '2018-10-09 20:14:50.383759', 'mgs': 0, 'volt': 0.8545, 'depth': 0.851, 'time': 70, 'pitch': -3.61, 'roll': 0.61, 'pres': 175}
{'lipoC2': 7.3, 'lipoC3S1': 3.84, 'temp': 26.81, 'lipoC3S3': 11.6, 'lipoC3S2': 7.68, 'rot1': 172, 'rot0': 173, 'rot3': 94, 'rot2': 88, 'state': 'normal', 'yaw': -165.95, 'datetime': '2018-10-09 20:14:50.403953', 'mgs': 0, 'volt': 0.8545, 'depth': 0.851, 'time': 70, 'pitch': -3.57, 'roll': 0.63, 'pres': 175}
{'lipoC2': 7.3, 'lipoC3S1': 3.84, 'temp': 26.81, 'lipoC3S3': 11.6, 'lipoC3S2': 7.68, 'rot1': 172, 'rot0': 173, 'rot3': 94, 'rot2': 88, 'state': 'normal', 'yaw': -166.05, 'datetime': '2018-10-09 20:14:50.424136', 'mgs': 0, 'volt': 0.8545, 'depth': 0.851, 'time': 70, 'pitch': -3.61, 'roll': 0.49, 'pres': 175}
{'lipoC2': 7.3, 'lipoC3S1': 3.84, 'temp': 26.81, 'lipoC3S3': 11.6, 'lipoC3S2': 7.68, 'rot1': 172, 'rot0': 173, 'rot3': 94, 'rot2': 88, 'state': 'normal', 'yaw': -166.07, 'datetime': '2018-10-09 20:14:50.444458', 'mgs': 0, 'volt': 0.8545, 'depth': 0.851, 'time': 70, 'pitch': -3.66, 'roll': 0.01, 'pres': 175}
{'lipoC2': 7.3, 'lipoC3S1': 3.84, 'temp': 26.81, 'lipoC3S3': 11.6, 'lipoC3S2': 7.68, 'rot1': 172, 'rot0': 173, 'rot3': 94, 'rot2': 88, 'state': 'normal', 'yaw': -166.1, 'datetime': '2018-10-09 20:14:50.465232', 'mgs': 0, 'volt': 0.8545, 'depth': 0.851, 'time': 70, 'pitch': -3.63, 'roll': -0.6, 'pres': 175}
{'lipoC2': 7.3, 'lipoC3S1': 3.84, 'temp': 26.81, 'lipoC3S3': 11.6, 'lipoC3S2': 7.68, 'rot1': 172, 'rot0': 173, 'rot3': 94, 'rot2': 88, 'state': 'normal', 'yaw': -166.27, 'datetime': '2018-10-09 20:14:50.484157', 'mgs': 0, 'volt': 0.8545, 'depth': 0.851, 'time': 70, 'pitch': -3.56, 'roll': -1.22, 'pres': 175}
{'lipoC2': 7.3, 'lipoC3S1': 3.84, 'temp': 26.81, 'lipoC3S3': 11.6, 'lipoC3S2': 7.68, 'rot1': 172, 'rot0': 173, 'rot3': 94, 'rot2': 88, 'state': 'normal', 'yaw': -166.58, 'datetime': '2018-10-09 20:14:50.504322', 'mgs': 0, 'volt': 0.8496, 'depth': 0.775, 'time': 70, 'pitch': -3.63, 'roll': -1.87, 'pres': 174}
{'lipoC2': 7.3, 'lipoC3S1': 3.84, 'temp': 26.81, 'lipoC3S3': 11.6, 'lipoC3S2': 7.68, 'rot1': 172, 'rot0': 173, 'rot3': 94, 'rot2': 88, 'state': 'normal', 'yaw': -166.84, 'datetime': '2018-10-09 20:14:50.524514', 'mgs': 0, 'volt': 0.8496, 'depth': 0.775, 'time': 70, 'pitch': -3.77, 'roll': -2.45, 'pres': 174}
{'lipoC2': 7.3, 'lipoC3S1': 3.84, 'temp': 26.81, 'lipoC3S3': 11.6, 'lipoC3S2': 7.68, 'rot1': 172, 'rot0': 173, 'rot3': 94, 'rot2': 88, 'state': 'normal', 'yaw': -167.05, 'datetime': '2018-10-09 20:14:50.544669', 'mgs': 0, 'volt': 0.8496, 'depth': 0.775, 'time': 70, 'pitch': -3.77, 'roll': -3.02, 'pres': 174}
{'lipoC2': 7.3, 'lipoC3S1': 3.84, 'temp': 26.81, 'lipoC3S3': 11.6, 'lipoC3S2': 7.68, 'rot1': 172, 'rot0': 173, 'rot3': 94, 'rot2': 88, 'state': 'normal', 'yaw': -167.14, 'datetime': '2018-10-09 20:14:50.564468', 'mgs': 0, 'volt': 0.8496, 'depth': 0.775, 'time': 70, 'pitch': -3.55, 'roll': -3.38, 'pres': 174}
{'lipoC2': 7.3, 'lipoC3S1': 3.84, 'temp': 26.81, 'lipoC3S3': 11.6, 'lipoC3S2': 7.68, 'rot1': 172, 'rot0': 173, 'rot3': 94, 'rot2': 88, 'state': 'normal', 'yaw': -167.16, 'datetime': '2018-10-09 20:14:50.584058', 'mgs': 0, 'volt': 0.8496, 'depth': 0.775, 'time': 71, 'pitch': -3.12, 'roll': -3.42, 'pres': 174}
{'lipoC2': 7.3, 'lipoC3S1': 3.84, 'temp': 26.81, 'lipoC3S3': 11.6, 'lipoC3S2': 7.68, 'rot1': 0, 'rot0': 0, 'rot3': 0, 'rot2': 0, 'state': 'normal', 'yaw': 0.0, 'datetime': '2018-10-09 20:14:50.600301', 'mgs': 0, 'volt': 0.8398, 'depth': 0.623, 'time': 1, 'pitch': -2.02, 'roll': -3.25, 'pres': 172}
{'lipoC2': 7.3, 'lipoC3S1': 3.84, 'temp': 26.81, 'lipoC3S3': 11.6, 'lipoC3S2': 7.68, 'rot1': 0, 'rot0': 0, 'rot3': 0, 'rot2': 0, 'state': 'normal', 'yaw': 0.02, 'datetime': '2018-10-09 20:14:50.619682', 'mgs': 0, 'volt': 0.8398, 'depth': 0.623, 'time': 1, 'pitch': -2.43, 'roll': -3.79, 'pres': 172}
{'lipoC2': 7.3, 'lipoC3S1': 3.84, 'temp': 26.88, 'lipoC3S3': 11.6, 'lipoC3S2': 7.68, 'rot1': 0, 'rot0': 0, 'rot3': 0, 'rot2': 0, 'state': 'normal', 'yaw': 0.03, 'datetime': '2018-10-09 20:14:50.639509', 'mgs': 0, 'volt': 0.8398, 'depth': 0.623, 'time': 1, 'pitch': -2.54, 'roll': -4.01, 'pres': 172}
{'lipoC2': 7.3, 'lipoC3S1': 3.84, 'temp': 26.88, 'lipoC3S3': 11.6, 'lipoC3S2': 7.68, 'rot1': 0, 'rot0': 0, 'rot3': 0, 'rot2': 0, 'state': 'normal', 'yaw': 0.02, 'datetime': '2018-10-09 20:14:50.659378', 'mgs': 0, 'volt': 0.8398, 'depth': 0.623, 'time': 1, 'pitch': -2.37, 'roll': -3.94, 'pres': 172}
{'lipoC2': 7.3, 'lipoC3S1': 3.84, 'temp': 26.88, 'lipoC3S3': 11.6, 'lipoC3S2': 7.68, 'rot1': 0, 'rot0': 0, 'rot3': 0, 'rot2': 0, 'state': 'normal', 'yaw': 0.01, 'datetime': '2018-10-09 20:14:50.678650', 'mgs': 0, 'volt': 0.8398, 'depth': 0.623, 'time': 1, 'pitch': -2.07, 'roll': -3.59, 'pres': 172}
{'lipoC2': 7.3, 'lipoC3S1': 3.84, 'temp': 26.88, 'lipoC3S3': 11.6, 'lipoC3S2': 7.68, 'rot1': 0, 'rot0': 0, 'rot3': 0, 'rot2': 0, 'state': 'normal', 'yaw': 0.08, 'datetime': '2018-10-09 20:14:50.698246', 'mgs': 0, 'volt': 0.8447, 'depth': 0.699, 'time': 1, 'pitch': -1.84, 'roll': -3.12, 'pres': 173}
{'lipoC2': 7.3, 'lipoC3S1': 3.84, 'temp': 26.88, 'lipoC3S3': 11.6, 'lipoC3S2': 7.68, 'rot1': 0, 'rot0': 0, 'rot3': 0, 'rot2': 0, 'state': 'normal', 'yaw': 0.28, 'datetime': '2018-10-09 20:14:50.718049', 'mgs': 0, 'volt': 0.8447, 'depth': 0.699, 'time': 1, 'pitch': -1.75, 'roll': -2.6, 'pres': 173}
{'lipoC2': 7.3, 'lipoC3S1': 3.84, 'temp': 26.94, 'lipoC3S3': 11.6, 'lipoC3S2': 7.68, 'rot1': 0, 'rot0': 0, 'rot3': 0, 'rot2': 0, 'state': 'normal', 'yaw': 0.6, 'datetime': '2018-10-09 20:14:50.737592', 'mgs': 0, 'volt': 0.8398, 'depth': 0.623, 'time': 1, 'pitch': -1.74, 'roll': -2.0, 'pres': 172}
{'lipoC2': 7.3, 'lipoC3S1': 3.84, 'temp': 26.94, 'lipoC3S3': 11.6, 'lipoC3S2': 7.68, 'rot1': 0, 'rot0': 0, 'rot3': 0, 'rot2': 0, 'state': 'normal', 'yaw': 0.97, 'datetime': '2018-10-09 20:14:50.753971', 'mgs': 0, 'volt': 0.8447, 'depth': 0.699, 'time': 2, 'pitch': -1.73, 'roll': -1.44, 'pres': 173}
{'lipoC2': 7.3, 'lipoC3S1': 3.84, 'temp': 26.81, 'lipoC3S3': 11.6, 'lipoC3S2': 7.68, 'rot1': 0, 'rot0': 0, 'rot3': 0, 'rot2': 0, 'state': 'normal', 'yaw': 1.32, 'datetime': '2018-10-09 20:14:50.770492', 'mgs': 0, 'volt': 0.8447, 'depth': 0.699, 'time': 2, 'pitch': -1.72, 'roll': -0.82, 'pres': 173}
{'lipoC2': 7.3, 'lipoC3S1': 3.84, 'temp': 26.81, 'lipoC3S3': 11.6, 'lipoC3S2': 7.68, 'rot1': 0, 'rot0': 0, 'rot3': 0, 'rot2': 0, 'state': 'normal', 'yaw': 1.66, 'datetime': '2018-10-09 20:14:50.788214', 'mgs': 0, 'volt': 0.8447, 'depth': 0.699, 'time': 2, 'pitch': -1.77, 'roll': -0.1, 'pres': 173}
{'lipoC2': 7.3, 'lipoC3S1': 3.84, 'temp': 26.81, 'lipoC3S3': 11.6, 'lipoC3S2': 7.68, 'rot1': 0, 'rot0': 0, 'rot3': 0, 'rot2': 0, 'state': 'normal', 'yaw': 1.97, 'datetime': '2018-10-09 20:14:50.804362', 'mgs': 0, 'volt': 0.8447, 'depth': 0.699, 'time': 2, 'pitch': -1.98, 'roll': 0.51, 'pres': 173}
{'lipoC2': 7.3, 'lipoC3S1': 3.84, 'temp': 26.88, 'lipoC3S3': 11.6, 'lipoC3S2': 7.69, 'rot1': 0, 'rot0': 0, 'rot3': 0, 'rot2': 0, 'state': 'normal', 'yaw': 2.27, 'datetime': '2018-10-09 20:14:50.820539', 'mgs': 0, 'volt': 0.8496, 'depth': 0.775, 'time': 2, 'pitch': -2.26, 'roll': 1.02, 'pres': 174}
{'lipoC2': 7.3, 'lipoC3S1': 3.84, 'temp': 26.88, 'lipoC3S3': 11.6, 'lipoC3S2': 7.68, 'rot1': 0, 'rot0': 0, 'rot3': 0, 'rot2': 0, 'state': 'normal', 'yaw': 2.48, 'datetime': '2018-10-09 20:14:50.836770', 'mgs': 0, 'volt': 0.8496, 'depth': 0.775, 'time': 2, 'pitch': -2.48, 'roll': 1.5, 'pres': 174}
{'lipoC2': 7.3, 'lipoC3S1': 3.84, 'temp': 26.88, 'lipoC3S3': 11.6, 'lipoC3S2': 7.68, 'rot1': 0, 'rot0': 0, 'rot3': 0, 'rot2': 0, 'state': 'normal', 'yaw': 2.49, 'datetime': '2018-10-09 20:14:50.852953', 'mgs': 0, 'volt': 0.8496, 'depth': 0.775, 'time': 2, 'pitch': -2.59, 'roll': 1.81, 'pres': 174}
{'lipoC2': 7.3, 'lipoC3S1': 3.84, 'temp': 26.88, 'lipoC3S3': 11.6, 'lipoC3S2': 7.68, 'rot1': 0, 'rot0': 0, 'rot3': 0, 'rot2': 0, 'state': 'normal', 'yaw': 2.48, 'datetime': '2018-10-09 20:14:50.869127', 'mgs': 0, 'volt': 0.8545, 'depth': 0.851, 'time': 2, 'pitch': -2.69, 'roll': 1.87, 'pres': 175}
{'lipoC2': 7.3, 'lipoC3S1': 3.83, 'temp': 26.81, 'lipoC3S3': 11.6, 'lipoC3S2': 7.68, 'rot1': 0, 'rot0': 0, 'rot3': 0, 'rot2': 0, 'state': 'normal', 'yaw': 2.36, 'datetime': '2018-10-09 20:14:50.887185', 'mgs': 0, 'volt': 0.8496, 'depth': 0.775, 'time': 2, 'pitch': -2.8, 'roll': 1.73, 'pres': 174}
{'lipoC2': 7.3, 'lipoC3S1': 3.82, 'temp': 26.81, 'lipoC3S3': 11.52, 'lipoC3S2': 7.59, 'rot1': 0, 'rot0': 0, 'rot3': 0, 'rot2': 0, 'state': 'normal', 'yaw': 2.11, 'datetime': '2018-10-09 20:14:50.903342', 'mgs': 0, 'volt': 0.8496, 'depth': 0.775, 'time': 3, 'pitch': -2.8, 'roll': 1.42, 'pres': 174}
{'lipoC2': 7.29, 'lipoC3S1': 3.83, 'temp': 26.81, 'lipoC3S3': 11.51, 'lipoC3S2': 7.65, 'rot1': 0, 'rot0': 0, 'rot3': 0, 'rot2': 0, 'state': 'normal', 'yaw': 1.82, 'datetime': '2018-10-09 20:14:50.919485', 'mgs': 0, 'volt': 0.8496, 'depth': 0.775, 'time': 3, 'pitch': -2.86, 'roll': 0.9, 'pres': 174}
{'lipoC2': 7.29, 'lipoC3S1': 3.83, 'temp': 26.81, 'lipoC3S3': 11.56, 'lipoC3S2': 7.62, 'rot1': 0, 'rot0': 0, 'rot3': 1, 'rot2': 1, 'state': 'normal', 'yaw': 1.56, 'datetime': '2018-10-09 20:14:50.935738', 'mgs': 0, 'volt': 0.8496, 'depth': 0.775, 'time': 3, 'pitch': -3.13, 'roll': 0.14, 'pres': 174}
{'lipoC2': 7.29, 'lipoC3S1': 3.8, 'temp': 26.81, 'lipoC3S3': 11.58, 'lipoC3S2': 7.65, 'rot1': 0, 'rot0': 0, 'rot3': 2, 'rot2': 1, 'state': 'normal', 'yaw': 1.32, 'datetime': '2018-10-09 20:14:50.952014', 'mgs': 0, 'volt': 0.8545, 'depth': 0.851, 'time': 3, 'pitch': -3.44, 'roll': -0.62, 'pres': 175}
{'lipoC2': 7.29, 'lipoC3S1': 3.8, 'temp': 26.69, 'lipoC3S3': 11.58, 'lipoC3S2': 7.63, 'rot1': 0, 'rot0': 0, 'rot3': 2, 'rot2': 2, 'state': 'normal', 'yaw': 1.1, 'datetime': '2018-10-09 20:14:50.968174', 'mgs': 0, 'volt': 0.8545, 'depth': 0.851, 'time': 3, 'pitch': -3.57, 'roll': -1.41, 'pres': 175}
{'lipoC2': 7.29, 'lipoC3S1': 3.81, 'temp': 26.69, 'lipoC3S3': 11.56, 'lipoC3S2': 7.67, 'rot1': 0, 'rot0': 0, 'rot3': 3, 'rot2': 2, 'state': 'normal', 'yaw': 0.95, 'datetime': '2018-10-09 20:14:50.986271', 'mgs': 0, 'volt': 0.874, 'depth': 1.157, 'time': 3, 'pitch': -3.41, 'roll': -2.19, 'pres': 179}
{'lipoC2': 7.29, 'lipoC3S1': 3.83, 'temp': 26.75, 'lipoC3S3': 11.55, 'lipoC3S2': 7.65, 'rot1': 0, 'rot0': 0, 'rot3': 3, 'rot2': 3, 'state': 'normal', 'yaw': 0.74, 'datetime': '2018-10-09 20:14:51.002939', 'mgs': 0, 'volt': 0.874, 'depth': 1.157, 'time': 3, 'pitch': -3.39, 'roll': -2.63, 'pres': 179}
{'lipoC2': 7.28, 'lipoC3S1': 3.83, 'temp': 26.75, 'lipoC3S3': 11.5, 'lipoC3S2': 7.65, 'rot1': 0, 'rot0': 0, 'rot3': 4, 'rot2': 4, 'state': 'normal', 'yaw': 0.49, 'datetime': '2018-10-09 20:14:51.019136', 'mgs': 0, 'volt': 0.8594, 'depth': 0.928, 'time': 3, 'pitch': -3.7, 'roll': -2.82, 'pres': 176}
{'lipoC2': 7.29, 'lipoC3S1': 3.82, 'temp': 26.75, 'lipoC3S3': 11.55, 'lipoC3S2': 7.65, 'rot1': 0, 'rot0': 0, 'rot3': 5, 'rot2': 4, 'state': 'normal', 'yaw': 0.31, 'datetime': '2018-10-09 20:14:51.035394', 'mgs': 0, 'volt': 0.8691, 'depth': 1.08, 'time': 3, 'pitch': -4.15, 'roll': -2.9, 'pres': 178}
{'lipoC2': 7.29, 'lipoC3S1': 3.82, 'temp': 26.75, 'lipoC3S3': 11.51, 'lipoC3S2': 7.65, 'rot1': 0, 'rot0': 0, 'rot3': 5, 'rot2': 5, 'state': 'normal', 'yaw': 0.21, 'datetime': '2018-10-09 20:14:51.051630', 'mgs': 0, 'volt': 0.8643, 'depth': 1.004, 'time': 3, 'pitch': -4.56, 'roll': -2.89, 'pres': 177}
{'lipoC2': 7.29, 'lipoC3S1': 3.82, 'temp': 26.75, 'lipoC3S3': 11.55, 'lipoC3S2': 7.61, 'rot1': 0, 'rot0': 0, 'rot3': 6, 'rot2': 5, 'state': 'normal', 'yaw': 0.14, 'datetime': '2018-10-09 20:14:51.100391', 'mgs': 0, 'volt': 0.8691, 'depth': 1.08, 'time': 4, 'pitch': -4.73, 'roll': -2.82, 'pres': 178}
{'lipoC2': 7.3, 'lipoC3S1': 3.8, 'temp': 26.75, 'lipoC3S3': 11.58, 'lipoC3S2': 7.65, 'rot1': 0, 'rot0': 0, 'rot3': 7, 'rot2': 6, 'state': 'normal', 'yaw': 0.09, 'datetime': '2018-10-09 20:14:51.203611', 'mgs': 0, 'volt': 0.874, 'depth': 1.157, 'time': 4, 'pitch': -4.68, 'roll': -2.67, 'pres': 179}
{'lipoC2': 7.29, 'lipoC3S1': 3.82, 'temp': 26.75, 'lipoC3S3': 11.56, 'lipoC3S2': 7.66, 'rot1': 0, 'rot0': 0, 'rot3': 7, 'rot2': 6, 'state': 'normal', 'yaw': 0.07, 'datetime': '2018-10-09 20:14:51.306842', 'mgs': 0, 'volt': 0.8936, 'depth': 1.462, 'time': 4, 'pitch': -4.44, 'roll': -2.43, 'pres': 183}
{'lipoC2': 7.3, 'lipoC3S1': 3.83, 'temp': 26.81, 'lipoC3S3': 11.59, 'lipoC3S2': 7.67, 'rot1': 0, 'rot0': 0, 'rot3': 8, 'rot2': 7, 'state': 'normal', 'yaw': -0.0, 'datetime': '2018-10-09 20:14:51.410063', 'mgs': 0, 'volt': 0.8789, 'depth': 1.233, 'time': 4, 'pitch': -4.1, 'roll': -2.16, 'pres': 180}
{'lipoC2': 7.3, 'lipoC3S1': 3.82, 'temp': 26.81, 'lipoC3S3': 11.56, 'lipoC3S2': 7.65, 'rot1': 0, 'rot0': 0, 'rot3': 9, 'rot2': 7, 'state': 'normal', 'yaw': -0.04, 'datetime': '2018-10-09 20:14:51.520962', 'mgs': 0, 'volt': 0.9033, 'depth': 1.614, 'time': 4, 'pitch': -3.58, 'roll': -1.82, 'pres': 185}
{'lipoC2': 7.29, 'lipoC3S1': 3.83, 'temp': 26.81, 'lipoC3S3': 11.58, 'lipoC3S2': 7.65, 'rot1': 0, 'rot0': 0, 'rot3': 9, 'rot2': 8, 'state': 'normal', 'yaw': -0.08, 'datetime': '2018-10-09 20:14:51.624199', 'mgs': 0, 'volt': 0.9131, 'depth': 1.767, 'time': 4, 'pitch': -2.73, 'roll': -1.36, 'pres': 187}
{'lipoC2': 7.29, 'lipoC3S1': 3.82, 'temp': 26.81, 'lipoC3S3': 11.56, 'lipoC3S2': 7.65, 'rot1': 0, 'rot0': 0, 'rot3': 10, 'rot2': 8, 'state': 'normal', 'yaw': -0.1, 'datetime': '2018-10-09 20:14:51.728000', 'mgs': 0, 'volt': 0.8984, 'depth': 1.538, 'time': 4, 'pitch': -1.77, 'roll': -0.98, 'pres': 184}
{'lipoC2': 7.3, 'lipoC3S1': 3.79, 'temp': 26.81, 'lipoC3S3': 11.55, 'lipoC3S2': 7.62, 'rot1': 0, 'rot0': 0, 'rot3': 10, 'rot2': 9, 'state': 'normal', 'yaw': -0.1, 'datetime': '2018-10-09 20:14:51.832833', 'mgs': 0, 'volt': 0.8936, 'depth': 1.462, 'time': 4, 'pitch': -0.71, 'roll': -0.63, 'pres': 183}
{'lipoC2': 7.3, 'lipoC3S1': 3.79, 'temp': 26.81, 'lipoC3S3': 11.56, 'lipoC3S2': 7.63, 'rot1': 0, 'rot0': 0, 'rot3': 11, 'rot2': 10, 'state': 'normal', 'yaw': -0.01, 'datetime': '2018-10-09 20:14:51.936254', 'mgs': 0, 'volt': 0.8936, 'depth': 1.462, 'time': 4, 'pitch': 0.45, 'roll': -0.29, 'pres': 183}
{'lipoC2': 7.29, 'lipoC3S1': 3.82, 'temp': 26.81, 'lipoC3S3': 11.55, 'lipoC3S2': 7.65, 'rot1': 1, 'rot0': 1, 'rot3': 12, 'rot2': 10, 'state': 'normal', 'yaw': 0.1, 'datetime': '2018-10-09 20:14:52.041403', 'mgs': 0, 'volt': 0.9033, 'depth': 1.614, 'time': 4, 'pitch': 1.36, 'roll': -0.03, 'pres': 185}
{'lipoC2': 7.3, 'lipoC3S1': 3.8, 'temp': 26.81, 'lipoC3S3': 11.56, 'lipoC3S2': 7.61, 'rot1': 1, 'rot0': 1, 'rot3': 12, 'rot2': 11, 'state': 'normal', 'yaw': 0.27, 'datetime': '2018-10-09 20:14:52.144996', 'mgs': 0, 'volt': 0.918, 'depth': 1.843, 'time': 5, 'pitch': 2.12, 'roll': 0.18, 'pres': 188}
{'lipoC2': 7.3, 'lipoC3S1': 3.79, 'temp': 26.81, 'lipoC3S3': 11.56, 'lipoC3S2': 7.63, 'rot1': 1, 'rot0': 1, 'rot3': 13, 'rot2': 11, 'state': 'normal', 'yaw': 0.47, 'datetime': '2018-10-09 20:14:52.248658', 'mgs': 0, 'volt': 0.8936, 'depth': 1.462, 'time': 5, 'pitch': 2.54, 'roll': 0.29, 'pres': 183}
{'lipoC2': 7.3, 'lipoC3S1': 3.82, 'temp': 26.81, 'lipoC3S3': 11.54, 'lipoC3S2': 7.61, 'rot1': 1, 'rot0': 1, 'rot3': 14, 'rot2': 12, 'state': 'normal', 'yaw': 0.68, 'datetime': '2018-10-09 20:14:52.352176', 'mgs': 0, 'volt': 0.8936, 'depth': 1.462, 'time': 5, 'pitch': 2.74, 'roll': 0.32, 'pres': 183}
{'lipoC2': 7.3, 'lipoC3S1': 3.83, 'temp': 26.81, 'lipoC3S3': 11.52, 'lipoC3S2': 7.66, 'rot1': 2, 'rot0': 2, 'rot3': 14, 'rot2': 12, 'state': 'normal', 'yaw': 0.96, 'datetime': '2018-10-09 20:14:52.455712', 'mgs': 0, 'volt': 0.8936, 'depth': 1.462, 'time': 5, 'pitch': 2.71, 'roll': 0.3, 'pres': 183}
{'lipoC2': 7.29, 'lipoC3S1': 3.82, 'temp': 26.81, 'lipoC3S3': 11.48, 'lipoC3S2': 7.65, 'rot1': 2, 'rot0': 2, 'rot3': 15, 'rot2': 13, 'state': 'normal', 'yaw': 1.22, 'datetime': '2018-10-09 20:14:52.559045', 'mgs': 0, 'volt': 0.8887, 'depth': 1.385, 'time': 5, 'pitch': 2.54, 'roll': 0.2, 'pres': 182}
{'lipoC2': 7.29, 'lipoC3S1': 3.83, 'temp': 26.81, 'lipoC3S3': 11.56, 'lipoC3S2': 7.65, 'rot1': 2, 'rot0': 2, 'rot3': 15, 'rot2': 14, 'state': 'normal', 'yaw': 1.51, 'datetime': '2018-10-09 20:14:52.662716', 'mgs': 0, 'volt': 0.9033, 'depth': 1.614, 'time': 5, 'pitch': 2.24, 'roll': 0.07, 'pres': 185}
{'lipoC2': 7.3, 'lipoC3S1': 3.8, 'temp': 26.81, 'lipoC3S3': 11.56, 'lipoC3S2': 7.63, 'rot1': 2, 'rot0': 2, 'rot3': 16, 'rot2': 14, 'state': 'normal', 'yaw': 1.84, 'datetime': '2018-10-09 20:14:52.766427', 'mgs': 0, 'volt': 0.8838, 'depth': 1.309, 'time': 5, 'pitch': 1.76, 'roll': -0.09, 'pres': 181}
{'lipoC2': 7.3, 'lipoC3S1': 3.79, 'temp': 26.81, 'lipoC3S3': 11.56, 'lipoC3S2': 7.63, 'rot1': 2, 'rot0': 2, 'rot3': 17, 'rot2': 15, 'state': 'normal', 'yaw': 2.16, 'datetime': '2018-10-09 20:14:52.870034', 'mgs': 0, 'volt': 0.8838, 'depth': 1.309, 'time': 5, 'pitch': 1.21, 'roll': -0.27, 'pres': 181}
{'lipoC2': 7.29, 'lipoC3S1': 3.83, 'temp': 26.81, 'lipoC3S3': 11.56, 'lipoC3S2': 7.65, 'rot1': 3, 'rot0': 3, 'rot3': 17, 'rot2': 15, 'state': 'normal', 'yaw': 2.46, 'datetime': '2018-10-09 20:14:52.974746', 'mgs': 0, 'volt': 0.8887, 'depth': 1.385, 'time': 5, 'pitch': 0.6, 'roll': -0.47, 'pres': 182}
{'lipoC2': 7.3, 'lipoC3S1': 3.82, 'temp': 26.81, 'lipoC3S3': 11.56, 'lipoC3S2': 7.66, 'rot1': 3, 'rot0': 3, 'rot3': 18, 'rot2': 16, 'state': 'normal', 'yaw': 2.79, 'datetime': '2018-10-09 20:14:53.078461', 'mgs': 0, 'volt': 0.8984, 'depth': 1.538, 'time': 6, 'pitch': -0.08, 'roll': -0.69, 'pres': 184}
{'lipoC2': 7.3, 'lipoC3S1': 3.84, 'temp': 26.88, 'lipoC3S3': 11.55, 'lipoC3S2': 7.61, 'rot1': 3, 'rot0': 3, 'rot3': 19, 'rot2': 16, 'state': 'normal', 'yaw': 3.1, 'datetime': '2018-10-09 20:14:53.180420', 'mgs': 0, 'volt': 0.874, 'depth': 1.157, 'time': 6, 'pitch': -0.6, 'roll': -0.87, 'pres': 179}
{'lipoC2': 7.3, 'lipoC3S1': 3.83, 'temp': 26.88, 'lipoC3S3': 11.55, 'lipoC3S2': 7.65, 'rot1': 3, 'rot0': 3, 'rot3': 19, 'rot2': 17, 'state': 'normal', 'yaw': 3.41, 'datetime': '2018-10-09 20:14:53.287102', 'mgs': 0, 'volt': 0.8887, 'depth': 1.385, 'time': 6, 'pitch': -0.95, 'roll': -1.03, 'pres': 182}
{'lipoC2': 7.3, 'lipoC3S1': 3.8, 'temp': 26.81, 'lipoC3S3': 11.56, 'lipoC3S2': 7.62, 'rot1': 3, 'rot0': 3, 'rot3': 20, 'rot2': 18, 'state': 'normal', 'yaw': 3.76, 'datetime': '2018-10-09 20:14:53.390680', 'mgs': 0, 'volt': 0.8643, 'depth': 1.004, 'time': 6, 'pitch': -1.15, 'roll': -1.13, 'pres': 177}
{'lipoC2': 7.29, 'lipoC3S1': 3.82, 'temp': 26.81, 'lipoC3S3': 11.5, 'lipoC3S2': 7.64, 'rot1': 4, 'rot0': 3, 'rot3': 20, 'rot2': 18, 'state': 'normal', 'yaw': 4.08, 'datetime': '2018-10-09 20:14:53.495672', 'mgs': 0, 'volt': 0.8643, 'depth': 1.004, 'time': 6, 'pitch': -1.17, 'roll': -1.16, 'pres': 177}
{'lipoC2': 7.3, 'lipoC3S1': 3.83, 'temp': 26.81, 'lipoC3S3': 11.59, 'lipoC3S2': 7.67, 'rot1': 4, 'rot0': 4, 'rot3': 21, 'rot2': 19, 'state': 'normal', 'yaw': 4.43, 'datetime': '2018-10-09 20:14:53.599764', 'mgs': 0, 'volt': 0.8643, 'depth': 1.004, 'time': 6, 'pitch': -1.13, 'roll': -1.18, 'pres': 177}
{'lipoC2': 7.3, 'lipoC3S1': 3.83, 'temp': 26.81, 'lipoC3S3': 11.59, 'lipoC3S2': 7.67, 'rot1': 4, 'rot0': 4, 'rot3': 21, 'rot2': 19, 'state': 'normal', 'yaw': 4.78, 'datetime': '2018-10-09 20:14:53.702766', 'mgs': 0, 'volt': 0.8643, 'depth': 1.004, 'time': 6, 'pitch': -1.12, 'roll': -1.27, 'pres': 177}
{'lipoC2': 7.3, 'lipoC3S1': 3.83, 'temp': 26.81, 'lipoC3S3': 11.59, 'lipoC3S2': 7.67, 'rot1': 4, 'rot0': 4, 'rot3': 21, 'rot2': 19, 'state': 'normal', 'yaw': 5.15, 'datetime': '2018-10-09 20:14:53.806205', 'mgs': 0, 'volt': 0.8594, 'depth': 0.928, 'time': 6, 'pitch': -1.11, 'roll': -1.34, 'pres': 176}
{'lipoC2': 7.3, 'lipoC3S1': 3.83, 'temp': 26.81, 'lipoC3S3': 11.59, 'lipoC3S2': 7.67, 'rot1': 4, 'rot0': 4, 'rot3': 21, 'rot2': 19, 'state': 'normal', 'yaw': 5.54, 'datetime': '2018-10-09 20:14:53.909826', 'mgs': 0, 'volt': 0.8643, 'depth': 1.004, 'time': 6, 'pitch': -1.1, 'roll': -1.35, 'pres': 177}
{'lipoC2': 7.3, 'lipoC3S1': 3.83, 'temp': 26.81, 'lipoC3S3': 11.59, 'lipoC3S2': 7.67, 'rot1': 5, 'rot0': 4, 'rot3': 21, 'rot2': 19, 'state': 'normal', 'yaw': 5.98, 'datetime': '2018-10-09 20:14:54.013344', 'mgs': 0, 'volt': 0.8594, 'depth': 0.928, 'time': 6, 'pitch': -1.05, 'roll': -1.35, 'pres': 176}
{'lipoC2': 7.3, 'lipoC3S1': 3.83, 'temp': 26.81, 'lipoC3S3': 11.59, 'lipoC3S2': 7.67, 'rot1': 5, 'rot0': 4, 'rot3': 21, 'rot2': 19, 'state': 'normal', 'yaw': 6.39, 'datetime': '2018-10-09 20:14:54.117026', 'mgs': 0, 'volt': 0.8545, 'depth': 0.851, 'time': 7, 'pitch': -0.93, 'roll': -1.35, 'pres': 175}
{'lipoC2': 7.3, 'lipoC3S1': 3.83, 'temp': 26.81, 'lipoC3S3': 11.59, 'lipoC3S2': 7.67, 'rot1': 5, 'rot0': 5, 'rot3': 21, 'rot2': 19, 'state': 'normal', 'yaw': 6.86, 'datetime': '2018-10-09 20:14:54.220544', 'mgs': 0, 'volt': 0.8594, 'depth': 0.928, 'time': 7, 'pitch': -0.75, 'roll': -1.35, 'pres': 176}
{'lipoC2': 7.3, 'lipoC3S1': 3.83, 'temp': 26.81, 'lipoC3S3': 11.59, 'lipoC3S2': 7.67, 'rot1': 5, 'rot0': 5, 'rot3': 21, 'rot2': 19, 'state': 'normal', 'yaw': 7.28, 'datetime': '2018-10-09 20:14:54.324192', 'mgs': 0, 'volt': 0.8594, 'depth': 0.928, 'time': 7, 'pitch': -0.53, 'roll': -1.32, 'pres': 176}
{'lipoC2': 7.3, 'lipoC3S1': 3.83, 'temp': 26.81, 'lipoC3S3': 11.59, 'lipoC3S2': 7.67, 'rot1': 5, 'rot0': 5, 'rot3': 21, 'rot2': 19, 'state': 'normal', 'yaw': 7.72, 'datetime': '2018-10-09 20:14:54.429159', 'mgs': 0, 'volt': 0.8691, 'depth': 1.08, 'time': 7, 'pitch': -0.27, 'roll': -1.29, 'pres': 178}
{'lipoC2': 7.3, 'lipoC3S1': 3.83, 'temp': 26.81, 'lipoC3S3': 11.59, 'lipoC3S2': 7.67, 'rot1': 5, 'rot0': 5, 'rot3': 21, 'rot2': 19, 'state': 'normal', 'yaw': 8.21, 'datetime': '2018-10-09 20:14:54.532724', 'mgs': 0, 'volt': 0.8643, 'depth': 1.004, 'time': 7, 'pitch': 0.09, 'roll': -1.18, 'pres': 177}
{'lipoC2': 7.3, 'lipoC3S1': 3.83, 'temp': 26.75, 'lipoC3S3': 11.59, 'lipoC3S2': 7.67, 'rot1': 5, 'rot0': 5, 'rot3': 21, 'rot2': 19, 'state': 'normal', 'yaw': 8.65, 'datetime': '2018-10-09 20:14:54.636512', 'mgs': 0, 'volt': 0.8643, 'depth': 1.004, 'time': 7, 'pitch': 0.43, 'roll': -1.05, 'pres': 177}
{'lipoC2': 7.3, 'lipoC3S1': 3.83, 'temp': 26.75, 'lipoC3S3': 11.59, 'lipoC3S2': 7.67, 'rot1': 5, 'rot0': 5, 'rot3': 21, 'rot2': 19, 'state': 'normal', 'yaw': 9.12, 'datetime': '2018-10-09 20:14:54.741439', 'mgs': 0, 'volt': 0.8594, 'depth': 0.928, 'time': 7, 'pitch': 0.75, 'roll': -0.9, 'pres': 176}
{'lipoC2': 7.3, 'lipoC3S1': 3.83, 'temp': 26.81, 'lipoC3S3': 11.59, 'lipoC3S2': 7.67, 'rot1': 6, 'rot0': 5, 'rot3': 21, 'rot2': 19, 'state': 'normal', 'yaw': 9.62, 'datetime': '2018-10-09 20:14:54.844911', 'mgs': 0, 'volt': 0.8643, 'depth': 1.004, 'time': 7, 'pitch': 0.98, 'roll': -0.72, 'pres': 177}
{'lipoC2': 7.3, 'lipoC3S1': 3.83, 'temp': 26.81, 'lipoC3S3': 11.59, 'lipoC3S2': 7.67, 'rot1': 6, 'rot0': 5, 'rot3': 21, 'rot2': 19, 'state': 'normal', 'yaw': 10.06, 'datetime': '2018-10-09 20:14:54.947384', 'mgs': 0, 'volt': 0.8643, 'depth': 1.004, 'time': 7, 'pitch': 1.07, 'roll': -0.57, 'pres': 177}
{'lipoC2': 7.3, 'lipoC3S1': 3.83, 'temp': 26.81, 'lipoC3S3': 11.59, 'lipoC3S2': 7.67, 'rot1': 6, 'rot0': 5, 'rot3': 21, 'rot2': 19, 'state': 'normal', 'yaw': 10.55, 'datetime': '2018-10-09 20:14:55.053378', 'mgs': 0, 'volt': 0.8643, 'depth': 1.004, 'time': 7, 'pitch': 1.08, 'roll': -0.45, 'pres': 177}
{'lipoC2': 7.3, 'lipoC3S1': 3.83, 'temp': 26.81, 'lipoC3S3': 11.59, 'lipoC3S2': 7.67, 'rot1': 6, 'rot0': 5, 'rot3': 21, 'rot2': 19, 'state': 'normal', 'yaw': 10.99, 'datetime': '2018-10-09 20:14:55.156943', 'mgs': 0, 'volt': 0.8691, 'depth': 1.08, 'time': 8, 'pitch': 1.08, 'roll': -0.37, 'pres': 178}
{'lipoC2': 7.3, 'lipoC3S1': 3.83, 'temp': 26.81, 'lipoC3S3': 11.59, 'lipoC3S2': 7.67, 'rot1': 6, 'rot0': 5, 'rot3': 21, 'rot2': 19, 'state': 'normal', 'yaw': 11.44, 'datetime': '2018-10-09 20:14:55.260459', 'mgs': 0, 'volt': 0.8691, 'depth': 1.08, 'time': 8, 'pitch': 1.08, 'roll': -0.3, 'pres': 178}
{'lipoC2': 7.3, 'lipoC3S1': 3.83, 'temp': 26.81, 'lipoC3S3': 11.59, 'lipoC3S2': 7.67, 'rot1': 6, 'rot0': 5, 'rot3': 21, 'rot2': 19, 'state': 'normal', 'yaw': 11.9, 'datetime': '2018-10-09 20:14:55.364075', 'mgs': 0, 'volt': 0.8691, 'depth': 1.08, 'time': 8, 'pitch': 1.08, 'roll': -0.22, 'pres': 178}
{'lipoC2': 7.29, 'lipoC3S1': 3.83, 'temp': 26.81, 'lipoC3S3': 11.6, 'lipoC3S2': 7.67, 'rot1': 6, 'rot0': 5, 'rot3': 21, 'rot2': 19, 'state': 'normal', 'yaw': 12.33, 'datetime': '2018-10-09 20:14:55.464300', 'mgs': 0, 'volt': 0.8691, 'depth': 1.08, 'time': 8, 'pitch': 1.08, 'roll': -0.18, 'pres': 178}
{'lipoC2': 7.3, 'lipoC3S1': 3.84, 'temp': 26.75, 'lipoC3S3': 11.59, 'lipoC3S2': 7.68, 'rot1': 6, 'rot0': 5, 'rot3': 21, 'rot2': 19, 'state': 'normal', 'yaw': 12.73, 'datetime': '2018-10-09 20:14:55.571305', 'mgs': 0, 'volt': 0.874, 'depth': 1.157, 'time': 8, 'pitch': 1.01, 'roll': -0.17, 'pres': 179}
{'lipoC2': 7.3, 'lipoC3S1': 3.84, 'temp': 26.75, 'lipoC3S3': 11.59, 'lipoC3S2': 7.67, 'rot1': 6, 'rot0': 5, 'rot3': 21, 'rot2': 19, 'state': 'normal', 'yaw': 13.17, 'datetime': '2018-10-09 20:14:55.674746', 'mgs': 0, 'volt': 0.874, 'depth': 1.157, 'time': 8, 'pitch': 0.81, 'roll': -0.17, 'pres': 179}
{'lipoC2': 7.3, 'lipoC3S1': 3.83, 'temp': 26.81, 'lipoC3S3': 11.59, 'lipoC3S2': 7.68, 'rot1': 6, 'rot0': 5, 'rot3': 21, 'rot2': 19, 'state': 'normal', 'yaw': 13.56, 'datetime': '2018-10-09 20:14:55.778250', 'mgs': 0, 'volt': 0.874, 'depth': 1.157, 'time': 8, 'pitch': 0.57, 'roll': -0.16, 'pres': 179}
{'lipoC2': 7.3, 'lipoC3S1': 3.82, 'temp': 26.81, 'lipoC3S3': 11.52, 'lipoC3S2': 7.59, 'rot1': 6, 'rot0': 6, 'rot3': 21, 'rot2': 19, 'state': 'normal', 'yaw': 13.94, 'datetime': '2018-10-09 20:14:55.883128', 'mgs': 0, 'volt': 0.874, 'depth': 1.157, 'time': 8, 'pitch': 0.34, 'roll': -0.16, 'pres': 179}
{'lipoC2': 7.3, 'lipoC3S1': 3.83, 'temp': 26.81, 'lipoC3S3': 11.43, 'lipoC3S2': 7.64, 'rot1': 7, 'rot0': 7, 'rot3': 21, 'rot2': 19, 'state': 'normal', 'yaw': 14.14, 'datetime': '2018-10-09 20:14:55.986766', 'mgs': 0, 'volt': 0.8789, 'depth': 1.233, 'time': 8, 'pitch': 0.57, 'roll': -0.2, 'pres': 180}
{'lipoC2': 7.3, 'lipoC3S1': 3.81, 'temp': 26.81, 'lipoC3S3': 11.39, 'lipoC3S2': 7.57, 'rot1': 8, 'rot0': 8, 'rot3': 21, 'rot2': 19, 'state': 'normal', 'yaw': 14.04, 'datetime': '2018-10-09 20:14:56.091035', 'mgs': 0, 'volt': 0.8838, 'depth': 1.309, 'time': 9, 'pitch': 1.39, 'roll': -0.2, 'pres': 181}
{'lipoC2': 7.29, 'lipoC3S1': 3.82, 'temp': 26.81, 'lipoC3S3': 11.4, 'lipoC3S2': 7.64, 'rot1': 9, 'rot0': 9, 'rot3': 22, 'rot2': 19, 'state': 'normal', 'yaw': 13.7, 'datetime': '2018-10-09 20:14:56.195515', 'mgs': 0, 'volt': 0.8887, 'depth': 1.385, 'time': 9, 'pitch': 2.65, 'roll': -0.15, 'pres': 182}
{'lipoC2': 7.29, 'lipoC3S1': 3.82, 'temp': 26.81, 'lipoC3S3': 11.44, 'lipoC3S2': 7.63, 'rot1': 10, 'rot0': 10, 'rot3': 22, 'rot2': 20, 'state': 'normal', 'yaw': 13.1, 'datetime': '2018-10-09 20:14:56.299511', 'mgs': 0, 'volt': 0.9082, 'depth': 1.691, 'time': 9, 'pitch': 4.34, 'roll': -0.09, 'pres': 186}
{'lipoC2': 7.29, 'lipoC3S1': 3.82, 'temp': 26.81, 'lipoC3S3': 11.36, 'lipoC3S2': 7.56, 'rot1': 11, 'rot0': 11, 'rot3': 23, 'rot2': 20, 'state': 'normal', 'yaw': 12.38, 'datetime': '2018-10-09 20:14:56.404614', 'mgs': 0, 'volt': 0.8887, 'depth': 1.385, 'time': 9, 'pitch': 5.98, 'roll': -0.05, 'pres': 182}
{'lipoC2': 7.3, 'lipoC3S1': 3.77, 'temp': 26.81, 'lipoC3S3': 11.54, 'lipoC3S2': 7.62, 'rot1': 12, 'rot0': 12, 'rot3': 23, 'rot2': 21, 'state': 'normal', 'yaw': 11.39, 'datetime': '2018-10-09 20:14:56.508783', 'mgs': 0, 'volt': 0.918, 'depth': 1.843, 'time': 9, 'pitch': 7.81, 'roll': -0.05, 'pres': 188}
{'lipoC2': 7.28, 'lipoC3S1': 3.82, 'temp': 26.81, 'lipoC3S3': 11.46, 'lipoC3S2': 7.62, 'rot1': 12, 'rot0': 13, 'rot3': 24, 'rot2': 21, 'state': 'normal', 'yaw': 10.36, 'datetime': '2018-10-09 20:14:56.612583', 'mgs': 0, 'volt': 0.8936, 'depth': 1.462, 'time': 9, 'pitch': 9.44, 'roll': -0.07, 'pres': 183}
{'lipoC2': 7.3, 'lipoC3S1': 3.74, 'temp': 26.81, 'lipoC3S3': 11.54, 'lipoC3S2': 7.58, 'rot1': 13, 'rot0': 15, 'rot3': 25, 'rot2': 22, 'state': 'normal', 'yaw': 9.22, 'datetime': '2018-10-09 20:14:56.716498', 'mgs': 0, 'volt': 0.8936, 'depth': 1.462, 'time': 9, 'pitch': 10.99, 'roll': -0.09, 'pres': 183}
{'lipoC2': 7.28, 'lipoC3S1': 3.82, 'temp': 26.81, 'lipoC3S3': 11.44, 'lipoC3S2': 7.62, 'rot1': 14, 'rot0': 16, 'rot3': 25, 'rot2': 23, 'state': 'normal', 'yaw': 7.87, 'datetime': '2018-10-09 20:14:56.820360', 'mgs': 0, 'volt': 0.9082, 'depth': 1.691, 'time': 9, 'pitch': 12.43, 'roll': -0.06, 'pres': 186}
{'lipoC2': 7.3, 'lipoC3S1': 3.79, 'temp': 26.81, 'lipoC3S3': 11.52, 'lipoC3S2': 7.55, 'rot1': 15, 'rot0': 17, 'rot3': 26, 'rot2': 23, 'state': 'normal', 'yaw': 6.69, 'datetime': '2018-10-09 20:14:56.924375', 'mgs': 0, 'volt': 0.8936, 'depth': 1.462, 'time': 9, 'pitch': 13.44, 'roll': -0.05, 'pres': 183}
{'lipoC2': 7.3, 'lipoC3S1': 3.73, 'temp': 26.81, 'lipoC3S3': 11.52, 'lipoC3S2': 7.63, 'rot1': 16, 'rot0': 18, 'rot3': 26, 'rot2': 24, 'state': 'normal', 'yaw': 5.57, 'datetime': '2018-10-09 20:14:57.028665', 'mgs': 0, 'volt': 0.9131, 'depth': 1.767, 'time': 9, 'pitch': 14.13, 'roll': -0.04, 'pres': 187}
{'lipoC2': 7.28, 'lipoC3S1': 3.82, 'temp': 26.81, 'lipoC3S3': 11.43, 'lipoC3S2': 7.62, 'rot1': 17, 'rot0': 19, 'rot3': 27, 'rot2': 24, 'state': 'normal', 'yaw': 4.4, 'datetime': '2018-10-09 20:14:57.132781', 'mgs': 0, 'volt': 0.9033, 'depth': 1.614, 'time': 10, 'pitch': 14.55, 'roll': -0.05, 'pres': 185}
{'lipoC2': 7.29, 'lipoC3S1': 3.82, 'temp': 26.81, 'lipoC3S3': 11.54, 'lipoC3S2': 7.62, 'rot1': 18, 'rot0': 20, 'rot3': 28, 'rot2': 25, 'state': 'normal', 'yaw': 3.37, 'datetime': '2018-10-09 20:14:57.238171', 'mgs': 0, 'volt': 0.9131, 'depth': 1.767, 'time': 10, 'pitch': 14.68, 'roll': -0.09, 'pres': 187}
{'lipoC2': 7.3, 'lipoC3S1': 3.81, 'temp': 26.81, 'lipoC3S3': 11.36, 'lipoC3S2': 7.56, 'rot1': 19, 'rot0': 21, 'rot3': 28, 'rot2': 25, 'state': 'normal', 'yaw': 2.24, 'datetime': '2018-10-09 20:14:57.342370', 'mgs': 0, 'volt': 0.8838, 'depth': 1.309, 'time': 10, 'pitch': 14.67, 'roll': -0.17, 'pres': 181}
{'lipoC2': 7.29, 'lipoC3S1': 3.81, 'temp': 26.81, 'lipoC3S3': 11.31, 'lipoC3S2': 7.56, 'rot1': 20, 'rot0': 22, 'rot3': 29, 'rot2': 26, 'state': 'normal', 'yaw': 1.22, 'datetime': '2018-10-09 20:14:57.447621', 'mgs': 0, 'volt': 0.8789, 'depth': 1.233, 'time': 10, 'pitch': 14.57, 'roll': -0.2, 'pres': 180}
{'lipoC2': 7.3, 'lipoC3S1': 3.77, 'temp': 26.88, 'lipoC3S3': 11.51, 'lipoC3S2': 7.52, 'rot1': 21, 'rot0': 24, 'rot3': 30, 'rot2': 27, 'state': 'normal', 'yaw': 0.23, 'datetime': '2018-10-09 20:14:57.551702', 'mgs': 0, 'volt': 0.874, 'depth': 1.157, 'time': 10, 'pitch': 14.42, 'roll': -0.13, 'pres': 179}
{'lipoC2': 7.3, 'lipoC3S1': 3.83, 'temp': 26.88, 'lipoC3S3': 11.54, 'lipoC3S2': 7.57, 'rot1': 22, 'rot0': 25, 'rot3': 30, 'rot2': 27, 'state': 'normal', 'yaw': -0.49, 'datetime': '2018-10-09 20:14:57.654287', 'mgs': 0, 'volt': 0.8691, 'depth': 1.08, 'time': 10, 'pitch': 14.24, 'roll': -0.02, 'pres': 178}
{'lipoC2': 7.3, 'lipoC3S1': 3.81, 'temp': 26.81, 'lipoC3S3': 11.55, 'lipoC3S2': 7.53, 'rot1': 23, 'rot0': 26, 'rot3': 30, 'rot2': 27, 'state': 'normal', 'yaw': -1.13, 'datetime': '2018-10-09 20:14:57.755384', 'mgs': 0, 'volt': 0.8643, 'depth': 1.004, 'time': 10, 'pitch': 13.72, 'roll': 0.12, 'pres': 177}
{'lipoC2': 7.3, 'lipoC3S1': 3.82, 'temp': 26.81, 'lipoC3S3': 11.54, 'lipoC3S2': 7.64, 'rot1': 24, 'rot0': 27, 'rot3': 30, 'rot2': 27, 'state': 'normal', 'yaw': -1.59, 'datetime': '2018-10-09 20:14:57.863789', 'mgs': 0, 'volt': 0.918, 'depth': 1.843, 'time': 10, 'pitch': 12.91, 'roll': 0.2, 'pres': 188}
{'lipoC2': 7.29, 'lipoC3S1': 3.8, 'temp': 26.81, 'lipoC3S3': 11.3, 'lipoC3S2': 7.54, 'rot1': 26, 'rot0': 28, 'rot3': 30, 'rot2': 27, 'state': 'normal', 'yaw': -1.96, 'datetime': '2018-10-09 20:14:57.970848', 'mgs': 0, 'volt': 0.8594, 'depth': 0.928, 'time': 10, 'pitch': 11.91, 'roll': 0.2, 'pres': 176}
{'lipoC2': 7.3, 'lipoC3S1': 3.75, 'temp': 26.81, 'lipoC3S3': 11.51, 'lipoC3S2': 7.57, 'rot1': 27, 'rot0': 29, 'rot3': 31, 'rot2': 28, 'state': 'normal', 'yaw': -2.32, 'datetime': '2018-10-09 20:14:58.073439', 'mgs': 0, 'volt': 0.8789, 'depth': 1.233, 'time': 11, 'pitch': 10.96, 'roll': 0.12, 'pres': 180}
{'lipoC2': 7.3, 'lipoC3S1': 3.81, 'temp': 26.81, 'lipoC3S3': 11.51, 'lipoC3S2': 7.61, 'rot1': 28, 'rot0': 30, 'rot3': 32, 'rot2': 28, 'state': 'normal', 'yaw': -2.6, 'datetime': '2018-10-09 20:14:58.177486', 'mgs': 0, 'volt': 0.8984, 'depth': 1.538, 'time': 11, 'pitch': 10.37, 'roll': 0.02, 'pres': 184}
{'lipoC2': 7.28, 'lipoC3S1': 3.81, 'temp': 26.81, 'lipoC3S3': 11.43, 'lipoC3S2': 7.61, 'rot1': 29, 'rot0': 32, 'rot3': 32, 'rot2': 29, 'state': 'normal', 'yaw': -2.78, 'datetime': '2018-10-09 20:14:58.281651', 'mgs': 0, 'volt': 0.8447, 'depth': 0.699, 'time': 11, 'pitch': 10.04, 'roll': -0.17, 'pres': 173}
{'lipoC2': 7.3, 'lipoC3S1': 3.77, 'temp': 26.81, 'lipoC3S3': 11.48, 'lipoC3S2': 7.46, 'rot1': 30, 'rot0': 33, 'rot3': 33, 'rot2': 30, 'state': 'normal', 'yaw': -2.85, 'datetime': '2018-10-09 20:14:58.385691', 'mgs': 0, 'volt': 0.8496, 'depth': 0.775, 'time': 11, 'pitch': 9.86, 'roll': -0.42, 'pres': 174}
{'lipoC2': 7.3, 'lipoC3S1': 3.83, 'temp': 26.81, 'lipoC3S3': 11.43, 'lipoC3S2': 7.41, 'rot1': 31, 'rot0': 34, 'rot3': 34, 'rot2': 30, 'state': 'normal', 'yaw': -2.85, 'datetime': '2018-10-09 20:14:58.491134', 'mgs': 0, 'volt': 0.8496, 'depth': 0.775, 'time': 11, 'pitch': 9.68, 'roll': -0.63, 'pres': 174}
{'lipoC2': 7.3, 'lipoC3S1': 3.74, 'temp': 26.81, 'lipoC3S3': 11.5, 'lipoC3S2': 7.62, 'rot1': 32, 'rot0': 35, 'rot3': 34, 'rot2': 30, 'state': 'normal', 'yaw': -2.8, 'datetime': '2018-10-09 20:14:58.595151', 'mgs': 0, 'volt': 0.8789, 'depth': 1.233, 'time': 11, 'pitch': 9.37, 'roll': -0.72, 'pres': 180}
{'lipoC2': 7.3, 'lipoC3S1': 3.72, 'temp': 26.81, 'lipoC3S3': 11.51, 'lipoC3S2': 7.62, 'rot1': 33, 'rot0': 36, 'rot3': 35, 'rot2': 30, 'state': 'normal', 'yaw': -2.7, 'datetime': '2018-10-09 20:14:58.700377', 'mgs': 0, 'volt': 0.8691, 'depth': 1.08, 'time': 11, 'pitch': 8.77, 'roll': -0.68, 'pres': 178}
{'lipoC2': 7.28, 'lipoC3S1': 3.81, 'temp': 26.81, 'lipoC3S3': 11.42, 'lipoC3S2': 7.61, 'rot1': 34, 'rot0': 37, 'rot3': 35, 'rot2': 31, 'state': 'normal', 'yaw': -2.59, 'datetime': '2018-10-09 20:14:58.804536', 'mgs': 0, 'volt': 0.8643, 'depth': 1.004, 'time': 11, 'pitch': 7.89, 'roll': -0.5, 'pres': 177}
{'lipoC2': 7.3, 'lipoC3S1': 3.8, 'temp': 26.81, 'lipoC3S3': 11.44, 'lipoC3S2': 7.43, 'rot1': 35, 'rot0': 38, 'rot3': 36, 'rot2': 31, 'state': 'normal', 'yaw': -2.58, 'datetime': '2018-10-09 20:14:58.908462', 'mgs': 0, 'volt': 0.8545, 'depth': 0.851, 'time': 11, 'pitch': 7.2, 'roll': -0.34, 'pres': 175}
{'lipoC2': 7.3, 'lipoC3S1': 3.76, 'temp': 26.81, 'lipoC3S3': 11.3, 'lipoC3S2': 7.55, 'rot1': 37, 'rot0': 39, 'rot3': 36, 'rot2': 32, 'state': 'normal', 'yaw': -2.58, 'datetime': '2018-10-09 20:14:59.013907', 'mgs': 0, 'volt': 0.8545, 'depth': 0.851, 'time': 11, 'pitch': 6.75, 'roll': -0.28, 'pres': 175}
{'lipoC2': 7.3, 'lipoC3S1': 3.71, 'temp': 26.81, 'lipoC3S3': 11.5, 'lipoC3S2': 7.58, 'rot1': 38, 'rot0': 41, 'rot3': 37, 'rot2': 32, 'state': 'normal', 'yaw': -2.58, 'datetime': '2018-10-09 20:14:59.117923', 'mgs': 0, 'volt': 0.8789, 'depth': 1.233, 'time': 12, 'pitch': 6.48, 'roll': -0.38, 'pres': 180}
{'lipoC2': 7.29, 'lipoC3S1': 3.81, 'temp': 26.81, 'lipoC3S3': 11.42, 'lipoC3S2': 7.6, 'rot1': 39, 'rot0': 42, 'rot3': 38, 'rot2': 33, 'state': 'normal', 'yaw': -2.57, 'datetime': '2018-10-09 20:14:59.221988', 'mgs': 0, 'volt': 0.9082, 'depth': 1.691, 'time': 12, 'pitch': 6.37, 'roll': -0.56, 'pres': 186}
{'lipoC2': 7.3, 'lipoC3S1': 3.8, 'temp': 26.81, 'lipoC3S3': 11.36, 'lipoC3S2': 7.55, 'rot1': 40, 'rot0': 43, 'rot3': 39, 'rot2': 34, 'state': 'normal', 'yaw': -2.6, 'datetime': '2018-10-09 20:14:59.325955', 'mgs': 0, 'volt': 0.8643, 'depth': 1.004, 'time': 12, 'pitch': 6.31, 'roll': -0.77, 'pres': 177}
{'lipoC2': 7.29, 'lipoC3S1': 3.81, 'temp': 26.88, 'lipoC3S3': 11.42, 'lipoC3S2': 7.6, 'rot1': 41, 'rot0': 44, 'rot3': 39, 'rot2': 34, 'state': 'normal', 'yaw': -2.6, 'datetime': '2018-10-09 20:14:59.430762', 'mgs': 0, 'volt': 0.8936, 'depth': 1.462, 'time': 12, 'pitch': 6.3, 'roll': -0.91, 'pres': 183}
{'lipoC2': 7.3, 'lipoC3S1': 3.78, 'temp': 26.88, 'lipoC3S3': 11.43, 'lipoC3S2': 7.43, 'rot1': 42, 'rot0': 45, 'rot3': 40, 'rot2': 35, 'state': 'normal', 'yaw': -2.6, 'datetime': '2018-10-09 20:14:59.533511', 'mgs': 0, 'volt': 0.874, 'depth': 1.157, 'time': 12, 'pitch': 6.2, 'roll': -0.98, 'pres': 179}
{'lipoC2': 7.29, 'lipoC3S1': 3.75, 'temp': 26.88, 'lipoC3S3': 11.5, 'lipoC3S2': 7.61, 'rot1': 43, 'rot0': 46, 'rot3': 41, 'rot2': 35, 'state': 'normal', 'yaw': -2.59, 'datetime': '2018-10-09 20:14:59.638792', 'mgs': 0, 'volt': 0.8936, 'depth': 1.462, 'time': 12, 'pitch': 5.99, 'roll': -0.97, 'pres': 183}
{'lipoC2': 7.29, 'lipoC3S1': 3.76, 'temp': 26.81, 'lipoC3S3': 11.48, 'lipoC3S2': 7.61, 'rot1': 44, 'rot0': 47, 'rot3': 41, 'rot2': 36, 'state': 'normal', 'yaw': -2.59, 'datetime': '2018-10-09 20:14:59.744108', 'mgs': 0, 'volt': 0.9033, 'depth': 1.614, 'time': 12, 'pitch': 5.74, 'roll': -0.97, 'pres': 185}
{'lipoC2': 7.28, 'lipoC3S1': 3.81, 'temp': 26.81, 'lipoC3S3': 11.42, 'lipoC3S2': 7.61, 'rot1': 45, 'rot0': 48, 'rot3': 42, 'rot2': 37, 'state': 'normal', 'yaw': -2.57, 'datetime': '2018-10-09 20:14:59.848141', 'mgs': 0, 'volt': 0.8936, 'depth': 1.462, 'time': 12, 'pitch': 5.51, 'roll': -0.97, 'pres': 183}
{'lipoC2': 7.29, 'lipoC3S1': 3.81, 'temp': 26.81, 'lipoC3S3': 11.26, 'lipoC3S2': 7.56, 'rot1': 46, 'rot0': 50, 'rot3': 43, 'rot2': 37, 'state': 'normal', 'yaw': -2.55, 'datetime': '2018-10-09 20:14:59.953326', 'mgs': 0, 'volt': 0.8984, 'depth': 1.538, 'time': 12, 'pitch': 5.37, 'roll': -0.97, 'pres': 184}
{'lipoC2': 7.3, 'lipoC3S1': 3.8, 'temp': 26.81, 'lipoC3S3': 11.36, 'lipoC3S2': 7.55, 'rot1': 48, 'rot0': 51, 'rot3': 44, 'rot2': 38, 'state': 'normal', 'yaw': -2.45, 'datetime': '2018-10-09 20:15:00.057568', 'mgs': 0, 'volt': 0.8984, 'depth': 1.538, 'time': 12, 'pitch': 5.27, 'roll': -0.95, 'pres': 184}
{'lipoC2': 7.3, 'lipoC3S1': 3.77, 'temp': 26.81, 'lipoC3S3': 11.46, 'lipoC3S2': 7.45, 'rot1': 49, 'rot0': 52, 'rot3': 44, 'rot2': 38, 'state': 'normal', 'yaw': -2.32, 'datetime': '2018-10-09 20:15:00.161854', 'mgs': 0, 'volt': 0.9082, 'depth': 1.691, 'time': 13, 'pitch': 5.21, 'roll': -0.93, 'pres': 186}
{'lipoC2': 7.28, 'lipoC3S1': 3.81, 'temp': 26.81, 'lipoC3S3': 11.44, 'lipoC3S2': 7.6, 'rot1': 50, 'rot0': 53, 'rot3': 45, 'rot2': 39, 'state': 'normal', 'yaw': -2.11, 'datetime': '2018-10-09 20:15:00.267307', 'mgs': 0, 'volt': 0.9131, 'depth': 1.767, 'time': 13, 'pitch': 5.13, 'roll': -0.92, 'pres': 187}
{'lipoC2': 7.3, 'lipoC3S1': 3.76, 'temp': 26.88, 'lipoC3S3': 11.51, 'lipoC3S2': 7.49, 'rot1': 51, 'rot0': 54, 'rot3': 46, 'rot2': 40, 'state': 'normal', 'yaw': -1.83, 'datetime': '2018-10-09 20:15:00.371361', 'mgs': 0, 'volt': 0.9229, 'depth': 1.92, 'time': 13, 'pitch': 5.13, 'roll': -0.95, 'pres': 189}
{'lipoC2': 7.29, 'lipoC3S1': 3.81, 'temp': 26.88, 'lipoC3S3': 11.48, 'lipoC3S2': 7.61, 'rot1': 52, 'rot0': 55, 'rot3': 46, 'rot2': 40, 'state': 'normal', 'yaw': -1.53, 'datetime': '2018-10-09 20:15:00.475476', 'mgs': 0, 'volt': 0.9961, 'depth': 3.064, 'time': 13, 'pitch': 5.13, 'roll': -1.03, 'pres': 204}
{'lipoC2': 7.29, 'lipoC3S1': 3.8, 'temp': 26.88, 'lipoC3S3': 11.26, 'lipoC3S2': 7.52, 'rot1': 53, 'rot0': 56, 'rot3': 48, 'rot2': 40, 'state': 'normal', 'yaw': -1.16, 'datetime': '2018-10-09 20:15:00.579449', 'mgs': 0, 'volt': 0.9326, 'depth': 2.072, 'time': 13, 'pitch': 5.18, 'roll': -1.12, 'pres': 191}
{'lipoC2': 7.3, 'lipoC3S1': 3.69, 'temp': 26.88, 'lipoC3S3': 11.5, 'lipoC3S2': 7.56, 'rot1': 54, 'rot0': 58, 'rot3': 48, 'rot2': 40, 'state': 'normal', 'yaw': -0.89, 'datetime': '2018-10-09 20:15:00.683393', 'mgs': 0, 'volt': 0.9326, 'depth': 2.072, 'time': 13, 'pitch': 5.51, 'roll': -1.32, 'pres': 191}
{'lipoC2': 7.3, 'lipoC3S1': 3.81, 'temp': 26.88, 'lipoC3S3': 11.48, 'lipoC3S2': 7.6, 'rot1': 55, 'rot0': 59, 'rot3': 48, 'rot2': 41, 'state': 'normal', 'yaw': -0.65, 'datetime': '2018-10-09 20:15:00.787479', 'mgs': 0, 'volt': 0.9814, 'depth': 2.835, 'time': 13, 'pitch': 6.16, 'roll': -1.36, 'pres': 201}
{'lipoC2': 7.3, 'lipoC3S1': 3.8, 'temp': 26.88, 'lipoC3S3': 11.36, 'lipoC3S2': 7.54, 'rot1': 56, 'rot0': 60, 'rot3': 49, 'rot2': 41, 'state': 'normal', 'yaw': -0.39, 'datetime': '2018-10-09 20:15:00.891439', 'mgs': 0, 'volt': 0.9424, 'depth': 2.225, 'time': 13, 'pitch': 7.11, 'roll': -1.34, 'pres': 193}
{'lipoC2': 7.3, 'lipoC3S1': 3.8, 'temp': 26.88, 'lipoC3S3': 11.42, 'lipoC3S2': 7.42, 'rot1': 58, 'rot0': 61, 'rot3': 50, 'rot2': 42, 'state': 'normal', 'yaw': -0.16, 'datetime': '2018-10-09 20:15:00.995908', 'mgs': 0, 'volt': 0.9473, 'depth': 2.301, 'time': 13, 'pitch': 8.12, 'roll': -1.31, 'pres': 194}
{'lipoC2': 7.3, 'lipoC3S1': 3.8, 'temp': 26.88, 'lipoC3S3': 11.4, 'lipoC3S2': 7.61, 'rot1': 59, 'rot0': 62, 'rot3': 50, 'rot2': 42, 'state': 'normal', 'yaw': 0.06, 'datetime': '2018-10-09 20:15:01.100353', 'mgs': 0, 'volt': 0.9521, 'depth': 2.377, 'time': 14, 'pitch': 9.21, 'roll': -1.24, 'pres': 195}
{'lipoC2': 7.3, 'lipoC3S1': 3.77, 'temp': 26.88, 'lipoC3S3': 11.52, 'lipoC3S2': 7.63, 'rot1': 60, 'rot0': 63, 'rot3': 51, 'rot2': 43, 'state': 'normal', 'yaw': 0.28, 'datetime': '2018-10-09 20:15:01.204154', 'mgs': 0, 'volt': 0.957, 'depth': 2.454, 'time': 14, 'pitch': 10.42, 'roll': -1.16, 'pres': 196}
{'lipoC2': 7.3, 'lipoC3S1': 3.76, 'temp': 26.88, 'lipoC3S3': 11.52, 'lipoC3S2': 7.63, 'rot1': 61, 'rot0': 64, 'rot3': 51, 'rot2': 43, 'state': 'normal', 'yaw': 0.54, 'datetime': '2018-10-09 20:15:01.309418', 'mgs': 0, 'volt': 0.9619, 'depth': 2.53, 'time': 14, 'pitch': 11.38, 'roll': -1.11, 'pres': 197}
{'lipoC2': 7.28, 'lipoC3S1': 3.81, 'temp': 26.88, 'lipoC3S3': 11.5, 'lipoC3S2': 7.62, 'rot1': 62, 'rot0': 66, 'rot3': 51, 'rot2': 43, 'state': 'normal', 'yaw': 0.89, 'datetime': '2018-10-09 20:15:01.413521', 'mgs': 0, 'volt': 0.9619, 'depth': 2.53, 'time': 14, 'pitch': 12.23, 'roll': -1.04, 'pres': 197}
{'lipoC2': 7.29, 'lipoC3S1': 3.81, 'temp': 26.88, 'lipoC3S3': 11.5, 'lipoC3S2': 7.62, 'rot1': 63, 'rot0': 67, 'rot3': 51, 'rot2': 43, 'state': 'normal', 'yaw': 1.2, 'datetime': '2018-10-09 20:15:01.516661', 'mgs': 0, 'volt': 0.9619, 'depth': 2.53, 'time': 14, 'pitch': 12.83, 'roll': -0.95, 'pres': 197}
{'lipoC2': 7.3, 'lipoC3S1': 3.81, 'temp': 26.88, 'lipoC3S3': 11.52, 'lipoC3S2': 7.53, 'rot1': 64, 'rot0': 68, 'rot3': 51, 'rot2': 43, 'state': 'normal', 'yaw': 1.52, 'datetime': '2018-10-09 20:15:01.621943', 'mgs': 0, 'volt': 0.9619, 'depth': 2.53, 'time': 14, 'pitch': 13.35, 'roll': -0.86, 'pres': 197}
{'lipoC2': 7.3, 'lipoC3S1': 3.82, 'temp': 26.88, 'lipoC3S3': 11.52, 'lipoC3S2': 7.63, 'rot1': 65, 'rot0': 69, 'rot3': 51, 'rot2': 43, 'state': 'normal', 'yaw': 1.8, 'datetime': '2018-10-09 20:15:01.724114', 'mgs': 0, 'volt': 1.0254, 'depth': 3.522, 'time': 14, 'pitch': 13.65, 'roll': -0.73, 'pres': 210}
{'lipoC2': 7.3, 'lipoC3S1': 3.8, 'temp': 26.88, 'lipoC3S3': 11.31, 'lipoC3S2': 7.53, 'rot1': 66, 'rot0': 70, 'rot3': 51, 'rot2': 43, 'state': 'normal', 'yaw': 2.08, 'datetime': '2018-10-09 20:15:01.828396', 'mgs': 0, 'volt': 0.9668, 'depth': 2.606, 'time': 14, 'pitch': 13.84, 'roll': -0.6, 'pres': 198}
{'lipoC2': 7.3, 'lipoC3S1': 3.77, 'temp': 26.88, 'lipoC3S3': 11.5, 'lipoC3S2': 7.5, 'rot1': 68, 'rot0': 71, 'rot3': 51, 'rot2': 43, 'state': 'normal', 'yaw': 2.35, 'datetime': '2018-10-09 20:15:01.932585', 'mgs': 0, 'volt': 0.957, 'depth': 2.454, 'time': 14, 'pitch': 14.09, 'roll': -0.39, 'pres': 196}
{'lipoC2': 7.29, 'lipoC3S1': 3.77, 'temp': 26.88, 'lipoC3S3': 11.47, 'lipoC3S2': 7.6, 'rot1': 69, 'rot0': 73, 'rot3': 52, 'rot2': 44, 'state': 'normal', 'yaw': 2.54, 'datetime': '2018-10-09 20:15:02.036736', 'mgs': 0, 'volt': 0.957, 'depth': 2.454, 'time': 14, 'pitch': 14.42, 'roll': -0.17, 'pres': 196}
{'lipoC2': 7.3, 'lipoC3S1': 3.78, 'temp': 26.88, 'lipoC3S3': 11.51, 'lipoC3S2': 7.62, 'rot1': 70, 'rot0': 74, 'rot3': 53, 'rot2': 44, 'state': 'normal', 'yaw': 2.67, 'datetime': '2018-10-09 20:15:02.140987', 'mgs': 0, 'volt': 0.957, 'depth': 2.454, 'time': 15, 'pitch': 14.85, 'roll': 0.06, 'pres': 196}
{'lipoC2': 7.29, 'lipoC3S1': 3.81, 'temp': 26.88, 'lipoC3S3': 11.51, 'lipoC3S2': 7.62, 'rot1': 71, 'rot0': 75, 'rot3': 53, 'rot2': 44, 'state': 'normal', 'yaw': 2.8, 'datetime': '2018-10-09 20:15:02.245114', 'mgs': 0, 'volt': 0.9814, 'depth': 2.835, 'time': 15, 'pitch': 15.2, 'roll': 0.23, 'pres': 201}
{'lipoC2': 7.3, 'lipoC3S1': 3.81, 'temp': 26.88, 'lipoC3S3': 11.51, 'lipoC3S2': 7.62, 'rot1': 72, 'rot0': 76, 'rot3': 53, 'rot2': 44, 'state': 'normal', 'yaw': 2.91, 'datetime': '2018-10-09 20:15:02.350610', 'mgs': 0, 'volt': 1.001, 'depth': 3.14, 'time': 15, 'pitch': 15.33, 'roll': 0.32, 'pres': 205}
{'lipoC2': 7.29, 'lipoC3S1': 3.8, 'temp': 26.88, 'lipoC3S3': 11.19, 'lipoC3S2': 7.52, 'rot1': 73, 'rot0': 77, 'rot3': 53, 'rot2': 45, 'state': 'normal', 'yaw': 3.03, 'datetime': '2018-10-09 20:15:02.462001', 'mgs': 0, 'volt': 0.9521, 'depth': 2.377, 'time': 15, 'pitch': 15.26, 'roll': 0.37, 'pres': 195}
{'lipoC2': 7.28, 'lipoC3S1': 3.8, 'temp': 26.88, 'lipoC3S3': 11.4, 'lipoC3S2': 7.59, 'rot1': 74, 'rot0': 78, 'rot3': 53, 'rot2': 45, 'state': 'normal', 'yaw': 3.11, 'datetime': '2018-10-09 20:15:02.559801', 'mgs': 0, 'volt': 0.9473, 'depth': 2.301, 'time': 15, 'pitch': 15.2, 'roll': 0.39, 'pres': 194}
{'lipoC2': 7.3, 'lipoC3S1': 3.83, 'temp': 26.88, 'lipoC3S3': 11.56, 'lipoC3S2': 7.66, 'rot1': 75, 'rot0': 79, 'rot3': 54, 'rot2': 46, 'state': 'normal', 'yaw': 3.17, 'datetime': '2018-10-09 20:15:04.112420', 'mgs': 0, 'volt': 0.9473, 'depth': 2.301, 'time': 15, 'pitch': 15.13, 'roll': 0.4, 'pres': 194}
{'lipoC2': 7.3, 'lipoC3S1': 3.83, 'temp': 26.88, 'lipoC3S3': 11.56, 'lipoC3S2': 7.66, 'rot1': 75, 'rot0': 79, 'rot3': 54, 'rot2': 46, 'state': 'normal', 'yaw': 3.18, 'datetime': '2018-10-09 20:15:04.144066', 'mgs': 0, 'volt': 0.9424, 'depth': 2.225, 'time': 15, 'pitch': 14.38, 'roll': 0.29, 'pres': 193}
{'lipoC2': 7.3, 'lipoC3S1': 3.83, 'temp': 26.88, 'lipoC3S3': 11.58, 'lipoC3S2': 7.66, 'rot1': 75, 'rot0': 79, 'rot3': 54, 'rot2': 46, 'state': 'normal', 'yaw': 3.25, 'datetime': '2018-10-09 20:15:04.175035', 'mgs': 0, 'volt': 0.9375, 'depth': 2.148, 'time': 15, 'pitch': 12.83, 'roll': 0.14, 'pres': 192}
{'lipoC2': 7.3, 'lipoC3S1': 3.83, 'temp': 26.88, 'lipoC3S3': 11.56, 'lipoC3S2': 7.66, 'rot1': 75, 'rot0': 79, 'rot3': 54, 'rot2': 46, 'state': 'normal', 'yaw': 3.32, 'datetime': '2018-10-09 20:15:04.203834', 'mgs': 0, 'volt': 0.9326, 'depth': 2.072, 'time': 15, 'pitch': 11.01, 'roll': -0.01, 'pres': 191}
{'lipoC2': 7.3, 'lipoC3S1': 3.83, 'temp': 26.88, 'lipoC3S3': 11.58, 'lipoC3S2': 7.66, 'rot1': 75, 'rot0': 79, 'rot3': 54, 'rot2': 46, 'state': 'normal', 'yaw': 3.4, 'datetime': '2018-10-09 20:15:04.220542', 'mgs': 0, 'volt': 0.9277, 'depth': 1.996, 'time': 16, 'pitch': 9.01, 'roll': -0.18, 'pres': 190}
{'lipoC2': 7.3, 'lipoC3S1': 3.76, 'temp': 26.88, 'lipoC3S3': 11.55, 'lipoC3S2': 7.65, 'rot1': 75, 'rot0': 79, 'rot3': 54, 'rot2': 46, 'state': 'normal', 'yaw': 3.47, 'datetime': '2018-10-09 20:15:04.236555', 'mgs': 0, 'volt': 0.9229, 'depth': 1.92, 'time': 16, 'pitch': 6.71, 'roll': -0.35, 'pres': 189}
{'lipoC2': 7.28, 'lipoC3S1': 3.82, 'temp': 26.88, 'lipoC3S3': 11.55, 'lipoC3S2': 7.65, 'rot1': 76, 'rot0': 80, 'rot3': 54, 'rot2': 46, 'state': 'normal', 'yaw': 3.49, 'datetime': '2018-10-09 20:15:04.252467', 'mgs': 0, 'volt': 0.9131, 'depth': 1.767, 'time': 16, 'pitch': 4.44, 'roll': -0.5, 'pres': 187}
{'lipoC2': 7.3, 'lipoC3S1': 3.82, 'temp': 26.88, 'lipoC3S3': 11.55, 'lipoC3S2': 7.64, 'rot1': 77, 'rot0': 81, 'rot3': 54, 'rot2': 46, 'state': 'normal', 'yaw': 3.49, 'datetime': '2018-10-09 20:15:04.268195', 'mgs': 0, 'volt': 0.9131, 'depth': 1.767, 'time': 16, 'pitch': 2.21, 'roll': -0.63, 'pres': 187}
{'lipoC2': 7.3, 'lipoC3S1': 3.82, 'temp': 26.88, 'lipoC3S3': 11.55, 'lipoC3S2': 7.61, 'rot1': 78, 'rot0': 82, 'rot3': 54, 'rot2': 46, 'state': 'normal', 'yaw': 3.42, 'datetime': '2018-10-09 20:15:04.283971', 'mgs': 0, 'volt': 0.9082, 'depth': 1.691, 'time': 16, 'pitch': -0.02, 'roll': -0.75, 'pres': 186}
{'lipoC2': 7.3, 'lipoC3S1': 3.84, 'temp': 26.88, 'lipoC3S3': 11.55, 'lipoC3S2': 7.65, 'rot1': 79, 'rot0': 83, 'rot3': 54, 'rot2': 46, 'state': 'normal', 'yaw': 3.31, 'datetime': '2018-10-09 20:15:04.299734', 'mgs': 0, 'volt': 0.9033, 'depth': 1.614, 'time': 16, 'pitch': -1.75, 'roll': -0.81, 'pres': 185}
{'lipoC2': 7.3, 'lipoC3S1': 3.82, 'temp': 26.88, 'lipoC3S3': 11.55, 'lipoC3S2': 7.65, 'rot1': 80, 'rot0': 84, 'rot3': 54, 'rot2': 46, 'state': 'normal', 'yaw': 3.18, 'datetime': '2018-10-09 20:15:04.316163', 'mgs': 0, 'volt': 0.918, 'depth': 1.843, 'time': 16, 'pitch': -3.21, 'roll': -0.8, 'pres': 188}
{'lipoC2': 7.32, 'lipoC3S1': 3.83, 'temp': 26.88, 'lipoC3S3': 11.55, 'lipoC3S2': 7.65, 'rot1': 81, 'rot0': 85, 'rot3': 54, 'rot2': 46, 'state': 'normal', 'yaw': 3.03, 'datetime': '2018-10-09 20:15:04.332674', 'mgs': 0, 'volt': 0.9131, 'depth': 1.767, 'time': 16, 'pitch': -4.09, 'roll': -0.73, 'pres': 187}
{'lipoC2': 7.3, 'lipoC3S1': 3.82, 'temp': 26.88, 'lipoC3S3': 11.54, 'lipoC3S2': 7.64, 'rot1': 82, 'rot0': 86, 'rot3': 54, 'rot2': 46, 'state': 'normal', 'yaw': 2.85, 'datetime': '2018-10-09 20:15:04.348547', 'mgs': 0, 'volt': 0.8984, 'depth': 1.538, 'time': 16, 'pitch': -4.59, 'roll': -0.55, 'pres': 184}
{'lipoC2': 7.3, 'lipoC3S1': 3.8, 'temp': 26.94, 'lipoC3S3': 11.55, 'lipoC3S2': 7.65, 'rot1': 83, 'rot0': 87, 'rot3': 54, 'rot2': 46, 'state': 'normal', 'yaw': 2.67, 'datetime': '2018-10-09 20:15:04.367231', 'mgs': 0, 'volt': 0.8936, 'depth': 1.462, 'time': 16, 'pitch': -4.64, 'roll': -0.34, 'pres': 183}
{'lipoC2': 7.3, 'lipoC3S1': 3.83, 'temp': 26.94, 'lipoC3S3': 11.58, 'lipoC3S2': 7.66, 'rot1': 83, 'rot0': 87, 'rot3': 54, 'rot2': 46, 'state': 'normal', 'yaw': 2.48, 'datetime': '2018-10-09 20:15:04.383064', 'mgs': 0, 'volt': 0.8936, 'depth': 1.462, 'time': 17, 'pitch': -4.36, 'roll': -0.11, 'pres': 183}
{'lipoC2': 7.29, 'lipoC3S1': 3.82, 'temp': 26.94, 'lipoC3S3': 11.46, 'lipoC3S2': 7.63, 'rot1': 84, 'rot0': 88, 'rot3': 54, 'rot2': 46, 'state': 'normal', 'yaw': 2.27, 'datetime': '2018-10-09 20:15:04.398943', 'mgs': 0, 'volt': 0.8984, 'depth': 1.538, 'time': 17, 'pitch': -3.58, 'roll': 0.15, 'pres': 184}
{'lipoC2': 7.3, 'lipoC3S1': 3.83, 'temp': 26.94, 'lipoC3S3': 11.55, 'lipoC3S2': 7.61, 'rot1': 84, 'rot0': 88, 'rot3': 55, 'rot2': 46, 'state': 'normal', 'yaw': 2.07, 'datetime': '2018-10-09 20:15:04.415157', 'mgs': 0, 'volt': 0.8936, 'depth': 1.462, 'time': 17, 'pitch': -2.24, 'roll': 0.44, 'pres': 183}
{'lipoC2': 7.27, 'lipoC3S1': 3.7, 'temp': 26.94, 'lipoC3S3': 11.46, 'lipoC3S2': 7.59, 'rot1': 84, 'rot0': 88, 'rot3': 55, 'rot2': 47, 'state': 'normal', 'yaw': 1.86, 'datetime': '2018-10-09 20:15:04.433806', 'mgs': 0, 'volt': 0.8984, 'depth': 1.538, 'time': 17, 'pitch': -0.33, 'roll': 0.7, 'pres': 184}
{'lipoC2': 7.28, 'lipoC3S1': 3.79, 'temp': 26.88, 'lipoC3S3': 11.13, 'lipoC3S2': 7.63, 'rot1': 85, 'rot0': 89, 'rot3': 56, 'rot2': 47, 'state': 'normal', 'yaw': 2.2, 'datetime': '2018-10-09 20:15:04.537823', 'mgs': 0, 'volt': 0.8936, 'depth': 1.462, 'time': 17, 'pitch': 1.56, 'roll': 0.71, 'pres': 183}
{'lipoC2': 7.3, 'lipoC3S1': 3.64, 'temp': 26.88, 'lipoC3S3': 11.44, 'lipoC3S2': 7.45, 'rot1': 86, 'rot0': 91, 'rot3': 56, 'rot2': 48, 'state': 'normal', 'yaw': 4.37, 'datetime': '2018-10-09 20:15:04.641835', 'mgs': 0, 'volt': 0.8984, 'depth': 1.538, 'time': 17, 'pitch': 3.65, 'roll': 0.41, 'pres': 184}
{'lipoC2': 7.27, 'lipoC3S1': 3.8, 'temp': 26.88, 'lipoC3S3': 11.4, 'lipoC3S2': 7.56, 'rot1': 88, 'rot0': 93, 'rot3': 57, 'rot2': 49, 'state': 'normal', 'yaw': 8.74, 'datetime': '2018-10-09 20:15:04.745886', 'mgs': 0, 'volt': 0.918, 'depth': 1.843, 'time': 17, 'pitch': 6.07, 'roll': -0.04, 'pres': 188}
{'lipoC2': 7.29, 'lipoC3S1': 3.78, 'temp': 26.88, 'lipoC3S3': 11.35, 'lipoC3S2': 7.31, 'rot1': 90, 'rot0': 95, 'rot3': 58, 'rot2': 49, 'state': 'normal', 'yaw': 14.14, 'datetime': '2018-10-09 20:15:04.849917', 'mgs': 0, 'volt': 0.8887, 'depth': 1.385, 'time': 17, 'pitch': 8.11, 'roll': -0.3, 'pres': 182}
{'lipoC2': 7.27, 'lipoC3S1': 3.79, 'temp': 26.88, 'lipoC3S3': 11.18, 'lipoC3S2': 7.55, 'rot1': 92, 'rot0': 96, 'rot3': 58, 'rot2': 50, 'state': 'normal', 'yaw': 20.62, 'datetime': '2018-10-09 20:15:04.961662', 'mgs': 0, 'volt': 0.9424, 'depth': 2.225, 'time': 17, 'pitch': 9.82, 'roll': -0.31, 'pres': 193}
{'lipoC2': 7.3, 'lipoC3S1': 3.83, 'temp': 26.88, 'lipoC3S3': 11.27, 'lipoC3S2': 7.44, 'rot1': 94, 'rot0': 98, 'rot3': 59, 'rot2': 50, 'state': 'normal', 'yaw': 28.66, 'datetime': '2018-10-09 20:15:05.060982', 'mgs': 0, 'volt': 0.8838, 'depth': 1.309, 'time': 17, 'pitch': 11.27, 'roll': -0.01, 'pres': 181}
{'lipoC2': 7.3, 'lipoC3S1': 3.87, 'temp': 26.88, 'lipoC3S3': 11.34, 'lipoC3S2': 7.35, 'rot1': 95, 'rot0': 100, 'rot3': 59, 'rot2': 51, 'state': 'normal', 'yaw': 36.53, 'datetime': '2018-10-09 20:15:05.169611', 'mgs': 0, 'volt': 0.8838, 'depth': 1.309, 'time': 18, 'pitch': 12.17, 'roll': 0.57, 'pres': 181}
{'lipoC2': 7.3, 'lipoC3S1': 3.67, 'temp': 26.81, 'lipoC3S3': 11.46, 'lipoC3S2': 7.53, 'rot1': 96, 'rot0': 101, 'rot3': 60, 'rot2': 51, 'state': 'normal', 'yaw': 45.43, 'datetime': '2018-10-09 20:15:05.275170', 'mgs': 0, 'volt': 0.8643, 'depth': 1.004, 'time': 18, 'pitch': 12.76, 'roll': 1.67, 'pres': 177}
{'lipoC2': 7.3, 'lipoC3S1': 3.67, 'temp': 26.81, 'lipoC3S3': 11.47, 'lipoC3S2': 7.5, 'rot1': 98, 'rot0': 103, 'rot3': 60, 'rot2': 52, 'state': 'normal', 'yaw': 53.55, 'datetime': '2018-10-09 20:15:05.380443', 'mgs': 0, 'volt': 0.8838, 'depth': 1.309, 'time': 18, 'pitch': 12.99, 'roll': 3.07, 'pres': 181}
