{'lipoC2': 7.36, 'lipoC3S1': 3.95, 'temp': 29.75, 'lipoC3S3': 11.93, 'lipoC3S2': 7.9, 'rot1': 0, 'rot0': 0, 'rot3': 0, 'rot2': 0, 'state': 'normal', 'yaw': 0.0, 'datetime': '2018-10-09 23:15:32.783213', 'mgs': 0, 'volt': 0.8887, 'depth': 1.385, 'time': 1, 'pitch': 5.35, 'roll': 6.57, 'pres': 182}
{'lipoC2': 7.36, 'lipoC3S1': 3.95, 'temp': 29.75, 'lipoC3S3': 11.93, 'lipoC3S2': 7.9, 'rot1': 0, 'rot0': 0, 'rot3': 0, 'rot2': 0, 'state': 'normal', 'yaw': -1.86, 'datetime': '2018-10-09 23:15:32.806250', 'mgs': 0, 'volt': 0.8838, 'depth': 1.309, 'time': 1, 'pitch': 4.67, 'roll': 6.79, 'pres': 181}
{'lipoC2': 7.36, 'lipoC3S1': 3.95, 'temp': 29.69, 'lipoC3S3': 11.93, 'lipoC3S2': 7.9, 'rot1': 0, 'rot0': 0, 'rot3': 0, 'rot2': 0, 'state': 'normal', 'yaw': -3.93, 'datetime': '2018-10-09 23:15:32.824390', 'mgs': 0, 'volt': 0.8838, 'depth': 1.309, 'time': 1, 'pitch': 3.55, 'roll': 6.83, 'pres': 181}
{'lipoC2': 7.36, 'lipoC3S1': 3.95, 'temp': 29.69, 'lipoC3S3': 11.93, 'lipoC3S2': 7.9, 'rot1': 0, 'rot0': 0, 'rot3': 0, 'rot2': 0, 'state': 'normal', 'yaw': -5.73, 'datetime': '2018-10-09 23:15:32.834396', 'mgs': 0, 'volt': 0.8838, 'depth': 1.309, 'time': 1, 'pitch': 2.75, 'roll': 6.56, 'pres': 181}
{'lipoC2': 7.36, 'lipoC3S1': 3.95, 'temp': 29.69, 'lipoC3S3': 11.93, 'lipoC3S2': 7.9, 'rot1': 0, 'rot0': 0, 'rot3': 0, 'rot2': 0, 'state': 'normal', 'yaw': -7.13, 'datetime': '2018-10-09 23:15:32.844311', 'mgs': 0, 'volt': 0.8789, 'depth': 1.233, 'time': 1, 'pitch': 3.21, 'roll': 5.82, 'pres': 180}
{'lipoC2': 7.36, 'lipoC3S1': 3.95, 'temp': 29.75, 'lipoC3S3': 11.93, 'lipoC3S2': 7.9, 'rot1': 0, 'rot0': 0, 'rot3': 0, 'rot2': 0, 'state': 'normal', 'yaw': -8.1, 'datetime': '2018-10-09 23:15:32.854240', 'mgs': 0, 'volt': 0.8789, 'depth': 1.233, 'time': 1, 'pitch': 4.4, 'roll': 4.92, 'pres': 180}
{'lipoC2': 7.36, 'lipoC3S1': 3.95, 'temp': 29.75, 'lipoC3S3': 11.93, 'lipoC3S2': 7.9, 'rot1': 0, 'rot0': 0, 'rot3': 0, 'rot2': 0, 'state': 'normal', 'yaw': -9.2, 'datetime': '2018-10-09 23:15:32.864134', 'mgs': 0, 'volt': 0.8789, 'depth': 1.233, 'time': 1, 'pitch': 5.55, 'roll': 3.91, 'pres': 180}
{'lipoC2': 7.36, 'lipoC3S1': 3.95, 'temp': 29.75, 'lipoC3S3': 11.93, 'lipoC3S2': 7.9, 'rot1': 0, 'rot0': 0, 'rot3': 0, 'rot2': 0, 'state': 'normal', 'yaw': -10.73, 'datetime': '2018-10-09 23:15:32.874065', 'mgs': 0, 'volt': 0.874, 'depth': 1.157, 'time': 1, 'pitch': 6.38, 'roll': 2.82, 'pres': 179}
{'lipoC2': 7.36, 'lipoC3S1': 3.95, 'temp': 29.75, 'lipoC3S3': 11.93, 'lipoC3S2': 7.9, 'rot1': 0, 'rot0': 0, 'rot3': 0, 'rot2': 0, 'state': 'normal', 'yaw': -12.36, 'datetime': '2018-10-09 23:15:32.883983', 'mgs': 0, 'volt': 0.874, 'depth': 1.157, 'time': 2, 'pitch': 6.6, 'roll': 1.93, 'pres': 179}
{'lipoC2': 7.36, 'lipoC3S1': 3.95, 'temp': 29.75, 'lipoC3S3': 11.93, 'lipoC3S2': 7.91, 'rot1': 0, 'rot0': 0, 'rot3': 0, 'rot2': 0, 'state': 'normal', 'yaw': -14.12, 'datetime': '2018-10-09 23:15:32.893859', 'mgs': 0, 'volt': 0.874, 'depth': 1.157, 'time': 2, 'pitch': 6.41, 'roll': 1.22, 'pres': 179}
{'lipoC2': 7.36, 'lipoC3S1': 3.95, 'temp': 29.75, 'lipoC3S3': 11.93, 'lipoC3S2': 7.9, 'rot1': 0, 'rot0': 0, 'rot3': 0, 'rot2': 0, 'state': 'normal', 'yaw': -16.33, 'datetime': '2018-10-09 23:15:32.903717', 'mgs': 0, 'volt': 0.874, 'depth': 1.157, 'time': 2, 'pitch': 6.14, 'roll': 0.81, 'pres': 179}
{'lipoC2': 7.36, 'lipoC3S1': 3.95, 'temp': 29.75, 'lipoC3S3': 11.93, 'lipoC3S2': 7.9, 'rot1': 0, 'rot0': 0, 'rot3': 0, 'rot2': 0, 'state': 'normal', 'yaw': -18.46, 'datetime': '2018-10-09 23:15:32.913606', 'mgs': 0, 'volt': 0.874, 'depth': 1.157, 'time': 2, 'pitch': 5.93, 'roll': 0.86, 'pres': 179}
{'lipoC2': 7.36, 'lipoC3S1': 3.95, 'temp': 29.75, 'lipoC3S3': 11.93, 'lipoC3S2': 7.9, 'rot1': 0, 'rot0': 0, 'rot3': 0, 'rot2': 0, 'state': 'normal', 'yaw': -20.53, 'datetime': '2018-10-09 23:15:32.923480', 'mgs': 0, 'volt': 0.8691, 'depth': 1.08, 'time': 2, 'pitch': 5.9, 'roll': 1.2, 'pres': 178}
{'lipoC2': 7.36, 'lipoC3S1': 3.95, 'temp': 29.75, 'lipoC3S3': 11.93, 'lipoC3S2': 7.9, 'rot1': 0, 'rot0': 0, 'rot3': 0, 'rot2': 0, 'state': 'normal', 'yaw': -22.79, 'datetime': '2018-10-09 23:15:32.933326', 'mgs': 0, 'volt': 0.8691, 'depth': 1.08, 'time': 2, 'pitch': 5.58, 'roll': 1.75, 'pres': 178}
{'lipoC2': 7.36, 'lipoC3S1': 3.95, 'temp': 29.75, 'lipoC3S3': 11.93, 'lipoC3S2': 7.9, 'rot1': 0, 'rot0': 0, 'rot3': 0, 'rot2': 0, 'state': 'normal', 'yaw': -24.66, 'datetime': '2018-10-09 23:15:32.943470', 'mgs': 0, 'volt': 0.8691, 'depth': 1.08, 'time': 2, 'pitch': 5.06, 'roll': 2.13, 'pres': 178}
{'lipoC2': 7.35, 'lipoC3S1': 3.95, 'temp': 29.75, 'lipoC3S3': 11.93, 'lipoC3S2': 7.9, 'rot1': 0, 'rot0': 0, 'rot3': 0, 'rot2': 0, 'state': 'normal', 'yaw': -26.52, 'datetime': '2018-10-09 23:15:32.953501', 'mgs': 0, 'volt': 0.8691, 'depth': 1.08, 'time': 2, 'pitch': 4.4, 'roll': 2.28, 'pres': 178}
{'lipoC2': 7.35, 'lipoC3S1': 3.95, 'temp': 29.75, 'lipoC3S3': 11.93, 'lipoC3S2': 7.9, 'rot1': 0, 'rot0': 0, 'rot3': 0, 'rot2': 0, 'state': 'normal', 'yaw': -28.92, 'datetime': '2018-10-09 23:15:32.963491', 'mgs': 0, 'volt': 0.8789, 'depth': 1.233, 'time': 2, 'pitch': 3.79, 'roll': 2.59, 'pres': 180}
{'lipoC2': 7.36, 'lipoC3S1': 3.95, 'temp': 29.75, 'lipoC3S3': 11.93, 'lipoC3S2': 7.9, 'rot1': 0, 'rot0': 0, 'rot3': 0, 'rot2': 0, 'state': 'normal', 'yaw': -31.37, 'datetime': '2018-10-09 23:15:32.972900', 'mgs': 0, 'volt': 0.8789, 'depth': 1.233, 'time': 3, 'pitch': 4.17, 'roll': 3.16, 'pres': 180}
{'lipoC2': 7.35, 'lipoC3S1': 3.95, 'temp': 29.75, 'lipoC3S3': 11.93, 'lipoC3S2': 7.9, 'rot1': 0, 'rot0': 0, 'rot3': 0, 'rot2': 0, 'state': 'normal', 'yaw': -34.06, 'datetime': '2018-10-09 23:15:32.982303', 'mgs': 0, 'volt': 0.8838, 'depth': 1.309, 'time': 3, 'pitch': 5.42, 'roll': 4.04, 'pres': 181}
{'lipoC2': 7.36, 'lipoC3S1': 3.95, 'temp': 29.75, 'lipoC3S3': 11.93, 'lipoC3S2': 7.9, 'rot1': 0, 'rot0': 0, 'rot3': 0, 'rot2': 0, 'state': 'normal', 'yaw': -36.8, 'datetime': '2018-10-09 23:15:32.991758', 'mgs': 0, 'volt': 0.8789, 'depth': 1.233, 'time': 3, 'pitch': 6.83, 'roll': 5.11, 'pres': 180}
{'lipoC2': 7.36, 'lipoC3S1': 3.95, 'temp': 29.75, 'lipoC3S3': 11.93, 'lipoC3S2': 7.9, 'rot1': 0, 'rot0': 0, 'rot3': 0, 'rot2': 0, 'state': 'normal', 'yaw': -39.49, 'datetime': '2018-10-09 23:15:33.001177', 'mgs': 0, 'volt': 0.8838, 'depth': 1.309, 'time': 3, 'pitch': 7.68, 'roll': 6.08, 'pres': 181}
{'lipoC2': 7.35, 'lipoC3S1': 3.95, 'temp': 29.75, 'lipoC3S3': 11.93, 'lipoC3S2': 7.9, 'rot1': 0, 'rot0': 0, 'rot3': 0, 'rot2': 0, 'state': 'normal', 'yaw': -41.1, 'datetime': '2018-10-09 23:15:33.010584', 'mgs': 0, 'volt': 0.8887, 'depth': 1.385, 'time': 3, 'pitch': 7.04, 'roll': 6.08, 'pres': 182}
{'lipoC2': 7.36, 'lipoC3S1': 3.95, 'temp': 29.75, 'lipoC3S3': 11.93, 'lipoC3S2': 7.9, 'rot1': 0, 'rot0': 0, 'rot3': 0, 'rot2': 0, 'state': 'normal', 'yaw': -41.64, 'datetime': '2018-10-09 23:15:33.019992', 'mgs': 0, 'volt': 0.8887, 'depth': 1.385, 'time': 3, 'pitch': 5.94, 'roll': 4.89, 'pres': 182}
{'lipoC2': 7.36, 'lipoC3S1': 3.95, 'temp': 29.69, 'lipoC3S3': 11.93, 'lipoC3S2': 7.9, 'rot1': 0, 'rot0': 0, 'rot3': 0, 'rot2': 0, 'state': 'normal', 'yaw': -41.47, 'datetime': '2018-10-09 23:15:33.029408', 'mgs': 0, 'volt': 0.8838, 'depth': 1.309, 'time': 3, 'pitch': 4.7, 'roll': 2.72, 'pres': 181}
{'lipoC2': 7.36, 'lipoC3S1': 3.95, 'temp': 29.69, 'lipoC3S3': 11.93, 'lipoC3S2': 7.9, 'rot1': 0, 'rot0': 0, 'rot3': 0, 'rot2': 0, 'state': 'normal', 'yaw': -41.15, 'datetime': '2018-10-09 23:15:33.038869', 'mgs': 0, 'volt': 0.8838, 'depth': 1.309, 'time': 3, 'pitch': 3.88, 'roll': 0.48, 'pres': 181}
{'lipoC2': 7.36, 'lipoC3S1': 3.95, 'temp': 29.69, 'lipoC3S3': 11.93, 'lipoC3S2': 7.9, 'rot1': 0, 'rot0': 0, 'rot3': 0, 'rot2': 0, 'state': 'normal', 'yaw': -41.14, 'datetime': '2018-10-09 23:15:33.048331', 'mgs': 0, 'volt': 0.8789, 'depth': 1.233, 'time': 3, 'pitch': 3.48, 'roll': -1.59, 'pres': 180}
{'lipoC2': 7.36, 'lipoC3S1': 3.95, 'temp': 29.69, 'lipoC3S3': 11.93, 'lipoC3S2': 7.9, 'rot1': 0, 'rot0': 0, 'rot3': 0, 'rot2': 0, 'state': 'normal', 'yaw': -41.78, 'datetime': '2018-10-09 23:15:33.057772', 'mgs': 0, 'volt': 0.874, 'depth': 1.157, 'time': 3, 'pitch': 3.5, 'roll': -3.35, 'pres': 179}
{'lipoC2': 7.36, 'lipoC3S1': 3.95, 'temp': 29.69, 'lipoC3S3': 11.93, 'lipoC3S2': 7.9, 'rot1': 0, 'rot0': 0, 'rot3': 0, 'rot2': 0, 'state': 'normal', 'yaw': -42.97, 'datetime': '2018-10-09 23:15:33.067199', 'mgs': 0, 'volt': 0.874, 'depth': 1.157, 'time': 4, 'pitch': 3.59, 'roll': -4.39, 'pres': 179}
{'lipoC2': 7.36, 'lipoC3S1': 3.95, 'temp': 29.75, 'lipoC3S3': 11.93, 'lipoC3S2': 7.9, 'rot1': 0, 'rot0': 0, 'rot3': 0, 'rot2': 0, 'state': 'normal', 'yaw': -44.25, 'datetime': '2018-10-09 23:15:33.076784', 'mgs': 0, 'volt': 0.874, 'depth': 1.157, 'time': 4, 'pitch': 3.37, 'roll': -5.08, 'pres': 179}
{'lipoC2': 7.36, 'lipoC3S1': 3.95, 'temp': 29.75, 'lipoC3S3': 11.93, 'lipoC3S2': 7.9, 'rot1': 0, 'rot0': 0, 'rot3': 0, 'rot2': 0, 'state': 'normal', 'yaw': -45.34, 'datetime': '2018-10-09 23:15:33.086214', 'mgs': 0, 'volt': 0.8691, 'depth': 1.08, 'time': 4, 'pitch': 2.85, 'roll': -5.47, 'pres': 178}
{'lipoC2': 7.36, 'lipoC3S1': 3.95, 'temp': 29.75, 'lipoC3S3': 11.93, 'lipoC3S2': 7.9, 'rot1': 0, 'rot0': 0, 'rot3': 0, 'rot2': 0, 'state': 'normal', 'yaw': -45.86, 'datetime': '2018-10-09 23:15:33.095633', 'mgs': 0, 'volt': 0.8691, 'depth': 1.08, 'time': 4, 'pitch': 2.46, 'roll': -5.55, 'pres': 178}
{'lipoC2': 7.36, 'lipoC3S1': 3.95, 'temp': 29.75, 'lipoC3S3': 11.93, 'lipoC3S2': 7.9, 'rot1': 0, 'rot0': 0, 'rot3': 0, 'rot2': 0, 'state': 'normal', 'yaw': -45.89, 'datetime': '2018-10-09 23:15:33.105049', 'mgs': 0, 'volt': 0.874, 'depth': 1.157, 'time': 4, 'pitch': 2.33, 'roll': -5.48, 'pres': 179}
{'lipoC2': 7.35, 'lipoC3S1': 3.95, 'temp': 29.75, 'lipoC3S3': 11.93, 'lipoC3S2': 7.9, 'rot1': 0, 'rot0': 0, 'rot3': 0, 'rot2': 0, 'state': 'normal', 'yaw': -45.58, 'datetime': '2018-10-09 23:15:33.114467', 'mgs': 0, 'volt': 0.874, 'depth': 1.157, 'time': 4, 'pitch': 2.5, 'roll': -5.28, 'pres': 179}
{'lipoC2': 7.35, 'lipoC3S1': 3.95, 'temp': 29.69, 'lipoC3S3': 11.93, 'lipoC3S2': 7.9, 'rot1': 0, 'rot0': 0, 'rot3': 0, 'rot2': 0, 'state': 'normal', 'yaw': -45.08, 'datetime': '2018-10-09 23:15:33.123993', 'mgs': 0, 'volt': 0.8691, 'depth': 1.08, 'time': 4, 'pitch': 2.82, 'roll': -5.06, 'pres': 178}
{'lipoC2': 7.36, 'lipoC3S1': 3.95, 'temp': 29.69, 'lipoC3S3': 11.93, 'lipoC3S2': 7.9, 'rot1': 0, 'rot0': 0, 'rot3': 0, 'rot2': 0, 'state': 'normal', 'yaw': -44.47, 'datetime': '2018-10-09 23:15:33.153402', 'mgs': 0, 'volt': 0.8691, 'depth': 1.08, 'time': 4, 'pitch': 3.14, 'roll': -4.93, 'pres': 178}
{'lipoC2': 7.36, 'lipoC3S1': 3.95, 'temp': 29.75, 'lipoC3S3': 11.93, 'lipoC3S2': 7.9, 'rot1': 0, 'rot0': 0, 'rot3': 0, 'rot2': 0, 'state': 'normal', 'yaw': -43.84, 'datetime': '2018-10-09 23:15:33.256676', 'mgs': 0, 'volt': 0.874, 'depth': 1.157, 'time': 4, 'pitch': 3.26, 'roll': -4.69, 'pres': 179}
{'lipoC2': 7.36, 'lipoC3S1': 3.95, 'temp': 29.75, 'lipoC3S3': 11.93, 'lipoC3S2': 7.9, 'rot1': 0, 'rot0': 0, 'rot3': 0, 'rot2': 0, 'state': 'normal', 'yaw': -43.26, 'datetime': '2018-10-09 23:15:33.359861', 'mgs': 0, 'volt': 0.8691, 'depth': 1.08, 'time': 4, 'pitch': 3.28, 'roll': -4.2, 'pres': 178}
{'lipoC2': 7.36, 'lipoC3S1': 3.95, 'temp': 29.69, 'lipoC3S3': 11.93, 'lipoC3S2': 7.9, 'rot1': 0, 'rot0': 0, 'rot3': 0, 'rot2': 0, 'state': 'normal', 'yaw': -42.67, 'datetime': '2018-10-09 23:15:33.463094', 'mgs': 0, 'volt': 0.8691, 'depth': 1.08, 'time': 5, 'pitch': 3.39, 'roll': -3.39, 'pres': 178}
{'lipoC2': 7.36, 'lipoC3S1': 3.95, 'temp': 29.69, 'lipoC3S3': 11.93, 'lipoC3S2': 7.91, 'rot1': 0, 'rot0': 0, 'rot3': 0, 'rot2': 0, 'state': 'normal', 'yaw': -42.08, 'datetime': '2018-10-09 23:15:33.567159', 'mgs': 0, 'volt': 0.8691, 'depth': 1.08, 'time': 5, 'pitch': 3.57, 'roll': -2.33, 'pres': 178}
{'lipoC2': 7.36, 'lipoC3S1': 3.95, 'temp': 29.69, 'lipoC3S3': 11.93, 'lipoC3S2': 7.9, 'rot1': 0, 'rot0': 0, 'rot3': 0, 'rot2': 0, 'state': 'normal', 'yaw': -41.42, 'datetime': '2018-10-09 23:15:33.670361', 'mgs': 0, 'volt': 0.8643, 'depth': 1.004, 'time': 5, 'pitch': 3.52, 'roll': -1.12, 'pres': 177}
{'lipoC2': 7.36, 'lipoC3S1': 3.95, 'temp': 29.75, 'lipoC3S3': 11.93, 'lipoC3S2': 7.9, 'rot1': 0, 'rot0': 0, 'rot3': 0, 'rot2': 0, 'state': 'normal', 'yaw': -41.08, 'datetime': '2018-10-09 23:15:33.773748', 'mgs': 0, 'volt': 0.8643, 'depth': 1.004, 'time': 5, 'pitch': 2.98, 'roll': -0.17, 'pres': 177}
{'lipoC2': 7.36, 'lipoC3S1': 3.95, 'temp': 29.75, 'lipoC3S3': 11.93, 'lipoC3S2': 7.9, 'rot1': 0, 'rot0': 0, 'rot3': 0, 'rot2': 0, 'state': 'normal', 'yaw': -40.93, 'datetime': '2018-10-09 23:15:33.876796', 'mgs': 0, 'volt': 0.8643, 'depth': 1.004, 'time': 5, 'pitch': 2.08, 'roll': 0.44, 'pres': 177}
{'lipoC2': 7.35, 'lipoC3S1': 3.95, 'temp': 29.75, 'lipoC3S3': 11.93, 'lipoC3S2': 7.9, 'rot1': 0, 'rot0': 0, 'rot3': 0, 'rot2': 0, 'state': 'normal', 'yaw': -40.96, 'datetime': '2018-10-09 23:15:33.979988', 'mgs': 0, 'volt': 0.8643, 'depth': 1.004, 'time': 5, 'pitch': 1.32, 'roll': 0.72, 'pres': 177}
{'lipoC2': 7.36, 'lipoC3S1': 3.95, 'temp': 29.75, 'lipoC3S3': 11.93, 'lipoC3S2': 7.9, 'rot1': 0, 'rot0': 0, 'rot3': 0, 'rot2': 0, 'state': 'normal', 'yaw': -41.06, 'datetime': '2018-10-09 23:15:34.083170', 'mgs': 0, 'volt': 0.8643, 'depth': 1.004, 'time': 5, 'pitch': 1.25, 'roll': 0.75, 'pres': 177}
{'lipoC2': 7.36, 'lipoC3S1': 3.95, 'temp': 29.75, 'lipoC3S3': 11.93, 'lipoC3S2': 7.9, 'rot1': 0, 'rot0': 0, 'rot3': 0, 'rot2': 0, 'state': 'normal', 'yaw': -41.15, 'datetime': '2018-10-09 23:15:34.187704', 'mgs': 0, 'volt': 0.8643, 'depth': 1.004, 'time': 5, 'pitch': 1.8, 'roll': 0.67, 'pres': 177}
{'lipoC2': 7.36, 'lipoC3S1': 3.95, 'temp': 29.75, 'lipoC3S3': 11.93, 'lipoC3S2': 7.9, 'rot1': 0, 'rot0': 0, 'rot3': 0, 'rot2': 0, 'state': 'normal', 'yaw': -41.23, 'datetime': '2018-10-09 23:15:34.290963', 'mgs': 0, 'volt': 0.8643, 'depth': 1.004, 'time': 5, 'pitch': 3.12, 'roll': 0.79, 'pres': 177}
{'lipoC2': 7.36, 'lipoC3S1': 3.95, 'temp': 29.75, 'lipoC3S3': 11.93, 'lipoC3S2': 7.9, 'rot1': 0, 'rot0': 0, 'rot3': 0, 'rot2': 0, 'state': 'normal', 'yaw': -41.31, 'datetime': '2018-10-09 23:15:34.394126', 'mgs': 0, 'volt': 0.8643, 'depth': 1.004, 'time': 6, 'pitch': 4.38, 'roll': 1.08, 'pres': 177}
{'lipoC2': 7.36, 'lipoC3S1': 3.95, 'temp': 29.75, 'lipoC3S3': 11.93, 'lipoC3S2': 7.9, 'rot1': 0, 'rot0': 0, 'rot3': 0, 'rot2': 0, 'state': 'normal', 'yaw': -41.33, 'datetime': '2018-10-09 23:15:34.498620', 'mgs': 0, 'volt': 0.8643, 'depth': 1.004, 'time': 6, 'pitch': 4.98, 'roll': 1.24, 'pres': 177}
{'lipoC2': 7.36, 'lipoC3S1': 3.95, 'temp': 29.75, 'lipoC3S3': 11.93, 'lipoC3S2': 7.9, 'rot1': 0, 'rot0': 0, 'rot3': 0, 'rot2': 0, 'state': 'normal', 'yaw': -41.08, 'datetime': '2018-10-09 23:15:34.601826', 'mgs': 0, 'volt': 0.8643, 'depth': 1.004, 'time': 6, 'pitch': 4.97, 'roll': 0.99, 'pres': 177}
{'lipoC2': 7.36, 'lipoC3S1': 3.95, 'temp': 29.75, 'lipoC3S3': 11.93, 'lipoC3S2': 7.9, 'rot1': 0, 'rot0': 0, 'rot3': 0, 'rot2': 0, 'state': 'normal', 'yaw': -40.62, 'datetime': '2018-10-09 23:15:34.705026', 'mgs': 0, 'volt': 0.8691, 'depth': 1.08, 'time': 6, 'pitch': 4.44, 'roll': 0.49, 'pres': 178}
{'lipoC2': 7.36, 'lipoC3S1': 3.95, 'temp': 29.75, 'lipoC3S3': 11.93, 'lipoC3S2': 7.9, 'rot1': 0, 'rot0': 0, 'rot3': 0, 'rot2': 0, 'state': 'normal', 'yaw': -39.92, 'datetime': '2018-10-09 23:15:34.808279', 'mgs': 0, 'volt': 0.8691, 'depth': 1.08, 'time': 6, 'pitch': 3.78, 'roll': -0.12, 'pres': 178}
{'lipoC2': 7.36, 'lipoC3S1': 3.95, 'temp': 29.75, 'lipoC3S3': 11.93, 'lipoC3S2': 7.9, 'rot1': 0, 'rot0': 0, 'rot3': 0, 'rot2': 0, 'state': 'normal', 'yaw': -39.0, 'datetime': '2018-10-09 23:15:34.911440', 'mgs': 0, 'volt': 0.8691, 'depth': 1.08, 'time': 6, 'pitch': 3.1, 'roll': -0.58, 'pres': 178}
{'lipoC2': 7.36, 'lipoC3S1': 3.95, 'temp': 29.75, 'lipoC3S3': 11.93, 'lipoC3S2': 7.9, 'rot1': 0, 'rot0': 0, 'rot3': 0, 'rot2': 0, 'state': 'normal', 'yaw': -38.27, 'datetime': '2018-10-09 23:15:35.014720', 'mgs': 0, 'volt': 0.8691, 'depth': 1.08, 'time': 6, 'pitch': 2.67, 'roll': -0.5, 'pres': 178}
{'lipoC2': 7.36, 'lipoC3S1': 3.95, 'temp': 29.75, 'lipoC3S3': 11.93, 'lipoC3S2': 7.9, 'rot1': 0, 'rot0': 0, 'rot3': 0, 'rot2': 0, 'state': 'normal', 'yaw': -37.68, 'datetime': '2018-10-09 23:15:35.117904', 'mgs': 0, 'volt': 0.8691, 'depth': 1.08, 'time': 6, 'pitch': 2.6, 'roll': -0.01, 'pres': 178}
{'lipoC2': 7.36, 'lipoC3S1': 3.95, 'temp': 29.75, 'lipoC3S3': 11.93, 'lipoC3S2': 7.9, 'rot1': 0, 'rot0': 0, 'rot3': 0, 'rot2': 0, 'state': 'normal', 'yaw': -37.08, 'datetime': '2018-10-09 23:15:35.221348', 'mgs': 0, 'volt': 0.8691, 'depth': 1.08, 'time': 6, 'pitch': 2.85, 'roll': 0.51, 'pres': 178}
{'lipoC2': 7.36, 'lipoC3S1': 3.95, 'temp': 29.75, 'lipoC3S3': 11.93, 'lipoC3S2': 7.9, 'rot1': 0, 'rot0': 0, 'rot3': 0, 'rot2': 0, 'state': 'normal', 'yaw': -36.46, 'datetime': '2018-10-09 23:15:35.324582', 'mgs': 0, 'volt': 0.8691, 'depth': 1.08, 'time': 6, 'pitch': 3.03, 'roll': 0.82, 'pres': 178}
{'lipoC2': 7.36, 'lipoC3S1': 3.95, 'temp': 29.75, 'lipoC3S3': 11.93, 'lipoC3S2': 7.9, 'rot1': 0, 'rot0': 0, 'rot3': 0, 'rot2': 0, 'state': 'normal', 'yaw': -35.97, 'datetime': '2018-10-09 23:15:35.427739', 'mgs': 0, 'volt': 0.874, 'depth': 1.157, 'time': 7, 'pitch': 2.73, 'roll': 0.85, 'pres': 179}
{'lipoC2': 7.36, 'lipoC3S1': 3.95, 'temp': 29.75, 'lipoC3S3': 11.93, 'lipoC3S2': 7.9, 'rot1': 0, 'rot0': 0, 'rot3': 0, 'rot2': 0, 'state': 'normal', 'yaw': -35.55, 'datetime': '2018-10-09 23:15:35.531011', 'mgs': 0, 'volt': 0.874, 'depth': 1.157, 'time': 7, 'pitch': 1.77, 'roll': 0.81, 'pres': 179}
{'lipoC2': 7.36, 'lipoC3S1': 3.95, 'temp': 29.75, 'lipoC3S3': 11.93, 'lipoC3S2': 7.9, 'rot1': 0, 'rot0': 0, 'rot3': 0, 'rot2': 0, 'state': 'normal', 'yaw': -35.18, 'datetime': '2018-10-09 23:15:35.634322', 'mgs': 0, 'volt': 0.874, 'depth': 1.157, 'time': 7, 'pitch': 0.46, 'roll': 0.98, 'pres': 179}
{'lipoC2': 7.36, 'lipoC3S1': 3.95, 'temp': 29.75, 'lipoC3S3': 11.93, 'lipoC3S2': 7.9, 'rot1': 0, 'rot0': 0, 'rot3': 0, 'rot2': 0, 'state': 'normal', 'yaw': -34.75, 'datetime': '2018-10-09 23:15:35.737442', 'mgs': 0, 'volt': 0.8789, 'depth': 1.233, 'time': 7, 'pitch': -0.25, 'roll': 1.41, 'pres': 180}
{'lipoC2': 7.36, 'lipoC3S1': 3.95, 'temp': 29.75, 'lipoC3S3': 11.93, 'lipoC3S2': 7.9, 'rot1': 0, 'rot0': 0, 'rot3': 0, 'rot2': 0, 'state': 'normal', 'yaw': -34.22, 'datetime': '2018-10-09 23:15:35.841925', 'mgs': 0, 'volt': 0.8838, 'depth': 1.309, 'time': 7, 'pitch': -0.37, 'roll': 1.91, 'pres': 181}
{'lipoC2': 7.36, 'lipoC3S1': 3.95, 'temp': 29.75, 'lipoC3S3': 11.93, 'lipoC3S2': 7.9, 'rot1': 0, 'rot0': 0, 'rot3': 0, 'rot2': 0, 'state': 'normal', 'yaw': -33.71, 'datetime': '2018-10-09 23:15:35.945115', 'mgs': 0, 'volt': 0.8789, 'depth': 1.233, 'time': 7, 'pitch': 0.08, 'roll': 2.4, 'pres': 180}
{'lipoC2': 7.36, 'lipoC3S1': 3.95, 'temp': 29.75, 'lipoC3S3': 11.93, 'lipoC3S2': 7.9, 'rot1': 0, 'rot0': 0, 'rot3': 0, 'rot2': 0, 'state': 'normal', 'yaw': -33.23, 'datetime': '2018-10-09 23:15:36.048464', 'mgs': 0, 'volt': 0.8838, 'depth': 1.309, 'time': 7, 'pitch': 0.74, 'roll': 2.57, 'pres': 181}
{'lipoC2': 7.36, 'lipoC3S1': 3.95, 'temp': 29.75, 'lipoC3S3': 11.93, 'lipoC3S2': 7.9, 'rot1': 0, 'rot0': 0, 'rot3': 0, 'rot2': 0, 'state': 'normal', 'yaw': -32.86, 'datetime': '2018-10-09 23:15:36.153192', 'mgs': 0, 'volt': 0.8838, 'depth': 1.309, 'time': 7, 'pitch': 1.19, 'roll': 2.55, 'pres': 181}
{'lipoC2': 7.36, 'lipoC3S1': 3.95, 'temp': 29.75, 'lipoC3S3': 11.93, 'lipoC3S2': 7.9, 'rot1': 0, 'rot0': 0, 'rot3': 0, 'rot2': 0, 'state': 'normal', 'yaw': -32.57, 'datetime': '2018-10-09 23:15:36.256425', 'mgs': 0, 'volt': 0.8838, 'depth': 1.309, 'time': 7, 'pitch': 0.88, 'roll': 2.43, 'pres': 181}
{'lipoC2': 7.36, 'lipoC3S1': 3.95, 'temp': 29.75, 'lipoC3S3': 11.93, 'lipoC3S2': 7.9, 'rot1': 0, 'rot0': 0, 'rot3': 0, 'rot2': 0, 'state': 'normal', 'yaw': -32.27, 'datetime': '2018-10-09 23:15:36.359671', 'mgs': 0, 'volt': 0.8887, 'depth': 1.385, 'time': 7, 'pitch': -0.05, 'roll': 2.31, 'pres': 182}
{'lipoC2': 7.36, 'lipoC3S1': 3.95, 'temp': 29.75, 'lipoC3S3': 11.93, 'lipoC3S2': 7.9, 'rot1': 0, 'rot0': 0, 'rot3': 0, 'rot2': 0, 'state': 'normal', 'yaw': -31.78, 'datetime': '2018-10-09 23:15:36.462836', 'mgs': 0, 'volt': 0.8936, 'depth': 1.462, 'time': 8, 'pitch': -1.05, 'roll': 2.14, 'pres': 183}
{'lipoC2': 7.36, 'lipoC3S1': 3.95, 'temp': 29.75, 'lipoC3S3': 11.93, 'lipoC3S2': 7.9, 'rot1': 0, 'rot0': 0, 'rot3': 0, 'rot2': 0, 'state': 'normal', 'yaw': -30.99, 'datetime': '2018-10-09 23:15:36.566049', 'mgs': 0, 'volt': 0.8936, 'depth': 1.462, 'time': 8, 'pitch': -1.67, 'roll': 1.88, 'pres': 183}
{'lipoC2': 7.36, 'lipoC3S1': 3.95, 'temp': 29.75, 'lipoC3S3': 11.93, 'lipoC3S2': 7.9, 'rot1': 0, 'rot0': 0, 'rot3': 0, 'rot2': 0, 'state': 'normal', 'yaw': -30.08, 'datetime': '2018-10-09 23:15:36.669267', 'mgs': 0, 'volt': 0.8936, 'depth': 1.462, 'time': 8, 'pitch': -1.62, 'roll': 1.46, 'pres': 183}
{'lipoC2': 7.36, 'lipoC3S1': 3.95, 'temp': 29.75, 'lipoC3S3': 11.93, 'lipoC3S2': 7.9, 'rot1': 0, 'rot0': 0, 'rot3': 0, 'rot2': 0, 'state': 'normal', 'yaw': -29.07, 'datetime': '2018-10-09 23:15:36.772539', 'mgs': 0, 'volt': 0.8936, 'depth': 1.462, 'time': 8, 'pitch': -1.3, 'roll': 0.84, 'pres': 183}
{'lipoC2': 7.36, 'lipoC3S1': 3.95, 'temp': 29.69, 'lipoC3S3': 11.93, 'lipoC3S2': 7.9, 'rot1': 0, 'rot0': 0, 'rot3': 0, 'rot2': 0, 'state': 'normal', 'yaw': -28.05, 'datetime': '2018-10-09 23:15:36.875758', 'mgs': 0, 'volt': 0.8936, 'depth': 1.462, 'time': 8, 'pitch': -1.03, 'roll': 0.04, 'pres': 183}
{'lipoC2': 7.36, 'lipoC3S1': 3.95, 'temp': 29.69, 'lipoC3S3': 11.93, 'lipoC3S2': 7.9, 'rot1': 0, 'rot0': 0, 'rot3': 0, 'rot2': 0, 'state': 'normal', 'yaw': -27.03, 'datetime': '2018-10-09 23:15:36.978937', 'mgs': 0, 'volt': 0.8936, 'depth': 1.462, 'time': 8, 'pitch': -1.15, 'roll': -0.85, 'pres': 183}
{'lipoC2': 7.36, 'lipoC3S1': 3.95, 'temp': 29.69, 'lipoC3S3': 11.93, 'lipoC3S2': 7.9, 'rot1': 0, 'rot0': 0, 'rot3': 0, 'rot2': 0, 'state': 'normal', 'yaw': -26.11, 'datetime': '2018-10-09 23:15:37.082145', 'mgs': 0, 'volt': 0.8936, 'depth': 1.462, 'time': 8, 'pitch': -1.58, 'roll': -1.48, 'pres': 183}
{'lipoC2': 7.36, 'lipoC3S1': 3.95, 'temp': 29.75, 'lipoC3S3': 11.93, 'lipoC3S2': 7.9, 'rot1': 0, 'rot0': 0, 'rot3': 0, 'rot2': 0, 'state': 'normal', 'yaw': -25.19, 'datetime': '2018-10-09 23:15:37.185890', 'mgs': 0, 'volt': 0.8984, 'depth': 1.538, 'time': 8, 'pitch': -2.17, 'roll': -1.79, 'pres': 184}
{'lipoC2': 7.36, 'lipoC3S1': 3.95, 'temp': 29.75, 'lipoC3S3': 11.93, 'lipoC3S2': 7.9, 'rot1': 0, 'rot0': 0, 'rot3': 0, 'rot2': 0, 'state': 'normal', 'yaw': -24.08, 'datetime': '2018-10-09 23:15:37.289169', 'mgs': 0, 'volt': 0.9033, 'depth': 1.614, 'time': 8, 'pitch': -2.39, 'roll': -1.84, 'pres': 185}
{'lipoC2': 7.36, 'lipoC3S1': 3.95, 'temp': 29.69, 'lipoC3S3': 11.93, 'lipoC3S2': 7.9, 'rot1': 0, 'rot0': 0, 'rot3': 0, 'rot2': 0, 'state': 'normal', 'yaw': -23.21, 'datetime': '2018-10-09 23:15:37.393528', 'mgs': 0, 'volt': 0.9033, 'depth': 1.614, 'time': 9, 'pitch': -2.23, 'roll': -1.59, 'pres': 185}
{'lipoC2': 7.36, 'lipoC3S1': 3.95, 'temp': 29.69, 'lipoC3S3': 11.93, 'lipoC3S2': 7.9, 'rot1': 0, 'rot0': 0, 'rot3': 0, 'rot2': 0, 'state': 'normal', 'yaw': -22.41, 'datetime': '2018-10-09 23:15:37.496914', 'mgs': 0, 'volt': 0.9033, 'depth': 1.614, 'time': 9, 'pitch': -2.1, 'roll': -1.2, 'pres': 185}
{'lipoC2': 7.36, 'lipoC3S1': 3.95, 'temp': 29.69, 'lipoC3S3': 11.93, 'lipoC3S2': 7.9, 'rot1': 0, 'rot0': 0, 'rot3': 0, 'rot2': 0, 'state': 'normal', 'yaw': -21.61, 'datetime': '2018-10-09 23:15:37.600182', 'mgs': 0, 'volt': 0.9033, 'depth': 1.614, 'time': 9, 'pitch': -2.63, 'roll': -0.91, 'pres': 185}
{'lipoC2': 7.35, 'lipoC3S1': 3.95, 'temp': 29.69, 'lipoC3S3': 11.93, 'lipoC3S2': 7.9, 'rot1': 0, 'rot0': 0, 'rot3': 0, 'rot2': 0, 'state': 'normal', 'yaw': -20.57, 'datetime': '2018-10-09 23:15:37.704718', 'mgs': 0, 'volt': 0.9033, 'depth': 1.614, 'time': 9, 'pitch': -3.95, 'roll': -0.84, 'pres': 185}
{'lipoC2': 7.35, 'lipoC3S1': 3.95, 'temp': 29.69, 'lipoC3S3': 11.93, 'lipoC3S2': 7.9, 'rot1': 0, 'rot0': 0, 'rot3': 0, 'rot2': 0, 'state': 'normal', 'yaw': -19.31, 'datetime': '2018-10-09 23:15:37.807904', 'mgs': 0, 'volt': 0.8984, 'depth': 1.538, 'time': 9, 'pitch': -5.67, 'roll': -0.8, 'pres': 184}
{'lipoC2': 7.36, 'lipoC3S1': 3.95, 'temp': 29.75, 'lipoC3S3': 11.93, 'lipoC3S2': 7.9, 'rot1': 0, 'rot0': 0, 'rot3': 0, 'rot2': 0, 'state': 'normal', 'yaw': -18.28, 'datetime': '2018-10-09 23:15:37.911133', 'mgs': 0, 'volt': 0.8984, 'depth': 1.538, 'time': 9, 'pitch': -7.46, 'roll': -0.58, 'pres': 184}
{'lipoC2': 7.36, 'lipoC3S1': 3.95, 'temp': 29.75, 'lipoC3S3': 11.93, 'lipoC3S2': 7.9, 'rot1': 0, 'rot0': 0, 'rot3': 0, 'rot2': 0, 'state': 'normal', 'yaw': -17.29, 'datetime': '2018-10-09 23:15:38.014407', 'mgs': 0, 'volt': 0.8984, 'depth': 1.538, 'time': 9, 'pitch': -9.03, 'roll': -0.24, 'pres': 184}
{'lipoC2': 7.36, 'lipoC3S1': 3.95, 'temp': 29.69, 'lipoC3S3': 11.93, 'lipoC3S2': 7.9, 'rot1': 0, 'rot0': 0, 'rot3': 0, 'rot2': 0, 'state': 'normal', 'yaw': -16.33, 'datetime': '2018-10-09 23:15:38.117870', 'mgs': 0, 'volt': 0.8984, 'depth': 1.538, 'time': 9, 'pitch': -9.86, 'roll': 0.19, 'pres': 184}
{'lipoC2': 7.36, 'lipoC3S1': 3.95, 'temp': 29.69, 'lipoC3S3': 11.93, 'lipoC3S2': 7.9, 'rot1': 0, 'rot0': 0, 'rot3': 0, 'rot2': 0, 'state': 'normal', 'yaw': -15.28, 'datetime': '2018-10-09 23:15:38.221099', 'mgs': 0, 'volt': 0.9033, 'depth': 1.614, 'time': 9, 'pitch': -9.76, 'roll': 0.71, 'pres': 185}
{'lipoC2': 7.36, 'lipoC3S1': 3.95, 'temp': 29.69, 'lipoC3S3': 11.93, 'lipoC3S2': 7.9, 'rot1': 0, 'rot0': 0, 'rot3': 0, 'rot2': 0, 'state': 'normal', 'yaw': -14.26, 'datetime': '2018-10-09 23:15:38.324295', 'mgs': 0, 'volt': 0.8984, 'depth': 1.538, 'time': 9, 'pitch': -8.83, 'roll': 1.12, 'pres': 184}
{'lipoC2': 7.36, 'lipoC3S1': 3.95, 'temp': 29.69, 'lipoC3S3': 11.93, 'lipoC3S2': 7.9, 'rot1': 0, 'rot0': 0, 'rot3': 0, 'rot2': 0, 'state': 'normal', 'yaw': -13.2, 'datetime': '2018-10-09 23:15:38.427603', 'mgs': 0, 'volt': 0.9033, 'depth': 1.614, 'time': 10, 'pitch': -7.4, 'roll': 1.5, 'pres': 185}
{'lipoC2': 7.36, 'lipoC3S1': 3.95, 'temp': 29.69, 'lipoC3S3': 11.93, 'lipoC3S2': 7.9, 'rot1': 0, 'rot0': 0, 'rot3': 0, 'rot2': 0, 'state': 'normal', 'yaw': -12.09, 'datetime': '2018-10-09 23:15:38.530974', 'mgs': 0, 'volt': 0.9033, 'depth': 1.614, 'time': 10, 'pitch': -5.78, 'roll': 1.98, 'pres': 185}
{'lipoC2': 7.36, 'lipoC3S1': 3.95, 'temp': 29.69, 'lipoC3S3': 11.93, 'lipoC3S2': 7.9, 'rot1': 0, 'rot0': 0, 'rot3': 0, 'rot2': 0, 'state': 'normal', 'yaw': -11.16, 'datetime': '2018-10-09 23:15:38.634360', 'mgs': 0, 'volt': 0.9033, 'depth': 1.614, 'time': 10, 'pitch': -4.79, 'roll': 2.45, 'pres': 185}
{'lipoC2': 7.36, 'lipoC3S1': 3.95, 'temp': 29.69, 'lipoC3S3': 11.93, 'lipoC3S2': 7.9, 'rot1': 0, 'rot0': 0, 'rot3': 0, 'rot2': 0, 'state': 'normal', 'yaw': -10.27, 'datetime': '2018-10-09 23:15:38.738504', 'mgs': 0, 'volt': 0.9033, 'depth': 1.614, 'time': 10, 'pitch': -4.35, 'roll': 2.85, 'pres': 185}
{'lipoC2': 7.36, 'lipoC3S1': 3.95, 'temp': 29.75, 'lipoC3S3': 11.93, 'lipoC3S2': 7.9, 'rot1': 0, 'rot0': 0, 'rot3': 0, 'rot2': 0, 'state': 'normal', 'yaw': -9.38, 'datetime': '2018-10-09 23:15:38.842504', 'mgs': 0, 'volt': 0.9033, 'depth': 1.614, 'time': 10, 'pitch': -4.34, 'roll': 3.09, 'pres': 185}
{'lipoC2': 7.36, 'lipoC3S1': 3.95, 'temp': 29.75, 'lipoC3S3': 11.93, 'lipoC3S2': 7.9, 'rot1': 0, 'rot0': 0, 'rot3': 0, 'rot2': 0, 'state': 'normal', 'yaw': -8.64, 'datetime': '2018-10-09 23:15:38.945490', 'mgs': 0, 'volt': 0.9082, 'depth': 1.691, 'time': 10, 'pitch': -4.39, 'roll': 3.07, 'pres': 186}
{'lipoC2': 7.35, 'lipoC3S1': 3.95, 'temp': 29.75, 'lipoC3S3': 11.93, 'lipoC3S2': 7.9, 'rot1': 0, 'rot0': 0, 'rot3': 0, 'rot2': 0, 'state': 'normal', 'yaw': -7.99, 'datetime': '2018-10-09 23:15:39.049811', 'mgs': 0, 'volt': 0.9082, 'depth': 1.691, 'time': 10, 'pitch': -3.83, 'roll': 2.97, 'pres': 186}
{'lipoC2': 7.35, 'lipoC3S1': 3.95, 'temp': 29.75, 'lipoC3S3': 11.93, 'lipoC3S2': 7.9, 'rot1': 0, 'rot0': 0, 'rot3': 0, 'rot2': 0, 'state': 'normal', 'yaw': -7.46, 'datetime': '2018-10-09 23:15:39.153160', 'mgs': 0, 'volt': 0.9082, 'depth': 1.691, 'time': 10, 'pitch': -2.5, 'roll': 2.93, 'pres': 186}
{'lipoC2': 7.36, 'lipoC3S1': 3.95, 'temp': 29.75, 'lipoC3S3': 11.93, 'lipoC3S2': 7.9, 'rot1': 0, 'rot0': 0, 'rot3': 0, 'rot2': 0, 'state': 'normal', 'yaw': -6.99, 'datetime': '2018-10-09 23:15:39.257408', 'mgs': 0, 'volt': 0.9082, 'depth': 1.691, 'time': 10, 'pitch': -1.02, 'roll': 2.9, 'pres': 186}
{'lipoC2': 7.36, 'lipoC3S1': 3.95, 'temp': 29.69, 'lipoC3S3': 11.93, 'lipoC3S2': 7.9, 'rot1': 0, 'rot0': 0, 'rot3': 0, 'rot2': 0, 'state': 'normal', 'yaw': -6.49, 'datetime': '2018-10-09 23:15:39.361177', 'mgs': 0, 'volt': 0.9033, 'depth': 1.614, 'time': 10, 'pitch': 0.26, 'roll': 2.89, 'pres': 185}
{'lipoC2': 7.36, 'lipoC3S1': 3.95, 'temp': 29.69, 'lipoC3S3': 11.93, 'lipoC3S2': 7.9, 'rot1': 0, 'rot0': 0, 'rot3': 0, 'rot2': 0, 'state': 'normal', 'yaw': -5.7, 'datetime': '2018-10-09 23:15:39.464608', 'mgs': 0, 'volt': 0.9033, 'depth': 1.614, 'time': 11, 'pitch': 0.5, 'roll': 2.59, 'pres': 185}
{'lipoC2': 7.35, 'lipoC3S1': 3.95, 'temp': 29.69, 'lipoC3S3': 11.93, 'lipoC3S2': 7.9, 'rot1': 0, 'rot0': 0, 'rot3': 0, 'rot2': 0, 'state': 'normal', 'yaw': -4.51, 'datetime': '2018-10-09 23:15:39.567895', 'mgs': 0, 'volt': 0.8984, 'depth': 1.538, 'time': 11, 'pitch': -0.03, 'roll': 1.82, 'pres': 184}
{'lipoC2': 7.36, 'lipoC3S1': 3.95, 'temp': 29.69, 'lipoC3S3': 11.93, 'lipoC3S2': 7.9, 'rot1': 0, 'rot0': 0, 'rot3': 0, 'rot2': 0, 'state': 'normal', 'yaw': -3.01, 'datetime': '2018-10-09 23:15:39.671486', 'mgs': 0, 'volt': 0.8984, 'depth': 1.538, 'time': 11, 'pitch': -0.86, 'roll': 0.57, 'pres': 184}
{'lipoC2': 7.36, 'lipoC3S1': 3.95, 'temp': 29.75, 'lipoC3S3': 11.93, 'lipoC3S2': 7.9, 'rot1': 0, 'rot0': 0, 'rot3': 0, 'rot2': 0, 'state': 'normal', 'yaw': -1.38, 'datetime': '2018-10-09 23:15:39.774887', 'mgs': 0, 'volt': 0.8984, 'depth': 1.538, 'time': 11, 'pitch': -1.24, 'roll': -1.02, 'pres': 184}
{'lipoC2': 7.35, 'lipoC3S1': 3.95, 'temp': 29.75, 'lipoC3S3': 11.93, 'lipoC3S2': 7.9, 'rot1': 0, 'rot0': 0, 'rot3': 0, 'rot2': 0, 'state': 'normal', 'yaw': 0.03, 'datetime': '2018-10-09 23:15:39.878109', 'mgs': 0, 'volt': 0.8936, 'depth': 1.462, 'time': 11, 'pitch': -1.19, 'roll': -2.41, 'pres': 183}
{'lipoC2': 7.36, 'lipoC3S1': 3.95, 'temp': 29.75, 'lipoC3S3': 11.93, 'lipoC3S2': 7.9, 'rot1': 0, 'rot0': 0, 'rot3': 0, 'rot2': 0, 'state': 'normal', 'yaw': 1.33, 'datetime': '2018-10-09 23:15:39.981593', 'mgs': 0, 'volt': 0.8887, 'depth': 1.385, 'time': 11, 'pitch': -1.28, 'roll': -3.45, 'pres': 182}
{'lipoC2': 7.36, 'lipoC3S1': 3.95, 'temp': 29.69, 'lipoC3S3': 11.93, 'lipoC3S2': 7.9, 'rot1': 0, 'rot0': 0, 'rot3': 0, 'rot2': 0, 'state': 'normal', 'yaw': 2.46, 'datetime': '2018-10-09 23:15:40.085016', 'mgs': 0, 'volt': 0.8789, 'depth': 1.233, 'time': 11, 'pitch': -2.0, 'roll': -3.91, 'pres': 180}
{'lipoC2': 7.36, 'lipoC3S1': 3.95, 'temp': 29.69, 'lipoC3S3': 11.93, 'lipoC3S2': 7.9, 'rot1': 0, 'rot0': 0, 'rot3': 0, 'rot2': 0, 'state': 'normal', 'yaw': 2.98, 'datetime': '2018-10-09 23:15:40.188500', 'mgs': 0, 'volt': 0.8789, 'depth': 1.233, 'time': 11, 'pitch': -3.26, 'roll': -3.58, 'pres': 180}
{'lipoC2': 7.36, 'lipoC3S1': 3.95, 'temp': 29.69, 'lipoC3S3': 11.93, 'lipoC3S2': 7.9, 'rot1': 0, 'rot0': 0, 'rot3': 0, 'rot2': 0, 'state': 'normal', 'yaw': 3.1, 'datetime': '2018-10-09 23:15:40.292414', 'mgs': 0, 'volt': 0.874, 'depth': 1.157, 'time': 11, 'pitch': -3.66, 'roll': -2.75, 'pres': 179}
{'lipoC2': 7.35, 'lipoC3S1': 3.95, 'temp': 29.69, 'lipoC3S3': 11.93, 'lipoC3S2': 7.9, 'rot1': 0, 'rot0': 0, 'rot3': 0, 'rot2': 0, 'state': 'normal', 'yaw': 2.86, 'datetime': '2018-10-09 23:15:40.395714', 'mgs': 0, 'volt': 0.874, 'depth': 1.157, 'time': 11, 'pitch': -2.65, 'roll': -1.62, 'pres': 179}
{'lipoC2': 7.36, 'lipoC3S1': 3.95, 'temp': 29.75, 'lipoC3S3': 11.93, 'lipoC3S2': 7.9, 'rot1': 0, 'rot0': 0, 'rot3': 0, 'rot2': 0, 'state': 'normal', 'yaw': 2.14, 'datetime': '2018-10-09 23:15:40.499788', 'mgs': 0, 'volt': 0.8789, 'depth': 1.233, 'time': 12, 'pitch': -0.72, 'roll': -0.44, 'pres': 180}
{'lipoC2': 7.36, 'lipoC3S1': 3.95, 'temp': 29.75, 'lipoC3S3': 11.93, 'lipoC3S2': 7.9, 'rot1': 0, 'rot0': 0, 'rot3': 0, 'rot2': 0, 'state': 'normal', 'yaw': 0.98, 'datetime': '2018-10-09 23:15:40.603606', 'mgs': 0, 'volt': 0.8789, 'depth': 1.233, 'time': 12, 'pitch': 1.73, 'roll': 0.98, 'pres': 180}
{'lipoC2': 7.36, 'lipoC3S1': 3.95, 'temp': 29.75, 'lipoC3S3': 11.93, 'lipoC3S2': 7.9, 'rot1': 0, 'rot0': 0, 'rot3': 0, 'rot2': 0, 'state': 'normal', 'yaw': -0.31, 'datetime': '2018-10-09 23:15:40.706872', 'mgs': 0, 'volt': 0.8789, 'depth': 1.233, 'time': 12, 'pitch': 4.03, 'roll': 2.49, 'pres': 180}
{'lipoC2': 7.35, 'lipoC3S1': 3.95, 'temp': 29.75, 'lipoC3S3': 11.93, 'lipoC3S2': 7.9, 'rot1': 0, 'rot0': 0, 'rot3': 0, 'rot2': 0, 'state': 'normal', 'yaw': -1.13, 'datetime': '2018-10-09 23:15:40.811272', 'mgs': 0, 'volt': 0.8838, 'depth': 1.309, 'time': 12, 'pitch': 5.17, 'roll': 3.63, 'pres': 181}
{'lipoC2': 7.36, 'lipoC3S1': 3.95, 'temp': 29.75, 'lipoC3S3': 11.93, 'lipoC3S2': 7.9, 'rot1': 0, 'rot0': 0, 'rot3': 0, 'rot2': 0, 'state': 'normal', 'yaw': -1.76, 'datetime': '2018-10-09 23:15:40.914958', 'mgs': 0, 'volt': 0.8887, 'depth': 1.385, 'time': 12, 'pitch': 5.42, 'roll': 4.5, 'pres': 182}
{'lipoC2': 7.36, 'lipoC3S1': 3.95, 'temp': 29.75, 'lipoC3S3': 11.93, 'lipoC3S2': 7.9, 'rot1': 0, 'rot0': 0, 'rot3': 0, 'rot2': 0, 'state': 'normal', 'yaw': -2.18, 'datetime': '2018-10-09 23:15:41.018300', 'mgs': 0, 'volt': 0.8887, 'depth': 1.385, 'time': 12, 'pitch': 5.18, 'roll': 4.96, 'pres': 182}
{'lipoC2': 7.36, 'lipoC3S1': 3.95, 'temp': 29.75, 'lipoC3S3': 11.93, 'lipoC3S2': 7.9, 'rot1': 0, 'rot0': 0, 'rot3': 0, 'rot2': 0, 'state': 'normal', 'yaw': -2.43, 'datetime': '2018-10-09 23:15:41.121627', 'mgs': 0, 'volt': 0.8887, 'depth': 1.385, 'time': 12, 'pitch': 4.84, 'roll': 5.11, 'pres': 182}
{'lipoC2': 7.36, 'lipoC3S1': 3.95, 'temp': 29.69, 'lipoC3S3': 11.93, 'lipoC3S2': 7.9, 'rot1': 0, 'rot0': 0, 'rot3': 0, 'rot2': 0, 'state': 'normal', 'yaw': -2.69, 'datetime': '2018-10-09 23:15:41.225148', 'mgs': 0, 'volt': 0.8838, 'depth': 1.309, 'time': 12, 'pitch': 4.5, 'roll': 5.09, 'pres': 181}
{'lipoC2': 7.36, 'lipoC3S1': 3.95, 'temp': 29.69, 'lipoC3S3': 11.93, 'lipoC3S2': 7.9, 'rot1': 0, 'rot0': 0, 'rot3': 0, 'rot2': 0, 'state': 'normal', 'yaw': -3.33, 'datetime': '2018-10-09 23:15:41.328448', 'mgs': 0, 'volt': 0.8838, 'depth': 1.309, 'time': 12, 'pitch': 4.18, 'roll': 5.15, 'pres': 181}
{'lipoC2': 7.36, 'lipoC3S1': 3.95, 'temp': 29.69, 'lipoC3S3': 11.93, 'lipoC3S2': 7.9, 'rot1': 0, 'rot0': 0, 'rot3': 0, 'rot2': 0, 'state': 'normal', 'yaw': -4.39, 'datetime': '2018-10-09 23:15:41.431807', 'mgs': 0, 'volt': 0.8838, 'depth': 1.309, 'time': 13, 'pitch': 4.09, 'roll': 5.34, 'pres': 181}
{'lipoC2': 7.36, 'lipoC3S1': 3.95, 'temp': 29.69, 'lipoC3S3': 11.93, 'lipoC3S2': 7.9, 'rot1': 0, 'rot0': 0, 'rot3': 0, 'rot2': 0, 'state': 'normal', 'yaw': -5.74, 'datetime': '2018-10-09 23:15:41.535427', 'mgs': 0, 'volt': 0.8887, 'depth': 1.385, 'time': 13, 'pitch': 4.25, 'roll': 5.54, 'pres': 182}
{'lipoC2': 7.36, 'lipoC3S1': 3.95, 'temp': 29.69, 'lipoC3S3': 11.93, 'lipoC3S2': 7.9, 'rot1': 0, 'rot0': 0, 'rot3': 0, 'rot2': 0, 'state': 'normal', 'yaw': -7.37, 'datetime': '2018-10-09 23:15:41.638790', 'mgs': 0, 'volt': 0.8887, 'depth': 1.385, 'time': 13, 'pitch': 4.6, 'roll': 5.58, 'pres': 182}
{'lipoC2': 7.36, 'lipoC3S1': 3.95, 'temp': 29.69, 'lipoC3S3': 11.93, 'lipoC3S2': 7.9, 'rot1': 0, 'rot0': 0, 'rot3': 0, 'rot2': 0, 'state': 'normal', 'yaw': -8.48, 'datetime': '2018-10-09 23:15:41.742167', 'mgs': 0, 'volt': 0.8936, 'depth': 1.462, 'time': 13, 'pitch': 4.61, 'roll': 5.17, 'pres': 183}
{'lipoC2': 7.36, 'lipoC3S1': 3.95, 'temp': 29.69, 'lipoC3S3': 11.93, 'lipoC3S2': 7.9, 'rot1': 0, 'rot0': 0, 'rot3': 0, 'rot2': 0, 'state': 'normal', 'yaw': -9.37, 'datetime': '2018-10-09 23:15:41.845781', 'mgs': 0, 'volt': 0.8936, 'depth': 1.462, 'time': 13, 'pitch': 4.55, 'roll': 4.45, 'pres': 183}
{'lipoC2': 7.36, 'lipoC3S1': 3.95, 'temp': 29.69, 'lipoC3S3': 11.93, 'lipoC3S2': 7.9, 'rot1': 0, 'rot0': 0, 'rot3': 0, 'rot2': 0, 'state': 'normal', 'yaw': -10.07, 'datetime': '2018-10-09 23:15:41.949138', 'mgs': 0, 'volt': 0.8936, 'depth': 1.462, 'time': 13, 'pitch': 4.06, 'roll': 3.51, 'pres': 183}
{'lipoC2': 7.36, 'lipoC3S1': 3.95, 'temp': 29.69, 'lipoC3S3': 11.93, 'lipoC3S2': 7.9, 'rot1': 0, 'rot0': 0, 'rot3': 0, 'rot2': 0, 'state': 'normal', 'yaw': -10.49, 'datetime': '2018-10-09 23:15:42.053018', 'mgs': 0, 'volt': 0.8936, 'depth': 1.462, 'time': 13, 'pitch': 3.19, 'roll': 2.67, 'pres': 183}
{'lipoC2': 7.36, 'lipoC3S1': 3.95, 'temp': 29.69, 'lipoC3S3': 11.93, 'lipoC3S2': 7.9, 'rot1': 0, 'rot0': 0, 'rot3': 0, 'rot2': 0, 'state': 'normal', 'yaw': -10.88, 'datetime': '2018-10-09 23:15:42.157027', 'mgs': 0, 'volt': 0.8936, 'depth': 1.462, 'time': 13, 'pitch': 1.88, 'roll': 2.09, 'pres': 183}
{'lipoC2': 7.36, 'lipoC3S1': 3.95, 'temp': 29.75, 'lipoC3S3': 11.93, 'lipoC3S2': 7.9, 'rot1': 0, 'rot0': 0, 'rot3': 0, 'rot2': 0, 'state': 'normal', 'yaw': -10.95, 'datetime': '2018-10-09 23:15:42.260346', 'mgs': 0, 'volt': 0.8936, 'depth': 1.462, 'time': 13, 'pitch': 0.76, 'roll': 1.44, 'pres': 183}
{'lipoC2': 7.36, 'lipoC3S1': 3.95, 'temp': 29.75, 'lipoC3S3': 11.93, 'lipoC3S2': 7.9, 'rot1': 0, 'rot0': 0, 'rot3': 0, 'rot2': 0, 'state': 'normal', 'yaw': -11.26, 'datetime': '2018-10-09 23:15:42.364944', 'mgs': 0, 'volt': 0.8936, 'depth': 1.462, 'time': 13, 'pitch': 0.15, 'roll': 1.02, 'pres': 183}
{'lipoC2': 7.36, 'lipoC3S1': 3.95, 'temp': 29.75, 'lipoC3S3': 11.93, 'lipoC3S2': 7.9, 'rot1': 0, 'rot0': 0, 'rot3': 0, 'rot2': 0, 'state': 'normal', 'yaw': -11.74, 'datetime': '2018-10-09 23:15:42.468361', 'mgs': 0, 'volt': 0.8984, 'depth': 1.538, 'time': 14, 'pitch': -0.32, 'roll': 0.62, 'pres': 184}
{'lipoC2': 7.36, 'lipoC3S1': 3.95, 'temp': 29.75, 'lipoC3S3': 11.93, 'lipoC3S2': 7.9, 'rot1': 0, 'rot0': 0, 'rot3': 0, 'rot2': 0, 'state': 'normal', 'yaw': -12.37, 'datetime': '2018-10-09 23:15:42.571694', 'mgs': 0, 'volt': 0.8984, 'depth': 1.538, 'time': 14, 'pitch': -0.29, 'roll': 0.32, 'pres': 184}
{'lipoC2': 7.36, 'lipoC3S1': 3.95, 'temp': 29.75, 'lipoC3S3': 11.93, 'lipoC3S2': 7.9, 'rot1': 0, 'rot0': 0, 'rot3': 0, 'rot2': 0, 'state': 'normal', 'yaw': -13.26, 'datetime': '2018-10-09 23:15:42.675028', 'mgs': 0, 'volt': 0.9033, 'depth': 1.614, 'time': 14, 'pitch': -0.05, 'roll': 0.23, 'pres': 185}
{'lipoC2': 7.36, 'lipoC3S1': 3.95, 'temp': 29.75, 'lipoC3S3': 11.93, 'lipoC3S2': 7.9, 'rot1': 0, 'rot0': 0, 'rot3': 0, 'rot2': 0, 'state': 'normal', 'yaw': -14.24, 'datetime': '2018-10-09 23:15:42.778497', 'mgs': 0, 'volt': 0.9033, 'depth': 1.614, 'time': 14, 'pitch': 0.17, 'roll': 0.34, 'pres': 185}
{'lipoC2': 7.36, 'lipoC3S1': 3.95, 'temp': 29.75, 'lipoC3S3': 11.93, 'lipoC3S2': 7.9, 'rot1': 0, 'rot0': 0, 'rot3': 0, 'rot2': 0, 'state': 'normal', 'yaw': -15.27, 'datetime': '2018-10-09 23:15:42.881829', 'mgs': 0, 'volt': 0.9033, 'depth': 1.614, 'time': 14, 'pitch': 0.03, 'roll': 0.58, 'pres': 185}
{'lipoC2': 7.36, 'lipoC3S1': 3.95, 'temp': 29.75, 'lipoC3S3': 11.93, 'lipoC3S2': 7.9, 'rot1': 0, 'rot0': 0, 'rot3': 0, 'rot2': 0, 'state': 'normal', 'yaw': -16.26, 'datetime': '2018-10-09 23:15:42.985169', 'mgs': 0, 'volt': 0.9033, 'depth': 1.614, 'time': 14, 'pitch': -0.39, 'roll': 0.92, 'pres': 185}
{'lipoC2': 7.36, 'lipoC3S1': 3.95, 'temp': 29.75, 'lipoC3S3': 11.93, 'lipoC3S2': 7.9, 'rot1': 0, 'rot0': 0, 'rot3': 0, 'rot2': 0, 'state': 'normal', 'yaw': -17.21, 'datetime': '2018-10-09 23:15:43.088657', 'mgs': 0, 'volt': 0.9033, 'depth': 1.614, 'time': 14, 'pitch': -0.99, 'roll': 1.26, 'pres': 185}
{'lipoC2': 7.35, 'lipoC3S1': 3.95, 'temp': 29.75, 'lipoC3S3': 11.93, 'lipoC3S2': 7.9, 'rot1': 0, 'rot0': 0, 'rot3': 0, 'rot2': 0, 'state': 'normal', 'yaw': -18.08, 'datetime': '2018-10-09 23:15:43.191990', 'mgs': 0, 'volt': 0.9033, 'depth': 1.614, 'time': 14, 'pitch': -1.78, 'roll': 1.34, 'pres': 185}
{'lipoC2': 7.36, 'lipoC3S1': 3.95, 'temp': 29.75, 'lipoC3S3': 11.93, 'lipoC3S2': 7.9, 'rot1': 0, 'rot0': 0, 'rot3': 0, 'rot2': 0, 'state': 'normal', 'yaw': -18.77, 'datetime': '2018-10-09 23:15:43.295406', 'mgs': 0, 'volt': 0.9082, 'depth': 1.691, 'time': 14, 'pitch': -2.62, 'roll': 1.2, 'pres': 186}
{'lipoC2': 7.36, 'lipoC3S1': 3.95, 'temp': 29.75, 'lipoC3S3': 11.93, 'lipoC3S2': 7.9, 'rot1': 0, 'rot0': 0, 'rot3': 0, 'rot2': 0, 'state': 'normal', 'yaw': -19.53, 'datetime': '2018-10-09 23:15:43.399362', 'mgs': 0, 'volt': 0.9082, 'depth': 1.691, 'time': 14, 'pitch': -3.51, 'roll': 1.14, 'pres': 186}
{'lipoC2': 7.36, 'lipoC3S1': 3.95, 'temp': 29.75, 'lipoC3S3': 11.93, 'lipoC3S2': 7.9, 'rot1': 0, 'rot0': 0, 'rot3': 0, 'rot2': 0, 'state': 'normal', 'yaw': -20.34, 'datetime': '2018-10-09 23:15:43.502663', 'mgs': 0, 'volt': 0.9082, 'depth': 1.691, 'time': 15, 'pitch': -4.25, 'roll': 1.34, 'pres': 186}
{'lipoC2': 7.36, 'lipoC3S1': 3.95, 'temp': 29.75, 'lipoC3S3': 11.93, 'lipoC3S2': 7.9, 'rot1': 0, 'rot0': 0, 'rot3': 0, 'rot2': 0, 'state': 'normal', 'yaw': -21.0, 'datetime': '2018-10-09 23:15:43.607266', 'mgs': 0, 'volt': 0.9082, 'depth': 1.691, 'time': 15, 'pitch': -4.7, 'roll': 1.7, 'pres': 186}
{'lipoC2': 7.36, 'lipoC3S1': 3.95, 'temp': 29.75, 'lipoC3S3': 11.93, 'lipoC3S2': 7.9, 'rot1': 0, 'rot0': 0, 'rot3': 0, 'rot2': 0, 'state': 'normal', 'yaw': -21.62, 'datetime': '2018-10-09 23:15:43.710808', 'mgs': 0, 'volt': 0.9082, 'depth': 1.691, 'time': 15, 'pitch': -5.07, 'roll': 2.2, 'pres': 186}
{'lipoC2': 7.36, 'lipoC3S1': 3.95, 'temp': 29.75, 'lipoC3S3': 11.93, 'lipoC3S2': 7.9, 'rot1': 0, 'rot0': 0, 'rot3': 0, 'rot2': 0, 'state': 'normal', 'yaw': -22.11, 'datetime': '2018-10-09 23:15:43.814207', 'mgs': 0, 'volt': 0.9082, 'depth': 1.691, 'time': 15, 'pitch': -5.21, 'roll': 2.63, 'pres': 186}
{'lipoC2': 7.36, 'lipoC3S1': 3.95, 'temp': 29.75, 'lipoC3S3': 11.93, 'lipoC3S2': 7.9, 'rot1': 0, 'rot0': 0, 'rot3': 0, 'rot2': 0, 'state': 'normal', 'yaw': -22.56, 'datetime': '2018-10-09 23:15:43.918746', 'mgs': 0, 'volt': 0.9082, 'depth': 1.691, 'time': 15, 'pitch': -5.07, 'roll': 2.88, 'pres': 186}
{'lipoC2': 7.36, 'lipoC3S1': 3.95, 'temp': 29.75, 'lipoC3S3': 11.93, 'lipoC3S2': 7.9, 'rot1': 0, 'rot0': 0, 'rot3': 0, 'rot2': 0, 'state': 'normal', 'yaw': -23.01, 'datetime': '2018-10-09 23:15:44.022116', 'mgs': 0, 'volt': 0.9131, 'depth': 1.767, 'time': 15, 'pitch': -4.49, 'roll': 2.93, 'pres': 187}
{'lipoC2': 7.36, 'lipoC3S1': 3.95, 'temp': 29.75, 'lipoC3S3': 11.93, 'lipoC3S2': 7.9, 'rot1': 0, 'rot0': 0, 'rot3': 0, 'rot2': 0, 'state': 'normal', 'yaw': -23.42, 'datetime': '2018-10-09 23:15:44.125456', 'mgs': 0, 'volt': 0.9131, 'depth': 1.767, 'time': 15, 'pitch': -3.64, 'roll': 2.79, 'pres': 187}
{'lipoC2': 7.36, 'lipoC3S1': 3.95, 'temp': 29.75, 'lipoC3S3': 11.93, 'lipoC3S2': 7.9, 'rot1': 0, 'rot0': 0, 'rot3': 0, 'rot2': 0, 'state': 'normal', 'yaw': -23.81, 'datetime': '2018-10-09 23:15:44.228770', 'mgs': 0, 'volt': 0.9131, 'depth': 1.767, 'time': 15, 'pitch': -2.68, 'roll': 2.65, 'pres': 187}
{'lipoC2': 7.36, 'lipoC3S1': 3.95, 'temp': 29.75, 'lipoC3S3': 11.93, 'lipoC3S2': 7.9, 'rot1': 0, 'rot0': 0, 'rot3': 0, 'rot2': 0, 'state': 'normal', 'yaw': -24.25, 'datetime': '2018-10-09 23:15:44.332201', 'mgs': 0, 'volt': 0.9131, 'depth': 1.767, 'time': 15, 'pitch': -1.87, 'roll': 2.62, 'pres': 187}
{'lipoC2': 7.35, 'lipoC3S1': 3.95, 'temp': 29.75, 'lipoC3S3': 11.93, 'lipoC3S2': 7.9, 'rot1': 0, 'rot0': 0, 'rot3': 0, 'rot2': 0, 'state': 'normal', 'yaw': -24.64, 'datetime': '2018-10-09 23:15:44.435536', 'mgs': 0, 'volt': 0.9131, 'depth': 1.767, 'time': 16, 'pitch': -1.58, 'roll': 2.68, 'pres': 187}
{'lipoC2': 7.36, 'lipoC3S1': 3.95, 'temp': 29.75, 'lipoC3S3': 11.93, 'lipoC3S2': 7.9, 'rot1': 0, 'rot0': 0, 'rot3': 0, 'rot2': 0, 'state': 'normal', 'yaw': -25.03, 'datetime': '2018-10-09 23:15:44.538902', 'mgs': 0, 'volt': 0.918, 'depth': 1.843, 'time': 16, 'pitch': -1.63, 'roll': 2.81, 'pres': 188}
{'lipoC2': 7.36, 'lipoC3S1': 3.95, 'temp': 29.75, 'lipoC3S3': 11.93, 'lipoC3S2': 7.9, 'rot1': 0, 'rot0': 0, 'rot3': 0, 'rot2': 0, 'state': 'normal', 'yaw': -25.38, 'datetime': '2018-10-09 23:15:44.642492', 'mgs': 0, 'volt': 0.918, 'depth': 1.843, 'time': 16, 'pitch': -1.82, 'roll': 2.9, 'pres': 188}
{'lipoC2': 7.36, 'lipoC3S1': 3.95, 'temp': 29.75, 'lipoC3S3': 11.93, 'lipoC3S2': 7.9, 'rot1': 0, 'rot0': 0, 'rot3': 0, 'rot2': 0, 'state': 'normal', 'yaw': -25.7, 'datetime': '2018-10-09 23:15:44.746502', 'mgs': 0, 'volt': 0.918, 'depth': 1.843, 'time': 16, 'pitch': -1.91, 'roll': 2.88, 'pres': 188}
{'lipoC2': 7.36, 'lipoC3S1': 3.95, 'temp': 29.75, 'lipoC3S3': 11.93, 'lipoC3S2': 7.9, 'rot1': 0, 'rot0': 0, 'rot3': 0, 'rot2': 0, 'state': 'normal', 'yaw': -25.96, 'datetime': '2018-10-09 23:15:44.849182', 'mgs': 0, 'volt': 0.918, 'depth': 1.843, 'time': 16, 'pitch': -1.68, 'roll': 2.71, 'pres': 188}
{'lipoC2': 7.35, 'lipoC3S1': 3.95, 'temp': 29.75, 'lipoC3S3': 11.93, 'lipoC3S2': 7.9, 'rot1': 0, 'rot0': 0, 'rot3': 0, 'rot2': 0, 'state': 'normal', 'yaw': -26.2, 'datetime': '2018-10-09 23:15:44.953271', 'mgs': 0, 'volt': 0.918, 'depth': 1.843, 'time': 16, 'pitch': -1.24, 'roll': 2.49, 'pres': 188}
{'lipoC2': 7.36, 'lipoC3S1': 3.95, 'temp': 29.75, 'lipoC3S3': 11.93, 'lipoC3S2': 7.9, 'rot1': 0, 'rot0': 0, 'rot3': 0, 'rot2': 0, 'state': 'normal', 'yaw': -26.48, 'datetime': '2018-10-09 23:15:45.056559', 'mgs': 0, 'volt': 0.918, 'depth': 1.843, 'time': 16, 'pitch': -0.81, 'roll': 2.25, 'pres': 188}
{'lipoC2': 7.36, 'lipoC3S1': 3.95, 'temp': 29.69, 'lipoC3S3': 11.93, 'lipoC3S2': 7.9, 'rot1': 0, 'rot0': 0, 'rot3': 0, 'rot2': 0, 'state': 'normal', 'yaw': -26.7, 'datetime': '2018-10-09 23:15:45.161204', 'mgs': 0, 'volt': 0.918, 'depth': 1.843, 'time': 16, 'pitch': -0.68, 'roll': 2.08, 'pres': 188}
{'lipoC2': 7.36, 'lipoC3S1': 3.95, 'temp': 29.69, 'lipoC3S3': 11.93, 'lipoC3S2': 7.9, 'rot1': 0, 'rot0': 0, 'rot3': 0, 'rot2': 0, 'state': 'normal', 'yaw': -26.92, 'datetime': '2018-10-09 23:15:45.264597', 'mgs': 0, 'volt': 0.918, 'depth': 1.843, 'time': 16, 'pitch': -0.84, 'roll': 1.96, 'pres': 188}
{'lipoC2': 7.35, 'lipoC3S1': 3.95, 'temp': 29.75, 'lipoC3S3': 11.93, 'lipoC3S2': 7.9, 'rot1': 0, 'rot0': 0, 'rot3': 0, 'rot2': 0, 'state': 'normal', 'yaw': -27.06, 'datetime': '2018-10-09 23:15:45.367892', 'mgs': 0, 'volt': 0.918, 'depth': 1.843, 'time': 16, 'pitch': -1.13, 'roll': 1.86, 'pres': 188}
{'lipoC2': 7.35, 'lipoC3S1': 3.95, 'temp': 29.75, 'lipoC3S3': 11.93, 'lipoC3S2': 7.9, 'rot1': 0, 'rot0': 0, 'rot3': 0, 'rot2': 0, 'state': 'normal', 'yaw': -27.16, 'datetime': '2018-10-09 23:15:45.472530', 'mgs': 0, 'volt': 0.918, 'depth': 1.843, 'time': 17, 'pitch': -1.33, 'roll': 1.78, 'pres': 188}
{'lipoC2': 7.36, 'lipoC3S1': 3.95, 'temp': 29.69, 'lipoC3S3': 11.93, 'lipoC3S2': 7.9, 'rot1': 0, 'rot0': 0, 'rot3': 0, 'rot2': 0, 'state': 'normal', 'yaw': -27.25, 'datetime': '2018-10-09 23:15:45.575874', 'mgs': 0, 'volt': 0.918, 'depth': 1.843, 'time': 17, 'pitch': -1.43, 'roll': 1.68, 'pres': 188}
{'lipoC2': 7.36, 'lipoC3S1': 3.95, 'temp': 29.69, 'lipoC3S3': 11.93, 'lipoC3S2': 7.9, 'rot1': 0, 'rot0': 0, 'rot3': 0, 'rot2': 0, 'state': 'normal', 'yaw': -27.34, 'datetime': '2018-10-09 23:15:45.679159', 'mgs': 0, 'volt': 0.9131, 'depth': 1.767, 'time': 17, 'pitch': -1.53, 'roll': 1.64, 'pres': 187}
{'lipoC2': 7.36, 'lipoC3S1': 3.95, 'temp': 29.69, 'lipoC3S3': 11.93, 'lipoC3S2': 7.9, 'rot1': 0, 'rot0': 0, 'rot3': 0, 'rot2': 0, 'state': 'normal', 'yaw': -27.37, 'datetime': '2018-10-09 23:15:45.782553', 'mgs': 0, 'volt': 0.918, 'depth': 1.843, 'time': 17, 'pitch': -1.78, 'roll': 1.66, 'pres': 188}
{'lipoC2': 7.36, 'lipoC3S1': 3.95, 'temp': 29.81, 'lipoC3S3': 11.93, 'lipoC3S2': 7.9, 'rot1': 0, 'rot0': 0, 'rot3': 0, 'rot2': 0, 'state': 'normal', 'yaw': -27.4, 'datetime': '2018-10-09 23:15:45.885892', 'mgs': 0, 'volt': 0.9131, 'depth': 1.767, 'time': 17, 'pitch': -2.15, 'roll': 1.76, 'pres': 187}
{'lipoC2': 7.36, 'lipoC3S1': 3.95, 'temp': 29.81, 'lipoC3S3': 11.93, 'lipoC3S2': 7.9, 'rot1': 0, 'rot0': 0, 'rot3': 0, 'rot2': 0, 'state': 'normal', 'yaw': -27.41, 'datetime': '2018-10-09 23:15:45.989188', 'mgs': 0, 'volt': 0.9131, 'depth': 1.767, 'time': 17, 'pitch': -2.54, 'roll': 1.9, 'pres': 187}
{'lipoC2': 7.35, 'lipoC3S1': 3.95, 'temp': 29.69, 'lipoC3S3': 11.93, 'lipoC3S2': 7.9, 'rot1': 0, 'rot0': 0, 'rot3': 0, 'rot2': 0, 'state': 'normal', 'yaw': -27.43, 'datetime': '2018-10-09 23:15:46.092567', 'mgs': 0, 'volt': 0.9131, 'depth': 1.767, 'time': 17, 'pitch': -2.67, 'roll': 2.03, 'pres': 187}
{'lipoC2': 7.35, 'lipoC3S1': 3.95, 'temp': 29.69, 'lipoC3S3': 11.93, 'lipoC3S2': 7.9, 'rot1': 0, 'rot0': 0, 'rot3': 0, 'rot2': 0, 'state': 'normal', 'yaw': -27.47, 'datetime': '2018-10-09 23:15:46.196063', 'mgs': 0, 'volt': 0.9131, 'depth': 1.767, 'time': 17, 'pitch': -2.52, 'roll': 2.19, 'pres': 187}
{'lipoC2': 7.36, 'lipoC3S1': 3.95, 'temp': 29.69, 'lipoC3S3': 11.93, 'lipoC3S2': 7.9, 'rot1': 0, 'rot0': 0, 'rot3': 0, 'rot2': 0, 'state': 'normal', 'yaw': -27.51, 'datetime': '2018-10-09 23:15:46.299434', 'mgs': 0, 'volt': 0.9131, 'depth': 1.767, 'time': 17, 'pitch': -2.21, 'roll': 2.35, 'pres': 187}
{'lipoC2': 7.36, 'lipoC3S1': 3.95, 'temp': 29.75, 'lipoC3S3': 11.93, 'lipoC3S2': 7.9, 'rot1': 0, 'rot0': 0, 'rot3': 0, 'rot2': 0, 'state': 'normal', 'yaw': -27.55, 'datetime': '2018-10-09 23:15:46.402822', 'mgs': 0, 'volt': 0.9131, 'depth': 1.767, 'time': 17, 'pitch': -2.1, 'roll': 2.48, 'pres': 187}
{'lipoC2': 7.35, 'lipoC3S1': 3.95, 'temp': 29.75, 'lipoC3S3': 11.93, 'lipoC3S2': 7.9, 'rot1': 0, 'rot0': 0, 'rot3': 0, 'rot2': 0, 'state': 'normal', 'yaw': -27.55, 'datetime': '2018-10-09 23:15:46.506707', 'mgs': 0, 'volt': 0.9131, 'depth': 1.767, 'time': 18, 'pitch': -2.13, 'roll': 2.64, 'pres': 187}
{'lipoC2': 7.36, 'lipoC3S1': 3.95, 'temp': 29.75, 'lipoC3S3': 11.93, 'lipoC3S2': 7.9, 'rot1': 0, 'rot0': 0, 'rot3': 0, 'rot2': 0, 'state': 'normal', 'yaw': -27.55, 'datetime': '2018-10-09 23:15:46.610115', 'mgs': 0, 'volt': 0.9131, 'depth': 1.767, 'time': 18, 'pitch': -2.34, 'roll': 2.77, 'pres': 187}
{'lipoC2': 7.36, 'lipoC3S1': 3.95, 'temp': 29.75, 'lipoC3S3': 11.93, 'lipoC3S2': 7.9, 'rot1': 0, 'rot0': 0, 'rot3': 0, 'rot2': 0, 'state': 'normal', 'yaw': -27.56, 'datetime': '2018-10-09 23:15:46.714685', 'mgs': 0, 'volt': 0.9131, 'depth': 1.767, 'time': 18, 'pitch': -2.53, 'roll': 2.85, 'pres': 187}
{'lipoC2': 7.36, 'lipoC3S1': 3.95, 'temp': 29.69, 'lipoC3S3': 11.93, 'lipoC3S2': 7.9, 'rot1': 0, 'rot0': 0, 'rot3': 0, 'rot2': 0, 'state': 'normal', 'yaw': -27.57, 'datetime': '2018-10-09 23:15:46.818074', 'mgs': 0, 'volt': 0.9131, 'depth': 1.767, 'time': 18, 'pitch': -2.45, 'roll': 2.87, 'pres': 187}
{'lipoC2': 7.35, 'lipoC3S1': 3.95, 'temp': 29.69, 'lipoC3S3': 11.93, 'lipoC3S2': 7.9, 'rot1': 0, 'rot0': 0, 'rot3': 0, 'rot2': 0, 'state': 'normal', 'yaw': -27.6, 'datetime': '2018-10-09 23:15:46.921344', 'mgs': 0, 'volt': 0.9131, 'depth': 1.767, 'time': 18, 'pitch': -2.05, 'roll': 2.87, 'pres': 187}
{'lipoC2': 7.36, 'lipoC3S1': 3.95, 'temp': 29.69, 'lipoC3S3': 11.93, 'lipoC3S2': 7.9, 'rot1': 0, 'rot0': 0, 'rot3': 0, 'rot2': 0, 'state': 'normal', 'yaw': -27.63, 'datetime': '2018-10-09 23:15:47.026094', 'mgs': 0, 'volt': 0.9131, 'depth': 1.767, 'time': 18, 'pitch': -1.47, 'roll': 2.86, 'pres': 187}
{'lipoC2': 7.35, 'lipoC3S1': 3.95, 'temp': 29.69, 'lipoC3S3': 11.93, 'lipoC3S2': 7.9, 'rot1': 0, 'rot0': 0, 'rot3': 0, 'rot2': 0, 'state': 'normal', 'yaw': -27.66, 'datetime': '2018-10-09 23:15:47.129328', 'mgs': 0, 'volt': 0.9131, 'depth': 1.767, 'time': 18, 'pitch': -0.9, 'roll': 2.85, 'pres': 187}
{'lipoC2': 7.36, 'lipoC3S1': 3.95, 'temp': 29.69, 'lipoC3S3': 11.93, 'lipoC3S2': 7.9, 'rot1': 0, 'rot0': 0, 'rot3': 0, 'rot2': 0, 'state': 'normal', 'yaw': -27.7, 'datetime': '2018-10-09 23:15:47.232730', 'mgs': 0, 'volt': 0.9131, 'depth': 1.767, 'time': 18, 'pitch': -0.72, 'roll': 2.83, 'pres': 187}
{'lipoC2': 7.36, 'lipoC3S1': 3.95, 'temp': 29.69, 'lipoC3S3': 11.93, 'lipoC3S2': 7.9, 'rot1': 0, 'rot0': 0, 'rot3': 0, 'rot2': 0, 'state': 'normal', 'yaw': -27.77, 'datetime': '2018-10-09 23:15:47.335995', 'mgs': 0, 'volt': 0.9082, 'depth': 1.691, 'time': 18, 'pitch': -1.01, 'roll': 2.8, 'pres': 186}
{'lipoC2': 7.36, 'lipoC3S1': 3.95, 'temp': 29.69, 'lipoC3S3': 11.93, 'lipoC3S2': 7.9, 'rot1': 0, 'rot0': 0, 'rot3': 0, 'rot2': 0, 'state': 'normal', 'yaw': -27.89, 'datetime': '2018-10-09 23:15:47.439402', 'mgs': 0, 'volt': 0.9131, 'depth': 1.767, 'time': 19, 'pitch': -1.79, 'roll': 2.74, 'pres': 187}
{'lipoC2': 7.36, 'lipoC3S1': 3.95, 'temp': 29.75, 'lipoC3S3': 11.93, 'lipoC3S2': 7.9, 'rot1': 0, 'rot0': 0, 'rot3': 0, 'rot2': 0, 'state': 'normal', 'yaw': -27.93, 'datetime': '2018-10-09 23:15:47.542686', 'mgs': 0, 'volt': 0.9082, 'depth': 1.691, 'time': 19, 'pitch': -2.46, 'roll': 2.59, 'pres': 186}
{'lipoC2': 7.36, 'lipoC3S1': 3.95, 'temp': 29.75, 'lipoC3S3': 11.93, 'lipoC3S2': 7.9, 'rot1': 0, 'rot0': 0, 'rot3': 0, 'rot2': 0, 'state': 'normal', 'yaw': -27.65, 'datetime': '2018-10-09 23:15:47.646118', 'mgs': 0, 'volt': 0.9082, 'depth': 1.691, 'time': 19, 'pitch': -2.67, 'roll': 2.23, 'pres': 186}
{'lipoC2': 7.36, 'lipoC3S1': 3.95, 'temp': 29.75, 'lipoC3S3': 11.93, 'lipoC3S2': 7.9, 'rot1': 0, 'rot0': 0, 'rot3': 0, 'rot2': 0, 'state': 'normal', 'yaw': -27.23, 'datetime': '2018-10-09 23:15:47.753105', 'mgs': 0, 'volt': 0.9082, 'depth': 1.691, 'time': 19, 'pitch': -2.54, 'roll': 1.82, 'pres': 186}
{'lipoC2': 7.36, 'lipoC3S1': 3.95, 'temp': 29.69, 'lipoC3S3': 11.93, 'lipoC3S2': 7.9, 'rot1': 0, 'rot0': 0, 'rot3': 0, 'rot2': 0, 'state': 'normal', 'yaw': -26.85, 'datetime': '2018-10-09 23:15:47.858933', 'mgs': 0, 'volt': 0.9033, 'depth': 1.614, 'time': 19, 'pitch': -2.42, 'roll': 1.47, 'pres': 185}
{'lipoC2': 7.35, 'lipoC3S1': 3.95, 'temp': 29.69, 'lipoC3S3': 11.93, 'lipoC3S2': 7.9, 'rot1': 0, 'rot0': 0, 'rot3': 0, 'rot2': 0, 'state': 'normal', 'yaw': -26.83, 'datetime': '2018-10-09 23:15:47.962108', 'mgs': 0, 'volt': 0.9033, 'depth': 1.614, 'time': 19, 'pitch': -2.67, 'roll': 1.42, 'pres': 185}
{'lipoC2': 7.36, 'lipoC3S1': 3.95, 'temp': 29.75, 'lipoC3S3': 11.93, 'lipoC3S2': 7.9, 'rot1': 0, 'rot0': 0, 'rot3': 0, 'rot2': 0, 'state': 'normal', 'yaw': -26.78, 'datetime': '2018-10-09 23:15:48.066300', 'mgs': 0, 'volt': 0.9033, 'depth': 1.614, 'time': 19, 'pitch': -3.21, 'roll': 1.42, 'pres': 185}
{'lipoC2': 7.36, 'lipoC3S1': 3.95, 'temp': 29.75, 'lipoC3S3': 11.93, 'lipoC3S2': 7.9, 'rot1': 0, 'rot0': 0, 'rot3': 0, 'rot2': 0, 'state': 'normal', 'yaw': -26.43, 'datetime': '2018-10-09 23:15:48.169627', 'mgs': 0, 'volt': 0.9033, 'depth': 1.614, 'time': 19, 'pitch': -3.85, 'roll': 1.32, 'pres': 185}
{'lipoC2': 7.36, 'lipoC3S1': 3.95, 'temp': 29.75, 'lipoC3S3': 11.93, 'lipoC3S2': 7.9, 'rot1': 0, 'rot0': 0, 'rot3': 0, 'rot2': 0, 'state': 'normal', 'yaw': -26.13, 'datetime': '2018-10-09 23:15:48.274181', 'mgs': 0, 'volt': 0.9033, 'depth': 1.614, 'time': 19, 'pitch': -4.13, 'roll': 1.24, 'pres': 185}
{'lipoC2': 7.36, 'lipoC3S1': 3.95, 'temp': 29.75, 'lipoC3S3': 11.93, 'lipoC3S2': 7.9, 'rot1': 0, 'rot0': 0, 'rot3': 0, 'rot2': 0, 'state': 'normal', 'yaw': -26.23, 'datetime': '2018-10-09 23:15:48.377533', 'mgs': 0, 'volt': 0.9033, 'depth': 1.614, 'time': 19, 'pitch': -3.81, 'roll': 1.38, 'pres': 185}
{'lipoC2': 7.36, 'lipoC3S1': 3.95, 'temp': 29.75, 'lipoC3S3': 11.93, 'lipoC3S2': 7.9, 'rot1': 0, 'rot0': 0, 'rot3': 0, 'rot2': 0, 'state': 'normal', 'yaw': -26.77, 'datetime': '2018-10-09 23:15:48.480770', 'mgs': 0, 'volt': 0.9033, 'depth': 1.614, 'time': 20, 'pitch': -3.35, 'roll': 1.8, 'pres': 185}
{'lipoC2': 7.36, 'lipoC3S1': 3.95, 'temp': 29.69, 'lipoC3S3': 11.93, 'lipoC3S2': 7.9, 'rot1': 0, 'rot0': 0, 'rot3': 0, 'rot2': 0, 'state': 'normal', 'yaw': -27.47, 'datetime': '2018-10-09 23:15:48.585412', 'mgs': 0, 'volt': 0.9033, 'depth': 1.614, 'time': 20, 'pitch': -3.21, 'roll': 2.32, 'pres': 185}
{'lipoC2': 7.36, 'lipoC3S1': 3.95, 'temp': 29.69, 'lipoC3S3': 11.93, 'lipoC3S2': 7.9, 'rot1': 0, 'rot0': 0, 'rot3': 0, 'rot2': 0, 'state': 'normal', 'yaw': -28.43, 'datetime': '2018-10-09 23:15:48.688819', 'mgs': 0, 'volt': 0.9082, 'depth': 1.691, 'time': 20, 'pitch': -3.62, 'roll': 3.04, 'pres': 186}
{'lipoC2': 7.36, 'lipoC3S1': 3.95, 'temp': 29.69, 'lipoC3S3': 11.93, 'lipoC3S2': 7.9, 'rot1': 0, 'rot0': 0, 'rot3': 0, 'rot2': 0, 'state': 'normal', 'yaw': -29.31, 'datetime': '2018-10-09 23:15:48.792082', 'mgs': 0, 'volt': 0.9131, 'depth': 1.767, 'time': 20, 'pitch': -4.08, 'roll': 3.67, 'pres': 187}
{'lipoC2': 7.36, 'lipoC3S1': 3.95, 'temp': 29.69, 'lipoC3S3': 11.93, 'lipoC3S2': 7.9, 'rot1': 0, 'rot0': 0, 'rot3': 0, 'rot2': 0, 'state': 'normal', 'yaw': -30.08, 'datetime': '2018-10-09 23:15:48.895445', 'mgs': 0, 'volt': 0.9131, 'depth': 1.767, 'time': 20, 'pitch': -4.34, 'roll': 4.1, 'pres': 187}
{'lipoC2': 7.36, 'lipoC3S1': 3.95, 'temp': 29.75, 'lipoC3S3': 11.93, 'lipoC3S2': 7.9, 'rot1': 0, 'rot0': 0, 'rot3': 0, 'rot2': 0, 'state': 'normal', 'yaw': -30.65, 'datetime': '2018-10-09 23:15:48.998751', 'mgs': 0, 'volt': 0.9131, 'depth': 1.767, 'time': 20, 'pitch': -4.32, 'roll': 4.2, 'pres': 187}
{'lipoC2': 7.36, 'lipoC3S1': 3.95, 'temp': 29.75, 'lipoC3S3': 11.93, 'lipoC3S2': 7.9, 'rot1': 0, 'rot0': 0, 'rot3': 0, 'rot2': 0, 'state': 'normal', 'yaw': -31.35, 'datetime': '2018-10-09 23:15:49.102081', 'mgs': 0, 'volt': 0.9131, 'depth': 1.767, 'time': 20, 'pitch': -4.23, 'roll': 4.15, 'pres': 187}
{'lipoC2': 7.36, 'lipoC3S1': 3.95, 'temp': 29.75, 'lipoC3S3': 11.93, 'lipoC3S2': 7.9, 'rot1': 0, 'rot0': 0, 'rot3': 0, 'rot2': 0, 'state': 'normal', 'yaw': -32.13, 'datetime': '2018-10-09 23:15:49.205356', 'mgs': 0, 'volt': 0.9131, 'depth': 1.767, 'time': 20, 'pitch': -4.38, 'roll': 4.18, 'pres': 187}
{'lipoC2': 7.36, 'lipoC3S1': 3.95, 'temp': 29.69, 'lipoC3S3': 11.93, 'lipoC3S2': 7.9, 'rot1': 0, 'rot0': 0, 'rot3': 0, 'rot2': 0, 'state': 'normal', 'yaw': -33.03, 'datetime': '2018-10-09 23:15:49.309167', 'mgs': 0, 'volt': 0.9131, 'depth': 1.767, 'time': 20, 'pitch': -5.1, 'roll': 4.31, 'pres': 187}
{'lipoC2': 7.36, 'lipoC3S1': 3.95, 'temp': 29.69, 'lipoC3S3': 11.93, 'lipoC3S2': 7.9, 'rot1': 0, 'rot0': 0, 'rot3': 0, 'rot2': 0, 'state': 'normal', 'yaw': -34.08, 'datetime': '2018-10-09 23:15:49.412347', 'mgs': 0, 'volt': 0.9131, 'depth': 1.767, 'time': 20, 'pitch': -6.43, 'roll': 4.59, 'pres': 187}
{'lipoC2': 7.36, 'lipoC3S1': 3.95, 'temp': 29.75, 'lipoC3S3': 11.93, 'lipoC3S2': 7.9, 'rot1': 0, 'rot0': 0, 'rot3': 0, 'rot2': 0, 'state': 'normal', 'yaw': -34.72, 'datetime': '2018-10-09 23:15:49.515609', 'mgs': 0, 'volt': 0.9131, 'depth': 1.767, 'time': 21, 'pitch': -7.45, 'roll': 4.71, 'pres': 187}
{'lipoC2': 7.36, 'lipoC3S1': 3.95, 'temp': 29.75, 'lipoC3S3': 11.93, 'lipoC3S2': 7.9, 'rot1': 0, 'rot0': 0, 'rot3': 0, 'rot2': 0, 'state': 'normal', 'yaw': -34.84, 'datetime': '2018-10-09 23:15:49.619782', 'mgs': 0, 'volt': 0.9082, 'depth': 1.691, 'time': 21, 'pitch': -8.23, 'roll': 4.24, 'pres': 186}
{'lipoC2': 7.36, 'lipoC3S1': 3.95, 'temp': 29.75, 'lipoC3S3': 11.93, 'lipoC3S2': 7.9, 'rot1': 0, 'rot0': 0, 'rot3': 0, 'rot2': 0, 'state': 'normal', 'yaw': -34.75, 'datetime': '2018-10-09 23:15:49.723011', 'mgs': 0, 'volt': 0.9082, 'depth': 1.691, 'time': 21, 'pitch': -8.74, 'roll': 3.39, 'pres': 186}
{'lipoC2': 7.36, 'lipoC3S1': 3.95, 'temp': 29.75, 'lipoC3S3': 11.93, 'lipoC3S2': 7.9, 'rot1': 0, 'rot0': 0, 'rot3': 0, 'rot2': 0, 'state': 'normal', 'yaw': -34.38, 'datetime': '2018-10-09 23:15:49.827657', 'mgs': 0, 'volt': 0.9082, 'depth': 1.691, 'time': 21, 'pitch': -8.83, 'roll': 2.4, 'pres': 186}
{'lipoC2': 7.36, 'lipoC3S1': 3.95, 'temp': 29.75, 'lipoC3S3': 11.93, 'lipoC3S2': 7.9, 'rot1': 0, 'rot0': 0, 'rot3': 0, 'rot2': 0, 'state': 'normal', 'yaw': -34.05, 'datetime': '2018-10-09 23:15:49.930987', 'mgs': 0, 'volt': 0.9082, 'depth': 1.691, 'time': 21, 'pitch': -8.36, 'roll': 1.58, 'pres': 186}
{'lipoC2': 7.36, 'lipoC3S1': 3.95, 'temp': 29.69, 'lipoC3S3': 11.93, 'lipoC3S2': 7.9, 'rot1': 0, 'rot0': 0, 'rot3': 0, 'rot2': 0, 'state': 'normal', 'yaw': -33.88, 'datetime': '2018-10-09 23:15:50.034378', 'mgs': 0, 'volt': 0.9082, 'depth': 1.691, 'time': 21, 'pitch': -7.47, 'roll': 1.18, 'pres': 186}
