{'lipoC2': 7.39, 'lipoC3S1': 3.96, 'temp': 30.19, 'lipoC3S3': 11.98, 'lipoC3S2': 7.92, 'rot1': 70, 'rot0': 67, 'rot3': 24, 'rot2': 21, 'state': 'normal', 'yaw': -0.35, 'datetime': '2018-10-09 13:19:05.457708', 'mgs': 0, 'volt': 0.9521, 'depth': 2.377, 'time': 123, 'pitch': 2.43, 'roll': -1.81, 'pres': 195}
{'lipoC2': 7.39, 'lipoC3S1': 3.96, 'temp': 30.19, 'lipoC3S3': 11.98, 'lipoC3S2': 7.92, 'rot1': 70, 'rot0': 67, 'rot3': 24, 'rot2': 21, 'state': 'normal', 'yaw': 0.22, 'datetime': '2018-10-09 13:19:05.481551', 'mgs': 0, 'volt': 0.9473, 'depth': 2.301, 'time': 124, 'pitch': 1.75, 'roll': -1.84, 'pres': 194}
{'lipoC2': 7.39, 'lipoC3S1': 3.96, 'temp': 30.25, 'lipoC3S3': 11.98, 'lipoC3S2': 7.92, 'rot1': 70, 'rot0': 67, 'rot3': 24, 'rot2': 21, 'state': 'normal', 'yaw': 0.6, 'datetime': '2018-10-09 13:19:05.505395', 'mgs': 0, 'volt': 0.9521, 'depth': 2.377, 'time': 124, 'pitch': 1.19, 'roll': -1.85, 'pres': 195}
{'lipoC2': 7.39, 'lipoC3S1': 3.96, 'temp': 30.25, 'lipoC3S3': 11.98, 'lipoC3S2': 7.92, 'rot1': 70, 'rot0': 67, 'rot3': 24, 'rot2': 21, 'state': 'normal', 'yaw': 0.75, 'datetime': '2018-10-09 13:19:05.528341', 'mgs': 0, 'volt': 0.9521, 'depth': 2.377, 'time': 124, 'pitch': 1.04, 'roll': -1.8, 'pres': 195}
{'lipoC2': 7.39, 'lipoC3S1': 3.96, 'temp': 30.25, 'lipoC3S3': 11.98, 'lipoC3S2': 7.92, 'rot1': 70, 'rot0': 67, 'rot3': 24, 'rot2': 21, 'state': 'normal', 'yaw': 0.74, 'datetime': '2018-10-09 13:19:05.548583', 'mgs': 0, 'volt': 0.9521, 'depth': 2.377, 'time': 124, 'pitch': 1.19, 'roll': -1.67, 'pres': 195}
{'lipoC2': 7.39, 'lipoC3S1': 3.96, 'temp': 30.25, 'lipoC3S3': 11.98, 'lipoC3S2': 7.92, 'rot1': 70, 'rot0': 67, 'rot3': 24, 'rot2': 21, 'state': 'normal', 'yaw': 0.85, 'datetime': '2018-10-09 13:19:05.558336', 'mgs': 0, 'volt': 0.9521, 'depth': 2.377, 'time': 124, 'pitch': 1.59, 'roll': -1.52, 'pres': 195}
{'lipoC2': 7.39, 'lipoC3S1': 3.96, 'temp': 30.31, 'lipoC3S3': 11.98, 'lipoC3S2': 7.92, 'rot1': 70, 'rot0': 67, 'rot3': 24, 'rot2': 21, 'state': 'normal', 'yaw': 1.25, 'datetime': '2018-10-09 13:19:05.568062', 'mgs': 0, 'volt': 0.9521, 'depth': 2.377, 'time': 124, 'pitch': 2.1, 'roll': -1.44, 'pres': 195}
{'lipoC2': 7.39, 'lipoC3S1': 3.96, 'temp': 30.31, 'lipoC3S3': 11.98, 'lipoC3S2': 7.92, 'rot1': 70, 'rot0': 67, 'rot3': 24, 'rot2': 21, 'state': 'normal', 'yaw': 2.08, 'datetime': '2018-10-09 13:19:05.577765', 'mgs': 0, 'volt': 0.957, 'depth': 2.454, 'time': 124, 'pitch': 2.6, 'roll': -1.36, 'pres': 196}
{'lipoC2': 7.39, 'lipoC3S1': 3.96, 'temp': 30.31, 'lipoC3S3': 11.98, 'lipoC3S2': 7.92, 'rot1': 70, 'rot0': 67, 'rot3': 24, 'rot2': 21, 'state': 'normal', 'yaw': 3.32, 'datetime': '2018-10-09 13:19:05.587499', 'mgs': 0, 'volt': 0.957, 'depth': 2.454, 'time': 124, 'pitch': 2.46, 'roll': -1.42, 'pres': 196}
{'lipoC2': 7.39, 'lipoC3S1': 3.96, 'temp': 30.31, 'lipoC3S3': 11.98, 'lipoC3S2': 7.92, 'rot1': 70, 'rot0': 67, 'rot3': 24, 'rot2': 21, 'state': 'normal', 'yaw': 4.8, 'datetime': '2018-10-09 13:19:05.597192', 'mgs': 0, 'volt': 0.9521, 'depth': 2.377, 'time': 124, 'pitch': 1.58, 'roll': -1.66, 'pres': 195}
{'lipoC2': 7.39, 'lipoC3S1': 3.96, 'temp': 30.31, 'lipoC3S3': 11.97, 'lipoC3S2': 7.92, 'rot1': 70, 'rot0': 67, 'rot3': 24, 'rot2': 21, 'state': 'normal', 'yaw': 6.25, 'datetime': '2018-10-09 13:19:05.606897', 'mgs': 0, 'volt': 0.9521, 'depth': 2.377, 'time': 125, 'pitch': 0.13, 'roll': -1.95, 'pres': 195}
{'lipoC2': 7.39, 'lipoC3S1': 3.96, 'temp': 30.25, 'lipoC3S3': 11.97, 'lipoC3S2': 7.92, 'rot1': 70, 'rot0': 67, 'rot3': 24, 'rot2': 21, 'state': 'normal', 'yaw': 7.39, 'datetime': '2018-10-09 13:19:05.616629', 'mgs': 0, 'volt': 0.9473, 'depth': 2.301, 'time': 125, 'pitch': -1.35, 'roll': -2.2, 'pres': 194}
{'lipoC2': 7.39, 'lipoC3S1': 3.96, 'temp': 30.25, 'lipoC3S3': 11.97, 'lipoC3S2': 7.92, 'rot1': 70, 'rot0': 67, 'rot3': 24, 'rot2': 21, 'state': 'normal', 'yaw': 8.42, 'datetime': '2018-10-09 13:19:05.626423', 'mgs': 0, 'volt': 0.9473, 'depth': 2.301, 'time': 125, 'pitch': -2.88, 'roll': -2.47, 'pres': 194}
{'lipoC2': 7.39, 'lipoC3S1': 3.96, 'temp': 30.31, 'lipoC3S3': 11.98, 'lipoC3S2': 7.92, 'rot1': 70, 'rot0': 67, 'rot3': 24, 'rot2': 21, 'state': 'normal', 'yaw': 9.55, 'datetime': '2018-10-09 13:19:05.636261', 'mgs': 0, 'volt': 0.9473, 'depth': 2.301, 'time': 125, 'pitch': -4.47, 'roll': -2.78, 'pres': 194}
{'lipoC2': 7.39, 'lipoC3S1': 3.96, 'temp': 30.31, 'lipoC3S3': 11.97, 'lipoC3S2': 7.92, 'rot1': 70, 'rot0': 67, 'rot3': 24, 'rot2': 21, 'state': 'normal', 'yaw': 10.48, 'datetime': '2018-10-09 13:19:05.646319', 'mgs': 0, 'volt': 0.9473, 'depth': 2.301, 'time': 125, 'pitch': -5.51, 'roll': -2.98, 'pres': 194}
{'lipoC2': 7.39, 'lipoC3S1': 3.96, 'temp': 30.31, 'lipoC3S3': 11.97, 'lipoC3S2': 7.92, 'rot1': 70, 'rot0': 67, 'rot3': 24, 'rot2': 21, 'state': 'normal', 'yaw': 11.28, 'datetime': '2018-10-09 13:19:05.656112', 'mgs': 0, 'volt': 0.9473, 'depth': 2.301, 'time': 125, 'pitch': -6.23, 'roll': -3.03, 'pres': 194}
{'lipoC2': 7.39, 'lipoC3S1': 3.96, 'temp': 30.25, 'lipoC3S3': 11.97, 'lipoC3S2': 7.92, 'rot1': 70, 'rot0': 67, 'rot3': 24, 'rot2': 21, 'state': 'normal', 'yaw': 11.72, 'datetime': '2018-10-09 13:19:05.665926', 'mgs': 0, 'volt': 0.9473, 'depth': 2.301, 'time': 125, 'pitch': -6.27, 'roll': -2.87, 'pres': 194}
{'lipoC2': 7.39, 'lipoC3S1': 3.96, 'temp': 30.25, 'lipoC3S3': 11.98, 'lipoC3S2': 7.92, 'rot1': 70, 'rot0': 67, 'rot3': 24, 'rot2': 21, 'state': 'normal', 'yaw': 11.93, 'datetime': '2018-10-09 13:19:05.675936', 'mgs': 0, 'volt': 0.9473, 'depth': 2.301, 'time': 125, 'pitch': -5.74, 'roll': -2.57, 'pres': 194}
{'lipoC2': 7.39, 'lipoC3S1': 3.96, 'temp': 30.31, 'lipoC3S3': 11.98, 'lipoC3S2': 7.92, 'rot1': 70, 'rot0': 67, 'rot3': 24, 'rot2': 21, 'state': 'normal', 'yaw': 11.91, 'datetime': '2018-10-09 13:19:05.685985', 'mgs': 0, 'volt': 0.9473, 'depth': 2.301, 'time': 125, 'pitch': -5.09, 'roll': -2.2, 'pres': 194}
{'lipoC2': 7.39, 'lipoC3S1': 3.96, 'temp': 30.31, 'lipoC3S3': 11.98, 'lipoC3S2': 7.92, 'rot1': 70, 'rot0': 67, 'rot3': 24, 'rot2': 21, 'state': 'normal', 'yaw': 11.66, 'datetime': '2018-10-09 13:19:05.695785', 'mgs': 0, 'volt': 0.9473, 'depth': 2.301, 'time': 125, 'pitch': -4.62, 'roll': -1.87, 'pres': 194}
{'lipoC2': 7.39, 'lipoC3S1': 3.96, 'temp': 30.25, 'lipoC3S3': 11.97, 'lipoC3S2': 7.92, 'rot1': 70, 'rot0': 67, 'rot3': 24, 'rot2': 21, 'state': 'normal', 'yaw': 11.44, 'datetime': '2018-10-09 13:19:05.705547', 'mgs': 0, 'volt': 0.9473, 'depth': 2.301, 'time': 126, 'pitch': -4.05, 'roll': -1.67, 'pres': 194}
{'lipoC2': 7.39, 'lipoC3S1': 3.96, 'temp': 30.25, 'lipoC3S3': 11.97, 'lipoC3S2': 7.92, 'rot1': 70, 'rot0': 67, 'rot3': 24, 'rot2': 21, 'state': 'normal', 'yaw': 11.4, 'datetime': '2018-10-09 13:19:05.777719', 'mgs': 0, 'volt': 0.9521, 'depth': 2.377, 'time': 126, 'pitch': -3.33, 'roll': -1.52, 'pres': 195}
{'lipoC2': 7.39, 'lipoC3S1': 3.96, 'temp': 30.25, 'lipoC3S3': 11.97, 'lipoC3S2': 7.92, 'rot1': 70, 'rot0': 67, 'rot3': 24, 'rot2': 21, 'state': 'normal', 'yaw': 11.36, 'datetime': '2018-10-09 13:19:05.881537', 'mgs': 0, 'volt': 0.9521, 'depth': 2.377, 'time': 126, 'pitch': -2.49, 'roll': -1.32, 'pres': 195}
{'lipoC2': 7.39, 'lipoC3S1': 3.96, 'temp': 30.25, 'lipoC3S3': 11.97, 'lipoC3S2': 7.92, 'rot1': 70, 'rot0': 67, 'rot3': 24, 'rot2': 21, 'state': 'normal', 'yaw': 11.38, 'datetime': '2018-10-09 13:19:05.985375', 'mgs': 0, 'volt': 0.9473, 'depth': 2.301, 'time': 126, 'pitch': -2.05, 'roll': -1.24, 'pres': 194}
{'lipoC2': 7.39, 'lipoC3S1': 3.96, 'temp': 30.25, 'lipoC3S3': 11.97, 'lipoC3S2': 7.92, 'rot1': 70, 'rot0': 67, 'rot3': 24, 'rot2': 21, 'state': 'normal', 'yaw': 11.54, 'datetime': '2018-10-09 13:19:06.089166', 'mgs': 0, 'volt': 0.9473, 'depth': 2.301, 'time': 126, 'pitch': -2.26, 'roll': -1.35, 'pres': 194}
{'lipoC2': 7.39, 'lipoC3S1': 3.96, 'temp': 30.25, 'lipoC3S3': 11.98, 'lipoC3S2': 7.92, 'rot1': 70, 'rot0': 67, 'rot3': 24, 'rot2': 21, 'state': 'normal', 'yaw': 11.9, 'datetime': '2018-10-09 13:19:06.193016', 'mgs': 0, 'volt': 0.9424, 'depth': 2.225, 'time': 126, 'pitch': -2.93, 'roll': -1.67, 'pres': 193}
{'lipoC2': 7.39, 'lipoC3S1': 3.96, 'temp': 30.25, 'lipoC3S3': 11.98, 'lipoC3S2': 7.92, 'rot1': 70, 'rot0': 67, 'rot3': 24, 'rot2': 21, 'state': 'normal', 'yaw': 12.48, 'datetime': '2018-10-09 13:19:06.297549', 'mgs': 0, 'volt': 0.9375, 'depth': 2.148, 'time': 126, 'pitch': -4.13, 'roll': -2.2, 'pres': 192}
{'lipoC2': 7.39, 'lipoC3S1': 3.96, 'temp': 30.25, 'lipoC3S3': 11.97, 'lipoC3S2': 7.92, 'rot1': 70, 'rot0': 67, 'rot3': 24, 'rot2': 21, 'state': 'normal', 'yaw': 12.98, 'datetime': '2018-10-09 13:19:06.401453', 'mgs': 0, 'volt': 0.9375, 'depth': 2.148, 'time': 126, 'pitch': -5.28, 'roll': -2.7, 'pres': 192}
{'lipoC2': 7.39, 'lipoC3S1': 3.96, 'temp': 30.25, 'lipoC3S3': 11.97, 'lipoC3S2': 7.92, 'rot1': 70, 'rot0': 67, 'rot3': 24, 'rot2': 21, 'state': 'normal', 'yaw': 13.29, 'datetime': '2018-10-09 13:19:06.505546', 'mgs': 0, 'volt': 0.9326, 'depth': 2.072, 'time': 126, 'pitch': -6.08, 'roll': -3.09, 'pres': 191}
{'lipoC2': 7.39, 'lipoC3S1': 3.96, 'temp': 30.25, 'lipoC3S3': 11.97, 'lipoC3S2': 7.92, 'rot1': 70, 'rot0': 67, 'rot3': 24, 'rot2': 21, 'state': 'normal', 'yaw': 13.43, 'datetime': '2018-10-09 13:19:06.609297', 'mgs': 0, 'volt': 0.9326, 'depth': 2.072, 'time': 126, 'pitch': -6.42, 'roll': -3.33, 'pres': 191}
{'lipoC2': 7.39, 'lipoC3S1': 3.96, 'temp': 30.25, 'lipoC3S3': 11.98, 'lipoC3S2': 7.92, 'rot1': 70, 'rot0': 67, 'rot3': 24, 'rot2': 21, 'state': 'normal', 'yaw': 13.44, 'datetime': '2018-10-09 13:19:06.714447', 'mgs': 0, 'volt': 0.9277, 'depth': 1.996, 'time': 127, 'pitch': -6.55, 'roll': -3.37, 'pres': 190}
{'lipoC2': 7.39, 'lipoC3S1': 3.96, 'temp': 30.25, 'lipoC3S3': 11.97, 'lipoC3S2': 7.92, 'rot1': 70, 'rot0': 67, 'rot3': 24, 'rot2': 21, 'state': 'normal', 'yaw': 13.27, 'datetime': '2018-10-09 13:19:06.818236', 'mgs': 0, 'volt': 0.9229, 'depth': 1.92, 'time': 127, 'pitch': -6.6, 'roll': -3.24, 'pres': 189}
{'lipoC2': 7.39, 'lipoC3S1': 3.96, 'temp': 30.25, 'lipoC3S3': 11.98, 'lipoC3S2': 7.92, 'rot1': 70, 'rot0': 67, 'rot3': 24, 'rot2': 21, 'state': 'normal', 'yaw': 12.9, 'datetime': '2018-10-09 13:19:06.922074', 'mgs': 0, 'volt': 0.9229, 'depth': 1.92, 'time': 127, 'pitch': -6.51, 'roll': -2.96, 'pres': 189}
{'lipoC2': 7.39, 'lipoC3S1': 3.96, 'temp': 30.25, 'lipoC3S3': 11.98, 'lipoC3S2': 7.92, 'rot1': 70, 'rot0': 67, 'rot3': 24, 'rot2': 21, 'state': 'normal', 'yaw': 12.41, 'datetime': '2018-10-09 13:19:07.026973', 'mgs': 0, 'volt': 0.9229, 'depth': 1.92, 'time': 127, 'pitch': -6.44, 'roll': -2.62, 'pres': 189}
{'lipoC2': 7.39, 'lipoC3S1': 3.96, 'temp': 30.25, 'lipoC3S3': 11.97, 'lipoC3S2': 7.92, 'rot1': 70, 'rot0': 67, 'rot3': 24, 'rot2': 21, 'state': 'normal', 'yaw': 11.65, 'datetime': '2018-10-09 13:19:07.130800', 'mgs': 0, 'volt': 0.9229, 'depth': 1.92, 'time': 127, 'pitch': -6.18, 'roll': -2.05, 'pres': 189}
{'lipoC2': 7.39, 'lipoC3S1': 3.96, 'temp': 30.25, 'lipoC3S3': 11.98, 'lipoC3S2': 7.92, 'rot1': 70, 'rot0': 67, 'rot3': 24, 'rot2': 21, 'state': 'normal', 'yaw': 10.89, 'datetime': '2018-10-09 13:19:07.234639', 'mgs': 0, 'volt': 0.9229, 'depth': 1.92, 'time': 127, 'pitch': -5.41, 'roll': -1.44, 'pres': 189}
{'lipoC2': 7.39, 'lipoC3S1': 3.96, 'temp': 30.25, 'lipoC3S3': 11.98, 'lipoC3S2': 7.92, 'rot1': 70, 'rot0': 67, 'rot3': 24, 'rot2': 21, 'state': 'normal', 'yaw': 10.35, 'datetime': '2018-10-09 13:19:07.338425', 'mgs': 0, 'volt': 0.918, 'depth': 1.843, 'time': 127, 'pitch': -4.41, 'roll': -0.97, 'pres': 188}
{'lipoC2': 7.39, 'lipoC3S1': 3.96, 'temp': 30.31, 'lipoC3S3': 11.98, 'lipoC3S2': 7.92, 'rot1': 70, 'rot0': 67, 'rot3': 24, 'rot2': 21, 'state': 'normal', 'yaw': 10.02, 'datetime': '2018-10-09 13:19:07.442224', 'mgs': 0, 'volt': 0.918, 'depth': 1.843, 'time': 127, 'pitch': -3.14, 'roll': -0.73, 'pres': 188}
{'lipoC2': 7.39, 'lipoC3S1': 3.96, 'temp': 30.31, 'lipoC3S3': 11.97, 'lipoC3S2': 7.92, 'rot1': 70, 'rot0': 67, 'rot3': 24, 'rot2': 21, 'state': 'normal', 'yaw': 9.91, 'datetime': '2018-10-09 13:19:07.546127', 'mgs': 0, 'volt': 0.918, 'depth': 1.843, 'time': 127, 'pitch': -2.06, 'roll': -0.72, 'pres': 188}
{'lipoC2': 7.39, 'lipoC3S1': 3.96, 'temp': 30.25, 'lipoC3S3': 11.98, 'lipoC3S2': 7.92, 'rot1': 70, 'rot0': 67, 'rot3': 24, 'rot2': 21, 'state': 'normal', 'yaw': 10.02, 'datetime': '2018-10-09 13:19:07.649906', 'mgs': 0, 'volt': 0.918, 'depth': 1.843, 'time': 128, 'pitch': -0.95, 'roll': -0.98, 'pres': 188}
{'lipoC2': 7.39, 'lipoC3S1': 3.96, 'temp': 30.25, 'lipoC3S3': 11.98, 'lipoC3S2': 7.92, 'rot1': 70, 'rot0': 67, 'rot3': 24, 'rot2': 21, 'state': 'normal', 'yaw': 10.26, 'datetime': '2018-10-09 13:19:07.753740', 'mgs': 0, 'volt': 0.9131, 'depth': 1.767, 'time': 128, 'pitch': 0.18, 'roll': -1.31, 'pres': 187}
{'lipoC2': 7.39, 'lipoC3S1': 3.96, 'temp': 30.25, 'lipoC3S3': 11.98, 'lipoC3S2': 7.92, 'rot1': 70, 'rot0': 67, 'rot3': 24, 'rot2': 21, 'state': 'normal', 'yaw': 10.57, 'datetime': '2018-10-09 13:19:07.857853', 'mgs': 0, 'volt': 0.9131, 'depth': 1.767, 'time': 128, 'pitch': 1.15, 'roll': -1.71, 'pres': 187}
{'lipoC2': 7.39, 'lipoC3S1': 3.96, 'temp': 30.25, 'lipoC3S3': 11.97, 'lipoC3S2': 7.92, 'rot1': 70, 'rot0': 67, 'rot3': 24, 'rot2': 21, 'state': 'normal', 'yaw': 10.68, 'datetime': '2018-10-09 13:19:07.961627', 'mgs': 0, 'volt': 0.9131, 'depth': 1.767, 'time': 128, 'pitch': 1.94, 'roll': -2.12, 'pres': 187}
{'lipoC2': 7.39, 'lipoC3S1': 3.96, 'temp': 30.25, 'lipoC3S3': 11.97, 'lipoC3S2': 7.92, 'rot1': 70, 'rot0': 67, 'rot3': 24, 'rot2': 21, 'state': 'normal', 'yaw': 10.28, 'datetime': '2018-10-09 13:19:08.066336', 'mgs': 0, 'volt': 0.9082, 'depth': 1.691, 'time': 128, 'pitch': 2.08, 'roll': -2.29, 'pres': 186}
{'lipoC2': 7.39, 'lipoC3S1': 3.96, 'temp': 30.25, 'lipoC3S3': 11.97, 'lipoC3S2': 7.92, 'rot1': 70, 'rot0': 67, 'rot3': 24, 'rot2': 21, 'state': 'normal', 'yaw': 9.45, 'datetime': '2018-10-09 13:19:08.170256', 'mgs': 0, 'volt': 0.9082, 'depth': 1.691, 'time': 128, 'pitch': 1.51, 'roll': -2.23, 'pres': 186}
{'lipoC2': 7.39, 'lipoC3S1': 3.96, 'temp': 30.25, 'lipoC3S3': 11.98, 'lipoC3S2': 7.92, 'rot1': 70, 'rot0': 67, 'rot3': 24, 'rot2': 21, 'state': 'normal', 'yaw': 8.7, 'datetime': '2018-10-09 13:19:08.274009', 'mgs': 0, 'volt': 0.9082, 'depth': 1.691, 'time': 128, 'pitch': 0.51, 'roll': -2.08, 'pres': 186}
{'lipoC2': 7.39, 'lipoC3S1': 3.96, 'temp': 30.25, 'lipoC3S3': 11.98, 'lipoC3S2': 7.92, 'rot1': 70, 'rot0': 67, 'rot3': 24, 'rot2': 21, 'state': 'normal', 'yaw': 8.2, 'datetime': '2018-10-09 13:19:08.379135', 'mgs': 0, 'volt': 0.9033, 'depth': 1.614, 'time': 128, 'pitch': -0.39, 'roll': -2.04, 'pres': 185}
{'lipoC2': 7.39, 'lipoC3S1': 3.96, 'temp': 30.25, 'lipoC3S3': 11.97, 'lipoC3S2': 7.92, 'rot1': 70, 'rot0': 67, 'rot3': 24, 'rot2': 21, 'state': 'normal', 'yaw': 7.99, 'datetime': '2018-10-09 13:19:08.482927', 'mgs': 0, 'volt': 0.8984, 'depth': 1.538, 'time': 128, 'pitch': -0.62, 'roll': -2.22, 'pres': 184}
{'lipoC2': 7.39, 'lipoC3S1': 3.96, 'temp': 30.31, 'lipoC3S3': 11.97, 'lipoC3S2': 7.92, 'rot1': 70, 'rot0': 67, 'rot3': 24, 'rot2': 21, 'state': 'normal', 'yaw': 8.16, 'datetime': '2018-10-09 13:19:08.586770', 'mgs': 0, 'volt': 0.9033, 'depth': 1.614, 'time': 128, 'pitch': -0.1, 'roll': -2.64, 'pres': 185}
{'lipoC2': 7.39, 'lipoC3S1': 3.96, 'temp': 30.31, 'lipoC3S3': 11.98, 'lipoC3S2': 7.92, 'rot1': 70, 'rot0': 67, 'rot3': 24, 'rot2': 21, 'state': 'normal', 'yaw': 8.68, 'datetime': '2018-10-09 13:19:08.690751', 'mgs': 0, 'volt': 0.9033, 'depth': 1.614, 'time': 129, 'pitch': 1.84, 'roll': -3.19, 'pres': 185}
{'lipoC2': 7.39, 'lipoC3S1': 3.96, 'temp': 30.31, 'lipoC3S3': 11.97, 'lipoC3S2': 7.92, 'rot1': 70, 'rot0': 67, 'rot3': 24, 'rot2': 21, 'state': 'normal', 'yaw': 9.65, 'datetime': '2018-10-09 13:19:08.794556', 'mgs': 0, 'volt': 0.9033, 'depth': 1.614, 'time': 129, 'pitch': 4.69, 'roll': -3.81, 'pres': 185}
{'lipoC2': 7.39, 'lipoC3S1': 3.96, 'temp': 30.25, 'lipoC3S3': 11.97, 'lipoC3S2': 7.92, 'rot1': 70, 'rot0': 67, 'rot3': 24, 'rot2': 21, 'state': 'normal', 'yaw': 10.66, 'datetime': '2018-10-09 13:19:08.898360', 'mgs': 0, 'volt': 0.9033, 'depth': 1.614, 'time': 129, 'pitch': 7.14, 'roll': -4.16, 'pres': 185}
{'lipoC2': 7.39, 'lipoC3S1': 3.96, 'temp': 30.25, 'lipoC3S3': 11.97, 'lipoC3S2': 7.92, 'rot1': 70, 'rot0': 67, 'rot3': 24, 'rot2': 21, 'state': 'normal', 'yaw': 11.71, 'datetime': '2018-10-09 13:19:09.002194', 'mgs': 0, 'volt': 0.9033, 'depth': 1.614, 'time': 129, 'pitch': 8.58, 'roll': -4.28, 'pres': 185}
{'lipoC2': 7.39, 'lipoC3S1': 3.96, 'temp': 30.25, 'lipoC3S3': 11.98, 'lipoC3S2': 7.92, 'rot1': 70, 'rot0': 67, 'rot3': 24, 'rot2': 21, 'state': 'normal', 'yaw': 12.66, 'datetime': '2018-10-09 13:19:09.106061', 'mgs': 0, 'volt': 0.9082, 'depth': 1.691, 'time': 129, 'pitch': 9.1, 'roll': -4.19, 'pres': 186}
{'lipoC2': 7.39, 'lipoC3S1': 3.96, 'temp': 30.25, 'lipoC3S3': 11.97, 'lipoC3S2': 7.92, 'rot1': 70, 'rot0': 67, 'rot3': 24, 'rot2': 21, 'state': 'normal', 'yaw': 13.2, 'datetime': '2018-10-09 13:19:09.209801', 'mgs': 0, 'volt': 0.9082, 'depth': 1.691, 'time': 129, 'pitch': 9.3, 'roll': -3.89, 'pres': 186}
{'lipoC2': 7.39, 'lipoC3S1': 3.96, 'temp': 30.25, 'lipoC3S3': 11.97, 'lipoC3S2': 7.92, 'rot1': 70, 'rot0': 67, 'rot3': 24, 'rot2': 21, 'state': 'normal', 'yaw': 13.49, 'datetime': '2018-10-09 13:19:09.313692', 'mgs': 0, 'volt': 0.9131, 'depth': 1.767, 'time': 129, 'pitch': 9.47, 'roll': -3.5, 'pres': 187}
{'lipoC2': 7.39, 'lipoC3S1': 3.96, 'temp': 30.25, 'lipoC3S3': 11.97, 'lipoC3S2': 7.92, 'rot1': 70, 'rot0': 67, 'rot3': 24, 'rot2': 21, 'state': 'normal', 'yaw': 13.29, 'datetime': '2018-10-09 13:19:09.417475', 'mgs': 0, 'volt': 0.9082, 'depth': 1.691, 'time': 129, 'pitch': 9.92, 'roll': -3.06, 'pres': 186}
{'lipoC2': 7.39, 'lipoC3S1': 3.96, 'temp': 30.25, 'lipoC3S3': 11.97, 'lipoC3S2': 7.92, 'rot1': 70, 'rot0': 67, 'rot3': 24, 'rot2': 21, 'state': 'normal', 'yaw': 12.71, 'datetime': '2018-10-09 13:19:09.522514', 'mgs': 0, 'volt': 0.9131, 'depth': 1.767, 'time': 129, 'pitch': 10.34, 'roll': -2.47, 'pres': 187}
{'lipoC2': 7.39, 'lipoC3S1': 3.96, 'temp': 30.25, 'lipoC3S3': 11.97, 'lipoC3S2': 7.92, 'rot1': 70, 'rot0': 67, 'rot3': 24, 'rot2': 21, 'state': 'normal', 'yaw': 11.91, 'datetime': '2018-10-09 13:19:09.626286', 'mgs': 0, 'volt': 0.9131, 'depth': 1.767, 'time': 129, 'pitch': 10.21, 'roll': -1.62, 'pres': 187}
{'lipoC2': 7.39, 'lipoC3S1': 3.96, 'temp': 30.25, 'lipoC3S3': 11.97, 'lipoC3S2': 7.92, 'rot1': 70, 'rot0': 67, 'rot3': 24, 'rot2': 21, 'state': 'normal', 'yaw': 11.34, 'datetime': '2018-10-09 13:19:09.731502', 'mgs': 0, 'volt': 0.9131, 'depth': 1.767, 'time': 130, 'pitch': 9.47, 'roll': -0.83, 'pres': 187}
{'lipoC2': 7.39, 'lipoC3S1': 3.96, 'temp': 30.25, 'lipoC3S3': 11.97, 'lipoC3S2': 7.92, 'rot1': 70, 'rot0': 67, 'rot3': 24, 'rot2': 21, 'state': 'normal', 'yaw': 10.98, 'datetime': '2018-10-09 13:19:09.835401', 'mgs': 0, 'volt': 0.9131, 'depth': 1.767, 'time': 130, 'pitch': 7.91, 'roll': -0.24, 'pres': 187}
{'lipoC2': 7.39, 'lipoC3S1': 3.96, 'temp': 30.25, 'lipoC3S3': 11.97, 'lipoC3S2': 7.92, 'rot1': 70, 'rot0': 67, 'rot3': 24, 'rot2': 21, 'state': 'normal', 'yaw': 10.72, 'datetime': '2018-10-09 13:19:09.939108', 'mgs': 0, 'volt': 0.9131, 'depth': 1.767, 'time': 130, 'pitch': 6.04, 'roll': 0.03, 'pres': 187}
{'lipoC2': 7.39, 'lipoC3S1': 3.96, 'temp': 30.25, 'lipoC3S3': 11.97, 'lipoC3S2': 7.92, 'rot1': 70, 'rot0': 67, 'rot3': 24, 'rot2': 21, 'state': 'normal', 'yaw': 10.34, 'datetime': '2018-10-09 13:19:10.042935', 'mgs': 0, 'volt': 0.9131, 'depth': 1.767, 'time': 130, 'pitch': 4.17, 'roll': 0.17, 'pres': 187}
{'lipoC2': 7.39, 'lipoC3S1': 3.96, 'temp': 30.25, 'lipoC3S3': 11.97, 'lipoC3S2': 7.92, 'rot1': 70, 'rot0': 67, 'rot3': 24, 'rot2': 21, 'state': 'normal', 'yaw': 9.74, 'datetime': '2018-10-09 13:19:10.146723', 'mgs': 0, 'volt': 0.9131, 'depth': 1.767, 'time': 130, 'pitch': 2.77, 'roll': 0.34, 'pres': 187}
{'lipoC2': 7.39, 'lipoC3S1': 3.96, 'temp': 30.25, 'lipoC3S3': 11.97, 'lipoC3S2': 7.92, 'rot1': 70, 'rot0': 67, 'rot3': 24, 'rot2': 21, 'state': 'normal', 'yaw': 9.26, 'datetime': '2018-10-09 13:19:10.250510', 'mgs': 0, 'volt': 0.9131, 'depth': 1.767, 'time': 130, 'pitch': 2.35, 'roll': 0.45, 'pres': 187}
{'lipoC2': 7.39, 'lipoC3S1': 3.96, 'temp': 30.25, 'lipoC3S3': 11.98, 'lipoC3S2': 7.92, 'rot1': 70, 'rot0': 67, 'rot3': 24, 'rot2': 21, 'state': 'normal', 'yaw': 8.93, 'datetime': '2018-10-09 13:19:10.354549', 'mgs': 0, 'volt': 0.9082, 'depth': 1.691, 'time': 130, 'pitch': 2.6, 'roll': 0.43, 'pres': 186}
{'lipoC2': 7.39, 'lipoC3S1': 3.96, 'temp': 30.25, 'lipoC3S3': 11.98, 'lipoC3S2': 7.92, 'rot1': 70, 'rot0': 67, 'rot3': 24, 'rot2': 21, 'state': 'normal', 'yaw': 8.74, 'datetime': '2018-10-09 13:19:10.458384', 'mgs': 0, 'volt': 0.9082, 'depth': 1.691, 'time': 130, 'pitch': 2.94, 'roll': 0.15, 'pres': 186}
{'lipoC2': 7.39, 'lipoC3S1': 3.96, 'temp': 30.19, 'lipoC3S3': 11.98, 'lipoC3S2': 7.92, 'rot1': 70, 'rot0': 67, 'rot3': 24, 'rot2': 21, 'state': 'normal', 'yaw': 8.67, 'datetime': '2018-10-09 13:19:10.562240', 'mgs': 0, 'volt': 0.9131, 'depth': 1.767, 'time': 130, 'pitch': 3.01, 'roll': -0.27, 'pres': 187}
{'lipoC2': 7.39, 'lipoC3S1': 3.96, 'temp': 30.19, 'lipoC3S3': 11.97, 'lipoC3S2': 7.92, 'rot1': 70, 'rot0': 67, 'rot3': 24, 'rot2': 21, 'state': 'normal', 'yaw': 8.64, 'datetime': '2018-10-09 13:19:10.666326', 'mgs': 0, 'volt': 0.9082, 'depth': 1.691, 'time': 131, 'pitch': 2.73, 'roll': -0.84, 'pres': 186}
{'lipoC2': 7.39, 'lipoC3S1': 3.96, 'temp': 30.25, 'lipoC3S3': 11.98, 'lipoC3S2': 7.92, 'rot1': 70, 'rot0': 67, 'rot3': 24, 'rot2': 21, 'state': 'normal', 'yaw': 8.77, 'datetime': '2018-10-09 13:19:10.770129', 'mgs': 0, 'volt': 0.9131, 'depth': 1.767, 'time': 131, 'pitch': 2.34, 'roll': -1.51, 'pres': 187}
{'lipoC2': 7.39, 'lipoC3S1': 3.96, 'temp': 30.25, 'lipoC3S3': 11.97, 'lipoC3S2': 7.92, 'rot1': 70, 'rot0': 67, 'rot3': 24, 'rot2': 21, 'state': 'normal', 'yaw': 9.1, 'datetime': '2018-10-09 13:19:10.875278', 'mgs': 0, 'volt': 0.9131, 'depth': 1.767, 'time': 131, 'pitch': 2.14, 'roll': -2.36, 'pres': 187}
{'lipoC2': 7.39, 'lipoC3S1': 3.96, 'temp': 30.25, 'lipoC3S3': 11.98, 'lipoC3S2': 7.92, 'rot1': 70, 'rot0': 67, 'rot3': 24, 'rot2': 21, 'state': 'normal', 'yaw': 9.65, 'datetime': '2018-10-09 13:19:10.979049', 'mgs': 0, 'volt': 0.9131, 'depth': 1.767, 'time': 131, 'pitch': 2.22, 'roll': -3.38, 'pres': 187}
{'lipoC2': 7.39, 'lipoC3S1': 3.96, 'temp': 30.31, 'lipoC3S3': 11.97, 'lipoC3S2': 7.92, 'rot1': 70, 'rot0': 67, 'rot3': 24, 'rot2': 21, 'state': 'normal', 'yaw': 10.21, 'datetime': '2018-10-09 13:19:11.083467', 'mgs': 0, 'volt': 0.9131, 'depth': 1.767, 'time': 131, 'pitch': 2.52, 'roll': -4.33, 'pres': 187}
{'lipoC2': 7.38, 'lipoC3S1': 3.96, 'temp': 30.31, 'lipoC3S3': 11.97, 'lipoC3S2': 7.92, 'rot1': 70, 'rot0': 67, 'rot3': 24, 'rot2': 21, 'state': 'normal', 'yaw': 10.82, 'datetime': '2018-10-09 13:19:11.187789', 'mgs': 0, 'volt': 0.9131, 'depth': 1.767, 'time': 131, 'pitch': 3.12, 'roll': -5.12, 'pres': 187}
{'lipoC2': 7.39, 'lipoC3S1': 3.96, 'temp': 30.25, 'lipoC3S3': 11.97, 'lipoC3S2': 7.92, 'rot1': 70, 'rot0': 67, 'rot3': 24, 'rot2': 21, 'state': 'normal', 'yaw': 11.32, 'datetime': '2018-10-09 13:19:11.291512', 'mgs': 0, 'volt': 0.9131, 'depth': 1.767, 'time': 131, 'pitch': 3.75, 'roll': -5.56, 'pres': 187}
{'lipoC2': 7.39, 'lipoC3S1': 3.96, 'temp': 30.25, 'lipoC3S3': 11.97, 'lipoC3S2': 7.92, 'rot1': 70, 'rot0': 67, 'rot3': 24, 'rot2': 21, 'state': 'normal', 'yaw': 11.76, 'datetime': '2018-10-09 13:19:11.395530', 'mgs': 0, 'volt': 0.918, 'depth': 1.843, 'time': 131, 'pitch': 4.21, 'roll': -5.74, 'pres': 188}
{'lipoC2': 7.39, 'lipoC3S1': 3.96, 'temp': 30.25, 'lipoC3S3': 11.97, 'lipoC3S2': 7.92, 'rot1': 70, 'rot0': 67, 'rot3': 24, 'rot2': 21, 'state': 'normal', 'yaw': 11.92, 'datetime': '2018-10-09 13:19:11.499156', 'mgs': 0, 'volt': 0.918, 'depth': 1.843, 'time': 131, 'pitch': 4.51, 'roll': -5.56, 'pres': 188}
{'lipoC2': 7.39, 'lipoC3S1': 3.96, 'temp': 30.25, 'lipoC3S3': 11.97, 'lipoC3S2': 7.92, 'rot1': 70, 'rot0': 67, 'rot3': 24, 'rot2': 21, 'state': 'normal', 'yaw': 11.82, 'datetime': '2018-10-09 13:19:11.603038', 'mgs': 0, 'volt': 0.918, 'depth': 1.843, 'time': 131, 'pitch': 4.41, 'roll': -5.08, 'pres': 188}
{'lipoC2': 7.39, 'lipoC3S1': 3.96, 'temp': 30.25, 'lipoC3S3': 11.98, 'lipoC3S2': 7.92, 'rot1': 70, 'rot0': 67, 'rot3': 24, 'rot2': 21, 'state': 'normal', 'yaw': 11.64, 'datetime': '2018-10-09 13:19:11.706860', 'mgs': 0, 'volt': 0.9229, 'depth': 1.92, 'time': 132, 'pitch': 3.71, 'roll': -4.44, 'pres': 189}
{'lipoC2': 7.39, 'lipoC3S1': 3.96, 'temp': 30.25, 'lipoC3S3': 11.98, 'lipoC3S2': 7.92, 'rot1': 70, 'rot0': 67, 'rot3': 24, 'rot2': 21, 'state': 'normal', 'yaw': 11.35, 'datetime': '2018-10-09 13:19:11.810730', 'mgs': 0, 'volt': 0.9229, 'depth': 1.92, 'time': 132, 'pitch': 2.53, 'roll': -3.64, 'pres': 189}
{'lipoC2': 7.39, 'lipoC3S1': 3.96, 'temp': 30.25, 'lipoC3S3': 11.98, 'lipoC3S2': 7.92, 'rot1': 70, 'rot0': 67, 'rot3': 24, 'rot2': 21, 'state': 'normal', 'yaw': 11.09, 'datetime': '2018-10-09 13:19:11.914514', 'mgs': 0, 'volt': 0.9229, 'depth': 1.92, 'time': 132, 'pitch': 1.42, 'roll': -2.86, 'pres': 189}
{'lipoC2': 7.38, 'lipoC3S1': 3.96, 'temp': 30.25, 'lipoC3S3': 11.97, 'lipoC3S2': 7.92, 'rot1': 70, 'rot0': 67, 'rot3': 24, 'rot2': 21, 'state': 'normal', 'yaw': 10.89, 'datetime': '2018-10-09 13:19:12.018749', 'mgs': 0, 'volt': 0.9277, 'depth': 1.996, 'time': 132, 'pitch': 0.44, 'roll': -2.16, 'pres': 190}
{'lipoC2': 7.39, 'lipoC3S1': 3.96, 'temp': 30.25, 'lipoC3S3': 11.97, 'lipoC3S2': 7.92, 'rot1': 70, 'rot0': 67, 'rot3': 24, 'rot2': 21, 'state': 'normal', 'yaw': 10.57, 'datetime': '2018-10-09 13:19:12.122446', 'mgs': 0, 'volt': 0.9229, 'depth': 1.92, 'time': 132, 'pitch': -0.34, 'roll': -1.41, 'pres': 189}
{'lipoC2': 7.39, 'lipoC3S1': 3.96, 'temp': 30.19, 'lipoC3S3': 11.97, 'lipoC3S2': 7.92, 'rot1': 70, 'rot0': 67, 'rot3': 24, 'rot2': 21, 'state': 'normal', 'yaw': 10.03, 'datetime': '2018-10-09 13:19:12.227692', 'mgs': 0, 'volt': 0.9277, 'depth': 1.996, 'time': 132, 'pitch': -0.77, 'roll': -0.7, 'pres': 190}
{'lipoC2': 7.38, 'lipoC3S1': 3.96, 'temp': 30.19, 'lipoC3S3': 11.97, 'lipoC3S2': 7.92, 'rot1': 70, 'rot0': 67, 'rot3': 24, 'rot2': 21, 'state': 'normal', 'yaw': 9.31, 'datetime': '2018-10-09 13:19:12.331485', 'mgs': 0, 'volt': 0.9277, 'depth': 1.996, 'time': 132, 'pitch': -0.74, 'roll': 0.07, 'pres': 190}
{'lipoC2': 7.39, 'lipoC3S1': 3.96, 'temp': 30.31, 'lipoC3S3': 11.97, 'lipoC3S2': 7.92, 'rot1': 70, 'rot0': 67, 'rot3': 24, 'rot2': 21, 'state': 'normal', 'yaw': 8.6, 'datetime': '2018-10-09 13:19:12.435422', 'mgs': 0, 'volt': 0.9277, 'depth': 1.996, 'time': 132, 'pitch': -0.63, 'roll': 0.7, 'pres': 190}
{'lipoC2': 7.39, 'lipoC3S1': 3.96, 'temp': 30.31, 'lipoC3S3': 11.97, 'lipoC3S2': 7.92, 'rot1': 70, 'rot0': 67, 'rot3': 24, 'rot2': 21, 'state': 'normal', 'yaw': 7.88, 'datetime': '2018-10-09 13:19:12.540238', 'mgs': 0, 'volt': 0.9277, 'depth': 1.996, 'time': 132, 'pitch': -0.56, 'roll': 1.14, 'pres': 190}
{'lipoC2': 7.39, 'lipoC3S1': 3.96, 'temp': 30.31, 'lipoC3S3': 11.97, 'lipoC3S2': 7.92, 'rot1': 70, 'rot0': 67, 'rot3': 24, 'rot2': 21, 'state': 'normal', 'yaw': 7.22, 'datetime': '2018-10-09 13:19:12.644106', 'mgs': 0, 'volt': 0.9326, 'depth': 2.072, 'time': 133, 'pitch': -0.47, 'roll': 1.28, 'pres': 191}
{'lipoC2': 7.39, 'lipoC3S1': 3.96, 'temp': 30.25, 'lipoC3S3': 11.98, 'lipoC3S2': 7.92, 'rot1': 70, 'rot0': 67, 'rot3': 24, 'rot2': 21, 'state': 'normal', 'yaw': 6.83, 'datetime': '2018-10-09 13:19:12.747880', 'mgs': 0, 'volt': 0.9277, 'depth': 1.996, 'time': 133, 'pitch': -0.36, 'roll': 0.99, 'pres': 190}
{'lipoC2': 7.39, 'lipoC3S1': 3.96, 'temp': 30.25, 'lipoC3S3': 11.97, 'lipoC3S2': 7.92, 'rot1': 70, 'rot0': 67, 'rot3': 24, 'rot2': 21, 'state': 'normal', 'yaw': 6.6, 'datetime': '2018-10-09 13:19:12.851708', 'mgs': 0, 'volt': 0.9277, 'depth': 1.996, 'time': 133, 'pitch': -0.25, 'roll': 0.25, 'pres': 190}
{'lipoC2': 7.39, 'lipoC3S1': 3.96, 'temp': 30.31, 'lipoC3S3': 11.97, 'lipoC3S2': 7.92, 'rot1': 70, 'rot0': 67, 'rot3': 24, 'rot2': 21, 'state': 'normal', 'yaw': 6.56, 'datetime': '2018-10-09 13:19:12.956249', 'mgs': 0, 'volt': 0.9277, 'depth': 1.996, 'time': 133, 'pitch': -0.24, 'roll': -0.75, 'pres': 190}
{'lipoC2': 7.39, 'lipoC3S1': 3.96, 'temp': 30.31, 'lipoC3S3': 11.98, 'lipoC3S2': 7.92, 'rot1': 70, 'rot0': 67, 'rot3': 24, 'rot2': 21, 'state': 'normal', 'yaw': 6.72, 'datetime': '2018-10-09 13:19:13.059290', 'mgs': 0, 'volt': 0.9277, 'depth': 1.996, 'time': 133, 'pitch': -0.3, 'roll': -1.94, 'pres': 190}
{'lipoC2': 7.39, 'lipoC3S1': 3.96, 'temp': 30.25, 'lipoC3S3': 11.97, 'lipoC3S2': 7.92, 'rot1': 70, 'rot0': 67, 'rot3': 24, 'rot2': 21, 'state': 'normal', 'yaw': 7.11, 'datetime': '2018-10-09 13:19:13.163104', 'mgs': 0, 'volt': 0.9229, 'depth': 1.92, 'time': 133, 'pitch': -0.61, 'roll': -3.22, 'pres': 189}
{'lipoC2': 7.39, 'lipoC3S1': 3.96, 'temp': 30.25, 'lipoC3S3': 11.98, 'lipoC3S2': 7.92, 'rot1': 70, 'rot0': 67, 'rot3': 24, 'rot2': 21, 'state': 'normal', 'yaw': 7.49, 'datetime': '2018-10-09 13:19:13.266957', 'mgs': 0, 'volt': 0.9229, 'depth': 1.92, 'time': 133, 'pitch': -1.05, 'roll': -4.24, 'pres': 189}
{'lipoC2': 7.39, 'lipoC3S1': 3.96, 'temp': 30.25, 'lipoC3S3': 11.97, 'lipoC3S2': 7.92, 'rot1': 70, 'rot0': 67, 'rot3': 24, 'rot2': 21, 'state': 'normal', 'yaw': 7.78, 'datetime': '2018-10-09 13:19:13.370797', 'mgs': 1, 'volt': 0.918, 'depth': 1.843, 'time': 133, 'pitch': -1.76, 'roll': -4.96, 'pres': 188}
{'lipoC2': 7.39, 'lipoC3S1': 3.96, 'temp': 30.31, 'lipoC3S3': 11.97, 'lipoC3S2': 7.92, 'rot1': 0, 'rot0': 0, 'rot3': 0, 'rot2': 0, 'state': 'normal', 'yaw': 0.0, 'datetime': '2018-10-09 13:19:16.397434', 'mgs': 0, 'volt': 0.8984, 'depth': 1.538, 'time': 1, 'pitch': -9.11, 'roll': 0.08, 'pres': 184}
{'lipoC2': 7.39, 'lipoC3S1': 3.96, 'temp': 30.31, 'lipoC3S3': 11.97, 'lipoC3S2': 7.92, 'rot1': 0, 'rot0': 0, 'rot3': 0, 'rot2': 0, 'state': 'normal', 'yaw': 0.19, 'datetime': '2018-10-09 13:19:19.440135', 'mgs': 0, 'volt': 0.8984, 'depth': 1.538, 'time': 1, 'pitch': -7.51, 'roll': 0.54, 'pres': 184}
{'lipoC2': 7.39, 'lipoC3S1': 3.96, 'temp': 30.31, 'lipoC3S3': 11.98, 'lipoC3S2': 7.92, 'rot1': 0, 'rot0': 0, 'rot3': 0, 'rot2': 0, 'state': 'normal', 'yaw': 0.46, 'datetime': '2018-10-09 13:19:19.476554', 'mgs': 1, 'volt': 0.8984, 'depth': 1.538, 'time': 1, 'pitch': -6.05, 'roll': 0.72, 'pres': 184}
{'lipoC2': 7.39, 'lipoC3S1': 3.96, 'temp': 30.31, 'lipoC3S3': 11.98, 'lipoC3S2': 7.92, 'rot1': 0, 'rot0': 0, 'rot3': 0, 'rot2': 0, 'state': 'normal', 'yaw': 0.7, 'datetime': '2018-10-09 13:19:19.492262', 'mgs': 1, 'volt': 0.8984, 'depth': 1.538, 'time': 1, 'pitch': -4.64, 'roll': 0.77, 'pres': 184}
{'lipoC2': 7.39, 'lipoC3S1': 3.96, 'temp': 30.31, 'lipoC3S3': 11.98, 'lipoC3S2': 7.92, 'rot1': 0, 'rot0': 0, 'rot3': 0, 'rot2': 0, 'state': 'normal', 'yaw': 0.83, 'datetime': '2018-10-09 13:19:19.508262', 'mgs': 0, 'volt': 0.9033, 'depth': 1.614, 'time': 1, 'pitch': -3.14, 'roll': 0.76, 'pres': 185}
{'lipoC2': 7.39, 'lipoC3S1': 3.96, 'temp': 30.31, 'lipoC3S3': 11.98, 'lipoC3S2': 7.92, 'rot1': 0, 'rot0': 0, 'rot3': 0, 'rot2': 0, 'state': 'normal', 'yaw': 0.86, 'datetime': '2018-10-09 13:19:19.524226', 'mgs': 0, 'volt': 0.8984, 'depth': 1.538, 'time': 1, 'pitch': -1.38, 'roll': 0.6, 'pres': 184}
{'lipoC2': 7.39, 'lipoC3S1': 3.96, 'temp': 30.31, 'lipoC3S3': 11.98, 'lipoC3S2': 7.92, 'rot1': 0, 'rot0': 0, 'rot3': 0, 'rot2': 0, 'state': 'normal', 'yaw': 0.87, 'datetime': '2018-10-09 13:19:19.534299', 'mgs': 0, 'volt': 0.9033, 'depth': 1.614, 'time': 1, 'pitch': 0.39, 'roll': 0.21, 'pres': 185}
{'lipoC2': 7.39, 'lipoC3S1': 3.96, 'temp': 30.31, 'lipoC3S3': 11.98, 'lipoC3S2': 7.92, 'rot1': 0, 'rot0': 0, 'rot3': 0, 'rot2': 0, 'state': 'normal', 'yaw': 0.93, 'datetime': '2018-10-09 13:19:19.550337', 'mgs': 0, 'volt': 0.9033, 'depth': 1.614, 'time': 1, 'pitch': 2.13, 'roll': -0.42, 'pres': 185}
{'lipoC2': 7.39, 'lipoC3S1': 3.96, 'temp': 30.31, 'lipoC3S3': 11.97, 'lipoC3S2': 7.92, 'rot1': 0, 'rot0': 0, 'rot3': 0, 'rot2': 0, 'state': 'normal', 'yaw': 1.11, 'datetime': '2018-10-09 13:19:19.566336', 'mgs': 0, 'volt': 0.9033, 'depth': 1.614, 'time': 2, 'pitch': 3.46, 'roll': -1.29, 'pres': 185}
{'lipoC2': 7.39, 'lipoC3S1': 3.96, 'temp': 30.31, 'lipoC3S3': 11.97, 'lipoC3S2': 7.92, 'rot1': 0, 'rot0': 0, 'rot3': 0, 'rot2': 0, 'state': 'normal', 'yaw': 1.29, 'datetime': '2018-10-09 13:19:19.576447', 'mgs': 1, 'volt': 0.8984, 'depth': 1.538, 'time': 2, 'pitch': 3.83, 'roll': -2.09, 'pres': 184}
{'lipoC2': 7.39, 'lipoC3S1': 3.96, 'temp': 30.31, 'lipoC3S3': 11.98, 'lipoC3S2': 7.92, 'rot1': 0, 'rot0': 0, 'rot3': 0, 'rot2': 0, 'state': 'normal', 'yaw': 1.46, 'datetime': '2018-10-09 13:19:19.592426', 'mgs': 1, 'volt': 0.8984, 'depth': 1.538, 'time': 2, 'pitch': 3.35, 'roll': -2.76, 'pres': 184}
{'lipoC2': 7.39, 'lipoC3S1': 3.96, 'temp': 30.31, 'lipoC3S3': 11.97, 'lipoC3S2': 7.92, 'rot1': 0, 'rot0': 0, 'rot3': 0, 'rot2': 0, 'state': 'normal', 'yaw': 1.66, 'datetime': '2018-10-09 13:19:19.608469', 'mgs': 0, 'volt': 0.8984, 'depth': 1.538, 'time': 2, 'pitch': 2.33, 'roll': -3.27, 'pres': 184}
{'lipoC2': 7.39, 'lipoC3S1': 3.96, 'temp': 30.25, 'lipoC3S3': 11.98, 'lipoC3S2': 7.92, 'rot1': 0, 'rot0': 0, 'rot3': 0, 'rot2': 0, 'state': 'normal', 'yaw': 1.83, 'datetime': '2018-10-09 13:19:19.618823', 'mgs': 0, 'volt': 0.8984, 'depth': 1.538, 'time': 2, 'pitch': 1.53, 'roll': -3.61, 'pres': 184}
{'lipoC2': 7.39, 'lipoC3S1': 3.96, 'temp': 30.25, 'lipoC3S3': 11.98, 'lipoC3S2': 7.92, 'rot1': 0, 'rot0': 0, 'rot3': 0, 'rot2': 0, 'state': 'normal', 'yaw': 1.93, 'datetime': '2018-10-09 13:19:19.634883', 'mgs': 0, 'volt': 0.8936, 'depth': 1.462, 'time': 2, 'pitch': 1.28, 'roll': -3.9, 'pres': 183}
{'lipoC2': 7.39, 'lipoC3S1': 3.96, 'temp': 30.31, 'lipoC3S3': 11.98, 'lipoC3S2': 7.92, 'rot1': 0, 'rot0': 0, 'rot3': 0, 'rot2': 0, 'state': 'normal', 'yaw': 1.92, 'datetime': '2018-10-09 13:19:19.650889', 'mgs': 0, 'volt': 0.8936, 'depth': 1.462, 'time': 2, 'pitch': 1.84, 'roll': -4.21, 'pres': 183}
{'lipoC2': 7.39, 'lipoC3S1': 3.96, 'temp': 30.31, 'lipoC3S3': 11.98, 'lipoC3S2': 7.92, 'rot1': 0, 'rot0': 0, 'rot3': 0, 'rot2': 0, 'state': 'normal', 'yaw': 1.85, 'datetime': '2018-10-09 13:19:19.661167', 'mgs': 0, 'volt': 0.8887, 'depth': 1.385, 'time': 2, 'pitch': 2.77, 'roll': -4.51, 'pres': 182}
{'lipoC2': 7.39, 'lipoC3S1': 3.96, 'temp': 30.31, 'lipoC3S3': 11.98, 'lipoC3S2': 7.92, 'rot1': 0, 'rot0': 0, 'rot3': 0, 'rot2': 0, 'state': 'normal', 'yaw': 1.77, 'datetime': '2018-10-09 13:19:19.677179', 'mgs': 0, 'volt': 0.8936, 'depth': 1.462, 'time': 2, 'pitch': 3.76, 'roll': -4.83, 'pres': 183}
{'lipoC2': 7.38, 'lipoC3S1': 3.94, 'temp': 30.31, 'lipoC3S3': 11.84, 'lipoC3S2': 7.84, 'rot1': 0, 'rot0': 0, 'rot3': 0, 'rot2': 1, 'state': 'normal', 'yaw': 1.71, 'datetime': '2018-10-09 13:19:19.693181', 'mgs': 0, 'volt': 0.9033, 'depth': 1.614, 'time': 3, 'pitch': 4.34, 'roll': -5.08, 'pres': 185}
{'lipoC2': 7.39, 'lipoC3S1': 3.92, 'temp': 30.31, 'lipoC3S3': 11.89, 'lipoC3S2': 7.84, 'rot1': 0, 'rot0': 0, 'rot3': 1, 'rot2': 2, 'state': 'normal', 'yaw': 1.69, 'datetime': '2018-10-09 13:19:19.703300', 'mgs': 0, 'volt': 0.8936, 'depth': 1.462, 'time': 3, 'pitch': 4.68, 'roll': -5.06, 'pres': 183}
{'lipoC2': 7.38, 'lipoC3S1': 3.96, 'temp': 30.31, 'lipoC3S3': 11.89, 'lipoC3S2': 7.84, 'rot1': 0, 'rot0': 0, 'rot3': 2, 'rot2': 2, 'state': 'normal', 'yaw': 1.62, 'datetime': '2018-10-09 13:19:19.719337', 'mgs': 0, 'volt': 0.8887, 'depth': 1.385, 'time': 3, 'pitch': 4.99, 'roll': -4.69, 'pres': 182}
{'lipoC2': 7.39, 'lipoC3S1': 3.92, 'temp': 30.31, 'lipoC3S3': 11.89, 'lipoC3S2': 7.85, 'rot1': 0, 'rot0': 0, 'rot3': 3, 'rot2': 3, 'state': 'normal', 'yaw': 1.39, 'datetime': '2018-10-09 13:19:19.735293', 'mgs': 0, 'volt': 0.8887, 'depth': 1.385, 'time': 3, 'pitch': 5.47, 'roll': -3.88, 'pres': 182}
{'lipoC2': 7.39, 'lipoC3S1': 3.93, 'temp': 30.25, 'lipoC3S3': 11.9, 'lipoC3S2': 7.87, 'rot1': 0, 'rot0': 0, 'rot3': 4, 'rot2': 4, 'state': 'normal', 'yaw': 1.13, 'datetime': '2018-10-09 13:19:19.745411', 'mgs': 0, 'volt': 0.8887, 'depth': 1.385, 'time': 3, 'pitch': 6.18, 'roll': -2.9, 'pres': 182}
{'lipoC2': 7.39, 'lipoC3S1': 3.93, 'temp': 30.25, 'lipoC3S3': 11.94, 'lipoC3S2': 7.87, 'rot1': 0, 'rot0': 0, 'rot3': 5, 'rot2': 5, 'state': 'normal', 'yaw': 0.91, 'datetime': '2018-10-09 13:19:19.761434', 'mgs': 0, 'volt': 0.8984, 'depth': 1.538, 'time': 3, 'pitch': 7.14, 'roll': -2.02, 'pres': 184}
{'lipoC2': 7.38, 'lipoC3S1': 3.93, 'temp': 30.31, 'lipoC3S3': 11.94, 'lipoC3S2': 7.89, 'rot1': 0, 'rot0': 0, 'rot3': 6, 'rot2': 5, 'state': 'normal', 'yaw': 0.75, 'datetime': '2018-10-09 13:19:19.777437', 'mgs': 0, 'volt': 0.8984, 'depth': 1.538, 'time': 3, 'pitch': 8.28, 'roll': -1.24, 'pres': 184}
{'lipoC2': 7.38, 'lipoC3S1': 3.93, 'temp': 30.31, 'lipoC3S3': 11.93, 'lipoC3S2': 7.88, 'rot1': 0, 'rot0': 0, 'rot3': 7, 'rot2': 6, 'state': 'normal', 'yaw': 0.72, 'datetime': '2018-10-09 13:19:19.787561', 'mgs': 0, 'volt': 0.9033, 'depth': 1.614, 'time': 3, 'pitch': 9.15, 'roll': -0.81, 'pres': 185}
{'lipoC2': 7.39, 'lipoC3S1': 3.92, 'temp': 30.31, 'lipoC3S3': 11.93, 'lipoC3S2': 7.86, 'rot1': 0, 'rot0': 0, 'rot3': 9, 'rot2': 7, 'state': 'normal', 'yaw': 0.75, 'datetime': '2018-10-09 13:19:19.803611', 'mgs': 0, 'volt': 0.8984, 'depth': 1.538, 'time': 3, 'pitch': 9.65, 'roll': -0.78, 'pres': 184}
{'lipoC2': 7.39, 'lipoC3S1': 3.94, 'temp': 30.25, 'lipoC3S3': 11.94, 'lipoC3S2': 7.87, 'rot1': 0, 'rot0': 0, 'rot3': 10, 'rot2': 8, 'state': 'normal', 'yaw': 0.92, 'datetime': '2018-10-09 13:19:19.822389', 'mgs': 0, 'volt': 0.8936, 'depth': 1.462, 'time': 3, 'pitch': 9.56, 'roll': -1.03, 'pres': 183}
{'lipoC2': 7.38, 'lipoC3S1': 3.94, 'temp': 30.25, 'lipoC3S3': 11.93, 'lipoC3S2': 7.89, 'rot1': 0, 'rot0': 0, 'rot3': 11, 'rot2': 9, 'state': 'normal', 'yaw': 1.11, 'datetime': '2018-10-09 13:19:19.832538', 'mgs': 0, 'volt': 0.8984, 'depth': 1.538, 'time': 4, 'pitch': 9.03, 'roll': -1.31, 'pres': 184}
{'lipoC2': 7.38, 'lipoC3S1': 3.93, 'temp': 30.25, 'lipoC3S3': 11.93, 'lipoC3S2': 7.87, 'rot1': 0, 'rot0': 0, 'rot3': 12, 'rot2': 9, 'state': 'normal', 'yaw': 1.28, 'datetime': '2018-10-09 13:19:19.848563', 'mgs': 0, 'volt': 0.8984, 'depth': 1.538, 'time': 4, 'pitch': 8.26, 'roll': -1.62, 'pres': 184}
{'lipoC2': 7.39, 'lipoC3S1': 3.93, 'temp': 30.25, 'lipoC3S3': 11.94, 'lipoC3S2': 7.87, 'rot1': 0, 'rot0': 0, 'rot3': 14, 'rot2': 10, 'state': 'normal', 'yaw': 1.47, 'datetime': '2018-10-09 13:19:19.864647', 'mgs': 0, 'volt': 0.8887, 'depth': 1.385, 'time': 4, 'pitch': 7.34, 'roll': -1.97, 'pres': 182}
{'lipoC2': 7.38, 'lipoC3S1': 3.95, 'temp': 30.25, 'lipoC3S3': 11.89, 'lipoC3S2': 7.88, 'rot1': 0, 'rot0': 0, 'rot3': 15, 'rot2': 11, 'state': 'normal', 'yaw': 1.65, 'datetime': '2018-10-09 13:19:19.874899', 'mgs': 0, 'volt': 0.8789, 'depth': 1.233, 'time': 4, 'pitch': 6.6, 'roll': -2.14, 'pres': 180}
{'lipoC2': 7.38, 'lipoC3S1': 3.93, 'temp': 30.25, 'lipoC3S3': 11.94, 'lipoC3S2': 7.88, 'rot1': 0, 'rot0': 0, 'rot3': 16, 'rot2': 12, 'state': 'normal', 'yaw': 1.86, 'datetime': '2018-10-09 13:19:19.891022', 'mgs': 0, 'volt': 0.8838, 'depth': 1.309, 'time': 4, 'pitch': 6.02, 'roll': -1.97, 'pres': 181}
{'lipoC2': 7.39, 'lipoC3S1': 3.92, 'temp': 30.25, 'lipoC3S3': 11.93, 'lipoC3S2': 7.86, 'rot1': 0, 'rot0': 0, 'rot3': 17, 'rot2': 13, 'state': 'normal', 'yaw': 2.03, 'datetime': '2018-10-09 13:19:19.907115', 'mgs': 0, 'volt': 0.8838, 'depth': 1.309, 'time': 4, 'pitch': 5.86, 'roll': -1.54, 'pres': 181}
{'lipoC2': 7.39, 'lipoC3S1': 3.93, 'temp': 30.25, 'lipoC3S3': 11.9, 'lipoC3S2': 7.87, 'rot1': 0, 'rot0': 0, 'rot3': 18, 'rot2': 14, 'state': 'normal', 'yaw': 2.17, 'datetime': '2018-10-09 13:19:19.917298', 'mgs': 0, 'volt': 0.8643, 'depth': 1.004, 'time': 4, 'pitch': 6.13, 'roll': -1.12, 'pres': 177}
{'lipoC2': 7.38, 'lipoC3S1': 3.95, 'temp': 30.25, 'lipoC3S3': 11.9, 'lipoC3S2': 7.89, 'rot1': 0, 'rot0': 0, 'rot3': 20, 'rot2': 15, 'state': 'normal', 'yaw': 2.3, 'datetime': '2018-10-09 13:19:19.933422', 'mgs': 0, 'volt': 0.8838, 'depth': 1.309, 'time': 4, 'pitch': 6.6, 'roll': -1.0, 'pres': 181}
{'lipoC2': 7.38, 'lipoC3S1': 3.94, 'temp': 30.25, 'lipoC3S3': 11.93, 'lipoC3S2': 7.89, 'rot1': 0, 'rot0': 0, 'rot3': 21, 'rot2': 16, 'state': 'normal', 'yaw': 2.46, 'datetime': '2018-10-09 13:19:19.949063', 'mgs': 0, 'volt': 0.8887, 'depth': 1.385, 'time': 4, 'pitch': 6.75, 'roll': -1.32, 'pres': 182}
{'lipoC2': 7.39, 'lipoC3S1': 3.92, 'temp': 30.25, 'lipoC3S3': 11.92, 'lipoC3S2': 7.86, 'rot1': 0, 'rot0': 0, 'rot3': 22, 'rot2': 16, 'state': 'normal', 'yaw': 2.65, 'datetime': '2018-10-09 13:19:19.958987', 'mgs': 0, 'volt': 0.8936, 'depth': 1.462, 'time': 4, 'pitch': 6.51, 'roll': -1.99, 'pres': 183}
{'lipoC2': 7.38, 'lipoC3S1': 3.91, 'temp': 30.31, 'lipoC3S3': 11.89, 'lipoC3S2': 7.85, 'rot1': 0, 'rot0': 0, 'rot3': 23, 'rot2': 17, 'state': 'normal', 'yaw': 2.84, 'datetime': '2018-10-09 13:19:19.975788', 'mgs': 0, 'volt': 0.874, 'depth': 1.157, 'time': 5, 'pitch': 6.11, 'roll': -2.82, 'pres': 179}
{'lipoC2': 7.38, 'lipoC3S1': 3.95, 'temp': 30.31, 'lipoC3S3': 11.92, 'lipoC3S2': 7.89, 'rot1': 0, 'rot0': 0, 'rot3': 24, 'rot2': 18, 'state': 'normal', 'yaw': 2.96, 'datetime': '2018-10-09 13:19:19.991726', 'mgs': 0, 'volt': 0.8789, 'depth': 1.233, 'time': 5, 'pitch': 6.03, 'roll': -3.44, 'pres': 180}
{'lipoC2': 7.39, 'lipoC3S1': 3.93, 'temp': 30.31, 'lipoC3S3': 11.92, 'lipoC3S2': 7.87, 'rot1': 0, 'rot0': 0, 'rot3': 26, 'rot2': 19, 'state': 'normal', 'yaw': 3.0, 'datetime': '2018-10-09 13:19:20.001429', 'mgs': 0, 'volt': 0.8789, 'depth': 1.233, 'time': 5, 'pitch': 6.56, 'roll': -3.88, 'pres': 180}
{'lipoC2': 7.38, 'lipoC3S1': 3.95, 'temp': 30.25, 'lipoC3S3': 11.9, 'lipoC3S2': 7.85, 'rot1': 0, 'rot0': 0, 'rot3': 27, 'rot2': 20, 'state': 'normal', 'yaw': 3.02, 'datetime': '2018-10-09 13:19:20.017244', 'mgs': 0, 'volt': 0.8789, 'depth': 1.233, 'time': 5, 'pitch': 7.77, 'roll': -4.16, 'pres': 180}
{'lipoC2': 7.39, 'lipoC3S1': 3.92, 'temp': 30.25, 'lipoC3S3': 11.92, 'lipoC3S2': 7.87, 'rot1': 0, 'rot0': 0, 'rot3': 28, 'rot2': 21, 'state': 'normal', 'yaw': 2.98, 'datetime': '2018-10-09 13:19:20.032843', 'mgs': 0, 'volt': 0.8936, 'depth': 1.462, 'time': 5, 'pitch': 8.84, 'roll': -4.2, 'pres': 183}
{'lipoC2': 7.38, 'lipoC3S1': 3.95, 'temp': 30.25, 'lipoC3S3': 11.88, 'lipoC3S2': 7.88, 'rot1': 0, 'rot0': 0, 'rot3': 29, 'rot2': 22, 'state': 'normal', 'yaw': 2.99, 'datetime': '2018-10-09 13:19:20.042496', 'mgs': 0, 'volt': 0.8838, 'depth': 1.309, 'time': 5, 'pitch': 9.25, 'roll': -3.96, 'pres': 181}
{'lipoC2': 7.39, 'lipoC3S1': 3.93, 'temp': 30.25, 'lipoC3S3': 11.93, 'lipoC3S2': 7.88, 'rot1': 0, 'rot0': 0, 'rot3': 31, 'rot2': 22, 'state': 'normal', 'yaw': 3.09, 'datetime': '2018-10-09 13:19:20.058113', 'mgs': 0, 'volt': 0.8838, 'depth': 1.309, 'time': 5, 'pitch': 8.78, 'roll': -3.55, 'pres': 181}
{'lipoC2': 7.38, 'lipoC3S1': 3.95, 'temp': 30.31, 'lipoC3S3': 11.9, 'lipoC3S2': 7.86, 'rot1': 0, 'rot0': 0, 'rot3': 32, 'rot2': 23, 'state': 'normal', 'yaw': 3.16, 'datetime': '2018-10-09 13:19:20.073604', 'mgs': 0, 'volt': 0.8838, 'depth': 1.309, 'time': 5, 'pitch': 7.85, 'roll': -3.12, 'pres': 181}
{'lipoC2': 7.38, 'lipoC3S1': 3.94, 'temp': 30.31, 'lipoC3S3': 11.93, 'lipoC3S2': 7.89, 'rot1': 0, 'rot0': 0, 'rot3': 33, 'rot2': 24, 'state': 'normal', 'yaw': 3.21, 'datetime': '2018-10-09 13:19:20.083224', 'mgs': 0, 'volt': 0.8838, 'depth': 1.309, 'time': 5, 'pitch': 6.62, 'roll': -2.77, 'pres': 181}
{'lipoC2': 7.39, 'lipoC3S1': 3.94, 'temp': 30.31, 'lipoC3S3': 11.94, 'lipoC3S2': 7.87, 'rot1': 0, 'rot0': 0, 'rot3': 34, 'rot2': 25, 'state': 'normal', 'yaw': 3.27, 'datetime': '2018-10-09 13:19:20.098771', 'mgs': 0, 'volt': 0.8887, 'depth': 1.385, 'time': 6, 'pitch': 5.53, 'roll': -2.65, 'pres': 182}
{'lipoC2': 7.36, 'lipoC3S1': 3.94, 'temp': 30.31, 'lipoC3S3': 11.81, 'lipoC3S2': 7.84, 'rot1': 0, 'rot0': 0, 'rot3': 38, 'rot2': 25, 'state': 'normal', 'yaw': 3.3, 'datetime': '2018-10-09 13:19:20.114379', 'mgs': 0, 'volt': 0.8789, 'depth': 1.233, 'time': 6, 'pitch': 4.78, 'roll': -2.72, 'pres': 180}
{'lipoC2': 7.38, 'lipoC3S1': 3.94, 'temp': 30.31, 'lipoC3S3': 11.89, 'lipoC3S2': 7.87, 'rot1': 1, 'rot0': 1, 'rot3': 38, 'rot2': 25, 'state': 'normal', 'yaw': 3.29, 'datetime': '2018-10-09 13:19:20.124061', 'mgs': 0, 'volt': 0.9521, 'depth': 2.377, 'time': 6, 'pitch': 5.04, 'roll': -2.95, 'pres': 195}
{'lipoC2': 7.38, 'lipoC3S1': 3.8, 'temp': 30.19, 'lipoC3S3': 11.9, 'lipoC3S2': 7.83, 'rot1': 2, 'rot0': 3, 'rot3': 39, 'rot2': 26, 'state': 'normal', 'yaw': 3.15, 'datetime': '2018-10-09 13:19:20.139619', 'mgs': 0, 'volt': 0.8838, 'depth': 1.309, 'time': 6, 'pitch': 6.32, 'roll': -3.15, 'pres': 181}
{'lipoC2': 7.39, 'lipoC3S1': 3.93, 'temp': 30.19, 'lipoC3S3': 11.79, 'lipoC3S2': 7.81, 'rot1': 3, 'rot0': 4, 'rot3': 40, 'rot2': 27, 'state': 'normal', 'yaw': 2.94, 'datetime': '2018-10-09 13:19:20.155216', 'mgs': 0, 'volt': 0.8838, 'depth': 1.309, 'time': 6, 'pitch': 7.94, 'roll': -3.35, 'pres': 181}
{'lipoC2': 7.36, 'lipoC3S1': 3.94, 'temp': 30.25, 'lipoC3S3': 11.84, 'lipoC3S2': 7.86, 'rot1': 4, 'rot0': 5, 'rot3': 40, 'rot2': 27, 'state': 'normal', 'yaw': 2.73, 'datetime': '2018-10-09 13:19:20.164908', 'mgs': 0, 'volt': 0.9131, 'depth': 1.767, 'time': 6, 'pitch': 9.51, 'roll': -3.65, 'pres': 187}
{'lipoC2': 7.39, 'lipoC3S1': 3.88, 'temp': 30.25, 'lipoC3S3': 11.89, 'lipoC3S2': 7.86, 'rot1': 6, 'rot0': 6, 'rot3': 41, 'rot2': 28, 'state': 'normal', 'yaw': 2.55, 'datetime': '2018-10-09 13:19:20.180513', 'mgs': 0, 'volt': 0.9229, 'depth': 1.92, 'time': 6, 'pitch': 10.85, 'roll': -3.96, 'pres': 189}
{'lipoC2': 7.37, 'lipoC3S1': 3.94, 'temp': 30.25, 'lipoC3S3': 11.83, 'lipoC3S2': 7.85, 'rot1': 7, 'rot0': 7, 'rot3': 42, 'rot2': 28, 'state': 'normal', 'yaw': 2.44, 'datetime': '2018-10-09 13:19:20.236844', 'mgs': 0, 'volt': 0.8984, 'depth': 1.538, 'time': 6, 'pitch': 11.97, 'roll': -4.29, 'pres': 184}
{'lipoC2': 7.38, 'lipoC3S1': 3.94, 'temp': 30.19, 'lipoC3S3': 11.89, 'lipoC3S2': 7.86, 'rot1': 8, 'rot0': 8, 'rot3': 42, 'rot2': 29, 'state': 'normal', 'yaw': 2.35, 'datetime': '2018-10-09 13:19:20.340445', 'mgs': 0, 'volt': 0.9766, 'depth': 2.759, 'time': 6, 'pitch': 12.52, 'roll': -4.58, 'pres': 200}
{'lipoC2': 7.38, 'lipoC3S1': 3.94, 'temp': 30.19, 'lipoC3S3': 11.72, 'lipoC3S2': 7.85, 'rot1': 9, 'rot0': 10, 'rot3': 44, 'rot2': 29, 'state': 'normal', 'yaw': 2.23, 'datetime': '2018-10-09 13:19:20.445461', 'mgs': 0, 'volt': 0.9033, 'depth': 1.614, 'time': 6, 'pitch': 12.44, 'roll': -4.8, 'pres': 185}
{'lipoC2': 7.38, 'lipoC3S1': 3.91, 'temp': 30.25, 'lipoC3S3': 11.9, 'lipoC3S2': 7.87, 'rot1': 10, 'rot0': 11, 'rot3': 45, 'rot2': 30, 'state': 'normal', 'yaw': 2.03, 'datetime': '2018-10-09 13:19:20.549325', 'mgs': 0, 'volt': 0.9961, 'depth': 3.064, 'time': 7, 'pitch': 12.21, 'roll': -5.13, 'pres': 204}
{'lipoC2': 7.39, 'lipoC3S1': 3.94, 'temp': 30.25, 'lipoC3S3': 11.9, 'lipoC3S2': 7.87, 'rot1': 11, 'rot0': 12, 'rot3': 45, 'rot2': 30, 'state': 'normal', 'yaw': 1.81, 'datetime': '2018-10-09 13:19:20.653456', 'mgs': 0, 'volt': 0.9912, 'depth': 2.988, 'time': 7, 'pitch': 12.53, 'roll': -5.63, 'pres': 203}
{'lipoC2': 7.39, 'lipoC3S1': 3.94, 'temp': 30.25, 'lipoC3S3': 11.9, 'lipoC3S2': 7.87, 'rot1': 12, 'rot0': 13, 'rot3': 46, 'rot2': 31, 'state': 'normal', 'yaw': 1.53, 'datetime': '2018-10-09 13:19:20.758679', 'mgs': 0, 'volt': 0.9814, 'depth': 2.835, 'time': 7, 'pitch': 13.56, 'roll': -6.27, 'pres': 201}
{'lipoC2': 7.37, 'lipoC3S1': 3.94, 'temp': 30.25, 'lipoC3S3': 11.77, 'lipoC3S2': 7.85, 'rot1': 13, 'rot0': 14, 'rot3': 46, 'rot2': 31, 'state': 'normal', 'yaw': 1.15, 'datetime': '2018-10-09 13:19:20.862663', 'mgs': 0, 'volt': 0.9131, 'depth': 1.767, 'time': 7, 'pitch': 15.02, 'roll': -6.86, 'pres': 187}
{'lipoC2': 7.39, 'lipoC3S1': 3.93, 'temp': 30.25, 'lipoC3S3': 11.94, 'lipoC3S2': 7.73, 'rot1': 15, 'rot0': 15, 'rot3': 47, 'rot2': 32, 'state': 'normal', 'yaw': 0.84, 'datetime': '2018-10-09 13:19:20.967325', 'mgs': 0, 'volt': 0.9131, 'depth': 1.767, 'time': 7, 'pitch': 16.14, 'roll': -7.16, 'pres': 187}
{'lipoC2': 7.39, 'lipoC3S1': 3.9, 'temp': 30.31, 'lipoC3S3': 11.89, 'lipoC3S2': 7.86, 'rot1': 16, 'rot0': 17, 'rot3': 47, 'rot2': 32, 'state': 'normal', 'yaw': 0.55, 'datetime': '2018-10-09 13:19:21.071398', 'mgs': 0, 'volt': 0.9375, 'depth': 2.148, 'time': 7, 'pitch': 16.84, 'roll': -7.18, 'pres': 192}
{'lipoC2': 7.36, 'lipoC3S1': 3.94, 'temp': 30.31, 'lipoC3S3': 11.81, 'lipoC3S2': 7.85, 'rot1': 17, 'rot0': 18, 'rot3': 48, 'rot2': 33, 'state': 'normal', 'yaw': 0.34, 'datetime': '2018-10-09 13:19:21.175390', 'mgs': 0, 'volt': 0.9375, 'depth': 2.148, 'time': 7, 'pitch': 16.92, 'roll': -7.12, 'pres': 192}
{'lipoC2': 7.39, 'lipoC3S1': 3.93, 'temp': 30.25, 'lipoC3S3': 11.76, 'lipoC3S2': 7.8, 'rot1': 18, 'rot0': 19, 'rot3': 48, 'rot2': 33, 'state': 'normal', 'yaw': 0.2, 'datetime': '2018-10-09 13:19:21.279335', 'mgs': 0, 'volt': 0.918, 'depth': 1.843, 'time': 7, 'pitch': 16.37, 'roll': -7.14, 'pres': 188}
{'lipoC2': 7.39, 'lipoC3S1': 3.88, 'temp': 30.25, 'lipoC3S3': 11.9, 'lipoC3S2': 7.83, 'rot1': 19, 'rot0': 20, 'rot3': 49, 'rot2': 35, 'state': 'normal', 'yaw': 0.17, 'datetime': '2018-10-09 13:19:21.383339', 'mgs': 0, 'volt': 0.9229, 'depth': 1.92, 'time': 7, 'pitch': 15.11, 'roll': -7.2, 'pres': 189}
{'lipoC2': 7.36, 'lipoC3S1': 3.94, 'temp': 30.25, 'lipoC3S3': 11.88, 'lipoC3S2': 7.86, 'rot1': 20, 'rot0': 21, 'rot3': 50, 'rot2': 36, 'state': 'normal', 'yaw': 0.21, 'datetime': '2018-10-09 13:19:21.487233', 'mgs': 0, 'volt': 0.9521, 'depth': 2.377, 'time': 7, 'pitch': 13.73, 'roll': -7.31, 'pres': 195}
{'lipoC2': 7.39, 'lipoC3S1': 3.9, 'temp': 30.25, 'lipoC3S3': 11.89, 'lipoC3S2': 7.86, 'rot1': 21, 'rot0': 23, 'rot3': 50, 'rot2': 36, 'state': 'normal', 'yaw': 0.24, 'datetime': '2018-10-09 13:19:21.591705', 'mgs': 0, 'volt': 0.9326, 'depth': 2.072, 'time': 8, 'pitch': 12.62, 'roll': -7.4, 'pres': 191}
{'lipoC2': 7.37, 'lipoC3S1': 3.94, 'temp': 30.25, 'lipoC3S3': 11.88, 'lipoC3S2': 7.85, 'rot1': 22, 'rot0': 24, 'rot3': 51, 'rot2': 37, 'state': 'normal', 'yaw': 0.16, 'datetime': '2018-10-09 13:19:21.695646', 'mgs': 0, 'volt': 0.9229, 'depth': 1.92, 'time': 8, 'pitch': 12.13, 'roll': -7.48, 'pres': 189}
{'lipoC2': 7.37, 'lipoC3S1': 3.94, 'temp': 30.31, 'lipoC3S3': 11.88, 'lipoC3S2': 7.84, 'rot1': 23, 'rot0': 25, 'rot3': 52, 'rot2': 37, 'state': 'normal', 'yaw': 0.04, 'datetime': '2018-10-09 13:19:21.800810', 'mgs': 0, 'volt': 0.918, 'depth': 1.843, 'time': 8, 'pitch': 12.33, 'roll': -7.54, 'pres': 188}
{'lipoC2': 7.39, 'lipoC3S1': 3.92, 'temp': 30.31, 'lipoC3S3': 11.9, 'lipoC3S2': 7.77, 'rot1': 25, 'rot0': 26, 'rot3': 52, 'rot2': 38, 'state': 'normal', 'yaw': -0.02, 'datetime': '2018-10-09 13:19:21.904831', 'mgs': 0, 'volt': 0.918, 'depth': 1.843, 'time': 8, 'pitch': 12.72, 'roll': -7.64, 'pres': 188}
{'lipoC2': 7.39, 'lipoC3S1': 3.93, 'temp': 30.25, 'lipoC3S3': 11.9, 'lipoC3S2': 7.77, 'rot1': 26, 'rot0': 27, 'rot3': 53, 'rot2': 38, 'state': 'normal', 'yaw': -0.02, 'datetime': '2018-10-09 13:19:22.009979', 'mgs': 0, 'volt': 0.9229, 'depth': 1.92, 'time': 8, 'pitch': 12.71, 'roll': -7.73, 'pres': 189}
{'lipoC2': 7.38, 'lipoC3S1': 3.94, 'temp': 30.25, 'lipoC3S3': 11.88, 'lipoC3S2': 7.86, 'rot1': 27, 'rot0': 28, 'rot3': 53, 'rot2': 39, 'state': 'normal', 'yaw': 0.03, 'datetime': '2018-10-09 13:19:22.113933', 'mgs': 0, 'volt': 0.9912, 'depth': 2.988, 'time': 8, 'pitch': 12.26, 'roll': -7.84, 'pres': 203}
{'lipoC2': 7.39, 'lipoC3S1': 3.93, 'temp': 30.31, 'lipoC3S3': 11.75, 'lipoC3S2': 7.79, 'rot1': 28, 'rot0': 30, 'rot3': 54, 'rot2': 39, 'state': 'normal', 'yaw': 0.1, 'datetime': '2018-10-09 13:19:22.217751', 'mgs': 0, 'volt': 0.9229, 'depth': 1.92, 'time': 8, 'pitch': 11.71, 'roll': -7.99, 'pres': 189}
{'lipoC2': 7.39, 'lipoC3S1': 3.84, 'temp': 30.31, 'lipoC3S3': 11.89, 'lipoC3S2': 7.86, 'rot1': 29, 'rot0': 31, 'rot3': 55, 'rot2': 41, 'state': 'normal', 'yaw': 0.18, 'datetime': '2018-10-09 13:19:22.321684', 'mgs': 0, 'volt': 0.9521, 'depth': 2.377, 'time': 8, 'pitch': 11.15, 'roll': -8.13, 'pres': 195}
{'lipoC2': 7.37, 'lipoC3S1': 3.94, 'temp': 30.31, 'lipoC3S3': 11.81, 'lipoC3S2': 7.85, 'rot1': 30, 'rot0': 32, 'rot3': 55, 'rot2': 42, 'state': 'normal', 'yaw': 0.28, 'datetime': '2018-10-09 13:19:22.425610', 'mgs': 0, 'volt': 0.9375, 'depth': 2.148, 'time': 8, 'pitch': 10.49, 'roll': -8.16, 'pres': 192}
{'lipoC2': 7.39, 'lipoC3S1': 3.89, 'temp': 30.25, 'lipoC3S3': 11.89, 'lipoC3S2': 7.71, 'rot1': 31, 'rot0': 33, 'rot3': 56, 'rot2': 42, 'state': 'normal', 'yaw': 0.39, 'datetime': '2018-10-09 13:19:22.529432', 'mgs': 0, 'volt': 0.9277, 'depth': 1.996, 'time': 9, 'pitch': 9.75, 'roll': -8.02, 'pres': 190}
{'lipoC2': 7.39, 'lipoC3S1': 3.8, 'temp': 30.25, 'lipoC3S3': 11.89, 'lipoC3S2': 7.81, 'rot1': 33, 'rot0': 34, 'rot3': 57, 'rot2': 43, 'state': 'normal', 'yaw': 0.5, 'datetime': '2018-10-09 13:19:22.633591', 'mgs': 0, 'volt': 0.9326, 'depth': 2.072, 'time': 9, 'pitch': 8.93, 'roll': -7.77, 'pres': 191}
{'lipoC2': 7.38, 'lipoC3S1': 3.94, 'temp': 30.25, 'lipoC3S3': 11.88, 'lipoC3S2': 7.85, 'rot1': 34, 'rot0': 36, 'rot3': 57, 'rot2': 43, 'state': 'normal', 'yaw': 0.6, 'datetime': '2018-10-09 13:19:22.737537', 'mgs': 0, 'volt': 0.9863, 'depth': 2.911, 'time': 9, 'pitch': 8.12, 'roll': -7.48, 'pres': 202}
{'lipoC2': 7.38, 'lipoC3S1': 3.94, 'temp': 30.25, 'lipoC3S3': 11.88, 'lipoC3S2': 7.85, 'rot1': 35, 'rot0': 37, 'rot3': 58, 'rot2': 44, 'state': 'normal', 'yaw': 0.66, 'datetime': '2018-10-09 13:19:22.842707', 'mgs': 0, 'volt': 0.9814, 'depth': 2.835, 'time': 9, 'pitch': 7.63, 'roll': -7.34, 'pres': 201}
{'lipoC2': 7.39, 'lipoC3S1': 3.93, 'temp': 30.25, 'lipoC3S3': 11.73, 'lipoC3S2': 7.84, 'rot1': 36, 'rot0': 38, 'rot3': 58, 'rot2': 44, 'state': 'normal', 'yaw': 0.73, 'datetime': '2018-10-09 13:19:22.946610', 'mgs': 0, 'volt': 0.9375, 'depth': 2.148, 'time': 9, 'pitch': 7.55, 'roll': -7.42, 'pres': 192}
{'lipoC2': 7.39, 'lipoC3S1': 3.93, 'temp': 30.25, 'lipoC3S3': 11.77, 'lipoC3S2': 7.79, 'rot1': 37, 'rot0': 39, 'rot3': 59, 'rot2': 45, 'state': 'normal', 'yaw': 0.85, 'datetime': '2018-10-09 13:19:23.051795', 'mgs': 0, 'volt': 0.9424, 'depth': 2.225, 'time': 9, 'pitch': 7.96, 'roll': -7.68, 'pres': 193}
{'lipoC2': 7.39, 'lipoC3S1': 3.85, 'temp': 30.25, 'lipoC3S3': 11.9, 'lipoC3S2': 7.86, 'rot1': 38, 'rot0': 41, 'rot3': 59, 'rot2': 45, 'state': 'normal', 'yaw': 1.03, 'datetime': '2018-10-09 13:19:23.159677', 'mgs': 0, 'volt': 0.9473, 'depth': 2.301, 'time': 9, 'pitch': 8.59, 'roll': -8.02, 'pres': 194}
{'lipoC2': 7.37, 'lipoC3S1': 3.94, 'temp': 30.31, 'lipoC3S3': 11.8, 'lipoC3S2': 7.85, 'rot1': 40, 'rot0': 42, 'rot3': 60, 'rot2': 47, 'state': 'normal', 'yaw': 1.3, 'datetime': '2018-10-09 13:19:23.265913', 'mgs': 0, 'volt': 0.9424, 'depth': 2.225, 'time': 9, 'pitch': 8.93, 'roll': -8.2, 'pres': 193}
{'lipoC2': 7.37, 'lipoC3S1': 3.94, 'temp': 30.31, 'lipoC3S3': 11.81, 'lipoC3S2': 7.85, 'rot1': 41, 'rot0': 43, 'rot3': 61, 'rot2': 47, 'state': 'normal', 'yaw': 1.68, 'datetime': '2018-10-09 13:19:23.370978', 'mgs': 0, 'volt': 0.9473, 'depth': 2.301, 'time': 9, 'pitch': 8.84, 'roll': -8.16, 'pres': 194}
{'lipoC2': 7.39, 'lipoC3S1': 3.89, 'temp': 30.31, 'lipoC3S3': 11.89, 'lipoC3S2': 7.71, 'rot1': 42, 'rot0': 44, 'rot3': 61, 'rot2': 49, 'state': 'normal', 'yaw': 2.17, 'datetime': '2018-10-09 13:19:23.474834', 'mgs': 0, 'volt': 0.9521, 'depth': 2.377, 'time': 9, 'pitch': 8.37, 'roll': -7.85, 'pres': 195}
{'lipoC2': 7.38, 'lipoC3S1': 3.94, 'temp': 30.31, 'lipoC3S3': 11.89, 'lipoC3S2': 7.86, 'rot1': 43, 'rot0': 45, 'rot3': 62, 'rot2': 49, 'state': 'normal', 'yaw': 2.59, 'datetime': '2018-10-09 13:19:23.578937', 'mgs': 0, 'volt': 1.0303, 'depth': 3.598, 'time': 10, 'pitch': 7.93, 'roll': -7.49, 'pres': 211}
{'lipoC2': 7.36, 'lipoC3S1': 3.94, 'temp': 30.31, 'lipoC3S3': 11.88, 'lipoC3S2': 7.85, 'rot1': 44, 'rot0': 46, 'rot3': 62, 'rot2': 50, 'state': 'normal', 'yaw': 2.9, 'datetime': '2018-10-09 13:19:23.683060', 'mgs': 0, 'volt': 0.9961, 'depth': 3.064, 'time': 10, 'pitch': 7.68, 'roll': -7.2, 'pres': 204}
{'lipoC2': 7.38, 'lipoC3S1': 3.93, 'temp': 30.31, 'lipoC3S3': 11.69, 'lipoC3S2': 7.84, 'rot1': 45, 'rot0': 48, 'rot3': 63, 'rot2': 50, 'state': 'normal', 'yaw': 3.11, 'datetime': '2018-10-09 13:19:23.787071', 'mgs': 0, 'volt': 0.957, 'depth': 2.454, 'time': 10, 'pitch': 7.79, 'roll': -7.04, 'pres': 196}
{'lipoC2': 7.39, 'lipoC3S1': 3.89, 'temp': 30.31, 'lipoC3S3': 11.89, 'lipoC3S2': 7.74, 'rot1': 46, 'rot0': 49, 'rot3': 63, 'rot2': 51, 'state': 'normal', 'yaw': 3.23, 'datetime': '2018-10-09 13:19:23.891151', 'mgs': 0, 'volt': 0.9619, 'depth': 2.53, 'time': 10, 'pitch': 8.25, 'roll': -7.07, 'pres': 197}
{'lipoC2': 7.38, 'lipoC3S1': 3.88, 'temp': 30.25, 'lipoC3S3': 11.89, 'lipoC3S2': 7.86, 'rot1': 48, 'rot0': 50, 'rot3': 64, 'rot2': 51, 'state': 'normal', 'yaw': 3.36, 'datetime': '2018-10-09 13:19:23.995363', 'mgs': 0, 'volt': 0.9912, 'depth': 2.988, 'time': 10, 'pitch': 9.01, 'roll': -7.31, 'pres': 203}
{'lipoC2': 7.36, 'lipoC3S1': 3.94, 'temp': 30.25, 'lipoC3S3': 11.88, 'lipoC3S2': 7.85, 'rot1': 49, 'rot0': 51, 'rot3': 65, 'rot2': 52, 'state': 'normal', 'yaw': 3.53, 'datetime': '2018-10-09 13:19:24.099057', 'mgs': 0, 'volt': 1.0059, 'depth': 3.217, 'time': 10, 'pitch': 9.68, 'roll': -7.61, 'pres': 206}
{'lipoC2': 7.39, 'lipoC3S1': 3.87, 'temp': 30.25, 'lipoC3S3': 11.89, 'lipoC3S2': 7.8, 'rot1': 50, 'rot0': 52, 'rot3': 65, 'rot2': 52, 'state': 'normal', 'yaw': 3.78, 'datetime': '2018-10-09 13:19:24.203763', 'mgs': 0, 'volt': 0.9668, 'depth': 2.606, 'time': 10, 'pitch': 10.15, 'roll': -7.88, 'pres': 198}
{'lipoC2': 7.38, 'lipoC3S1': 3.93, 'temp': 30.25, 'lipoC3S3': 11.89, 'lipoC3S2': 7.86, 'rot1': 51, 'rot0': 54, 'rot3': 66, 'rot2': 53, 'state': 'normal', 'yaw': 4.14, 'datetime': '2018-10-09 13:19:24.308330', 'mgs': 0, 'volt': 1.0693, 'depth': 4.208, 'time': 10, 'pitch': 10.52, 'roll': -8.07, 'pres': 219}
{'lipoC2': 7.39, 'lipoC3S1': 3.85, 'temp': 30.31, 'lipoC3S3': 11.89, 'lipoC3S2': 7.86, 'rot1': 52, 'rot0': 55, 'rot3': 66, 'rot2': 53, 'state': 'normal', 'yaw': 4.53, 'datetime': '2018-10-09 13:19:24.413222', 'mgs': 0, 'volt': 0.9717, 'depth': 2.682, 'time': 10, 'pitch': 10.79, 'roll': -8.14, 'pres': 199}
{'lipoC2': 7.38, 'lipoC3S1': 3.94, 'temp': 30.31, 'lipoC3S3': 11.88, 'lipoC3S2': 7.85, 'rot1': 54, 'rot0': 56, 'rot3': 67, 'rot2': 54, 'state': 'normal', 'yaw': 4.97, 'datetime': '2018-10-09 13:19:24.517188', 'mgs': 0, 'volt': 1.0303, 'depth': 3.598, 'time': 11, 'pitch': 11.01, 'roll': -8.09, 'pres': 211}
{'lipoC2': 7.39, 'lipoC3S1': 3.94, 'temp': 30.31, 'lipoC3S3': 11.89, 'lipoC3S2': 7.86, 'rot1': 55, 'rot0': 57, 'rot3': 67, 'rot2': 54, 'state': 'normal', 'yaw': 5.38, 'datetime': '2018-10-09 13:19:24.622553', 'mgs': 0, 'volt': 1.0254, 'depth': 3.522, 'time': 11, 'pitch': 11.07, 'roll': -8.0, 'pres': 210}
{'lipoC2': 7.37, 'lipoC3S1': 3.94, 'temp': 30.31, 'lipoC3S3': 11.88, 'lipoC3S2': 7.85, 'rot1': 56, 'rot0': 58, 'rot3': 68, 'rot2': 55, 'state': 'normal', 'yaw': 5.68, 'datetime': '2018-10-09 13:19:24.726447', 'mgs': 0, 'volt': 0.9717, 'depth': 2.682, 'time': 11, 'pitch': 11.09, 'roll': -7.94, 'pres': 199}
{'lipoC2': 7.39, 'lipoC3S1': 3.93, 'temp': 30.31, 'lipoC3S3': 11.76, 'lipoC3S2': 7.79, 'rot1': 57, 'rot0': 59, 'rot3': 68, 'rot2': 55, 'state': 'normal', 'yaw': 5.77, 'datetime': '2018-10-09 13:19:24.830638', 'mgs': 0, 'volt': 0.9766, 'depth': 2.759, 'time': 11, 'pitch': 11.06, 'roll': -8.0, 'pres': 200}
{'lipoC2': 7.39, 'lipoC3S1': 3.84, 'temp': 30.25, 'lipoC3S3': 11.9, 'lipoC3S2': 7.79, 'rot1': 58, 'rot0': 61, 'rot3': 69, 'rot2': 56, 'state': 'normal', 'yaw': 5.76, 'datetime': '2018-10-09 13:19:24.934490', 'mgs': 0, 'volt': 0.9766, 'depth': 2.759, 'time': 11, 'pitch': 10.96, 'roll': -8.19, 'pres': 200}
{'lipoC2': 7.39, 'lipoC3S1': 3.92, 'temp': 30.25, 'lipoC3S3': 11.89, 'lipoC3S2': 7.86, 'rot1': 59, 'rot0': 62, 'rot3': 69, 'rot2': 56, 'state': 'normal', 'yaw': 5.66, 'datetime': '2018-10-09 13:19:25.038782', 'mgs': 0, 'volt': 1.0352, 'depth': 3.674, 'time': 11, 'pitch': 10.82, 'roll': -8.46, 'pres': 212}
{'lipoC2': 7.36, 'lipoC3S1': 3.94, 'temp': 30.31, 'lipoC3S3': 11.88, 'lipoC3S2': 7.86, 'rot1': 60, 'rot0': 63, 'rot3': 70, 'rot2': 56, 'state': 'normal', 'yaw': 5.55, 'datetime': '2018-10-09 13:19:25.135586', 'mgs': 0, 'volt': 0.9961, 'depth': 3.064, 'time': 11, 'pitch': 10.75, 'roll': -8.66, 'pres': 204}
