{'lipoC2': 7.33, 'lipoC3S1': 3.85, 'temp': 29.94, 'lipoC3S3': 11.65, 'lipoC3S2': 7.71, 'rot1': 136, 'rot0': 139, 'rot3': 35, 'rot2': 42, 'state': 'normal', 'yaw': -168.99, 'datetime': '2018-10-09 13:51:07.307839', 'mgs': 0, 'volt': 0.8936, 'depth': 1.462, 'time': 416, 'pitch': -85.22, 'roll': 58.98, 'pres': 183}
{'lipoC2': 7.33, 'lipoC3S1': 3.85, 'temp': 30.0, 'lipoC3S3': 11.65, 'lipoC3S2': 7.71, 'rot1': 136, 'rot0': 139, 'rot3': 35, 'rot2': 42, 'state': 'normal', 'yaw': -167.49, 'datetime': '2018-10-09 13:51:07.336974', 'mgs': 0, 'volt': 0.8984, 'depth': 1.538, 'time': 416, 'pitch': -86.95, 'roll': 57.08, 'pres': 184}
{'lipoC2': 7.33, 'lipoC3S1': 3.85, 'temp': 30.0, 'lipoC3S3': 11.65, 'lipoC3S2': 7.71, 'rot1': 136, 'rot0': 139, 'rot3': 35, 'rot2': 42, 'state': 'normal', 'yaw': -126.41, 'datetime': '2018-10-09 13:51:07.349896', 'mgs': 0, 'volt': 0.8936, 'depth': 1.462, 'time': 416, 'pitch': -88.21, 'roll': 15.3, 'pres': 183}
{'lipoC2': 7.33, 'lipoC3S1': 3.85, 'temp': 29.94, 'lipoC3S3': 11.65, 'lipoC3S2': 7.71, 'rot1': 136, 'rot0': 139, 'rot3': 35, 'rot2': 42, 'state': 'normal', 'yaw': -75.4, 'datetime': '2018-10-09 13:51:07.361856', 'mgs': 0, 'volt': 0.8936, 'depth': 1.462, 'time': 417, 'pitch': -86.68, 'roll': -36.45, 'pres': 183}
{'lipoC2': 7.33, 'lipoC3S1': 3.85, 'temp': 29.94, 'lipoC3S3': 11.65, 'lipoC3S2': 7.71, 'rot1': 136, 'rot0': 139, 'rot3': 35, 'rot2': 42, 'state': 'normal', 'yaw': -62.12, 'datetime': '2018-10-09 13:51:07.375660', 'mgs': 0, 'volt': 0.8984, 'depth': 1.538, 'time': 417, 'pitch': -83.45, 'roll': -50.5, 'pres': 184}
{'lipoC2': 7.33, 'lipoC3S1': 3.85, 'temp': 30.0, 'lipoC3S3': 11.65, 'lipoC3S2': 7.71, 'rot1': 136, 'rot0': 139, 'rot3': 35, 'rot2': 42, 'state': 'normal', 'yaw': -58.1, 'datetime': '2018-10-09 13:51:07.389842', 'mgs': 0, 'volt': 0.8936, 'depth': 1.462, 'time': 417, 'pitch': -80.11, 'roll': -55.14, 'pres': 183}
{'lipoC2': 7.33, 'lipoC3S1': 3.85, 'temp': 30.0, 'lipoC3S3': 11.65, 'lipoC3S2': 7.71, 'rot1': 136, 'rot0': 139, 'rot3': 35, 'rot2': 42, 'state': 'normal', 'yaw': -54.74, 'datetime': '2018-10-09 13:51:07.404364', 'mgs': 0, 'volt': 0.8984, 'depth': 1.538, 'time': 417, 'pitch': -76.72, 'roll': -58.75, 'pres': 184}
{'lipoC2': 7.33, 'lipoC3S1': 3.85, 'temp': 30.0, 'lipoC3S3': 11.65, 'lipoC3S2': 7.71, 'rot1': 136, 'rot0': 139, 'rot3': 35, 'rot2': 42, 'state': 'normal', 'yaw': -52.09, 'datetime': '2018-10-09 13:51:07.418476', 'mgs': 0, 'volt': 0.8984, 'depth': 1.538, 'time': 417, 'pitch': -74.07, 'roll': -61.18, 'pres': 184}
{'lipoC2': 7.33, 'lipoC3S1': 3.85, 'temp': 30.0, 'lipoC3S3': 11.65, 'lipoC3S2': 7.71, 'rot1': 136, 'rot0': 139, 'rot3': 35, 'rot2': 42, 'state': 'normal', 'yaw': -49.98, 'datetime': '2018-10-09 13:51:07.432500', 'mgs': 0, 'volt': 0.8984, 'depth': 1.538, 'time': 417, 'pitch': -71.65, 'roll': -62.87, 'pres': 184}
{'lipoC2': 7.33, 'lipoC3S1': 3.85, 'temp': 30.0, 'lipoC3S3': 11.65, 'lipoC3S2': 7.71, 'rot1': 136, 'rot0': 139, 'rot3': 35, 'rot2': 42, 'state': 'normal', 'yaw': -47.59, 'datetime': '2018-10-09 13:51:07.445995', 'mgs': 0, 'volt': 0.9033, 'depth': 1.614, 'time': 417, 'pitch': -69.85, 'roll': -64.26, 'pres': 185}
{'lipoC2': 7.33, 'lipoC3S1': 3.85, 'temp': 30.0, 'lipoC3S3': 11.65, 'lipoC3S2': 7.71, 'rot1': 136, 'rot0': 139, 'rot3': 35, 'rot2': 42, 'state': 'normal', 'yaw': -43.91, 'datetime': '2018-10-09 13:51:07.460144', 'mgs': 0, 'volt': 0.9033, 'depth': 1.614, 'time': 417, 'pitch': -68.86, 'roll': -66.66, 'pres': 185}
{'lipoC2': 7.33, 'lipoC3S1': 3.85, 'temp': 30.0, 'lipoC3S3': 11.65, 'lipoC3S2': 7.71, 'rot1': 136, 'rot0': 139, 'rot3': 35, 'rot2': 42, 'state': 'normal', 'yaw': -39.39, 'datetime': '2018-10-09 13:51:07.474097', 'mgs': 0, 'volt': 0.9033, 'depth': 1.614, 'time': 417, 'pitch': -67.79, 'roll': -69.77, 'pres': 185}
{'lipoC2': 7.33, 'lipoC3S1': 3.85, 'temp': 30.0, 'lipoC3S3': 11.64, 'lipoC3S2': 7.71, 'rot1': 136, 'rot0': 139, 'rot3': 35, 'rot2': 42, 'state': 'normal', 'yaw': -34.46, 'datetime': '2018-10-09 13:51:07.488151', 'mgs': 0, 'volt': 0.9082, 'depth': 1.691, 'time': 418, 'pitch': -66.75, 'roll': -72.91, 'pres': 186}
{'lipoC2': 7.33, 'lipoC3S1': 3.85, 'temp': 30.0, 'lipoC3S3': 11.64, 'lipoC3S2': 7.71, 'rot1': 136, 'rot0': 139, 'rot3': 35, 'rot2': 42, 'state': 'normal', 'yaw': -31.63, 'datetime': '2018-10-09 13:51:07.502227', 'mgs': 0, 'volt': 0.9082, 'depth': 1.691, 'time': 418, 'pitch': -66.17, 'roll': -73.86, 'pres': 186}
{'lipoC2': 7.33, 'lipoC3S1': 3.85, 'temp': 30.0, 'lipoC3S3': 11.65, 'lipoC3S2': 7.71, 'rot1': 136, 'rot0': 139, 'rot3': 35, 'rot2': 42, 'state': 'normal', 'yaw': -30.14, 'datetime': '2018-10-09 13:51:07.514519', 'mgs': 0, 'volt': 0.9082, 'depth': 1.691, 'time': 418, 'pitch': -65.66, 'roll': -73.38, 'pres': 186}
{'lipoC2': 7.33, 'lipoC3S1': 3.85, 'temp': 30.0, 'lipoC3S3': 11.64, 'lipoC3S2': 7.71, 'rot1': 136, 'rot0': 139, 'rot3': 35, 'rot2': 42, 'state': 'normal', 'yaw': -30.08, 'datetime': '2018-10-09 13:51:07.524812', 'mgs': 0, 'volt': 0.9082, 'depth': 1.691, 'time': 418, 'pitch': -65.66, 'roll': -71.91, 'pres': 186}
{'lipoC2': 7.33, 'lipoC3S1': 3.85, 'temp': 30.0, 'lipoC3S3': 11.65, 'lipoC3S2': 7.71, 'rot1': 136, 'rot0': 139, 'rot3': 35, 'rot2': 42, 'state': 'normal', 'yaw': -29.98, 'datetime': '2018-10-09 13:51:07.535080', 'mgs': 0, 'volt': 0.9082, 'depth': 1.691, 'time': 418, 'pitch': -66.06, 'roll': -70.85, 'pres': 186}
{'lipoC2': 7.33, 'lipoC3S1': 3.85, 'temp': 29.94, 'lipoC3S3': 11.65, 'lipoC3S2': 7.71, 'rot1': 136, 'rot0': 139, 'rot3': 35, 'rot2': 42, 'state': 'normal', 'yaw': -30.01, 'datetime': '2018-10-09 13:51:07.546425', 'mgs': 0, 'volt': 0.9082, 'depth': 1.691, 'time': 418, 'pitch': -66.29, 'roll': -70.5, 'pres': 186}
{'lipoC2': 7.33, 'lipoC3S1': 3.85, 'temp': 29.94, 'lipoC3S3': 11.65, 'lipoC3S2': 7.71, 'rot1': 136, 'rot0': 139, 'rot3': 35, 'rot2': 42, 'state': 'normal', 'yaw': -30.59, 'datetime': '2018-10-09 13:51:07.560222', 'mgs': 0, 'volt': 0.9082, 'depth': 1.691, 'time': 418, 'pitch': -66.25, 'roll': -70.31, 'pres': 186}
{'lipoC2': 7.33, 'lipoC3S1': 3.85, 'temp': 29.94, 'lipoC3S3': 11.65, 'lipoC3S2': 7.71, 'rot1': 136, 'rot0': 139, 'rot3': 35, 'rot2': 42, 'state': 'normal', 'yaw': -31.86, 'datetime': '2018-10-09 13:51:07.571882', 'mgs': 0, 'volt': 0.9082, 'depth': 1.691, 'time': 418, 'pitch': -66.17, 'roll': -70.04, 'pres': 186}
{'lipoC2': 7.33, 'lipoC3S1': 3.85, 'temp': 29.94, 'lipoC3S3': 11.65, 'lipoC3S2': 7.71, 'rot1': 136, 'rot0': 139, 'rot3': 35, 'rot2': 42, 'state': 'normal', 'yaw': -32.88, 'datetime': '2018-10-09 13:51:07.582054', 'mgs': 0, 'volt': 0.9131, 'depth': 1.767, 'time': 418, 'pitch': -66.27, 'roll': -70.2, 'pres': 187}
{'lipoC2': 7.33, 'lipoC3S1': 3.85, 'temp': 29.94, 'lipoC3S3': 11.64, 'lipoC3S2': 7.71, 'rot1': 136, 'rot0': 139, 'rot3': 35, 'rot2': 42, 'state': 'normal', 'yaw': -33.18, 'datetime': '2018-10-09 13:51:07.592336', 'mgs': 0, 'volt': 0.9082, 'depth': 1.691, 'time': 418, 'pitch': -66.67, 'roll': -71.2, 'pres': 186}
{'lipoC2': 7.33, 'lipoC3S1': 3.85, 'temp': 30.0, 'lipoC3S3': 11.65, 'lipoC3S2': 7.71, 'rot1': 136, 'rot0': 139, 'rot3': 35, 'rot2': 42, 'state': 'normal', 'yaw': -32.95, 'datetime': '2018-10-09 13:51:07.602551', 'mgs': 0, 'volt': 0.9082, 'depth': 1.691, 'time': 419, 'pitch': -67.23, 'roll': -72.59, 'pres': 186}
{'lipoC2': 7.33, 'lipoC3S1': 3.85, 'temp': 30.0, 'lipoC3S3': 11.65, 'lipoC3S2': 7.71, 'rot1': 136, 'rot0': 139, 'rot3': 35, 'rot2': 42, 'state': 'normal', 'yaw': -32.58, 'datetime': '2018-10-09 13:51:07.612786', 'mgs': 0, 'volt': 0.9082, 'depth': 1.691, 'time': 419, 'pitch': -67.8, 'roll': -74.14, 'pres': 186}
{'lipoC2': 7.33, 'lipoC3S1': 3.85, 'temp': 30.0, 'lipoC3S3': 11.65, 'lipoC3S2': 7.71, 'rot1': 136, 'rot0': 139, 'rot3': 35, 'rot2': 42, 'state': 'normal', 'yaw': -32.95, 'datetime': '2018-10-09 13:51:07.623000', 'mgs': 0, 'volt': 0.9082, 'depth': 1.691, 'time': 419, 'pitch': -68.05, 'roll': -75.21, 'pres': 186}
{'lipoC2': 7.33, 'lipoC3S1': 3.85, 'temp': 30.0, 'lipoC3S3': 11.64, 'lipoC3S2': 7.71, 'rot1': 136, 'rot0': 139, 'rot3': 35, 'rot2': 42, 'state': 'normal', 'yaw': -34.32, 'datetime': '2018-10-09 13:51:07.633204', 'mgs': 0, 'volt': 0.9082, 'depth': 1.691, 'time': 419, 'pitch': -67.95, 'roll': -75.32, 'pres': 186}
{'lipoC2': 7.33, 'lipoC3S1': 3.85, 'temp': 30.0, 'lipoC3S3': 11.64, 'lipoC3S2': 7.71, 'rot1': 136, 'rot0': 139, 'rot3': 35, 'rot2': 42, 'state': 'normal', 'yaw': -36.6, 'datetime': '2018-10-09 13:51:07.643416', 'mgs': 0, 'volt': 0.9033, 'depth': 1.614, 'time': 419, 'pitch': -67.73, 'roll': -74.75, 'pres': 185}
{'lipoC2': 7.33, 'lipoC3S1': 3.85, 'temp': 30.0, 'lipoC3S3': 11.64, 'lipoC3S2': 7.71, 'rot1': 136, 'rot0': 139, 'rot3': 35, 'rot2': 42, 'state': 'normal', 'yaw': -39.02, 'datetime': '2018-10-09 13:51:07.655643', 'mgs': 0, 'volt': 0.9082, 'depth': 1.691, 'time': 419, 'pitch': -67.46, 'roll': -73.75, 'pres': 186}
{'lipoC2': 7.33, 'lipoC3S1': 3.85, 'temp': 30.0, 'lipoC3S3': 11.65, 'lipoC3S2': 7.71, 'rot1': 136, 'rot0': 139, 'rot3': 35, 'rot2': 42, 'state': 'normal', 'yaw': -41.31, 'datetime': '2018-10-09 13:51:07.666666', 'mgs': 0, 'volt': 0.9082, 'depth': 1.691, 'time': 419, 'pitch': -67.06, 'roll': -72.79, 'pres': 186}
{'lipoC2': 7.33, 'lipoC3S1': 3.85, 'temp': 29.94, 'lipoC3S3': 11.65, 'lipoC3S2': 7.71, 'rot1': 136, 'rot0': 139, 'rot3': 35, 'rot2': 42, 'state': 'normal', 'yaw': -42.03, 'datetime': '2018-10-09 13:51:07.677650', 'mgs': 0, 'volt': 0.9082, 'depth': 1.691, 'time': 419, 'pitch': -66.6, 'roll': -72.95, 'pres': 186}
{'lipoC2': 7.33, 'lipoC3S1': 3.85, 'temp': 29.94, 'lipoC3S3': 11.65, 'lipoC3S2': 7.71, 'rot1': 136, 'rot0': 139, 'rot3': 35, 'rot2': 42, 'state': 'normal', 'yaw': -41.72, 'datetime': '2018-10-09 13:51:07.687833', 'mgs': 0, 'volt': 0.9082, 'depth': 1.691, 'time': 419, 'pitch': -66.1, 'roll': -73.77, 'pres': 186}
{'lipoC2': 7.33, 'lipoC3S1': 3.85, 'temp': 29.94, 'lipoC3S3': 11.64, 'lipoC3S2': 7.71, 'rot1': 136, 'rot0': 139, 'rot3': 35, 'rot2': 42, 'state': 'normal', 'yaw': -40.99, 'datetime': '2018-10-09 13:51:07.698121', 'mgs': 0, 'volt': 0.9082, 'depth': 1.691, 'time': 419, 'pitch': -65.64, 'roll': -74.59, 'pres': 186}
{'lipoC2': 7.33, 'lipoC3S1': 3.85, 'temp': 29.94, 'lipoC3S3': 11.64, 'lipoC3S2': 7.71, 'rot1': 136, 'rot0': 139, 'rot3': 35, 'rot2': 42, 'state': 'normal', 'yaw': -39.78, 'datetime': '2018-10-09 13:51:07.775379', 'mgs': 0, 'volt': 0.9131, 'depth': 1.767, 'time': 420, 'pitch': -65.49, 'roll': -75.49, 'pres': 187}
{'lipoC2': 7.33, 'lipoC3S1': 3.85, 'temp': 29.94, 'lipoC3S3': 11.64, 'lipoC3S2': 7.71, 'rot1': 136, 'rot0': 139, 'rot3': 35, 'rot2': 42, 'state': 'normal', 'yaw': -38.89, 'datetime': '2018-10-09 13:51:07.879518', 'mgs': 0, 'volt': 0.9131, 'depth': 1.767, 'time': 420, 'pitch': -65.54, 'roll': -75.69, 'pres': 187}
{'lipoC2': 7.33, 'lipoC3S1': 3.85, 'temp': 29.94, 'lipoC3S3': 11.65, 'lipoC3S2': 7.71, 'rot1': 136, 'rot0': 139, 'rot3': 35, 'rot2': 42, 'state': 'normal', 'yaw': -38.25, 'datetime': '2018-10-09 13:51:07.983640', 'mgs': 0, 'volt': 0.9131, 'depth': 1.767, 'time': 420, 'pitch': -65.72, 'roll': -75.43, 'pres': 187}
{'lipoC2': 7.33, 'lipoC3S1': 3.85, 'temp': 29.94, 'lipoC3S3': 11.64, 'lipoC3S2': 7.71, 'rot1': 136, 'rot0': 139, 'rot3': 35, 'rot2': 42, 'state': 'normal', 'yaw': -37.2, 'datetime': '2018-10-09 13:51:08.088414', 'mgs': 0, 'volt': 0.9131, 'depth': 1.767, 'time': 420, 'pitch': -65.98, 'roll': -75.37, 'pres': 187}
{'lipoC2': 7.33, 'lipoC3S1': 3.85, 'temp': 29.94, 'lipoC3S3': 11.65, 'lipoC3S2': 7.71, 'rot1': 136, 'rot0': 139, 'rot3': 35, 'rot2': 42, 'state': 'normal', 'yaw': -35.7, 'datetime': '2018-10-09 13:51:08.192523', 'mgs': 0, 'volt': 0.918, 'depth': 1.843, 'time': 420, 'pitch': -66.27, 'roll': -75.65, 'pres': 188}
{'lipoC2': 7.33, 'lipoC3S1': 3.85, 'temp': 29.94, 'lipoC3S3': 11.65, 'lipoC3S2': 7.71, 'rot1': 136, 'rot0': 139, 'rot3': 35, 'rot2': 42, 'state': 'normal', 'yaw': -34.21, 'datetime': '2018-10-09 13:51:08.298080', 'mgs': 0, 'volt': 0.9229, 'depth': 1.92, 'time': 420, 'pitch': -66.46, 'roll': -76.08, 'pres': 189}
{'lipoC2': 7.33, 'lipoC3S1': 3.85, 'temp': 29.94, 'lipoC3S3': 11.64, 'lipoC3S2': 7.71, 'rot1': 136, 'rot0': 139, 'rot3': 35, 'rot2': 42, 'state': 'normal', 'yaw': -32.39, 'datetime': '2018-10-09 13:51:08.402243', 'mgs': 0, 'volt': 0.9229, 'depth': 1.92, 'time': 420, 'pitch': -66.49, 'roll': -76.83, 'pres': 189}
{'lipoC2': 7.33, 'lipoC3S1': 3.85, 'temp': 29.94, 'lipoC3S3': 11.65, 'lipoC3S2': 7.71, 'rot1': 136, 'rot0': 139, 'rot3': 35, 'rot2': 42, 'state': 'normal', 'yaw': -30.76, 'datetime': '2018-10-09 13:51:08.507591', 'mgs': 0, 'volt': 0.9229, 'depth': 1.92, 'time': 420, 'pitch': -66.3, 'roll': -77.59, 'pres': 189}
{'lipoC2': 7.33, 'lipoC3S1': 3.85, 'temp': 29.94, 'lipoC3S3': 11.64, 'lipoC3S2': 7.71, 'rot1': 136, 'rot0': 139, 'rot3': 35, 'rot2': 42, 'state': 'normal', 'yaw': -29.82, 'datetime': '2018-10-09 13:51:08.611801', 'mgs': 0, 'volt': 0.9277, 'depth': 1.996, 'time': 420, 'pitch': -65.9, 'roll': -77.72, 'pres': 190}
{'lipoC2': 7.33, 'lipoC3S1': 3.85, 'temp': 29.94, 'lipoC3S3': 11.64, 'lipoC3S2': 7.71, 'rot1': 136, 'rot0': 139, 'rot3': 35, 'rot2': 42, 'state': 'normal', 'yaw': -29.45, 'datetime': '2018-10-09 13:51:08.715917', 'mgs': 0, 'volt': 0.9277, 'depth': 1.996, 'time': 421, 'pitch': -65.49, 'roll': -77.5, 'pres': 190}
{'lipoC2': 7.33, 'lipoC3S1': 3.85, 'temp': 30.0, 'lipoC3S3': 11.64, 'lipoC3S2': 7.71, 'rot1': 136, 'rot0': 139, 'rot3': 35, 'rot2': 42, 'state': 'normal', 'yaw': -29.22, 'datetime': '2018-10-09 13:51:08.824469', 'mgs': 0, 'volt': 0.9277, 'depth': 1.996, 'time': 421, 'pitch': -65.11, 'roll': -77.38, 'pres': 190}
{'lipoC2': 7.33, 'lipoC3S1': 3.85, 'temp': 30.0, 'lipoC3S3': 11.65, 'lipoC3S2': 7.71, 'rot1': 136, 'rot0': 139, 'rot3': 35, 'rot2': 42, 'state': 'normal', 'yaw': -28.79, 'datetime': '2018-10-09 13:51:08.928966', 'mgs': 0, 'volt': 0.9277, 'depth': 1.996, 'time': 421, 'pitch': -64.74, 'roll': -77.78, 'pres': 190}
{'lipoC2': 7.33, 'lipoC3S1': 3.85, 'temp': 30.0, 'lipoC3S3': 11.64, 'lipoC3S2': 7.71, 'rot1': 136, 'rot0': 139, 'rot3': 35, 'rot2': 42, 'state': 'normal', 'yaw': -28.21, 'datetime': '2018-10-09 13:51:09.032509', 'mgs': 0, 'volt': 0.9277, 'depth': 1.996, 'time': 421, 'pitch': -64.29, 'roll': -78.6, 'pres': 190}
{'lipoC2': 7.33, 'lipoC3S1': 3.85, 'temp': 30.0, 'lipoC3S3': 11.64, 'lipoC3S2': 7.71, 'rot1': 136, 'rot0': 139, 'rot3': 35, 'rot2': 42, 'state': 'normal', 'yaw': -27.72, 'datetime': '2018-10-09 13:51:09.136875', 'mgs': 0, 'volt': 0.9277, 'depth': 1.996, 'time': 421, 'pitch': -63.72, 'roll': -79.56, 'pres': 190}
{'lipoC2': 7.33, 'lipoC3S1': 3.85, 'temp': 30.0, 'lipoC3S3': 11.64, 'lipoC3S2': 7.71, 'rot1': 136, 'rot0': 139, 'rot3': 35, 'rot2': 42, 'state': 'normal', 'yaw': -27.47, 'datetime': '2018-10-09 13:51:09.240786', 'mgs': 0, 'volt': 0.9277, 'depth': 1.996, 'time': 421, 'pitch': -63.09, 'roll': -80.29, 'pres': 190}
{'lipoC2': 7.33, 'lipoC3S1': 3.85, 'temp': 30.0, 'lipoC3S3': 11.64, 'lipoC3S2': 7.71, 'rot1': 136, 'rot0': 139, 'rot3': 35, 'rot2': 42, 'state': 'normal', 'yaw': -27.28, 'datetime': '2018-10-09 13:51:09.345354', 'mgs': 0, 'volt': 0.9277, 'depth': 1.996, 'time': 421, 'pitch': -62.53, 'roll': -80.93, 'pres': 190}
{'lipoC2': 7.33, 'lipoC3S1': 3.85, 'temp': 30.0, 'lipoC3S3': 11.65, 'lipoC3S2': 7.71, 'rot1': 136, 'rot0': 139, 'rot3': 35, 'rot2': 42, 'state': 'normal', 'yaw': -26.95, 'datetime': '2018-10-09 13:51:09.449384', 'mgs': 0, 'volt': 0.9229, 'depth': 1.92, 'time': 421, 'pitch': -62.3, 'roll': -81.61, 'pres': 189}
{'lipoC2': 7.33, 'lipoC3S1': 3.85, 'temp': 30.0, 'lipoC3S3': 11.65, 'lipoC3S2': 7.71, 'rot1': 136, 'rot0': 139, 'rot3': 35, 'rot2': 42, 'state': 'normal', 'yaw': -26.25, 'datetime': '2018-10-09 13:51:09.555349', 'mgs': 0, 'volt': 0.9229, 'depth': 1.92, 'time': 421, 'pitch': -62.49, 'roll': -82.36, 'pres': 189}
{'lipoC2': 7.33, 'lipoC3S1': 3.85, 'temp': 30.0, 'lipoC3S3': 11.65, 'lipoC3S2': 7.71, 'rot1': 136, 'rot0': 139, 'rot3': 35, 'rot2': 42, 'state': 'normal', 'yaw': -25.34, 'datetime': '2018-10-09 13:51:09.659211', 'mgs': 0, 'volt': 0.9277, 'depth': 1.996, 'time': 421, 'pitch': -63.02, 'roll': -83.14, 'pres': 190}
{'lipoC2': 7.33, 'lipoC3S1': 3.85, 'temp': 30.0, 'lipoC3S3': 11.65, 'lipoC3S2': 7.71, 'rot1': 136, 'rot0': 139, 'rot3': 35, 'rot2': 42, 'state': 'normal', 'yaw': -24.94, 'datetime': '2018-10-09 13:51:09.766965', 'mgs': 0, 'volt': 0.9229, 'depth': 1.92, 'time': 422, 'pitch': -63.63, 'roll': -83.34, 'pres': 189}
{'lipoC2': 7.33, 'lipoC3S1': 3.85, 'temp': 30.0, 'lipoC3S3': 11.65, 'lipoC3S2': 7.71, 'rot1': 136, 'rot0': 139, 'rot3': 35, 'rot2': 42, 'state': 'normal', 'yaw': -25.3, 'datetime': '2018-10-09 13:51:09.871618', 'mgs': 0, 'volt': 0.9229, 'depth': 1.92, 'time': 422, 'pitch': -64.21, 'roll': -82.78, 'pres': 189}
{'lipoC2': 7.33, 'lipoC3S1': 3.85, 'temp': 30.0, 'lipoC3S3': 11.65, 'lipoC3S2': 7.71, 'rot1': 136, 'rot0': 139, 'rot3': 35, 'rot2': 42, 'state': 'normal', 'yaw': -26.52, 'datetime': '2018-10-09 13:51:09.972894', 'mgs': 0, 'volt': 0.9229, 'depth': 1.92, 'time': 422, 'pitch': -64.57, 'roll': -81.5, 'pres': 189}
{'lipoC2': 7.33, 'lipoC3S1': 3.85, 'temp': 30.0, 'lipoC3S3': 11.64, 'lipoC3S2': 7.71, 'rot1': 136, 'rot0': 139, 'rot3': 35, 'rot2': 42, 'state': 'normal', 'yaw': -27.95, 'datetime': '2018-10-09 13:51:10.076910', 'mgs': 0, 'volt': 0.9229, 'depth': 1.92, 'time': 422, 'pitch': -64.72, 'roll': -80.1, 'pres': 189}
{'lipoC2': 7.33, 'lipoC3S1': 3.85, 'temp': 30.0, 'lipoC3S3': 11.64, 'lipoC3S2': 7.71, 'rot1': 136, 'rot0': 139, 'rot3': 35, 'rot2': 42, 'state': 'normal', 'yaw': -28.67, 'datetime': '2018-10-09 13:51:10.181429', 'mgs': 0, 'volt': 0.9229, 'depth': 1.92, 'time': 422, 'pitch': -64.71, 'roll': -79.46, 'pres': 189}
{'lipoC2': 7.33, 'lipoC3S1': 3.85, 'temp': 30.0, 'lipoC3S3': 11.64, 'lipoC3S2': 7.71, 'rot1': 136, 'rot0': 139, 'rot3': 35, 'rot2': 42, 'state': 'normal', 'yaw': -27.82, 'datetime': '2018-10-09 13:51:10.285227', 'mgs': 0, 'volt': 0.918, 'depth': 1.843, 'time': 422, 'pitch': -64.68, 'roll': -80.22, 'pres': 188}
{'lipoC2': 7.33, 'lipoC3S1': 3.85, 'temp': 30.0, 'lipoC3S3': 11.65, 'lipoC3S2': 7.71, 'rot1': 136, 'rot0': 139, 'rot3': 35, 'rot2': 42, 'state': 'normal', 'yaw': -25.51, 'datetime': '2018-10-09 13:51:10.389525', 'mgs': 0, 'volt': 0.9131, 'depth': 1.767, 'time': 422, 'pitch': -64.73, 'roll': -82.31, 'pres': 187}
{'lipoC2': 7.33, 'lipoC3S1': 3.85, 'temp': 30.0, 'lipoC3S3': 11.64, 'lipoC3S2': 7.71, 'rot1': 136, 'rot0': 139, 'rot3': 35, 'rot2': 42, 'state': 'normal', 'yaw': -23.2, 'datetime': '2018-10-09 13:51:10.500320', 'mgs': 0, 'volt': 0.9082, 'depth': 1.691, 'time': 422, 'pitch': -64.87, 'roll': -84.37, 'pres': 186}
{'lipoC2': 7.33, 'lipoC3S1': 3.85, 'temp': 30.0, 'lipoC3S3': 11.65, 'lipoC3S2': 7.71, 'rot1': 136, 'rot0': 139, 'rot3': 35, 'rot2': 42, 'state': 'normal', 'yaw': -21.25, 'datetime': '2018-10-09 13:51:10.604806', 'mgs': 0, 'volt': 0.9082, 'depth': 1.691, 'time': 422, 'pitch': -65.13, 'roll': -86.06, 'pres': 186}
{'lipoC2': 7.33, 'lipoC3S1': 3.85, 'temp': 30.0, 'lipoC3S3': 11.64, 'lipoC3S2': 7.71, 'rot1': 136, 'rot0': 139, 'rot3': 35, 'rot2': 42, 'state': 'normal', 'yaw': -19.46, 'datetime': '2018-10-09 13:51:10.708929', 'mgs': 0, 'volt': 0.9082, 'depth': 1.691, 'time': 423, 'pitch': -65.5, 'roll': -87.64, 'pres': 186}
{'lipoC2': 7.33, 'lipoC3S1': 3.85, 'temp': 30.0, 'lipoC3S3': 11.64, 'lipoC3S2': 7.71, 'rot1': 136, 'rot0': 139, 'rot3': 35, 'rot2': 42, 'state': 'normal', 'yaw': -18.34, 'datetime': '2018-10-09 13:51:10.814481', 'mgs': 0, 'volt': 0.9033, 'depth': 1.614, 'time': 423, 'pitch': -65.85, 'roll': -88.63, 'pres': 185}
{'lipoC2': 7.33, 'lipoC3S1': 3.85, 'temp': 30.0, 'lipoC3S3': 11.65, 'lipoC3S2': 7.71, 'rot1': 136, 'rot0': 139, 'rot3': 35, 'rot2': 42, 'state': 'normal', 'yaw': -17.91, 'datetime': '2018-10-09 13:51:10.918794', 'mgs': 0, 'volt': 0.8984, 'depth': 1.538, 'time': 423, 'pitch': -66.23, 'roll': -89.02, 'pres': 184}
{'lipoC2': 7.33, 'lipoC3S1': 3.85, 'temp': 29.94, 'lipoC3S3': 11.64, 'lipoC3S2': 7.71, 'rot1': 136, 'rot0': 139, 'rot3': 35, 'rot2': 42, 'state': 'normal', 'yaw': -18.08, 'datetime': '2018-10-09 13:51:11.023909', 'mgs': 0, 'volt': 0.8984, 'depth': 1.538, 'time': 423, 'pitch': -66.62, 'roll': -88.98, 'pres': 184}
{'lipoC2': 7.33, 'lipoC3S1': 3.85, 'temp': 29.94, 'lipoC3S3': 11.64, 'lipoC3S2': 7.71, 'rot1': 136, 'rot0': 139, 'rot3': 35, 'rot2': 42, 'state': 'normal', 'yaw': -19.06, 'datetime': '2018-10-09 13:51:11.128492', 'mgs': 0, 'volt': 0.8936, 'depth': 1.462, 'time': 423, 'pitch': -67.08, 'roll': -88.38, 'pres': 183}
{'lipoC2': 7.33, 'lipoC3S1': 3.85, 'temp': 29.94, 'lipoC3S3': 11.64, 'lipoC3S2': 7.71, 'rot1': 136, 'rot0': 139, 'rot3': 35, 'rot2': 42, 'state': 'normal', 'yaw': -20.74, 'datetime': '2018-10-09 13:51:11.232218', 'mgs': 0, 'volt': 0.8984, 'depth': 1.538, 'time': 423, 'pitch': -67.48, 'roll': -87.22, 'pres': 184}
{'lipoC2': 7.33, 'lipoC3S1': 3.85, 'temp': 30.0, 'lipoC3S3': 11.65, 'lipoC3S2': 7.71, 'rot1': 136, 'rot0': 139, 'rot3': 35, 'rot2': 42, 'state': 'normal', 'yaw': -23.21, 'datetime': '2018-10-09 13:51:11.343920', 'mgs': 0, 'volt': 0.8984, 'depth': 1.538, 'time': 423, 'pitch': -67.88, 'roll': -85.42, 'pres': 184}
{'lipoC2': 7.33, 'lipoC3S1': 3.85, 'temp': 30.0, 'lipoC3S3': 11.64, 'lipoC3S2': 7.71, 'rot1': 136, 'rot0': 139, 'rot3': 35, 'rot2': 42, 'state': 'normal', 'yaw': -26.44, 'datetime': '2018-10-09 13:51:11.440920', 'mgs': 0, 'volt': 0.8936, 'depth': 1.462, 'time': 423, 'pitch': -68.18, 'roll': -82.94, 'pres': 183}
{'lipoC2': 7.33, 'lipoC3S1': 3.85, 'temp': 30.0, 'lipoC3S3': 11.65, 'lipoC3S2': 7.71, 'rot1': 136, 'rot0': 139, 'rot3': 35, 'rot2': 42, 'state': 'normal', 'yaw': -28.97, 'datetime': '2018-10-09 13:51:11.544904', 'mgs': 0, 'volt': 0.8936, 'depth': 1.462, 'time': 423, 'pitch': -68.26, 'roll': -80.98, 'pres': 183}
{'lipoC2': 7.33, 'lipoC3S1': 3.85, 'temp': 30.0, 'lipoC3S3': 11.65, 'lipoC3S2': 7.71, 'rot1': 136, 'rot0': 139, 'rot3': 35, 'rot2': 42, 'state': 'normal', 'yaw': -30.83, 'datetime': '2018-10-09 13:51:11.648941', 'mgs': 0, 'volt': 0.8936, 'depth': 1.462, 'time': 423, 'pitch': -68.26, 'roll': -79.52, 'pres': 183}
{'lipoC2': 7.33, 'lipoC3S1': 3.85, 'temp': 30.0, 'lipoC3S3': 11.65, 'lipoC3S2': 7.71, 'rot1': 136, 'rot0': 139, 'rot3': 35, 'rot2': 42, 'state': 'normal', 'yaw': -31.22, 'datetime': '2018-10-09 13:51:11.754311', 'mgs': 0, 'volt': 0.8936, 'depth': 1.462, 'time': 424, 'pitch': -68.25, 'roll': -79.26, 'pres': 183}
{'lipoC2': 7.33, 'lipoC3S1': 3.85, 'temp': 30.0, 'lipoC3S3': 11.64, 'lipoC3S2': 7.71, 'rot1': 136, 'rot0': 139, 'rot3': 35, 'rot2': 42, 'state': 'normal', 'yaw': -29.65, 'datetime': '2018-10-09 13:51:11.858514', 'mgs': 0, 'volt': 0.8936, 'depth': 1.462, 'time': 424, 'pitch': -68.27, 'roll': -80.92, 'pres': 183}
{'lipoC2': 7.33, 'lipoC3S1': 3.85, 'temp': 30.0, 'lipoC3S3': 11.64, 'lipoC3S2': 7.71, 'rot1': 136, 'rot0': 139, 'rot3': 35, 'rot2': 42, 'state': 'normal', 'yaw': -27.22, 'datetime': '2018-10-09 13:51:11.962931', 'mgs': 0, 'volt': 0.8936, 'depth': 1.462, 'time': 424, 'pitch': -68.2, 'roll': -83.48, 'pres': 183}
{'lipoC2': 7.33, 'lipoC3S1': 3.85, 'temp': 30.0, 'lipoC3S3': 11.64, 'lipoC3S2': 7.71, 'rot1': 136, 'rot0': 139, 'rot3': 35, 'rot2': 42, 'state': 'normal', 'yaw': -25.25, 'datetime': '2018-10-09 13:51:12.068283', 'mgs': 0, 'volt': 0.8936, 'depth': 1.462, 'time': 424, 'pitch': -68.14, 'roll': -85.64, 'pres': 183}
{'lipoC2': 7.33, 'lipoC3S1': 3.85, 'temp': 30.0, 'lipoC3S3': 11.64, 'lipoC3S2': 7.71, 'rot1': 136, 'rot0': 139, 'rot3': 35, 'rot2': 42, 'state': 'normal', 'yaw': -24.87, 'datetime': '2018-10-09 13:51:12.172055', 'mgs': 0, 'volt': 0.8936, 'depth': 1.462, 'time': 424, 'pitch': -68.14, 'roll': -86.29, 'pres': 183}
{'lipoC2': 7.33, 'lipoC3S1': 3.85, 'temp': 30.0, 'lipoC3S3': 11.64, 'lipoC3S2': 7.71, 'rot1': 136, 'rot0': 139, 'rot3': 35, 'rot2': 42, 'state': 'normal', 'yaw': -26.43, 'datetime': '2018-10-09 13:51:12.277674', 'mgs': 0, 'volt': 0.8936, 'depth': 1.462, 'time': 424, 'pitch': -68.13, 'roll': -84.98, 'pres': 183}
{'lipoC2': 7.33, 'lipoC3S1': 3.85, 'temp': 30.0, 'lipoC3S3': 11.64, 'lipoC3S2': 7.71, 'rot1': 136, 'rot0': 139, 'rot3': 35, 'rot2': 42, 'state': 'normal', 'yaw': -29.78, 'datetime': '2018-10-09 13:51:12.386715', 'mgs': 0, 'volt': 0.8936, 'depth': 1.462, 'time': 424, 'pitch': -68.03, 'roll': -81.88, 'pres': 183}
{'lipoC2': 7.33, 'lipoC3S1': 3.85, 'temp': 30.0, 'lipoC3S3': 11.64, 'lipoC3S2': 7.71, 'rot1': 136, 'rot0': 139, 'rot3': 35, 'rot2': 42, 'state': 'normal', 'yaw': -33.19, 'datetime': '2018-10-09 13:51:12.485800', 'mgs': 0, 'volt': 0.8936, 'depth': 1.462, 'time': 424, 'pitch': -67.76, 'roll': -78.66, 'pres': 183}
{'lipoC2': 7.33, 'lipoC3S1': 3.85, 'temp': 30.0, 'lipoC3S3': 11.65, 'lipoC3S2': 7.71, 'rot1': 136, 'rot0': 139, 'rot3': 35, 'rot2': 42, 'state': 'normal', 'yaw': -35.61, 'datetime': '2018-10-09 13:51:12.590171', 'mgs': 0, 'volt': 0.8936, 'depth': 1.462, 'time': 424, 'pitch': -67.41, 'roll': -76.41, 'pres': 183}
{'lipoC2': 7.33, 'lipoC3S1': 3.85, 'temp': 30.0, 'lipoC3S3': 11.64, 'lipoC3S2': 7.71, 'rot1': 136, 'rot0': 139, 'rot3': 35, 'rot2': 42, 'state': 'normal', 'yaw': -36.21, 'datetime': '2018-10-09 13:51:12.694147', 'mgs': 0, 'volt': 0.8984, 'depth': 1.538, 'time': 424, 'pitch': -67.0, 'roll': -75.85, 'pres': 184}
{'lipoC2': 7.32, 'lipoC3S1': 3.85, 'temp': 30.0, 'lipoC3S3': 11.65, 'lipoC3S2': 7.71, 'rot1': 136, 'rot0': 139, 'rot3': 35, 'rot2': 42, 'state': 'normal', 'yaw': -34.85, 'datetime': '2018-10-09 13:51:12.791644', 'mgs': 0, 'volt': 0.8936, 'depth': 1.462, 'time': 425, 'pitch': -66.77, 'roll': -77.1, 'pres': 183}
{'lipoC2': 7.33, 'lipoC3S1': 3.85, 'temp': 30.0, 'lipoC3S3': 11.64, 'lipoC3S2': 7.71, 'rot1': 136, 'rot0': 139, 'rot3': 35, 'rot2': 42, 'state': 'normal', 'yaw': -32.41, 'datetime': '2018-10-09 13:51:12.895603', 'mgs': 0, 'volt': 0.8936, 'depth': 1.462, 'time': 425, 'pitch': -66.56, 'roll': -79.12, 'pres': 183}
{'lipoC2': 7.33, 'lipoC3S1': 3.85, 'temp': 30.0, 'lipoC3S3': 11.64, 'lipoC3S2': 7.71, 'rot1': 136, 'rot0': 139, 'rot3': 35, 'rot2': 42, 'state': 'normal', 'yaw': -30.6, 'datetime': '2018-10-09 13:51:12.999704', 'mgs': 0, 'volt': 0.8936, 'depth': 1.462, 'time': 425, 'pitch': -66.39, 'roll': -80.41, 'pres': 183}
{'lipoC2': 7.33, 'lipoC3S1': 3.85, 'temp': 30.0, 'lipoC3S3': 11.65, 'lipoC3S2': 7.71, 'rot1': 136, 'rot0': 139, 'rot3': 35, 'rot2': 42, 'state': 'normal', 'yaw': -29.95, 'datetime': '2018-10-09 13:51:13.104331', 'mgs': 0, 'volt': 0.8936, 'depth': 1.462, 'time': 425, 'pitch': -66.17, 'roll': -80.5, 'pres': 183}
{'lipoC2': 7.33, 'lipoC3S1': 3.85, 'temp': 30.0, 'lipoC3S3': 11.65, 'lipoC3S2': 7.71, 'rot1': 136, 'rot0': 139, 'rot3': 35, 'rot2': 42, 'state': 'normal', 'yaw': -30.47, 'datetime': '2018-10-09 13:51:13.208593', 'mgs': 0, 'volt': 0.8936, 'depth': 1.462, 'time': 425, 'pitch': -65.92, 'roll': -79.43, 'pres': 183}
{'lipoC2': 7.33, 'lipoC3S1': 3.85, 'temp': 30.0, 'lipoC3S3': 11.64, 'lipoC3S2': 7.71, 'rot1': 136, 'rot0': 139, 'rot3': 35, 'rot2': 42, 'state': 'normal', 'yaw': -31.17, 'datetime': '2018-10-09 13:51:13.320577', 'mgs': 0, 'volt': 0.8936, 'depth': 1.462, 'time': 425, 'pitch': -65.74, 'roll': -78.31, 'pres': 183}
{'lipoC2': 7.33, 'lipoC3S1': 3.85, 'temp': 30.0, 'lipoC3S3': 11.65, 'lipoC3S2': 7.71, 'rot1': 136, 'rot0': 139, 'rot3': 35, 'rot2': 42, 'state': 'normal', 'yaw': -31.09, 'datetime': '2018-10-09 13:51:13.424891', 'mgs': 0, 'volt': 0.8936, 'depth': 1.462, 'time': 425, 'pitch': -65.63, 'roll': -77.91, 'pres': 183}
{'lipoC2': 7.33, 'lipoC3S1': 3.85, 'temp': 30.0, 'lipoC3S3': 11.65, 'lipoC3S2': 7.71, 'rot1': 136, 'rot0': 139, 'rot3': 35, 'rot2': 42, 'state': 'normal', 'yaw': -30.01, 'datetime': '2018-10-09 13:51:13.530046', 'mgs': 0, 'volt': 0.8984, 'depth': 1.538, 'time': 425, 'pitch': -65.66, 'roll': -78.56, 'pres': 184}
{'lipoC2': 7.33, 'lipoC3S1': 3.85, 'temp': 30.0, 'lipoC3S3': 11.65, 'lipoC3S2': 7.71, 'rot1': 136, 'rot0': 139, 'rot3': 35, 'rot2': 42, 'state': 'normal', 'yaw': -28.37, 'datetime': '2018-10-09 13:51:13.634241', 'mgs': 0, 'volt': 0.8984, 'depth': 1.538, 'time': 425, 'pitch': -65.69, 'roll': -79.8, 'pres': 184}
{'lipoC2': 7.33, 'lipoC3S1': 3.85, 'temp': 30.0, 'lipoC3S3': 11.65, 'lipoC3S2': 7.71, 'rot1': 136, 'rot0': 139, 'rot3': 35, 'rot2': 42, 'state': 'normal', 'yaw': -27.12, 'datetime': '2018-10-09 13:51:13.738563', 'mgs': 0, 'volt': 0.8984, 'depth': 1.538, 'time': 426, 'pitch': -65.67, 'roll': -80.85, 'pres': 184}
{'lipoC2': 7.33, 'lipoC3S1': 3.85, 'temp': 30.0, 'lipoC3S3': 11.64, 'lipoC3S2': 7.71, 'rot1': 136, 'rot0': 139, 'rot3': 35, 'rot2': 42, 'state': 'normal', 'yaw': -26.47, 'datetime': '2018-10-09 13:51:13.843438', 'mgs': 0, 'volt': 0.8984, 'depth': 1.538, 'time': 426, 'pitch': -65.56, 'roll': -81.48, 'pres': 184}
{'lipoC2': 7.33, 'lipoC3S1': 3.85, 'temp': 30.0, 'lipoC3S3': 11.64, 'lipoC3S2': 7.71, 'rot1': 136, 'rot0': 139, 'rot3': 35, 'rot2': 42, 'state': 'normal', 'yaw': -26.92, 'datetime': '2018-10-09 13:51:13.946989', 'mgs': 0, 'volt': 0.8984, 'depth': 1.538, 'time': 426, 'pitch': -65.32, 'roll': -81.3, 'pres': 184}
{'lipoC2': 7.33, 'lipoC3S1': 3.85, 'temp': 30.0, 'lipoC3S3': 11.64, 'lipoC3S2': 7.71, 'rot1': 136, 'rot0': 139, 'rot3': 35, 'rot2': 42, 'state': 'normal', 'yaw': -28.25, 'datetime': '2018-10-09 13:51:14.051359', 'mgs': 0, 'volt': 0.8984, 'depth': 1.538, 'time': 426, 'pitch': -64.95, 'roll': -80.49, 'pres': 184}
{'lipoC2': 7.33, 'lipoC3S1': 3.85, 'temp': 29.94, 'lipoC3S3': 11.64, 'lipoC3S2': 7.71, 'rot1': 136, 'rot0': 139, 'rot3': 35, 'rot2': 42, 'state': 'normal', 'yaw': -30.35, 'datetime': '2018-10-09 13:51:14.155422', 'mgs': 0, 'volt': 0.8984, 'depth': 1.538, 'time': 426, 'pitch': -64.35, 'roll': -79.19, 'pres': 184}
{'lipoC2': 7.33, 'lipoC3S1': 3.85, 'temp': 29.94, 'lipoC3S3': 11.65, 'lipoC3S2': 7.71, 'rot1': 136, 'rot0': 139, 'rot3': 35, 'rot2': 42, 'state': 'normal', 'yaw': -32.26, 'datetime': '2018-10-09 13:51:14.259129', 'mgs': 0, 'volt': 0.9033, 'depth': 1.614, 'time': 426, 'pitch': -63.51, 'roll': -78.11, 'pres': 185}
{'lipoC2': 7.33, 'lipoC3S1': 3.85, 'temp': 29.94, 'lipoC3S3': 11.64, 'lipoC3S2': 7.71, 'rot1': 136, 'rot0': 139, 'rot3': 35, 'rot2': 42, 'state': 'normal', 'yaw': -33.84, 'datetime': '2018-10-09 13:51:14.358832', 'mgs': 0, 'volt': 0.9033, 'depth': 1.614, 'time': 426, 'pitch': -62.25, 'roll': -77.49, 'pres': 185}
{'lipoC2': 7.33, 'lipoC3S1': 3.85, 'temp': 30.0, 'lipoC3S3': 11.64, 'lipoC3S2': 7.71, 'rot1': 136, 'rot0': 139, 'rot3': 35, 'rot2': 42, 'state': 'normal', 'yaw': -34.54, 'datetime': '2018-10-09 13:51:14.467975', 'mgs': 0, 'volt': 0.9033, 'depth': 1.614, 'time': 426, 'pitch': -60.51, 'roll': -77.82, 'pres': 185}
{'lipoC2': 7.33, 'lipoC3S1': 3.85, 'temp': 30.0, 'lipoC3S3': 11.64, 'lipoC3S2': 7.71, 'rot1': 136, 'rot0': 139, 'rot3': 35, 'rot2': 42, 'state': 'normal', 'yaw': -34.44, 'datetime': '2018-10-09 13:51:14.573547', 'mgs': 0, 'volt': 0.9033, 'depth': 1.614, 'time': 426, 'pitch': -58.73, 'roll': -78.86, 'pres': 185}
{'lipoC2': 7.33, 'lipoC3S1': 3.85, 'temp': 30.0, 'lipoC3S3': 11.64, 'lipoC3S2': 7.71, 'rot1': 136, 'rot0': 139, 'rot3': 35, 'rot2': 42, 'state': 'normal', 'yaw': -33.91, 'datetime': '2018-10-09 13:51:14.677638', 'mgs': 0, 'volt': 0.9033, 'depth': 1.614, 'time': 426, 'pitch': -56.7, 'roll': -80.32, 'pres': 185}
{'lipoC2': 7.33, 'lipoC3S1': 3.85, 'temp': 30.0, 'lipoC3S3': 11.64, 'lipoC3S2': 7.71, 'rot1': 136, 'rot0': 139, 'rot3': 35, 'rot2': 42, 'state': 'normal', 'yaw': -33.25, 'datetime': '2018-10-09 13:51:14.783466', 'mgs': 0, 'volt': 0.9033, 'depth': 1.614, 'time': 427, 'pitch': -54.98, 'roll': -81.59, 'pres': 185}
{'lipoC2': 7.33, 'lipoC3S1': 3.85, 'temp': 30.0, 'lipoC3S3': 11.64, 'lipoC3S2': 7.71, 'rot1': 136, 'rot0': 139, 'rot3': 35, 'rot2': 42, 'state': 'normal', 'yaw': -32.03, 'datetime': '2018-10-09 13:51:14.887116', 'mgs': 0, 'volt': 0.9033, 'depth': 1.614, 'time': 427, 'pitch': -53.55, 'roll': -83.02, 'pres': 185}
{'lipoC2': 7.33, 'lipoC3S1': 3.85, 'temp': 30.0, 'lipoC3S3': 11.64, 'lipoC3S2': 7.71, 'rot1': 136, 'rot0': 139, 'rot3': 35, 'rot2': 42, 'state': 'normal', 'yaw': -30.39, 'datetime': '2018-10-09 13:51:14.991552', 'mgs': 0, 'volt': 0.9033, 'depth': 1.614, 'time': 427, 'pitch': -52.77, 'roll': -84.31, 'pres': 185}
{'lipoC2': 7.33, 'lipoC3S1': 3.85, 'temp': 30.0, 'lipoC3S3': 11.65, 'lipoC3S2': 7.71, 'rot1': 136, 'rot0': 139, 'rot3': 35, 'rot2': 42, 'state': 'normal', 'yaw': -28.49, 'datetime': '2018-10-09 13:51:15.096015', 'mgs': 0, 'volt': 0.9033, 'depth': 1.614, 'time': 427, 'pitch': -52.28, 'roll': -85.45, 'pres': 185}
{'lipoC2': 7.33, 'lipoC3S1': 3.85, 'temp': 30.0, 'lipoC3S3': 11.64, 'lipoC3S2': 7.71, 'rot1': 136, 'rot0': 139, 'rot3': 35, 'rot2': 42, 'state': 'normal', 'yaw': -26.62, 'datetime': '2018-10-09 13:51:15.199669', 'mgs': 0, 'volt': 0.9033, 'depth': 1.614, 'time': 427, 'pitch': -51.77, 'roll': -86.29, 'pres': 185}
{'lipoC2': 7.33, 'lipoC3S1': 3.85, 'temp': 30.0, 'lipoC3S3': 11.65, 'lipoC3S2': 7.71, 'rot1': 136, 'rot0': 139, 'rot3': 35, 'rot2': 42, 'state': 'normal', 'yaw': -25.3, 'datetime': '2018-10-09 13:51:15.303754', 'mgs': 0, 'volt': 0.9033, 'depth': 1.614, 'time': 427, 'pitch': -51.15, 'roll': -86.7, 'pres': 185}
{'lipoC2': 7.33, 'lipoC3S1': 3.85, 'temp': 30.0, 'lipoC3S3': 11.64, 'lipoC3S2': 7.71, 'rot1': 136, 'rot0': 139, 'rot3': 35, 'rot2': 42, 'state': 'normal', 'yaw': -24.27, 'datetime': '2018-10-09 13:51:15.408148', 'mgs': 0, 'volt': 0.9082, 'depth': 1.691, 'time': 427, 'pitch': -50.18, 'roll': -86.85, 'pres': 186}
{'lipoC2': 7.33, 'lipoC3S1': 3.85, 'temp': 30.0, 'lipoC3S3': 11.65, 'lipoC3S2': 7.71, 'rot1': 136, 'rot0': 139, 'rot3': 35, 'rot2': 42, 'state': 'normal', 'yaw': -23.74, 'datetime': '2018-10-09 13:51:15.512108', 'mgs': 0, 'volt': 0.9082, 'depth': 1.691, 'time': 427, 'pitch': -49.28, 'roll': -86.65, 'pres': 186}
{'lipoC2': 7.33, 'lipoC3S1': 3.85, 'temp': 30.0, 'lipoC3S3': 11.65, 'lipoC3S2': 7.71, 'rot1': 136, 'rot0': 139, 'rot3': 35, 'rot2': 42, 'state': 'normal', 'yaw': -23.09, 'datetime': '2018-10-09 13:51:15.616688', 'mgs': 0, 'volt': 0.9082, 'depth': 1.691, 'time': 427, 'pitch': -48.68, 'roll': -86.43, 'pres': 186}
{'lipoC2': 7.33, 'lipoC3S1': 3.85, 'temp': 30.0, 'lipoC3S3': 11.64, 'lipoC3S2': 7.71, 'rot1': 136, 'rot0': 139, 'rot3': 35, 'rot2': 42, 'state': 'normal', 'yaw': -22.35, 'datetime': '2018-10-09 13:51:15.720765', 'mgs': 0, 'volt': 0.9082, 'depth': 1.691, 'time': 428, 'pitch': -48.32, 'roll': -86.12, 'pres': 186}
{'lipoC2': 7.33, 'lipoC3S1': 3.85, 'temp': 30.0, 'lipoC3S3': 11.64, 'lipoC3S2': 7.71, 'rot1': 136, 'rot0': 139, 'rot3': 35, 'rot2': 42, 'state': 'normal', 'yaw': -21.47, 'datetime': '2018-10-09 13:51:15.826405', 'mgs': 0, 'volt': 0.9033, 'depth': 1.614, 'time': 428, 'pitch': -47.97, 'roll': -86.09, 'pres': 185}
{'lipoC2': 7.33, 'lipoC3S1': 3.85, 'temp': 29.94, 'lipoC3S3': 11.64, 'lipoC3S2': 7.71, 'rot1': 136, 'rot0': 139, 'rot3': 35, 'rot2': 42, 'state': 'normal', 'yaw': -20.8, 'datetime': '2018-10-09 13:51:15.930286', 'mgs': 0, 'volt': 0.9033, 'depth': 1.614, 'time': 428, 'pitch': -47.46, 'roll': -86.04, 'pres': 185}
{'lipoC2': 7.33, 'lipoC3S1': 3.85, 'temp': 29.94, 'lipoC3S3': 11.64, 'lipoC3S2': 7.71, 'rot1': 136, 'rot0': 139, 'rot3': 35, 'rot2': 42, 'state': 'normal', 'yaw': -20.86, 'datetime': '2018-10-09 13:51:16.035904', 'mgs': 0, 'volt': 0.9082, 'depth': 1.691, 'time': 428, 'pitch': -47.05, 'roll': -85.71, 'pres': 186}
{'lipoC2': 7.33, 'lipoC3S1': 3.85, 'temp': 30.06, 'lipoC3S3': 11.64, 'lipoC3S2': 7.71, 'rot1': 136, 'rot0': 139, 'rot3': 35, 'rot2': 42, 'state': 'normal', 'yaw': -21.37, 'datetime': '2018-10-09 13:51:16.139654', 'mgs': 0, 'volt': 0.9033, 'depth': 1.614, 'time': 428, 'pitch': -46.68, 'roll': -85.25, 'pres': 185}
{'lipoC2': 7.33, 'lipoC3S1': 3.85, 'temp': 30.06, 'lipoC3S3': 11.65, 'lipoC3S2': 7.71, 'rot1': 136, 'rot0': 139, 'rot3': 35, 'rot2': 42, 'state': 'normal', 'yaw': -21.84, 'datetime': '2018-10-09 13:51:16.243981', 'mgs': 0, 'volt': 0.9033, 'depth': 1.614, 'time': 428, 'pitch': -46.5, 'roll': -85.04, 'pres': 185}
{'lipoC2': 7.33, 'lipoC3S1': 3.85, 'temp': 29.94, 'lipoC3S3': 11.65, 'lipoC3S2': 7.71, 'rot1': 136, 'rot0': 139, 'rot3': 35, 'rot2': 42, 'state': 'normal', 'yaw': -22.39, 'datetime': '2018-10-09 13:51:16.340699', 'mgs': 0, 'volt': 0.9033, 'depth': 1.614, 'time': 428, 'pitch': -46.45, 'roll': -84.98, 'pres': 185}
{'lipoC2': 7.33, 'lipoC3S1': 3.85, 'temp': 29.94, 'lipoC3S3': 11.65, 'lipoC3S2': 7.71, 'rot1': 136, 'rot0': 139, 'rot3': 35, 'rot2': 42, 'state': 'normal', 'yaw': -23.06, 'datetime': '2018-10-09 13:51:16.449071', 'mgs': 0, 'volt': 0.9033, 'depth': 1.614, 'time': 428, 'pitch': -46.47, 'roll': -85.01, 'pres': 185}
{'lipoC2': 7.33, 'lipoC3S1': 3.85, 'temp': 29.94, 'lipoC3S3': 11.64, 'lipoC3S2': 7.71, 'rot1': 136, 'rot0': 139, 'rot3': 35, 'rot2': 42, 'state': 'normal', 'yaw': -23.56, 'datetime': '2018-10-09 13:51:16.552940', 'mgs': 0, 'volt': 0.8984, 'depth': 1.538, 'time': 428, 'pitch': -46.55, 'roll': -85.24, 'pres': 184}
{'lipoC2': 7.33, 'lipoC3S1': 3.85, 'temp': 30.0, 'lipoC3S3': 11.64, 'lipoC3S2': 7.71, 'rot1': 136, 'rot0': 139, 'rot3': 35, 'rot2': 42, 'state': 'normal', 'yaw': -23.75, 'datetime': '2018-10-09 13:51:16.657192', 'mgs': 0, 'volt': 0.8984, 'depth': 1.538, 'time': 428, 'pitch': -46.72, 'roll': -85.85, 'pres': 184}
{'lipoC2': 7.33, 'lipoC3S1': 3.85, 'temp': 30.0, 'lipoC3S3': 11.64, 'lipoC3S2': 7.71, 'rot1': 136, 'rot0': 139, 'rot3': 35, 'rot2': 42, 'state': 'normal', 'yaw': -23.42, 'datetime': '2018-10-09 13:51:16.761496', 'mgs': 0, 'volt': 0.8984, 'depth': 1.538, 'time': 429, 'pitch': -46.95, 'roll': -86.81, 'pres': 184}
{'lipoC2': 7.33, 'lipoC3S1': 3.85, 'temp': 30.0, 'lipoC3S3': 11.65, 'lipoC3S2': 7.71, 'rot1': 136, 'rot0': 139, 'rot3': 35, 'rot2': 42, 'state': 'normal', 'yaw': -22.9, 'datetime': '2018-10-09 13:51:16.866121', 'mgs': 0, 'volt': 0.8984, 'depth': 1.538, 'time': 429, 'pitch': -47.26, 'roll': -87.84, 'pres': 184}
{'lipoC2': 7.33, 'lipoC3S1': 3.85, 'temp': 30.0, 'lipoC3S3': 11.64, 'lipoC3S2': 7.71, 'rot1': 136, 'rot0': 139, 'rot3': 35, 'rot2': 42, 'state': 'normal', 'yaw': -22.67, 'datetime': '2018-10-09 13:51:16.970264', 'mgs': 0, 'volt': 0.8984, 'depth': 1.538, 'time': 429, 'pitch': -47.74, 'roll': -88.56, 'pres': 184}
{'lipoC2': 7.33, 'lipoC3S1': 3.85, 'temp': 30.0, 'lipoC3S3': 11.64, 'lipoC3S2': 7.71, 'rot1': 136, 'rot0': 139, 'rot3': 35, 'rot2': 42, 'state': 'normal', 'yaw': -23.01, 'datetime': '2018-10-09 13:51:17.075738', 'mgs': 0, 'volt': 0.8936, 'depth': 1.462, 'time': 429, 'pitch': -48.28, 'roll': -88.7, 'pres': 183}
{'lipoC2': 7.33, 'lipoC3S1': 3.85, 'temp': 30.0, 'lipoC3S3': 11.65, 'lipoC3S2': 7.71, 'rot1': 136, 'rot0': 139, 'rot3': 35, 'rot2': 42, 'state': 'normal', 'yaw': -23.74, 'datetime': '2018-10-09 13:51:17.179651', 'mgs': 0, 'volt': 0.8936, 'depth': 1.462, 'time': 429, 'pitch': -48.9, 'roll': -88.55, 'pres': 183}
{'lipoC2': 7.33, 'lipoC3S1': 3.85, 'temp': 30.0, 'lipoC3S3': 11.64, 'lipoC3S2': 7.71, 'rot1': 136, 'rot0': 139, 'rot3': 35, 'rot2': 42, 'state': 'normal', 'yaw': -24.36, 'datetime': '2018-10-09 13:51:17.285211', 'mgs': 0, 'volt': 0.8887, 'depth': 1.385, 'time': 429, 'pitch': -49.48, 'roll': -88.44, 'pres': 182}
{'lipoC2': 7.33, 'lipoC3S1': 3.85, 'temp': 30.0, 'lipoC3S3': 11.64, 'lipoC3S2': 7.71, 'rot1': 136, 'rot0': 139, 'rot3': 35, 'rot2': 42, 'state': 'normal', 'yaw': -24.45, 'datetime': '2018-10-09 13:51:17.389277', 'mgs': 0, 'volt': 0.8887, 'depth': 1.385, 'time': 429, 'pitch': -50.16, 'roll': -88.66, 'pres': 182}
{'lipoC2': 7.33, 'lipoC3S1': 3.85, 'temp': 30.0, 'lipoC3S3': 11.65, 'lipoC3S2': 7.71, 'rot1': 136, 'rot0': 139, 'rot3': 35, 'rot2': 42, 'state': 'normal', 'yaw': -23.83, 'datetime': '2018-10-09 13:51:17.493388', 'mgs': 0, 'volt': 0.8936, 'depth': 1.462, 'time': 429, 'pitch': -50.76, 'roll': -89.26, 'pres': 183}
{'lipoC2': 7.33, 'lipoC3S1': 3.85, 'temp': 30.0, 'lipoC3S3': 11.64, 'lipoC3S2': 7.71, 'rot1': 136, 'rot0': 139, 'rot3': 35, 'rot2': 42, 'state': 'normal', 'yaw': -23.02, 'datetime': '2018-10-09 13:51:17.598155', 'mgs': 0, 'volt': 0.8936, 'depth': 1.462, 'time': 429, 'pitch': -51.33, 'roll': -89.88, 'pres': 183}
{'lipoC2': 7.33, 'lipoC3S1': 3.85, 'temp': 30.0, 'lipoC3S3': 11.64, 'lipoC3S2': 7.71, 'rot1': 136, 'rot0': 139, 'rot3': 35, 'rot2': 42, 'state': 'normal', 'yaw': -22.75, 'datetime': '2018-10-09 13:51:17.701918', 'mgs': 0, 'volt': 0.8936, 'depth': 1.462, 'time': 429, 'pitch': -51.89, 'roll': -90.09, 'pres': 183}
{'lipoC2': 7.33, 'lipoC3S1': 3.85, 'temp': 30.0, 'lipoC3S3': 11.64, 'lipoC3S2': 7.71, 'rot1': 136, 'rot0': 139, 'rot3': 35, 'rot2': 42, 'state': 'normal', 'yaw': -23.2, 'datetime': '2018-10-09 13:51:17.806271', 'mgs': 0, 'volt': 0.8936, 'depth': 1.462, 'time': 430, 'pitch': -52.35, 'roll': -89.74, 'pres': 183}
{'lipoC2': 7.33, 'lipoC3S1': 3.85, 'temp': 30.0, 'lipoC3S3': 11.65, 'lipoC3S2': 7.71, 'rot1': 136, 'rot0': 139, 'rot3': 35, 'rot2': 42, 'state': 'normal', 'yaw': -24.29, 'datetime': '2018-10-09 13:51:17.910421', 'mgs': 0, 'volt': 0.8936, 'depth': 1.462, 'time': 430, 'pitch': -52.73, 'roll': -88.86, 'pres': 183}
{'lipoC2': 7.33, 'lipoC3S1': 3.85, 'temp': 30.0, 'lipoC3S3': 11.64, 'lipoC3S2': 7.71, 'rot1': 136, 'rot0': 139, 'rot3': 35, 'rot2': 42, 'state': 'normal', 'yaw': -25.36, 'datetime': '2018-10-09 13:51:18.014450', 'mgs': 0, 'volt': 0.8936, 'depth': 1.462, 'time': 430, 'pitch': -52.91, 'roll': -87.83, 'pres': 183}
{'lipoC2': 7.33, 'lipoC3S1': 3.85, 'temp': 30.0, 'lipoC3S3': 11.64, 'lipoC3S2': 7.71, 'rot1': 136, 'rot0': 139, 'rot3': 35, 'rot2': 42, 'state': 'normal', 'yaw': -26.15, 'datetime': '2018-10-09 13:51:18.119022', 'mgs': 0, 'volt': 0.8936, 'depth': 1.462, 'time': 430, 'pitch': -52.97, 'roll': -86.87, 'pres': 183}
{'lipoC2': 7.33, 'lipoC3S1': 3.85, 'temp': 30.0, 'lipoC3S3': 11.64, 'lipoC3S2': 7.71, 'rot1': 136, 'rot0': 139, 'rot3': 35, 'rot2': 42, 'state': 'normal', 'yaw': -26.18, 'datetime': '2018-10-09 13:51:18.223077', 'mgs': 0, 'volt': 0.8936, 'depth': 1.462, 'time': 430, 'pitch': -53.1, 'roll': -86.31, 'pres': 183}
{'lipoC2': 7.33, 'lipoC3S1': 3.85, 'temp': 30.0, 'lipoC3S3': 11.65, 'lipoC3S2': 7.71, 'rot1': 136, 'rot0': 139, 'rot3': 35, 'rot2': 42, 'state': 'normal', 'yaw': -25.47, 'datetime': '2018-10-09 13:51:18.328464', 'mgs': 0, 'volt': 0.8936, 'depth': 1.462, 'time': 430, 'pitch': -53.3, 'roll': -86.37, 'pres': 183}
{'lipoC2': 7.33, 'lipoC3S1': 3.85, 'temp': 30.0, 'lipoC3S3': 11.64, 'lipoC3S2': 7.71, 'rot1': 136, 'rot0': 139, 'rot3': 35, 'rot2': 42, 'state': 'normal', 'yaw': -24.5, 'datetime': '2018-10-09 13:51:18.432499', 'mgs': 0, 'volt': 0.8936, 'depth': 1.462, 'time': 430, 'pitch': -53.46, 'roll': -86.74, 'pres': 183}
{'lipoC2': 7.33, 'lipoC3S1': 3.85, 'temp': 29.94, 'lipoC3S3': 11.64, 'lipoC3S2': 7.71, 'rot1': 136, 'rot0': 139, 'rot3': 35, 'rot2': 42, 'state': 'normal', 'yaw': -24.01, 'datetime': '2018-10-09 13:51:18.538054', 'mgs': 0, 'volt': 0.8936, 'depth': 1.462, 'time': 430, 'pitch': -53.5, 'roll': -86.96, 'pres': 183}
{'lipoC2': 7.33, 'lipoC3S1': 3.85, 'temp': 29.94, 'lipoC3S3': 11.65, 'lipoC3S2': 7.71, 'rot1': 136, 'rot0': 139, 'rot3': 35, 'rot2': 42, 'state': 'normal', 'yaw': -24.03, 'datetime': '2018-10-09 13:51:18.642193', 'mgs': 0, 'volt': 0.8936, 'depth': 1.462, 'time': 430, 'pitch': -53.5, 'roll': -86.92, 'pres': 183}
{'lipoC2': 7.33, 'lipoC3S1': 3.85, 'temp': 29.94, 'lipoC3S3': 11.65, 'lipoC3S2': 7.71, 'rot1': 136, 'rot0': 139, 'rot3': 35, 'rot2': 42, 'state': 'normal', 'yaw': -24.57, 'datetime': '2018-10-09 13:51:18.746496', 'mgs': 0, 'volt': 0.8936, 'depth': 1.462, 'time': 431, 'pitch': -53.52, 'roll': -86.44, 'pres': 183}
{'lipoC2': 7.33, 'lipoC3S1': 3.85, 'temp': 29.94, 'lipoC3S3': 11.64, 'lipoC3S2': 7.71, 'rot1': 136, 'rot0': 139, 'rot3': 35, 'rot2': 42, 'state': 'normal', 'yaw': -25.3, 'datetime': '2018-10-09 13:51:18.850549', 'mgs': 0, 'volt': 0.8936, 'depth': 1.462, 'time': 431, 'pitch': -53.64, 'roll': -85.73, 'pres': 183}
{'lipoC2': 7.33, 'lipoC3S1': 3.85, 'temp': 29.94, 'lipoC3S3': 11.65, 'lipoC3S2': 7.71, 'rot1': 136, 'rot0': 139, 'rot3': 35, 'rot2': 42, 'state': 'normal', 'yaw': -25.91, 'datetime': '2018-10-09 13:51:18.956151', 'mgs': 0, 'volt': 0.8887, 'depth': 1.385, 'time': 431, 'pitch': -53.91, 'roll': -85.05, 'pres': 182}
{'lipoC2': 7.33, 'lipoC3S1': 3.85, 'temp': 30.0, 'lipoC3S3': 11.65, 'lipoC3S2': 7.71, 'rot1': 136, 'rot0': 139, 'rot3': 35, 'rot2': 42, 'state': 'normal', 'yaw': -26.1, 'datetime': '2018-10-09 13:51:19.055688', 'mgs': 0, 'volt': 0.8887, 'depth': 1.385, 'time': 431, 'pitch': -54.27, 'roll': -84.74, 'pres': 182}
{'lipoC2': 7.33, 'lipoC3S1': 3.85, 'temp': 30.0, 'lipoC3S3': 11.64, 'lipoC3S2': 7.71, 'rot1': 136, 'rot0': 139, 'rot3': 35, 'rot2': 42, 'state': 'normal', 'yaw': -26.09, 'datetime': '2018-10-09 13:51:19.166600', 'mgs': 0, 'volt': 0.8936, 'depth': 1.462, 'time': 431, 'pitch': -54.76, 'roll': -84.68, 'pres': 183}
{'lipoC2': 7.33, 'lipoC3S1': 3.85, 'temp': 30.0, 'lipoC3S3': 11.64, 'lipoC3S2': 7.71, 'rot1': 136, 'rot0': 139, 'rot3': 35, 'rot2': 42, 'state': 'normal', 'yaw': -26.15, 'datetime': '2018-10-09 13:51:19.270652', 'mgs': 0, 'volt': 0.8936, 'depth': 1.462, 'time': 431, 'pitch': -55.3, 'roll': -84.73, 'pres': 183}
{'lipoC2': 7.33, 'lipoC3S1': 3.85, 'temp': 30.0, 'lipoC3S3': 11.64, 'lipoC3S2': 7.71, 'rot1': 136, 'rot0': 139, 'rot3': 35, 'rot2': 42, 'state': 'normal', 'yaw': -26.42, 'datetime': '2018-10-09 13:51:19.375365', 'mgs': 0, 'volt': 0.8936, 'depth': 1.462, 'time': 431, 'pitch': -55.89, 'roll': -84.76, 'pres': 183}
{'lipoC2': 7.33, 'lipoC3S1': 3.85, 'temp': 30.0, 'lipoC3S3': 11.64, 'lipoC3S2': 7.71, 'rot1': 136, 'rot0': 139, 'rot3': 35, 'rot2': 42, 'state': 'normal', 'yaw': -26.88, 'datetime': '2018-10-09 13:51:19.480313', 'mgs': 0, 'volt': 0.8936, 'depth': 1.462, 'time': 431, 'pitch': -56.59, 'roll': -84.76, 'pres': 183}
{'lipoC2': 7.33, 'lipoC3S1': 3.85, 'temp': 30.0, 'lipoC3S3': 11.64, 'lipoC3S2': 7.71, 'rot1': 136, 'rot0': 139, 'rot3': 35, 'rot2': 42, 'state': 'normal', 'yaw': -27.15, 'datetime': '2018-10-09 13:51:19.585311', 'mgs': 0, 'volt': 0.8887, 'depth': 1.385, 'time': 431, 'pitch': -57.16, 'roll': -84.86, 'pres': 182}
{'lipoC2': 7.33, 'lipoC3S1': 3.85, 'temp': 30.0, 'lipoC3S3': 11.64, 'lipoC3S2': 7.71, 'rot1': 136, 'rot0': 139, 'rot3': 35, 'rot2': 42, 'state': 'normal', 'yaw': -27.17, 'datetime': '2018-10-09 13:51:19.689250', 'mgs': 0, 'volt': 0.8936, 'depth': 1.462, 'time': 431, 'pitch': -57.68, 'roll': -85.14, 'pres': 183}
{'lipoC2': 7.33, 'lipoC3S1': 3.85, 'temp': 30.0, 'lipoC3S3': 11.64, 'lipoC3S2': 7.71, 'rot1': 136, 'rot0': 139, 'rot3': 35, 'rot2': 42, 'state': 'normal', 'yaw': -26.79, 'datetime': '2018-10-09 13:51:19.788627', 'mgs': 0, 'volt': 0.8887, 'depth': 1.385, 'time': 432, 'pitch': -58.15, 'roll': -85.66, 'pres': 182}
{'lipoC2': 7.33, 'lipoC3S1': 3.85, 'temp': 30.0, 'lipoC3S3': 11.65, 'lipoC3S2': 7.71, 'rot1': 136, 'rot0': 139, 'rot3': 35, 'rot2': 42, 'state': 'normal', 'yaw': -25.9, 'datetime': '2018-10-09 13:51:19.898563', 'mgs': 0, 'volt': 0.8887, 'depth': 1.385, 'time': 432, 'pitch': -58.74, 'roll': -86.56, 'pres': 182}
{'lipoC2': 7.33, 'lipoC3S1': 3.85, 'temp': 30.0, 'lipoC3S3': 11.65, 'lipoC3S2': 7.71, 'rot1': 136, 'rot0': 139, 'rot3': 35, 'rot2': 42, 'state': 'normal', 'yaw': -24.71, 'datetime': '2018-10-09 13:51:20.000393', 'mgs': 0, 'volt': 0.8887, 'depth': 1.385, 'time': 432, 'pitch': -59.31, 'roll': -87.67, 'pres': 182}
{'lipoC2': 7.33, 'lipoC3S1': 3.85, 'temp': 30.0, 'lipoC3S3': 11.65, 'lipoC3S2': 7.71, 'rot1': 136, 'rot0': 139, 'rot3': 35, 'rot2': 42, 'state': 'normal', 'yaw': -23.68, 'datetime': '2018-10-09 13:51:20.107115', 'mgs': 0, 'volt': 0.8887, 'depth': 1.385, 'time': 432, 'pitch': -59.87, 'roll': -88.69, 'pres': 182}
{'lipoC2': 7.33, 'lipoC3S1': 3.85, 'temp': 29.94, 'lipoC3S3': 11.64, 'lipoC3S2': 7.71, 'rot1': 136, 'rot0': 139, 'rot3': 35, 'rot2': 42, 'state': 'normal', 'yaw': -23.25, 'datetime': '2018-10-09 13:51:20.211270', 'mgs': 0, 'volt': 0.8887, 'depth': 1.385, 'time': 432, 'pitch': -60.41, 'roll': -89.2, 'pres': 182}
{'lipoC2': 7.33, 'lipoC3S1': 3.85, 'temp': 29.94, 'lipoC3S3': 11.64, 'lipoC3S2': 7.71, 'rot1': 136, 'rot0': 139, 'rot3': 35, 'rot2': 42, 'state': 'normal', 'yaw': -23.78, 'datetime': '2018-10-09 13:51:20.315355', 'mgs': 0, 'volt': 0.8936, 'depth': 1.462, 'time': 432, 'pitch': -60.81, 'roll': -88.94, 'pres': 183}
{'lipoC2': 7.33, 'lipoC3S1': 3.85, 'temp': 29.94, 'lipoC3S3': 11.64, 'lipoC3S2': 7.71, 'rot1': 136, 'rot0': 139, 'rot3': 35, 'rot2': 42, 'state': 'normal', 'yaw': -25.35, 'datetime': '2018-10-09 13:51:20.419877', 'mgs': 0, 'volt': 0.8936, 'depth': 1.462, 'time': 432, 'pitch': -61.15, 'roll': -87.86, 'pres': 183}
{'lipoC2': 7.33, 'lipoC3S1': 3.85, 'temp': 30.06, 'lipoC3S3': 11.65, 'lipoC3S2': 7.71, 'rot1': 136, 'rot0': 139, 'rot3': 35, 'rot2': 42, 'state': 'normal', 'yaw': -27.11, 'datetime': '2018-10-09 13:51:20.523905', 'mgs': 0, 'volt': 0.8936, 'depth': 1.462, 'time': 432, 'pitch': -61.37, 'roll': -86.54, 'pres': 183}
{'lipoC2': 7.33, 'lipoC3S1': 3.85, 'temp': 30.06, 'lipoC3S3': 11.65, 'lipoC3S2': 7.71, 'rot1': 136, 'rot0': 139, 'rot3': 35, 'rot2': 42, 'state': 'normal', 'yaw': -28.42, 'datetime': '2018-10-09 13:51:20.628623', 'mgs': 0, 'volt': 0.8936, 'depth': 1.462, 'time': 432, 'pitch': -61.6, 'roll': -85.5, 'pres': 183}
{'lipoC2': 7.33, 'lipoC3S1': 3.85, 'temp': 29.94, 'lipoC3S3': 11.64, 'lipoC3S2': 7.71, 'rot1': 136, 'rot0': 139, 'rot3': 35, 'rot2': 42, 'state': 'normal', 'yaw': -28.51, 'datetime': '2018-10-09 13:51:20.732476', 'mgs': 0, 'volt': 0.8936, 'depth': 1.462, 'time': 433, 'pitch': -61.96, 'roll': -85.38, 'pres': 183}
{'lipoC2': 7.33, 'lipoC3S1': 3.85, 'temp': 29.94, 'lipoC3S3': 11.65, 'lipoC3S2': 7.71, 'rot1': 136, 'rot0': 139, 'rot3': 35, 'rot2': 42, 'state': 'normal', 'yaw': -27.5, 'datetime': '2018-10-09 13:51:20.838118', 'mgs': 0, 'volt': 0.8936, 'depth': 1.462, 'time': 433, 'pitch': -62.28, 'roll': -86.13, 'pres': 183}
{'lipoC2': 7.33, 'lipoC3S1': 3.85, 'temp': 30.0, 'lipoC3S3': 11.64, 'lipoC3S2': 7.71, 'rot1': 136, 'rot0': 139, 'rot3': 35, 'rot2': 42, 'state': 'normal', 'yaw': -25.92, 'datetime': '2018-10-09 13:51:20.942092', 'mgs': 0, 'volt': 0.8936, 'depth': 1.462, 'time': 433, 'pitch': -62.49, 'roll': -87.35, 'pres': 183}
{'lipoC2': 7.33, 'lipoC3S1': 3.85, 'temp': 30.0, 'lipoC3S3': 11.64, 'lipoC3S2': 7.71, 'rot1': 136, 'rot0': 139, 'rot3': 35, 'rot2': 42, 'state': 'normal', 'yaw': -25.1, 'datetime': '2018-10-09 13:51:21.047556', 'mgs': 0, 'volt': 0.8936, 'depth': 1.462, 'time': 433, 'pitch': -62.56, 'roll': -87.94, 'pres': 183}
{'lipoC2': 7.33, 'lipoC3S1': 3.85, 'temp': 30.0, 'lipoC3S3': 11.65, 'lipoC3S2': 7.71, 'rot1': 136, 'rot0': 139, 'rot3': 35, 'rot2': 42, 'state': 'normal', 'yaw': -25.28, 'datetime': '2018-10-09 13:51:21.151586', 'mgs': 0, 'volt': 0.8984, 'depth': 1.538, 'time': 433, 'pitch': -62.67, 'roll': -87.73, 'pres': 184}
{'lipoC2': 7.33, 'lipoC3S1': 3.85, 'temp': 30.0, 'lipoC3S3': 11.65, 'lipoC3S2': 7.71, 'rot1': 136, 'rot0': 139, 'rot3': 35, 'rot2': 42, 'state': 'normal', 'yaw': -26.24, 'datetime': '2018-10-09 13:51:21.256283', 'mgs': 0, 'volt': 0.8984, 'depth': 1.538, 'time': 433, 'pitch': -62.79, 'roll': -86.87, 'pres': 184}
{'lipoC2': 7.33, 'lipoC3S1': 3.85, 'temp': 30.0, 'lipoC3S3': 11.64, 'lipoC3S2': 7.71, 'rot1': 136, 'rot0': 139, 'rot3': 35, 'rot2': 42, 'state': 'normal', 'yaw': -27.53, 'datetime': '2018-10-09 13:51:21.359947', 'mgs': 0, 'volt': 0.8984, 'depth': 1.538, 'time': 433, 'pitch': -62.87, 'roll': -85.72, 'pres': 184}
{'lipoC2': 7.33, 'lipoC3S1': 3.85, 'temp': 30.0, 'lipoC3S3': 11.64, 'lipoC3S2': 7.71, 'rot1': 136, 'rot0': 139, 'rot3': 35, 'rot2': 42, 'state': 'normal', 'yaw': -28.62, 'datetime': '2018-10-09 13:51:21.464192', 'mgs': 0, 'volt': 0.8984, 'depth': 1.538, 'time': 433, 'pitch': -62.97, 'roll': -84.76, 'pres': 184}
{'lipoC2': 7.33, 'lipoC3S1': 3.85, 'temp': 30.0, 'lipoC3S3': 11.65, 'lipoC3S2': 7.71, 'rot1': 136, 'rot0': 139, 'rot3': 35, 'rot2': 42, 'state': 'normal', 'yaw': -28.66, 'datetime': '2018-10-09 13:51:21.568253', 'mgs': 0, 'volt': 0.8984, 'depth': 1.538, 'time': 433, 'pitch': -63.22, 'roll': -84.71, 'pres': 184}
{'lipoC2': 7.33, 'lipoC3S1': 3.85, 'temp': 30.06, 'lipoC3S3': 11.64, 'lipoC3S2': 7.71, 'rot1': 136, 'rot0': 139, 'rot3': 35, 'rot2': 42, 'state': 'normal', 'yaw': -27.41, 'datetime': '2018-10-09 13:51:21.672422', 'mgs': 0, 'volt': 0.8984, 'depth': 1.538, 'time': 433, 'pitch': -63.71, 'roll': -85.77, 'pres': 184}
{'lipoC2': 7.33, 'lipoC3S1': 3.85, 'temp': 30.06, 'lipoC3S3': 11.64, 'lipoC3S2': 7.71, 'rot1': 136, 'rot0': 139, 'rot3': 35, 'rot2': 42, 'state': 'normal', 'yaw': -25.13, 'datetime': '2018-10-09 13:51:21.776447', 'mgs': 0, 'volt': 0.8984, 'depth': 1.538, 'time': 434, 'pitch': -64.22, 'roll': -87.66, 'pres': 184}
{'lipoC2': 7.33, 'lipoC3S1': 3.85, 'temp': 30.06, 'lipoC3S3': 11.65, 'lipoC3S2': 7.71, 'rot1': 136, 'rot0': 139, 'rot3': 35, 'rot2': 42, 'state': 'normal', 'yaw': -22.47, 'datetime': '2018-10-09 13:51:21.881912', 'mgs': 0, 'volt': 0.8984, 'depth': 1.538, 'time': 434, 'pitch': -64.72, 'roll': -89.87, 'pres': 184}
{'lipoC2': 7.33, 'lipoC3S1': 3.85, 'temp': 29.94, 'lipoC3S3': 11.64, 'lipoC3S2': 7.71, 'rot1': 136, 'rot0': 139, 'rot3': 35, 'rot2': 42, 'state': 'normal', 'yaw': -20.13, 'datetime': '2018-10-09 13:51:21.985618', 'mgs': 0, 'volt': 0.8984, 'depth': 1.538, 'time': 434, 'pitch': -65.14, 'roll': -91.87, 'pres': 184}
{'lipoC2': 7.33, 'lipoC3S1': 3.85, 'temp': 29.94, 'lipoC3S3': 11.65, 'lipoC3S2': 7.71, 'rot1': 136, 'rot0': 139, 'rot3': 35, 'rot2': 42, 'state': 'normal', 'yaw': -19.47, 'datetime': '2018-10-09 13:51:22.091031', 'mgs': 0, 'volt': 0.8984, 'depth': 1.538, 'time': 434, 'pitch': -65.34, 'roll': -92.51, 'pres': 184}
{'lipoC2': 7.33, 'lipoC3S1': 3.85, 'temp': 30.0, 'lipoC3S3': 11.64, 'lipoC3S2': 7.71, 'rot1': 136, 'rot0': 139, 'rot3': 35, 'rot2': 42, 'state': 'normal', 'yaw': -20.64, 'datetime': '2018-10-09 13:51:22.193652', 'mgs': 0, 'volt': 0.8984, 'depth': 1.538, 'time': 434, 'pitch': -65.31, 'roll': -91.76, 'pres': 184}
{'lipoC2': 7.33, 'lipoC3S1': 3.85, 'temp': 30.0, 'lipoC3S3': 11.64, 'lipoC3S2': 7.71, 'rot1': 136, 'rot0': 139, 'rot3': 35, 'rot2': 42, 'state': 'normal', 'yaw': -23.06, 'datetime': '2018-10-09 13:51:22.300473', 'mgs': 0, 'volt': 0.9033, 'depth': 1.614, 'time': 434, 'pitch': -65.1, 'roll': -90.02, 'pres': 185}
{'lipoC2': 7.33, 'lipoC3S1': 3.85, 'temp': 30.0, 'lipoC3S3': 11.64, 'lipoC3S2': 7.71, 'rot1': 136, 'rot0': 139, 'rot3': 35, 'rot2': 42, 'state': 'normal', 'yaw': -26.37, 'datetime': '2018-10-09 13:51:22.409326', 'mgs': 0, 'volt': 0.8984, 'depth': 1.538, 'time': 434, 'pitch': -64.75, 'roll': -87.65, 'pres': 184}
{'lipoC2': 7.33, 'lipoC3S1': 3.85, 'temp': 30.0, 'lipoC3S3': 11.64, 'lipoC3S2': 7.71, 'rot1': 136, 'rot0': 139, 'rot3': 35, 'rot2': 42, 'state': 'normal', 'yaw': -28.87, 'datetime': '2018-10-09 13:51:22.508618', 'mgs': 0, 'volt': 0.8984, 'depth': 1.538, 'time': 434, 'pitch': -64.42, 'roll': -85.91, 'pres': 184}
{'lipoC2': 7.33, 'lipoC3S1': 3.85, 'temp': 30.0, 'lipoC3S3': 11.64, 'lipoC3S2': 7.71, 'rot1': 136, 'rot0': 139, 'rot3': 35, 'rot2': 42, 'state': 'normal', 'yaw': -30.29, 'datetime': '2018-10-09 13:51:22.613160', 'mgs': 0, 'volt': 0.9033, 'depth': 1.614, 'time': 434, 'pitch': -64.13, 'roll': -85.04, 'pres': 185}
{'lipoC2': 7.33, 'lipoC3S1': 3.85, 'temp': 30.0, 'lipoC3S3': 11.65, 'lipoC3S2': 7.71, 'rot1': 136, 'rot0': 139, 'rot3': 35, 'rot2': 42, 'state': 'normal', 'yaw': -30.66, 'datetime': '2018-10-09 13:51:22.717199', 'mgs': 0, 'volt': 0.8984, 'depth': 1.538, 'time': 435, 'pitch': -63.84, 'roll': -85.02, 'pres': 184}
{'lipoC2': 7.33, 'lipoC3S1': 3.85, 'temp': 30.0, 'lipoC3S3': 11.64, 'lipoC3S2': 7.71, 'rot1': 136, 'rot0': 139, 'rot3': 35, 'rot2': 42, 'state': 'normal', 'yaw': -30.1, 'datetime': '2018-10-09 13:51:22.821312', 'mgs': 0, 'volt': 0.9033, 'depth': 1.614, 'time': 435, 'pitch': -63.68, 'roll': -85.73, 'pres': 185}
{'lipoC2': 7.33, 'lipoC3S1': 3.85, 'temp': 29.94, 'lipoC3S3': 11.64, 'lipoC3S2': 7.71, 'rot1': 136, 'rot0': 139, 'rot3': 35, 'rot2': 42, 'state': 'normal', 'yaw': -29.02, 'datetime': '2018-10-09 13:51:22.919232', 'mgs': 1, 'volt': 0.8984, 'depth': 1.538, 'time': 435, 'pitch': -63.64, 'roll': -86.82, 'pres': 184}
{'lipoC2': 7.33, 'lipoC3S1': 3.85, 'temp': 30.0, 'lipoC3S3': 11.65, 'lipoC3S2': 7.71, 'rot1': 0, 'rot0': 0, 'rot3': 0, 'rot2': 0, 'state': 'normal', 'yaw': 0.0, 'datetime': '2018-10-09 13:51:25.951570', 'mgs': 0, 'volt': 0.9082, 'depth': 1.691, 'time': 1, 'pitch': -25.39, 'roll': -14.03, 'pres': 186}
{'lipoC2': 7.33, 'lipoC3S1': 3.85, 'temp': 30.0, 'lipoC3S3': 11.64, 'lipoC3S2': 7.71, 'rot1': 0, 'rot0': 0, 'rot3': 0, 'rot2': 0, 'state': 'normal', 'yaw': -1.77, 'datetime': '2018-10-09 13:51:28.995376', 'mgs': 0, 'volt': 0.9082, 'depth': 1.691, 'time': 1, 'pitch': -19.53, 'roll': -9.7, 'pres': 186}
{'lipoC2': 7.33, 'lipoC3S1': 3.85, 'temp': 30.0, 'lipoC3S3': 11.65, 'lipoC3S2': 7.71, 'rot1': 0, 'rot0': 0, 'rot3': 0, 'rot2': 0, 'state': 'normal', 'yaw': -2.9, 'datetime': '2018-10-09 13:51:29.026430', 'mgs': 0, 'volt': 0.9082, 'depth': 1.691, 'time': 1, 'pitch': -15.44, 'roll': -6.89, 'pres': 186}
{'lipoC2': 7.33, 'lipoC3S1': 3.85, 'temp': 30.0, 'lipoC3S3': 11.65, 'lipoC3S2': 7.71, 'rot1': 0, 'rot0': 0, 'rot3': 0, 'rot2': 0, 'state': 'normal', 'yaw': -3.74, 'datetime': '2018-10-09 13:51:29.043585', 'mgs': 0, 'volt': 0.9082, 'depth': 1.691, 'time': 1, 'pitch': -12.14, 'roll': -4.87, 'pres': 186}
{'lipoC2': 7.33, 'lipoC3S1': 3.85, 'temp': 30.0, 'lipoC3S3': 11.65, 'lipoC3S2': 7.71, 'rot1': 0, 'rot0': 0, 'rot3': 0, 'rot2': 0, 'state': 'normal', 'yaw': -4.29, 'datetime': '2018-10-09 13:51:29.059915', 'mgs': 0, 'volt': 0.9033, 'depth': 1.614, 'time': 1, 'pitch': -9.6, 'roll': -3.44, 'pres': 185}
{'lipoC2': 7.33, 'lipoC3S1': 3.85, 'temp': 30.0, 'lipoC3S3': 11.65, 'lipoC3S2': 7.71, 'rot1': 0, 'rot0': 0, 'rot3': 0, 'rot2': 0, 'state': 'normal', 'yaw': -4.54, 'datetime': '2018-10-09 13:51:29.076055', 'mgs': 0, 'volt': 0.9033, 'depth': 1.614, 'time': 1, 'pitch': -7.57, 'roll': -2.47, 'pres': 185}
{'lipoC2': 7.33, 'lipoC3S1': 3.85, 'temp': 30.0, 'lipoC3S3': 11.65, 'lipoC3S2': 7.71, 'rot1': 0, 'rot0': 0, 'rot3': 0, 'rot2': 0, 'state': 'normal', 'yaw': -4.38, 'datetime': '2018-10-09 13:51:29.092788', 'mgs': 0, 'volt': 0.9033, 'depth': 1.614, 'time': 1, 'pitch': -6.69, 'roll': -2.11, 'pres': 185}
{'lipoC2': 7.33, 'lipoC3S1': 3.85, 'temp': 30.0, 'lipoC3S3': 11.65, 'lipoC3S2': 7.71, 'rot1': 0, 'rot0': 0, 'rot3': 0, 'rot2': 0, 'state': 'normal', 'yaw': -3.99, 'datetime': '2018-10-09 13:51:29.109244', 'mgs': 0, 'volt': 0.8984, 'depth': 1.538, 'time': 1, 'pitch': -6.94, 'roll': -2.19, 'pres': 184}
{'lipoC2': 7.33, 'lipoC3S1': 3.85, 'temp': 30.0, 'lipoC3S3': 11.65, 'lipoC3S2': 7.71, 'rot1': 0, 'rot0': 0, 'rot3': 0, 'rot2': 0, 'state': 'normal', 'yaw': -3.56, 'datetime': '2018-10-09 13:51:29.125685', 'mgs': 0, 'volt': 0.8984, 'depth': 1.538, 'time': 2, 'pitch': -8.19, 'roll': -2.42, 'pres': 184}
{'lipoC2': 7.33, 'lipoC3S1': 3.85, 'temp': 30.0, 'lipoC3S3': 11.64, 'lipoC3S2': 7.71, 'rot1': 0, 'rot0': 0, 'rot3': 0, 'rot2': 0, 'state': 'normal', 'yaw': -3.18, 'datetime': '2018-10-09 13:51:29.146240', 'mgs': 0, 'volt': 0.9033, 'depth': 1.614, 'time': 2, 'pitch': -9.4, 'roll': -2.71, 'pres': 185}
{'lipoC2': 7.33, 'lipoC3S1': 3.85, 'temp': 30.0, 'lipoC3S3': 11.65, 'lipoC3S2': 7.71, 'rot1': 0, 'rot0': 0, 'rot3': 0, 'rot2': 0, 'state': 'normal', 'yaw': -2.8, 'datetime': '2018-10-09 13:51:29.163038', 'mgs': 0, 'volt': 0.8984, 'depth': 1.538, 'time': 2, 'pitch': -9.74, 'roll': -3.06, 'pres': 184}
{'lipoC2': 7.33, 'lipoC3S1': 3.85, 'temp': 30.0, 'lipoC3S3': 11.65, 'lipoC3S2': 7.71, 'rot1': 0, 'rot0': 0, 'rot3': 0, 'rot2': 0, 'state': 'normal', 'yaw': -2.48, 'datetime': '2018-10-09 13:51:29.182720', 'mgs': 0, 'volt': 0.8984, 'depth': 1.538, 'time': 2, 'pitch': -8.71, 'roll': -3.35, 'pres': 184}
{'lipoC2': 7.33, 'lipoC3S1': 3.85, 'temp': 30.0, 'lipoC3S3': 11.65, 'lipoC3S2': 7.71, 'rot1': 0, 'rot0': 0, 'rot3': 0, 'rot2': 0, 'state': 'normal', 'yaw': -2.31, 'datetime': '2018-10-09 13:51:29.202372', 'mgs': 0, 'volt': 0.9033, 'depth': 1.614, 'time': 2, 'pitch': -7.4, 'roll': -3.55, 'pres': 185}
{'lipoC2': 7.33, 'lipoC3S1': 3.85, 'temp': 30.0, 'lipoC3S3': 11.65, 'lipoC3S2': 7.71, 'rot1': 0, 'rot0': 0, 'rot3': 0, 'rot2': 0, 'state': 'normal', 'yaw': -2.18, 'datetime': '2018-10-09 13:51:29.222074', 'mgs': 0, 'volt': 0.9033, 'depth': 1.614, 'time': 2, 'pitch': -5.72, 'roll': -3.67, 'pres': 185}
