{'lipoC2': 7.48, 'lipoC3S1': 4.09, 'temp': 30.56, 'lipoC3S3': 12.38, 'lipoC3S2': 8.18, 'rot1': 531, 'rot0': 537, 'rot3': 350, 'rot2': 307, 'state': 'normal', 'yaw': -66.05, 'datetime': '2018-10-09 12:38:39.953173', 'mgs': 0, 'volt': 0.8936, 'depth': 1.462, 'time': 125, 'pitch': -5.85, 'roll': -10.1, 'pres': 183}
{'lipoC2': 7.48, 'lipoC3S1': 4.09, 'temp': 30.56, 'lipoC3S3': 12.38, 'lipoC3S2': 8.18, 'rot1': 531, 'rot0': 537, 'rot3': 350, 'rot2': 307, 'state': 'normal', 'yaw': -66.38, 'datetime': '2018-10-09 12:38:39.977646', 'mgs': 0, 'volt': 0.8887, 'depth': 1.385, 'time': 125, 'pitch': -5.7, 'roll': -10.3, 'pres': 182}
{'lipoC2': 7.48, 'lipoC3S1': 4.09, 'temp': 30.5, 'lipoC3S3': 12.38, 'lipoC3S2': 8.18, 'rot1': 531, 'rot0': 537, 'rot3': 350, 'rot2': 307, 'state': 'normal', 'yaw': -66.54, 'datetime': '2018-10-09 12:38:40.002220', 'mgs': 0, 'volt': 0.8936, 'depth': 1.462, 'time': 125, 'pitch': -4.54, 'roll': -10.34, 'pres': 183}
{'lipoC2': 7.48, 'lipoC3S1': 4.09, 'temp': 30.5, 'lipoC3S3': 12.38, 'lipoC3S2': 8.18, 'rot1': 531, 'rot0': 537, 'rot3': 350, 'rot2': 307, 'state': 'normal', 'yaw': -66.58, 'datetime': '2018-10-09 12:38:40.026644', 'mgs': 0, 'volt': 0.8936, 'depth': 1.462, 'time': 125, 'pitch': -2.82, 'roll': -10.24, 'pres': 183}
{'lipoC2': 7.48, 'lipoC3S1': 4.09, 'temp': 30.56, 'lipoC3S3': 12.38, 'lipoC3S2': 8.18, 'rot1': 531, 'rot0': 537, 'rot3': 350, 'rot2': 307, 'state': 'normal', 'yaw': -66.54, 'datetime': '2018-10-09 12:38:40.050893', 'mgs': 0, 'volt': 0.8936, 'depth': 1.462, 'time': 125, 'pitch': -1.25, 'roll': -9.95, 'pres': 183}
{'lipoC2': 7.48, 'lipoC3S1': 4.09, 'temp': 30.56, 'lipoC3S3': 12.38, 'lipoC3S2': 8.18, 'rot1': 531, 'rot0': 537, 'rot3': 350, 'rot2': 307, 'state': 'normal', 'yaw': -66.23, 'datetime': '2018-10-09 12:38:40.065611', 'mgs': 0, 'volt': 0.8936, 'depth': 1.462, 'time': 125, 'pitch': -0.43, 'roll': -9.64, 'pres': 183}
{'lipoC2': 7.48, 'lipoC3S1': 4.09, 'temp': 30.56, 'lipoC3S3': 12.38, 'lipoC3S2': 8.18, 'rot1': 531, 'rot0': 537, 'rot3': 350, 'rot2': 307, 'state': 'normal', 'yaw': -65.49, 'datetime': '2018-10-09 12:38:40.076110', 'mgs': 0, 'volt': 0.8936, 'depth': 1.462, 'time': 126, 'pitch': 0.05, 'roll': -9.34, 'pres': 183}
{'lipoC2': 7.48, 'lipoC3S1': 4.09, 'temp': 30.56, 'lipoC3S3': 12.38, 'lipoC3S2': 8.18, 'rot1': 531, 'rot0': 537, 'rot3': 350, 'rot2': 307, 'state': 'normal', 'yaw': -64.64, 'datetime': '2018-10-09 12:38:40.086140', 'mgs': 0, 'volt': 0.8936, 'depth': 1.462, 'time': 126, 'pitch': 0.17, 'roll': -8.99, 'pres': 183}
{'lipoC2': 7.48, 'lipoC3S1': 4.09, 'temp': 30.56, 'lipoC3S3': 12.38, 'lipoC3S2': 8.18, 'rot1': 531, 'rot0': 537, 'rot3': 350, 'rot2': 307, 'state': 'normal', 'yaw': -63.76, 'datetime': '2018-10-09 12:38:40.096067', 'mgs': 0, 'volt': 0.8936, 'depth': 1.462, 'time': 126, 'pitch': -0.18, 'roll': -8.44, 'pres': 183}
{'lipoC2': 7.48, 'lipoC3S1': 4.09, 'temp': 30.5, 'lipoC3S3': 12.38, 'lipoC3S2': 8.18, 'rot1': 531, 'rot0': 537, 'rot3': 350, 'rot2': 307, 'state': 'normal', 'yaw': -63.01, 'datetime': '2018-10-09 12:38:40.106005', 'mgs': 0, 'volt': 0.8887, 'depth': 1.385, 'time': 126, 'pitch': -0.78, 'roll': -7.6, 'pres': 182}
{'lipoC2': 7.48, 'lipoC3S1': 4.09, 'temp': 30.5, 'lipoC3S3': 12.38, 'lipoC3S2': 8.18, 'rot1': 531, 'rot0': 537, 'rot3': 350, 'rot2': 307, 'state': 'normal', 'yaw': -62.55, 'datetime': '2018-10-09 12:38:40.115905', 'mgs': 0, 'volt': 0.8887, 'depth': 1.385, 'time': 126, 'pitch': -1.25, 'roll': -6.72, 'pres': 182}
{'lipoC2': 7.47, 'lipoC3S1': 4.09, 'temp': 30.5, 'lipoC3S3': 12.38, 'lipoC3S2': 8.18, 'rot1': 531, 'rot0': 537, 'rot3': 350, 'rot2': 307, 'state': 'normal', 'yaw': -62.25, 'datetime': '2018-10-09 12:38:40.125745', 'mgs': 0, 'volt': 0.8887, 'depth': 1.385, 'time': 126, 'pitch': -1.71, 'roll': -5.75, 'pres': 182}
{'lipoC2': 7.48, 'lipoC3S1': 4.09, 'temp': 30.5, 'lipoC3S3': 12.38, 'lipoC3S2': 8.18, 'rot1': 531, 'rot0': 537, 'rot3': 350, 'rot2': 307, 'state': 'normal', 'yaw': -62.34, 'datetime': '2018-10-09 12:38:40.135620', 'mgs': 0, 'volt': 0.8887, 'depth': 1.385, 'time': 126, 'pitch': -1.85, 'roll': -4.91, 'pres': 182}
{'lipoC2': 7.48, 'lipoC3S1': 4.09, 'temp': 30.5, 'lipoC3S3': 12.38, 'lipoC3S2': 8.18, 'rot1': 531, 'rot0': 537, 'rot3': 350, 'rot2': 307, 'state': 'normal', 'yaw': -62.89, 'datetime': '2018-10-09 12:38:40.145473', 'mgs': 0, 'volt': 0.8936, 'depth': 1.462, 'time': 126, 'pitch': -1.76, 'roll': -4.04, 'pres': 183}
{'lipoC2': 7.48, 'lipoC3S1': 4.09, 'temp': 30.5, 'lipoC3S3': 12.37, 'lipoC3S2': 8.18, 'rot1': 531, 'rot0': 537, 'rot3': 350, 'rot2': 307, 'state': 'normal', 'yaw': -63.67, 'datetime': '2018-10-09 12:38:40.155686', 'mgs': 0, 'volt': 0.8936, 'depth': 1.462, 'time': 126, 'pitch': -1.58, 'roll': -3.33, 'pres': 183}
{'lipoC2': 7.48, 'lipoC3S1': 4.09, 'temp': 30.5, 'lipoC3S3': 12.38, 'lipoC3S2': 8.18, 'rot1': 531, 'rot0': 537, 'rot3': 350, 'rot2': 307, 'state': 'normal', 'yaw': -64.62, 'datetime': '2018-10-09 12:38:40.166128', 'mgs': 0, 'volt': 0.8936, 'depth': 1.462, 'time': 126, 'pitch': -1.17, 'roll': -2.67, 'pres': 183}
{'lipoC2': 7.48, 'lipoC3S1': 4.09, 'temp': 30.5, 'lipoC3S3': 12.38, 'lipoC3S2': 8.18, 'rot1': 531, 'rot0': 537, 'rot3': 350, 'rot2': 307, 'state': 'normal', 'yaw': -65.36, 'datetime': '2018-10-09 12:38:40.176197', 'mgs': 0, 'volt': 0.8984, 'depth': 1.538, 'time': 127, 'pitch': -0.25, 'roll': -2.34, 'pres': 184}
{'lipoC2': 7.48, 'lipoC3S1': 4.09, 'temp': 30.5, 'lipoC3S3': 12.38, 'lipoC3S2': 8.18, 'rot1': 531, 'rot0': 537, 'rot3': 350, 'rot2': 307, 'state': 'normal', 'yaw': -65.92, 'datetime': '2018-10-09 12:38:40.186794', 'mgs': 0, 'volt': 0.8936, 'depth': 1.462, 'time': 127, 'pitch': 1.3, 'roll': -2.33, 'pres': 183}
{'lipoC2': 7.48, 'lipoC3S1': 4.09, 'temp': 30.5, 'lipoC3S3': 12.38, 'lipoC3S2': 8.18, 'rot1': 531, 'rot0': 537, 'rot3': 350, 'rot2': 307, 'state': 'normal', 'yaw': -66.3, 'datetime': '2018-10-09 12:38:40.196794', 'mgs': 0, 'volt': 0.8984, 'depth': 1.538, 'time': 127, 'pitch': 3.16, 'roll': -2.78, 'pres': 184}
{'lipoC2': 7.48, 'lipoC3S1': 4.09, 'temp': 30.5, 'lipoC3S3': 12.38, 'lipoC3S2': 8.18, 'rot1': 531, 'rot0': 537, 'rot3': 350, 'rot2': 307, 'state': 'normal', 'yaw': -66.42, 'datetime': '2018-10-09 12:38:40.206748', 'mgs': 0, 'volt': 0.8984, 'depth': 1.538, 'time': 127, 'pitch': 4.11, 'roll': -3.53, 'pres': 184}
{'lipoC2': 7.48, 'lipoC3S1': 4.09, 'temp': 30.56, 'lipoC3S3': 12.38, 'lipoC3S2': 8.18, 'rot1': 531, 'rot0': 537, 'rot3': 350, 'rot2': 307, 'state': 'normal', 'yaw': -66.39, 'datetime': '2018-10-09 12:38:40.216627', 'mgs': 0, 'volt': 0.8936, 'depth': 1.462, 'time': 127, 'pitch': 3.71, 'roll': -4.48, 'pres': 183}
{'lipoC2': 7.47, 'lipoC3S1': 4.09, 'temp': 30.56, 'lipoC3S3': 12.38, 'lipoC3S2': 8.18, 'rot1': 531, 'rot0': 537, 'rot3': 350, 'rot2': 307, 'state': 'normal', 'yaw': -66.4, 'datetime': '2018-10-09 12:38:40.226536', 'mgs': 0, 'volt': 0.8936, 'depth': 1.462, 'time': 127, 'pitch': 2.44, 'roll': -5.33, 'pres': 183}
{'lipoC2': 7.47, 'lipoC3S1': 4.09, 'temp': 30.56, 'lipoC3S3': 12.38, 'lipoC3S2': 8.18, 'rot1': 531, 'rot0': 537, 'rot3': 350, 'rot2': 307, 'state': 'normal', 'yaw': -66.42, 'datetime': '2018-10-09 12:38:40.236421', 'mgs': 0, 'volt': 0.8936, 'depth': 1.462, 'time': 127, 'pitch': 1.14, 'roll': -6.28, 'pres': 183}
{'lipoC2': 7.47, 'lipoC3S1': 4.09, 'temp': 30.5, 'lipoC3S3': 12.38, 'lipoC3S2': 8.18, 'rot1': 531, 'rot0': 537, 'rot3': 350, 'rot2': 307, 'state': 'normal', 'yaw': -66.32, 'datetime': '2018-10-09 12:38:40.246334', 'mgs': 0, 'volt': 0.8887, 'depth': 1.385, 'time': 127, 'pitch': 0.19, 'roll': -7.25, 'pres': 182}
{'lipoC2': 7.47, 'lipoC3S1': 4.09, 'temp': 30.5, 'lipoC3S3': 12.38, 'lipoC3S2': 8.18, 'rot1': 531, 'rot0': 537, 'rot3': 350, 'rot2': 307, 'state': 'normal', 'yaw': -66.25, 'datetime': '2018-10-09 12:38:40.297526', 'mgs': 0, 'volt': 0.8887, 'depth': 1.385, 'time': 127, 'pitch': -0.54, 'roll': -8.35, 'pres': 182}
{'lipoC2': 7.48, 'lipoC3S1': 4.09, 'temp': 30.44, 'lipoC3S3': 12.38, 'lipoC3S2': 8.18, 'rot1': 531, 'rot0': 537, 'rot3': 350, 'rot2': 307, 'state': 'normal', 'yaw': -66.28, 'datetime': '2018-10-09 12:38:40.401756', 'mgs': 0, 'volt': 0.8838, 'depth': 1.309, 'time': 128, 'pitch': -0.71, 'roll': -9.26, 'pres': 181}
{'lipoC2': 7.47, 'lipoC3S1': 4.09, 'temp': 30.44, 'lipoC3S3': 12.38, 'lipoC3S2': 8.18, 'rot1': 531, 'rot0': 537, 'rot3': 350, 'rot2': 307, 'state': 'normal', 'yaw': -66.36, 'datetime': '2018-10-09 12:38:40.507261', 'mgs': 0, 'volt': 0.8838, 'depth': 1.309, 'time': 128, 'pitch': -0.72, 'roll': -9.93, 'pres': 181}
{'lipoC2': 7.48, 'lipoC3S1': 4.09, 'temp': 30.5, 'lipoC3S3': 12.38, 'lipoC3S2': 8.18, 'rot1': 531, 'rot0': 537, 'rot3': 350, 'rot2': 307, 'state': 'normal', 'yaw': -66.49, 'datetime': '2018-10-09 12:38:40.611513', 'mgs': 0, 'volt': 0.8838, 'depth': 1.309, 'time': 128, 'pitch': -1.58, 'roll': -10.13, 'pres': 181}
{'lipoC2': 7.48, 'lipoC3S1': 4.09, 'temp': 30.5, 'lipoC3S3': 12.38, 'lipoC3S2': 8.18, 'rot1': 531, 'rot0': 537, 'rot3': 350, 'rot2': 307, 'state': 'normal', 'yaw': -66.31, 'datetime': '2018-10-09 12:38:40.715751', 'mgs': 0, 'volt': 0.8838, 'depth': 1.309, 'time': 128, 'pitch': -2.5, 'roll': -9.87, 'pres': 181}
{'lipoC2': 7.48, 'lipoC3S1': 4.09, 'temp': 30.5, 'lipoC3S3': 12.38, 'lipoC3S2': 8.18, 'rot1': 531, 'rot0': 537, 'rot3': 350, 'rot2': 307, 'state': 'normal', 'yaw': -65.65, 'datetime': '2018-10-09 12:38:40.820688', 'mgs': 0, 'volt': 0.8838, 'depth': 1.309, 'time': 128, 'pitch': -2.82, 'roll': -9.34, 'pres': 181}
{'lipoC2': 7.48, 'lipoC3S1': 4.09, 'temp': 30.5, 'lipoC3S3': 12.38, 'lipoC3S2': 8.18, 'rot1': 531, 'rot0': 537, 'rot3': 350, 'rot2': 307, 'state': 'normal', 'yaw': -64.96, 'datetime': '2018-10-09 12:38:40.928877', 'mgs': 0, 'volt': 0.8838, 'depth': 1.309, 'time': 128, 'pitch': -2.77, 'roll': -8.75, 'pres': 181}
{'lipoC2': 7.48, 'lipoC3S1': 4.09, 'temp': 30.5, 'lipoC3S3': 12.38, 'lipoC3S2': 8.18, 'rot1': 531, 'rot0': 537, 'rot3': 350, 'rot2': 307, 'state': 'normal', 'yaw': -64.38, 'datetime': '2018-10-09 12:38:41.036042', 'mgs': 0, 'volt': 0.8838, 'depth': 1.309, 'time': 128, 'pitch': -2.78, 'roll': -8.17, 'pres': 181}
{'lipoC2': 7.48, 'lipoC3S1': 4.09, 'temp': 30.56, 'lipoC3S3': 12.38, 'lipoC3S2': 8.18, 'rot1': 531, 'rot0': 537, 'rot3': 350, 'rot2': 307, 'state': 'normal', 'yaw': -63.99, 'datetime': '2018-10-09 12:38:41.140065', 'mgs': 0, 'volt': 0.8838, 'depth': 1.309, 'time': 128, 'pitch': -2.68, 'roll': -7.68, 'pres': 181}
{'lipoC2': 7.48, 'lipoC3S1': 4.09, 'temp': 30.56, 'lipoC3S3': 12.37, 'lipoC3S2': 8.18, 'rot1': 531, 'rot0': 537, 'rot3': 350, 'rot2': 307, 'state': 'normal', 'yaw': -63.77, 'datetime': '2018-10-09 12:38:41.245732', 'mgs': 0, 'volt': 0.8887, 'depth': 1.385, 'time': 128, 'pitch': -2.37, 'roll': -7.32, 'pres': 182}
{'lipoC2': 7.48, 'lipoC3S1': 4.09, 'temp': 30.5, 'lipoC3S3': 12.38, 'lipoC3S2': 8.18, 'rot1': 531, 'rot0': 537, 'rot3': 350, 'rot2': 307, 'state': 'normal', 'yaw': -63.5, 'datetime': '2018-10-09 12:38:41.350042', 'mgs': 0, 'volt': 0.8887, 'depth': 1.385, 'time': 128, 'pitch': -2.17, 'roll': -6.84, 'pres': 182}
{'lipoC2': 7.47, 'lipoC3S1': 4.09, 'temp': 30.5, 'lipoC3S3': 12.38, 'lipoC3S2': 8.18, 'rot1': 531, 'rot0': 537, 'rot3': 350, 'rot2': 307, 'state': 'normal', 'yaw': -63.03, 'datetime': '2018-10-09 12:38:41.455398', 'mgs': 0, 'volt': 0.8936, 'depth': 1.462, 'time': 129, 'pitch': -2.53, 'roll': -6.29, 'pres': 183}
{'lipoC2': 7.48, 'lipoC3S1': 4.09, 'temp': 30.5, 'lipoC3S3': 12.37, 'lipoC3S2': 8.18, 'rot1': 531, 'rot0': 537, 'rot3': 350, 'rot2': 307, 'state': 'normal', 'yaw': -62.46, 'datetime': '2018-10-09 12:38:41.559598', 'mgs': 0, 'volt': 0.8887, 'depth': 1.385, 'time': 129, 'pitch': -3.05, 'roll': -5.51, 'pres': 182}
{'lipoC2': 7.48, 'lipoC3S1': 4.09, 'temp': 30.5, 'lipoC3S3': 12.37, 'lipoC3S2': 8.18, 'rot1': 531, 'rot0': 537, 'rot3': 350, 'rot2': 307, 'state': 'normal', 'yaw': -62.1, 'datetime': '2018-10-09 12:38:41.665237', 'mgs': 0, 'volt': 0.8887, 'depth': 1.385, 'time': 129, 'pitch': -3.28, 'roll': -4.74, 'pres': 182}
{'lipoC2': 7.48, 'lipoC3S1': 4.09, 'temp': 30.5, 'lipoC3S3': 12.38, 'lipoC3S2': 8.18, 'rot1': 531, 'rot0': 537, 'rot3': 350, 'rot2': 307, 'state': 'normal', 'yaw': -61.85, 'datetime': '2018-10-09 12:38:41.769328', 'mgs': 0, 'volt': 0.8936, 'depth': 1.462, 'time': 129, 'pitch': -3.0, 'roll': -4.0, 'pres': 183}
{'lipoC2': 7.48, 'lipoC3S1': 4.09, 'temp': 30.5, 'lipoC3S3': 12.38, 'lipoC3S2': 8.18, 'rot1': 531, 'rot0': 537, 'rot3': 350, 'rot2': 307, 'state': 'normal', 'yaw': -61.63, 'datetime': '2018-10-09 12:38:41.873605', 'mgs': 0, 'volt': 0.8936, 'depth': 1.462, 'time': 129, 'pitch': -1.99, 'roll': -3.62, 'pres': 183}
{'lipoC2': 7.48, 'lipoC3S1': 4.09, 'temp': 30.5, 'lipoC3S3': 12.38, 'lipoC3S2': 8.18, 'rot1': 531, 'rot0': 537, 'rot3': 350, 'rot2': 307, 'state': 'normal', 'yaw': -61.38, 'datetime': '2018-10-09 12:38:41.978100', 'mgs': 0, 'volt': 0.8936, 'depth': 1.462, 'time': 129, 'pitch': -0.48, 'roll': -3.47, 'pres': 183}
{'lipoC2': 7.48, 'lipoC3S1': 4.09, 'temp': 30.5, 'lipoC3S3': 12.37, 'lipoC3S2': 8.18, 'rot1': 531, 'rot0': 537, 'rot3': 350, 'rot2': 307, 'state': 'normal', 'yaw': -61.08, 'datetime': '2018-10-09 12:38:42.082053', 'mgs': 0, 'volt': 0.8936, 'depth': 1.462, 'time': 129, 'pitch': 1.06, 'roll': -3.47, 'pres': 183}
{'lipoC2': 7.48, 'lipoC3S1': 4.09, 'temp': 30.5, 'lipoC3S3': 12.38, 'lipoC3S2': 8.18, 'rot1': 531, 'rot0': 537, 'rot3': 350, 'rot2': 307, 'state': 'normal', 'yaw': -60.77, 'datetime': '2018-10-09 12:38:42.186345', 'mgs': 0, 'volt': 0.8936, 'depth': 1.462, 'time': 129, 'pitch': 1.93, 'roll': -3.55, 'pres': 183}
{'lipoC2': 7.48, 'lipoC3S1': 4.09, 'temp': 30.5, 'lipoC3S3': 12.38, 'lipoC3S2': 8.18, 'rot1': 531, 'rot0': 537, 'rot3': 350, 'rot2': 307, 'state': 'normal', 'yaw': -60.36, 'datetime': '2018-10-09 12:38:42.290567', 'mgs': 0, 'volt': 0.8984, 'depth': 1.538, 'time': 129, 'pitch': 2.39, 'roll': -3.82, 'pres': 184}
{'lipoC2': 7.48, 'lipoC3S1': 4.09, 'temp': 30.5, 'lipoC3S3': 12.38, 'lipoC3S2': 8.18, 'rot1': 531, 'rot0': 537, 'rot3': 350, 'rot2': 307, 'state': 'normal', 'yaw': -59.88, 'datetime': '2018-10-09 12:38:42.395893', 'mgs': 0, 'volt': 0.9033, 'depth': 1.614, 'time': 129, 'pitch': 2.91, 'roll': -4.34, 'pres': 185}
{'lipoC2': 7.48, 'lipoC3S1': 4.09, 'temp': 30.5, 'lipoC3S3': 12.38, 'lipoC3S2': 8.18, 'rot1': 531, 'rot0': 537, 'rot3': 350, 'rot2': 307, 'state': 'normal', 'yaw': -59.26, 'datetime': '2018-10-09 12:38:42.500214', 'mgs': 0, 'volt': 0.9033, 'depth': 1.614, 'time': 130, 'pitch': 4.2, 'roll': -5.19, 'pres': 185}
{'lipoC2': 7.47, 'lipoC3S1': 4.09, 'temp': 30.56, 'lipoC3S3': 12.38, 'lipoC3S2': 8.18, 'rot1': 531, 'rot0': 537, 'rot3': 350, 'rot2': 307, 'state': 'normal', 'yaw': -58.77, 'datetime': '2018-10-09 12:38:42.605322', 'mgs': 0, 'volt': 0.9033, 'depth': 1.614, 'time': 130, 'pitch': 6.09, 'roll': -6.04, 'pres': 185}
{'lipoC2': 7.48, 'lipoC3S1': 4.09, 'temp': 30.56, 'lipoC3S3': 12.38, 'lipoC3S2': 8.18, 'rot1': 531, 'rot0': 537, 'rot3': 350, 'rot2': 307, 'state': 'normal', 'yaw': -58.37, 'datetime': '2018-10-09 12:38:42.709453', 'mgs': 0, 'volt': 0.9033, 'depth': 1.614, 'time': 130, 'pitch': 8.46, 'roll': -6.81, 'pres': 185}
{'lipoC2': 7.48, 'lipoC3S1': 4.09, 'temp': 30.5, 'lipoC3S3': 12.38, 'lipoC3S2': 8.18, 'rot1': 531, 'rot0': 537, 'rot3': 350, 'rot2': 307, 'state': 'normal', 'yaw': -58.04, 'datetime': '2018-10-09 12:38:42.816653', 'mgs': 0, 'volt': 0.9082, 'depth': 1.691, 'time': 130, 'pitch': 10.2, 'roll': -7.25, 'pres': 186}
{'lipoC2': 7.47, 'lipoC3S1': 4.09, 'temp': 30.5, 'lipoC3S3': 12.38, 'lipoC3S2': 8.18, 'rot1': 531, 'rot0': 537, 'rot3': 350, 'rot2': 307, 'state': 'normal', 'yaw': -57.65, 'datetime': '2018-10-09 12:38:42.918889', 'mgs': 0, 'volt': 0.9082, 'depth': 1.691, 'time': 130, 'pitch': 11.13, 'roll': -7.4, 'pres': 186}
{'lipoC2': 7.48, 'lipoC3S1': 4.09, 'temp': 30.5, 'lipoC3S3': 12.38, 'lipoC3S2': 8.18, 'rot1': 531, 'rot0': 537, 'rot3': 350, 'rot2': 307, 'state': 'normal', 'yaw': -57.1, 'datetime': '2018-10-09 12:38:43.023039', 'mgs': 0, 'volt': 0.9082, 'depth': 1.691, 'time': 130, 'pitch': 11.25, 'roll': -7.33, 'pres': 186}
{'lipoC2': 7.48, 'lipoC3S1': 4.09, 'temp': 30.5, 'lipoC3S3': 12.38, 'lipoC3S2': 8.18, 'rot1': 531, 'rot0': 537, 'rot3': 350, 'rot2': 307, 'state': 'normal', 'yaw': -56.52, 'datetime': '2018-10-09 12:38:43.127509', 'mgs': 0, 'volt': 0.9082, 'depth': 1.691, 'time': 130, 'pitch': 11.01, 'roll': -7.22, 'pres': 186}
{'lipoC2': 7.48, 'lipoC3S1': 4.09, 'temp': 30.5, 'lipoC3S3': 12.38, 'lipoC3S2': 8.18, 'rot1': 531, 'rot0': 537, 'rot3': 350, 'rot2': 307, 'state': 'normal', 'yaw': -55.91, 'datetime': '2018-10-09 12:38:43.231601', 'mgs': 0, 'volt': 0.9082, 'depth': 1.691, 'time': 130, 'pitch': 11.03, 'roll': -7.18, 'pres': 186}
{'lipoC2': 7.48, 'lipoC3S1': 4.09, 'temp': 30.5, 'lipoC3S3': 12.38, 'lipoC3S2': 8.18, 'rot1': 531, 'rot0': 537, 'rot3': 350, 'rot2': 307, 'state': 'normal', 'yaw': -55.43, 'datetime': '2018-10-09 12:38:43.335870', 'mgs': 0, 'volt': 0.9082, 'depth': 1.691, 'time': 130, 'pitch': 11.6, 'roll': -7.18, 'pres': 186}
{'lipoC2': 7.47, 'lipoC3S1': 4.09, 'temp': 30.5, 'lipoC3S3': 12.38, 'lipoC3S2': 8.18, 'rot1': 531, 'rot0': 537, 'rot3': 350, 'rot2': 307, 'state': 'normal', 'yaw': -55.05, 'datetime': '2018-10-09 12:38:43.440140', 'mgs': 0, 'volt': 0.9131, 'depth': 1.767, 'time': 131, 'pitch': 12.58, 'roll': -7.12, 'pres': 187}
{'lipoC2': 7.48, 'lipoC3S1': 4.09, 'temp': 30.5, 'lipoC3S3': 12.38, 'lipoC3S2': 8.18, 'rot1': 531, 'rot0': 537, 'rot3': 350, 'rot2': 307, 'state': 'normal', 'yaw': -54.66, 'datetime': '2018-10-09 12:38:43.544397', 'mgs': 0, 'volt': 0.9131, 'depth': 1.767, 'time': 131, 'pitch': 13.59, 'roll': -6.9, 'pres': 187}
{'lipoC2': 7.47, 'lipoC3S1': 4.09, 'temp': 30.5, 'lipoC3S3': 12.38, 'lipoC3S2': 8.18, 'rot1': 531, 'rot0': 537, 'rot3': 350, 'rot2': 307, 'state': 'normal', 'yaw': -54.24, 'datetime': '2018-10-09 12:38:43.650010', 'mgs': 0, 'volt': 0.9131, 'depth': 1.767, 'time': 131, 'pitch': 13.84, 'roll': -6.47, 'pres': 187}
{'lipoC2': 7.48, 'lipoC3S1': 4.09, 'temp': 30.5, 'lipoC3S3': 12.38, 'lipoC3S2': 8.18, 'rot1': 531, 'rot0': 537, 'rot3': 350, 'rot2': 307, 'state': 'normal', 'yaw': -53.69, 'datetime': '2018-10-09 12:38:43.754167', 'mgs': 0, 'volt': 0.9082, 'depth': 1.691, 'time': 131, 'pitch': 13.1, 'roll': -5.86, 'pres': 186}
{'lipoC2': 7.48, 'lipoC3S1': 4.09, 'temp': 30.5, 'lipoC3S3': 12.38, 'lipoC3S2': 8.18, 'rot1': 531, 'rot0': 537, 'rot3': 350, 'rot2': 307, 'state': 'normal', 'yaw': -53.12, 'datetime': '2018-10-09 12:38:43.859691', 'mgs': 0, 'volt': 0.9131, 'depth': 1.767, 'time': 131, 'pitch': 11.64, 'roll': -5.28, 'pres': 187}
{'lipoC2': 7.48, 'lipoC3S1': 4.09, 'temp': 30.5, 'lipoC3S3': 12.38, 'lipoC3S2': 8.18, 'rot1': 531, 'rot0': 537, 'rot3': 350, 'rot2': 307, 'state': 'normal', 'yaw': -52.47, 'datetime': '2018-10-09 12:38:43.964136', 'mgs': 0, 'volt': 0.9131, 'depth': 1.767, 'time': 131, 'pitch': 9.75, 'roll': -4.74, 'pres': 187}
{'lipoC2': 7.48, 'lipoC3S1': 4.09, 'temp': 30.5, 'lipoC3S3': 12.38, 'lipoC3S2': 8.18, 'rot1': 531, 'rot0': 537, 'rot3': 350, 'rot2': 307, 'state': 'normal', 'yaw': -51.89, 'datetime': '2018-10-09 12:38:44.069637', 'mgs': 0, 'volt': 0.9131, 'depth': 1.767, 'time': 131, 'pitch': 8.22, 'roll': -4.36, 'pres': 187}
{'lipoC2': 7.48, 'lipoC3S1': 4.09, 'temp': 30.5, 'lipoC3S3': 12.38, 'lipoC3S2': 8.18, 'rot1': 531, 'rot0': 537, 'rot3': 350, 'rot2': 307, 'state': 'normal', 'yaw': -51.29, 'datetime': '2018-10-09 12:38:44.173814', 'mgs': 0, 'volt': 0.9131, 'depth': 1.767, 'time': 131, 'pitch': 7.01, 'roll': -4.04, 'pres': 187}
{'lipoC2': 7.48, 'lipoC3S1': 4.09, 'temp': 30.5, 'lipoC3S3': 12.38, 'lipoC3S2': 8.18, 'rot1': 531, 'rot0': 537, 'rot3': 350, 'rot2': 307, 'state': 'normal', 'yaw': -50.8, 'datetime': '2018-10-09 12:38:44.278063', 'mgs': 0, 'volt': 0.9131, 'depth': 1.767, 'time': 131, 'pitch': 6.37, 'roll': -3.79, 'pres': 187}
{'lipoC2': 7.48, 'lipoC3S1': 4.09, 'temp': 30.5, 'lipoC3S3': 12.38, 'lipoC3S2': 8.18, 'rot1': 531, 'rot0': 537, 'rot3': 350, 'rot2': 307, 'state': 'normal', 'yaw': -50.32, 'datetime': '2018-10-09 12:38:44.382245', 'mgs': 0, 'volt': 0.9131, 'depth': 1.767, 'time': 131, 'pitch': 6.28, 'roll': -3.56, 'pres': 187}
{'lipoC2': 7.48, 'lipoC3S1': 4.09, 'temp': 30.5, 'lipoC3S3': 12.38, 'lipoC3S2': 8.18, 'rot1': 531, 'rot0': 537, 'rot3': 350, 'rot2': 307, 'state': 'normal', 'yaw': -49.93, 'datetime': '2018-10-09 12:38:44.486441', 'mgs': 0, 'volt': 0.9131, 'depth': 1.767, 'time': 132, 'pitch': 6.76, 'roll': -3.45, 'pres': 187}
{'lipoC2': 7.48, 'lipoC3S1': 4.09, 'temp': 30.5, 'lipoC3S3': 12.38, 'lipoC3S2': 8.18, 'rot1': 531, 'rot0': 537, 'rot3': 350, 'rot2': 307, 'state': 'normal', 'yaw': -49.5, 'datetime': '2018-10-09 12:38:44.590650', 'mgs': 0, 'volt': 0.9131, 'depth': 1.767, 'time': 132, 'pitch': 7.33, 'roll': -3.41, 'pres': 187}
{'lipoC2': 7.48, 'lipoC3S1': 4.09, 'temp': 30.5, 'lipoC3S3': 12.38, 'lipoC3S2': 8.18, 'rot1': 531, 'rot0': 537, 'rot3': 350, 'rot2': 307, 'state': 'normal', 'yaw': -48.85, 'datetime': '2018-10-09 12:38:44.694969', 'mgs': 0, 'volt': 0.9131, 'depth': 1.767, 'time': 132, 'pitch': 7.5, 'roll': -3.51, 'pres': 187}
{'lipoC2': 7.48, 'lipoC3S1': 4.09, 'temp': 30.5, 'lipoC3S3': 12.38, 'lipoC3S2': 8.18, 'rot1': 531, 'rot0': 537, 'rot3': 350, 'rot2': 307, 'state': 'normal', 'yaw': -48.31, 'datetime': '2018-10-09 12:38:44.800276', 'mgs': 0, 'volt': 0.9131, 'depth': 1.767, 'time': 132, 'pitch': 7.76, 'roll': -3.68, 'pres': 187}
{'lipoC2': 7.48, 'lipoC3S1': 4.09, 'temp': 30.5, 'lipoC3S3': 12.38, 'lipoC3S2': 8.18, 'rot1': 531, 'rot0': 537, 'rot3': 350, 'rot2': 307, 'state': 'normal', 'yaw': -48.25, 'datetime': '2018-10-09 12:38:44.904490', 'mgs': 0, 'volt': 0.918, 'depth': 1.843, 'time': 132, 'pitch': 7.66, 'roll': -3.97, 'pres': 188}
{'lipoC2': 7.48, 'lipoC3S1': 4.09, 'temp': 30.5, 'lipoC3S3': 12.37, 'lipoC3S2': 8.18, 'rot1': 531, 'rot0': 537, 'rot3': 350, 'rot2': 307, 'state': 'normal', 'yaw': -48.96, 'datetime': '2018-10-09 12:38:45.010002', 'mgs': 0, 'volt': 0.918, 'depth': 1.843, 'time': 132, 'pitch': 7.59, 'roll': -4.31, 'pres': 188}
{'lipoC2': 7.48, 'lipoC3S1': 4.09, 'temp': 30.5, 'lipoC3S3': 12.38, 'lipoC3S2': 8.18, 'rot1': 531, 'rot0': 537, 'rot3': 350, 'rot2': 307, 'state': 'normal', 'yaw': -50.5, 'datetime': '2018-10-09 12:38:45.114425', 'mgs': 0, 'volt': 0.918, 'depth': 1.843, 'time': 132, 'pitch': 7.49, 'roll': -4.81, 'pres': 188}
{'lipoC2': 7.48, 'lipoC3S1': 4.09, 'temp': 30.5, 'lipoC3S3': 12.38, 'lipoC3S2': 8.18, 'rot1': 531, 'rot0': 537, 'rot3': 350, 'rot2': 307, 'state': 'normal', 'yaw': -52.28, 'datetime': '2018-10-09 12:38:45.219528', 'mgs': 0, 'volt': 0.9131, 'depth': 1.767, 'time': 132, 'pitch': 7.48, 'roll': -5.43, 'pres': 187}
{'lipoC2': 7.48, 'lipoC3S1': 4.09, 'temp': 30.5, 'lipoC3S3': 12.38, 'lipoC3S2': 8.18, 'rot1': 531, 'rot0': 537, 'rot3': 350, 'rot2': 307, 'state': 'normal', 'yaw': -54.11, 'datetime': '2018-10-09 12:38:45.324135', 'mgs': 0, 'volt': 0.9131, 'depth': 1.767, 'time': 132, 'pitch': 7.44, 'roll': -6.32, 'pres': 187}
{'lipoC2': 7.48, 'lipoC3S1': 4.09, 'temp': 30.5, 'lipoC3S3': 12.38, 'lipoC3S2': 8.18, 'rot1': 531, 'rot0': 537, 'rot3': 350, 'rot2': 307, 'state': 'normal', 'yaw': -55.96, 'datetime': '2018-10-09 12:38:45.422817', 'mgs': 0, 'volt': 0.9131, 'depth': 1.767, 'time': 133, 'pitch': 7.41, 'roll': -7.58, 'pres': 187}
{'lipoC2': 7.48, 'lipoC3S1': 4.09, 'temp': 30.5, 'lipoC3S3': 12.38, 'lipoC3S2': 8.18, 'rot1': 531, 'rot0': 537, 'rot3': 350, 'rot2': 307, 'state': 'normal', 'yaw': -57.43, 'datetime': '2018-10-09 12:38:45.530452', 'mgs': 0, 'volt': 0.9082, 'depth': 1.691, 'time': 133, 'pitch': 7.15, 'roll': -8.93, 'pres': 186}
{'lipoC2': 7.48, 'lipoC3S1': 4.09, 'temp': 30.5, 'lipoC3S3': 12.38, 'lipoC3S2': 8.18, 'rot1': 531, 'rot0': 537, 'rot3': 350, 'rot2': 307, 'state': 'normal', 'yaw': -58.85, 'datetime': '2018-10-09 12:38:45.636893', 'mgs': 0, 'volt': 0.9082, 'depth': 1.691, 'time': 133, 'pitch': 6.36, 'roll': -10.44, 'pres': 186}
{'lipoC2': 7.48, 'lipoC3S1': 4.09, 'temp': 30.5, 'lipoC3S3': 12.38, 'lipoC3S2': 8.18, 'rot1': 531, 'rot0': 537, 'rot3': 350, 'rot2': 307, 'state': 'normal', 'yaw': -60.1, 'datetime': '2018-10-09 12:38:45.741155', 'mgs': 0, 'volt': 0.9033, 'depth': 1.614, 'time': 133, 'pitch': 5.26, 'roll': -11.64, 'pres': 185}
{'lipoC2': 7.48, 'lipoC3S1': 4.09, 'temp': 30.5, 'lipoC3S3': 12.38, 'lipoC3S2': 8.18, 'rot1': 531, 'rot0': 537, 'rot3': 350, 'rot2': 307, 'state': 'normal', 'yaw': -61.49, 'datetime': '2018-10-09 12:38:45.845401', 'mgs': 0, 'volt': 0.9033, 'depth': 1.614, 'time': 133, 'pitch': 3.91, 'roll': -12.52, 'pres': 185}
{'lipoC2': 7.48, 'lipoC3S1': 4.09, 'temp': 30.56, 'lipoC3S3': 12.38, 'lipoC3S2': 8.18, 'rot1': 531, 'rot0': 537, 'rot3': 350, 'rot2': 307, 'state': 'normal', 'yaw': -63.24, 'datetime': '2018-10-09 12:38:45.949556', 'mgs': 0, 'volt': 0.9033, 'depth': 1.614, 'time': 133, 'pitch': 2.72, 'roll': -13.02, 'pres': 185}
{'lipoC2': 7.48, 'lipoC3S1': 4.09, 'temp': 30.56, 'lipoC3S3': 12.38, 'lipoC3S2': 8.18, 'rot1': 531, 'rot0': 537, 'rot3': 350, 'rot2': 307, 'state': 'normal', 'yaw': -64.74, 'datetime': '2018-10-09 12:38:46.050625', 'mgs': 0, 'volt': 0.9033, 'depth': 1.614, 'time': 133, 'pitch': 2.28, 'roll': -13.11, 'pres': 185}
{'lipoC2': 7.48, 'lipoC3S1': 4.09, 'temp': 30.56, 'lipoC3S3': 12.38, 'lipoC3S2': 8.18, 'rot1': 531, 'rot0': 537, 'rot3': 350, 'rot2': 307, 'state': 'normal', 'yaw': -66.0, 'datetime': '2018-10-09 12:38:46.157767', 'mgs': 0, 'volt': 0.8984, 'depth': 1.538, 'time': 133, 'pitch': 2.23, 'roll': -13.01, 'pres': 184}
{'lipoC2': 7.48, 'lipoC3S1': 4.09, 'temp': 30.5, 'lipoC3S3': 12.38, 'lipoC3S2': 8.18, 'rot1': 531, 'rot0': 537, 'rot3': 350, 'rot2': 307, 'state': 'normal', 'yaw': -66.72, 'datetime': '2018-10-09 12:38:46.264693', 'mgs': 0, 'volt': 0.8984, 'depth': 1.538, 'time': 133, 'pitch': 2.47, 'roll': -12.84, 'pres': 184}
{'lipoC2': 7.48, 'lipoC3S1': 4.09, 'temp': 30.5, 'lipoC3S3': 12.38, 'lipoC3S2': 8.18, 'rot1': 531, 'rot0': 537, 'rot3': 350, 'rot2': 307, 'state': 'normal', 'yaw': -67.06, 'datetime': '2018-10-09 12:38:46.363265', 'mgs': 0, 'volt': 0.8984, 'depth': 1.538, 'time': 133, 'pitch': 2.98, 'roll': -12.63, 'pres': 184}
{'lipoC2': 7.48, 'lipoC3S1': 4.09, 'temp': 30.5, 'lipoC3S3': 12.38, 'lipoC3S2': 8.18, 'rot1': 531, 'rot0': 537, 'rot3': 350, 'rot2': 307, 'state': 'normal', 'yaw': -67.35, 'datetime': '2018-10-09 12:38:46.473525', 'mgs': 0, 'volt': 0.8984, 'depth': 1.538, 'time': 134, 'pitch': 3.49, 'roll': -12.34, 'pres': 184}
{'lipoC2': 7.48, 'lipoC3S1': 4.09, 'temp': 30.5, 'lipoC3S3': 12.38, 'lipoC3S2': 8.18, 'rot1': 531, 'rot0': 537, 'rot3': 350, 'rot2': 307, 'state': 'normal', 'yaw': -67.91, 'datetime': '2018-10-09 12:38:46.578831', 'mgs': 0, 'volt': 0.9033, 'depth': 1.614, 'time': 134, 'pitch': 3.91, 'roll': -11.81, 'pres': 185}
{'lipoC2': 7.48, 'lipoC3S1': 4.09, 'temp': 30.5, 'lipoC3S3': 12.38, 'lipoC3S2': 8.18, 'rot1': 531, 'rot0': 537, 'rot3': 350, 'rot2': 307, 'state': 'normal', 'yaw': -68.56, 'datetime': '2018-10-09 12:38:46.683127', 'mgs': 0, 'volt': 0.8984, 'depth': 1.538, 'time': 134, 'pitch': 4.19, 'roll': -11.12, 'pres': 184}
{'lipoC2': 7.48, 'lipoC3S1': 4.09, 'temp': 30.5, 'lipoC3S3': 12.38, 'lipoC3S2': 8.18, 'rot1': 531, 'rot0': 537, 'rot3': 350, 'rot2': 307, 'state': 'normal', 'yaw': -69.29, 'datetime': '2018-10-09 12:38:46.787284', 'mgs': 0, 'volt': 0.8984, 'depth': 1.538, 'time': 134, 'pitch': 4.21, 'roll': -10.32, 'pres': 184}
{'lipoC2': 7.48, 'lipoC3S1': 4.09, 'temp': 30.5, 'lipoC3S3': 12.38, 'lipoC3S2': 8.18, 'rot1': 531, 'rot0': 537, 'rot3': 350, 'rot2': 307, 'state': 'normal', 'yaw': -70.2, 'datetime': '2018-10-09 12:38:46.891453', 'mgs': 0, 'volt': 0.8984, 'depth': 1.538, 'time': 134, 'pitch': 4.03, 'roll': -9.54, 'pres': 184}
{'lipoC2': 7.48, 'lipoC3S1': 4.09, 'temp': 30.56, 'lipoC3S3': 12.37, 'lipoC3S2': 8.18, 'rot1': 531, 'rot0': 537, 'rot3': 350, 'rot2': 307, 'state': 'normal', 'yaw': -70.93, 'datetime': '2018-10-09 12:38:46.994779', 'mgs': 0, 'volt': 0.8984, 'depth': 1.538, 'time': 134, 'pitch': 3.62, 'roll': -9.06, 'pres': 184}
{'lipoC2': 7.48, 'lipoC3S1': 4.09, 'temp': 30.56, 'lipoC3S3': 12.38, 'lipoC3S2': 8.18, 'rot1': 531, 'rot0': 537, 'rot3': 350, 'rot2': 307, 'state': 'normal', 'yaw': -71.48, 'datetime': '2018-10-09 12:38:47.099461', 'mgs': 0, 'volt': 0.8984, 'depth': 1.538, 'time': 134, 'pitch': 3.03, 'roll': -8.82, 'pres': 184}
{'lipoC2': 7.48, 'lipoC3S1': 4.09, 'temp': 30.5, 'lipoC3S3': 12.38, 'lipoC3S2': 8.18, 'rot1': 531, 'rot0': 537, 'rot3': 350, 'rot2': 307, 'state': 'normal', 'yaw': -71.88, 'datetime': '2018-10-09 12:38:47.205122', 'mgs': 0, 'volt': 0.8936, 'depth': 1.462, 'time': 134, 'pitch': 2.9, 'roll': -8.95, 'pres': 183}
{'lipoC2': 7.48, 'lipoC3S1': 4.09, 'temp': 30.5, 'lipoC3S3': 12.38, 'lipoC3S2': 8.18, 'rot1': 531, 'rot0': 537, 'rot3': 350, 'rot2': 307, 'state': 'normal', 'yaw': -72.23, 'datetime': '2018-10-09 12:38:47.309321', 'mgs': 0, 'volt': 0.8936, 'depth': 1.462, 'time': 134, 'pitch': 2.55, 'roll': -9.4, 'pres': 183}
{'lipoC2': 7.48, 'lipoC3S1': 4.09, 'temp': 30.56, 'lipoC3S3': 12.38, 'lipoC3S2': 8.18, 'rot1': 531, 'rot0': 537, 'rot3': 350, 'rot2': 307, 'state': 'normal', 'yaw': -72.56, 'datetime': '2018-10-09 12:38:47.414797', 'mgs': 0, 'volt': 0.8936, 'depth': 1.462, 'time': 135, 'pitch': 2.19, 'roll': -9.97, 'pres': 183}
{'lipoC2': 7.48, 'lipoC3S1': 4.09, 'temp': 30.56, 'lipoC3S3': 12.37, 'lipoC3S2': 8.18, 'rot1': 531, 'rot0': 537, 'rot3': 350, 'rot2': 307, 'state': 'normal', 'yaw': -73.01, 'datetime': '2018-10-09 12:38:47.518989', 'mgs': 0, 'volt': 0.8887, 'depth': 1.385, 'time': 135, 'pitch': 1.97, 'roll': -10.61, 'pres': 182}
{'lipoC2': 7.48, 'lipoC3S1': 4.09, 'temp': 30.5, 'lipoC3S3': 12.38, 'lipoC3S2': 8.18, 'rot1': 531, 'rot0': 537, 'rot3': 350, 'rot2': 307, 'state': 'normal', 'yaw': -73.62, 'datetime': '2018-10-09 12:38:47.623216', 'mgs': 0, 'volt': 0.8887, 'depth': 1.385, 'time': 135, 'pitch': 2.11, 'roll': -11.16, 'pres': 182}
{'lipoC2': 7.48, 'lipoC3S1': 4.09, 'temp': 30.5, 'lipoC3S3': 12.38, 'lipoC3S2': 8.18, 'rot1': 531, 'rot0': 537, 'rot3': 350, 'rot2': 307, 'state': 'normal', 'yaw': -74.39, 'datetime': '2018-10-09 12:38:47.728723', 'mgs': 0, 'volt': 0.8838, 'depth': 1.309, 'time': 135, 'pitch': 2.53, 'roll': -11.6, 'pres': 181}
{'lipoC2': 7.48, 'lipoC3S1': 4.09, 'temp': 30.5, 'lipoC3S3': 12.38, 'lipoC3S2': 8.18, 'rot1': 531, 'rot0': 537, 'rot3': 350, 'rot2': 307, 'state': 'normal', 'yaw': -75.25, 'datetime': '2018-10-09 12:38:47.833030', 'mgs': 0, 'volt': 0.8838, 'depth': 1.309, 'time': 135, 'pitch': 3.0, 'roll': -11.92, 'pres': 181}
{'lipoC2': 7.48, 'lipoC3S1': 4.09, 'temp': 30.5, 'lipoC3S3': 12.37, 'lipoC3S2': 8.18, 'rot1': 531, 'rot0': 537, 'rot3': 350, 'rot2': 307, 'state': 'normal', 'yaw': -76.05, 'datetime': '2018-10-09 12:38:47.937187', 'mgs': 0, 'volt': 0.8838, 'depth': 1.309, 'time': 135, 'pitch': 3.29, 'roll': -11.99, 'pres': 181}
{'lipoC2': 7.48, 'lipoC3S1': 4.09, 'temp': 30.5, 'lipoC3S3': 12.37, 'lipoC3S2': 8.18, 'rot1': 531, 'rot0': 537, 'rot3': 350, 'rot2': 307, 'state': 'normal', 'yaw': -76.95, 'datetime': '2018-10-09 12:38:48.041464', 'mgs': 0, 'volt': 0.8838, 'depth': 1.309, 'time': 135, 'pitch': 3.59, 'roll': -11.8, 'pres': 181}
{'lipoC2': 7.48, 'lipoC3S1': 4.09, 'temp': 30.5, 'lipoC3S3': 12.38, 'lipoC3S2': 8.18, 'rot1': 531, 'rot0': 537, 'rot3': 350, 'rot2': 307, 'state': 'normal', 'yaw': -77.86, 'datetime': '2018-10-09 12:38:48.145706', 'mgs': 0, 'volt': 0.8838, 'depth': 1.309, 'time': 135, 'pitch': 4.1, 'roll': -11.42, 'pres': 181}
{'lipoC2': 7.48, 'lipoC3S1': 4.09, 'temp': 30.5, 'lipoC3S3': 12.38, 'lipoC3S2': 8.18, 'rot1': 531, 'rot0': 537, 'rot3': 350, 'rot2': 307, 'state': 'normal', 'yaw': -79.0, 'datetime': '2018-10-09 12:38:48.250126', 'mgs': 0, 'volt': 0.8838, 'depth': 1.309, 'time': 135, 'pitch': 4.57, 'roll': -10.85, 'pres': 181}
{'lipoC2': 7.48, 'lipoC3S1': 4.09, 'temp': 30.5, 'lipoC3S3': 12.37, 'lipoC3S2': 8.18, 'rot1': 531, 'rot0': 537, 'rot3': 350, 'rot2': 307, 'state': 'normal', 'yaw': -80.43, 'datetime': '2018-10-09 12:38:48.354506', 'mgs': 0, 'volt': 0.8838, 'depth': 1.309, 'time': 135, 'pitch': 4.82, 'roll': -10.24, 'pres': 181}
{'lipoC2': 7.48, 'lipoC3S1': 4.09, 'temp': 30.5, 'lipoC3S3': 12.38, 'lipoC3S2': 8.18, 'rot1': 531, 'rot0': 537, 'rot3': 350, 'rot2': 307, 'state': 'normal', 'yaw': -81.65, 'datetime': '2018-10-09 12:38:48.460007', 'mgs': 0, 'volt': 0.8838, 'depth': 1.309, 'time': 136, 'pitch': 5.13, 'roll': -9.91, 'pres': 181}
{'lipoC2': 7.48, 'lipoC3S1': 4.09, 'temp': 30.5, 'lipoC3S3': 12.37, 'lipoC3S2': 8.18, 'rot1': 531, 'rot0': 537, 'rot3': 350, 'rot2': 307, 'state': 'normal', 'yaw': -82.97, 'datetime': '2018-10-09 12:38:48.564406', 'mgs': 0, 'volt': 0.8838, 'depth': 1.309, 'time': 136, 'pitch': 5.81, 'roll': -9.68, 'pres': 181}
{'lipoC2': 7.48, 'lipoC3S1': 4.09, 'temp': 30.5, 'lipoC3S3': 12.38, 'lipoC3S2': 8.18, 'rot1': 531, 'rot0': 537, 'rot3': 350, 'rot2': 307, 'state': 'normal', 'yaw': -84.14, 'datetime': '2018-10-09 12:38:48.669724', 'mgs': 0, 'volt': 0.8838, 'depth': 1.309, 'time': 136, 'pitch': 6.43, 'roll': -9.53, 'pres': 181}
{'lipoC2': 7.48, 'lipoC3S1': 4.09, 'temp': 30.5, 'lipoC3S3': 12.38, 'lipoC3S2': 8.18, 'rot1': 531, 'rot0': 537, 'rot3': 350, 'rot2': 307, 'state': 'normal', 'yaw': -85.07, 'datetime': '2018-10-09 12:38:48.774019', 'mgs': 0, 'volt': 0.8838, 'depth': 1.309, 'time': 136, 'pitch': 6.55, 'roll': -9.44, 'pres': 181}
{'lipoC2': 7.48, 'lipoC3S1': 4.09, 'temp': 30.5, 'lipoC3S3': 12.38, 'lipoC3S2': 8.18, 'rot1': 531, 'rot0': 537, 'rot3': 350, 'rot2': 307, 'state': 'normal', 'yaw': -85.52, 'datetime': '2018-10-09 12:38:48.879530', 'mgs': 0, 'volt': 0.8838, 'depth': 1.309, 'time': 136, 'pitch': 5.89, 'roll': -9.47, 'pres': 181}
{'lipoC2': 7.48, 'lipoC3S1': 4.09, 'temp': 30.5, 'lipoC3S3': 12.38, 'lipoC3S2': 8.18, 'rot1': 531, 'rot0': 537, 'rot3': 350, 'rot2': 307, 'state': 'normal', 'yaw': -85.58, 'datetime': '2018-10-09 12:38:48.983764', 'mgs': 0, 'volt': 0.8789, 'depth': 1.233, 'time': 136, 'pitch': 5.0, 'roll': -9.76, 'pres': 180}
{'lipoC2': 7.48, 'lipoC3S1': 4.09, 'temp': 30.56, 'lipoC3S3': 12.38, 'lipoC3S2': 8.18, 'rot1': 531, 'rot0': 537, 'rot3': 350, 'rot2': 307, 'state': 'normal', 'yaw': -85.28, 'datetime': '2018-10-09 12:38:49.087988', 'mgs': 0, 'volt': 0.8838, 'depth': 1.309, 'time': 136, 'pitch': 4.69, 'roll': -10.36, 'pres': 181}
{'lipoC2': 7.48, 'lipoC3S1': 4.09, 'temp': 30.56, 'lipoC3S3': 12.38, 'lipoC3S2': 8.18, 'rot1': 531, 'rot0': 537, 'rot3': 350, 'rot2': 307, 'state': 'normal', 'yaw': -84.78, 'datetime': '2018-10-09 12:38:49.192353', 'mgs': 0, 'volt': 0.8838, 'depth': 1.309, 'time': 136, 'pitch': 5.33, 'roll': -11.32, 'pres': 181}
{'lipoC2': 7.48, 'lipoC3S1': 4.09, 'temp': 30.56, 'lipoC3S3': 12.38, 'lipoC3S2': 8.18, 'rot1': 531, 'rot0': 537, 'rot3': 350, 'rot2': 307, 'state': 'normal', 'yaw': -84.15, 'datetime': '2018-10-09 12:38:49.296627', 'mgs': 0, 'volt': 0.8838, 'depth': 1.309, 'time': 136, 'pitch': 6.95, 'roll': -12.49, 'pres': 181}
{'lipoC2': 7.48, 'lipoC3S1': 4.09, 'temp': 30.56, 'lipoC3S3': 12.38, 'lipoC3S2': 8.18, 'rot1': 531, 'rot0': 537, 'rot3': 350, 'rot2': 307, 'state': 'normal', 'yaw': -83.58, 'datetime': '2018-10-09 12:38:49.397962', 'mgs': 0, 'volt': 0.8838, 'depth': 1.309, 'time': 136, 'pitch': 8.51, 'roll': -13.23, 'pres': 181}
{'lipoC2': 7.48, 'lipoC3S1': 4.09, 'temp': 30.56, 'lipoC3S3': 12.38, 'lipoC3S2': 8.18, 'rot1': 531, 'rot0': 537, 'rot3': 350, 'rot2': 307, 'state': 'normal', 'yaw': -83.1, 'datetime': '2018-10-09 12:38:49.503572', 'mgs': 0, 'volt': 0.8887, 'depth': 1.385, 'time': 137, 'pitch': 9.88, 'roll': -13.28, 'pres': 182}
{'lipoC2': 7.47, 'lipoC3S1': 4.09, 'temp': 30.5, 'lipoC3S3': 12.38, 'lipoC3S2': 8.18, 'rot1': 531, 'rot0': 537, 'rot3': 350, 'rot2': 307, 'state': 'normal', 'yaw': -82.6, 'datetime': '2018-10-09 12:38:49.609589', 'mgs': 0, 'volt': 0.8887, 'depth': 1.385, 'time': 137, 'pitch': 10.34, 'roll': -12.52, 'pres': 182}
{'lipoC2': 7.48, 'lipoC3S1': 4.09, 'temp': 30.5, 'lipoC3S3': 12.38, 'lipoC3S2': 8.18, 'rot1': 531, 'rot0': 537, 'rot3': 350, 'rot2': 307, 'state': 'normal', 'yaw': -81.88, 'datetime': '2018-10-09 12:38:49.713892', 'mgs': 0, 'volt': 0.8936, 'depth': 1.462, 'time': 137, 'pitch': 9.94, 'roll': -11.24, 'pres': 183}
{'lipoC2': 7.48, 'lipoC3S1': 4.09, 'temp': 30.5, 'lipoC3S3': 12.38, 'lipoC3S2': 8.18, 'rot1': 531, 'rot0': 537, 'rot3': 350, 'rot2': 307, 'state': 'normal', 'yaw': -81.29, 'datetime': '2018-10-09 12:38:49.818455', 'mgs': 0, 'volt': 0.8936, 'depth': 1.462, 'time': 137, 'pitch': 9.48, 'roll': -10.13, 'pres': 183}
{'lipoC2': 7.48, 'lipoC3S1': 4.09, 'temp': 30.5, 'lipoC3S3': 12.38, 'lipoC3S2': 8.18, 'rot1': 531, 'rot0': 537, 'rot3': 350, 'rot2': 307, 'state': 'normal', 'yaw': -80.79, 'datetime': '2018-10-09 12:38:49.923509', 'mgs': 1, 'volt': 0.8936, 'depth': 1.462, 'time': 137, 'pitch': 9.1, 'roll': -9.31, 'pres': 183}
{'lipoC2': 7.48, 'lipoC3S1': 4.09, 'temp': 30.5, 'lipoC3S3': 12.38, 'lipoC3S2': 8.18, 'rot1': 0, 'rot0': 0, 'rot3': 0, 'rot2': 0, 'state': 'normal', 'yaw': 0.0, 'datetime': '2018-10-09 12:38:52.966944', 'mgs': 0, 'volt': 0.9131, 'depth': 1.767, 'time': 1, 'pitch': 5.73, 'roll': -9.59, 'pres': 187}
{'lipoC2': 7.48, 'lipoC3S1': 4.09, 'temp': 30.5, 'lipoC3S3': 12.38, 'lipoC3S2': 8.18, 'rot1': 0, 'rot0': 0, 'rot3': 0, 'rot2': 0, 'state': 'normal', 'yaw': -0.36, 'datetime': '2018-10-09 12:38:56.020182', 'mgs': 0, 'volt': 0.9131, 'depth': 1.767, 'time': 1, 'pitch': 6.43, 'roll': -10.26, 'pres': 187}
{'lipoC2': 7.48, 'lipoC3S1': 4.09, 'temp': 30.5, 'lipoC3S3': 12.38, 'lipoC3S2': 8.18, 'rot1': 0, 'rot0': 0, 'rot3': 0, 'rot2': 0, 'state': 'normal', 'yaw': -0.67, 'datetime': '2018-10-09 12:38:56.056677', 'mgs': 0, 'volt': 0.9131, 'depth': 1.767, 'time': 1, 'pitch': 7.02, 'roll': -10.79, 'pres': 187}
{'lipoC2': 7.48, 'lipoC3S1': 4.09, 'temp': 30.5, 'lipoC3S3': 12.38, 'lipoC3S2': 8.18, 'rot1': 0, 'rot0': 0, 'rot3': 0, 'rot2': 0, 'state': 'normal', 'yaw': -0.9, 'datetime': '2018-10-09 12:38:56.079664', 'mgs': 0, 'volt': 0.9131, 'depth': 1.767, 'time': 1, 'pitch': 7.33, 'roll': -11.1, 'pres': 187}
{'lipoC2': 7.48, 'lipoC3S1': 4.09, 'temp': 30.5, 'lipoC3S3': 12.38, 'lipoC3S2': 8.18, 'rot1': 0, 'rot0': 0, 'rot3': 0, 'rot2': 0, 'state': 'normal', 'yaw': -1.04, 'datetime': '2018-10-09 12:38:56.109746', 'mgs': 0, 'volt': 0.9131, 'depth': 1.767, 'time': 1, 'pitch': 7.33, 'roll': -11.15, 'pres': 187}
{'lipoC2': 7.48, 'lipoC3S1': 4.09, 'temp': 30.5, 'lipoC3S3': 12.38, 'lipoC3S2': 8.18, 'rot1': 0, 'rot0': 0, 'rot3': 0, 'rot2': 0, 'state': 'normal', 'yaw': -1.13, 'datetime': '2018-10-09 12:38:56.134769', 'mgs': 0, 'volt': 0.9131, 'depth': 1.767, 'time': 1, 'pitch': 7.14, 'roll': -11.03, 'pres': 187}
{'lipoC2': 7.48, 'lipoC3S1': 4.09, 'temp': 30.5, 'lipoC3S3': 12.38, 'lipoC3S2': 8.18, 'rot1': 0, 'rot0': 0, 'rot3': 0, 'rot2': 0, 'state': 'normal', 'yaw': -1.24, 'datetime': '2018-10-09 12:38:56.144653', 'mgs': 0, 'volt': 0.9131, 'depth': 1.767, 'time': 1, 'pitch': 6.89, 'roll': -10.8, 'pres': 187}
{'lipoC2': 7.48, 'lipoC3S1': 4.09, 'temp': 30.5, 'lipoC3S3': 12.38, 'lipoC3S2': 8.18, 'rot1': 0, 'rot0': 0, 'rot3': 0, 'rot2': 0, 'state': 'normal', 'yaw': -1.4, 'datetime': '2018-10-09 12:38:56.160425', 'mgs': 0, 'volt': 0.918, 'depth': 1.843, 'time': 1, 'pitch': 6.58, 'roll': -10.48, 'pres': 188}
{'lipoC2': 7.48, 'lipoC3S1': 4.09, 'temp': 30.5, 'lipoC3S3': 12.38, 'lipoC3S2': 8.18, 'rot1': 0, 'rot0': 0, 'rot3': 0, 'rot2': 0, 'state': 'normal', 'yaw': -1.52, 'datetime': '2018-10-09 12:38:56.176179', 'mgs': 0, 'volt': 0.918, 'depth': 1.843, 'time': 2, 'pitch': 6.24, 'roll': -10.09, 'pres': 188}
{'lipoC2': 7.48, 'lipoC3S1': 4.09, 'temp': 30.5, 'lipoC3S3': 12.38, 'lipoC3S2': 8.18, 'rot1': 0, 'rot0': 0, 'rot3': 0, 'rot2': 0, 'state': 'normal', 'yaw': -1.62, 'datetime': '2018-10-09 12:38:56.186033', 'mgs': 0, 'volt': 0.918, 'depth': 1.843, 'time': 2, 'pitch': 5.89, 'roll': -9.67, 'pres': 188}
{'lipoC2': 7.48, 'lipoC3S1': 4.09, 'temp': 30.5, 'lipoC3S3': 12.38, 'lipoC3S2': 8.18, 'rot1': 0, 'rot0': 0, 'rot3': 0, 'rot2': 0, 'state': 'normal', 'yaw': -1.74, 'datetime': '2018-10-09 12:38:56.201764', 'mgs': 0, 'volt': 0.918, 'depth': 1.843, 'time': 2, 'pitch': 5.7, 'roll': -9.23, 'pres': 188}
{'lipoC2': 7.48, 'lipoC3S1': 4.09, 'temp': 30.5, 'lipoC3S3': 12.38, 'lipoC3S2': 8.18, 'rot1': 0, 'rot0': 0, 'rot3': 0, 'rot2': 0, 'state': 'normal', 'yaw': -1.85, 'datetime': '2018-10-09 12:38:56.217521', 'mgs': 0, 'volt': 0.918, 'depth': 1.843, 'time': 2, 'pitch': 5.79, 'roll': -8.93, 'pres': 188}
{'lipoC2': 7.48, 'lipoC3S1': 4.09, 'temp': 30.5, 'lipoC3S3': 12.38, 'lipoC3S2': 8.18, 'rot1': 0, 'rot0': 0, 'rot3': 0, 'rot2': 0, 'state': 'normal', 'yaw': -1.93, 'datetime': '2018-10-09 12:38:56.227390', 'mgs': 0, 'volt': 0.918, 'depth': 1.843, 'time': 2, 'pitch': 6.06, 'roll': -8.68, 'pres': 188}
{'lipoC2': 7.48, 'lipoC3S1': 4.09, 'temp': 30.5, 'lipoC3S3': 12.38, 'lipoC3S2': 8.18, 'rot1': 0, 'rot0': 0, 'rot3': 0, 'rot2': 0, 'state': 'normal', 'yaw': -2.04, 'datetime': '2018-10-09 12:38:56.243205', 'mgs': 0, 'volt': 0.9229, 'depth': 1.92, 'time': 2, 'pitch': 6.38, 'roll': -8.3, 'pres': 189}
{'lipoC2': 7.48, 'lipoC3S1': 4.09, 'temp': 30.5, 'lipoC3S3': 12.38, 'lipoC3S2': 8.18, 'rot1': 0, 'rot0': 0, 'rot3': 0, 'rot2': 0, 'state': 'normal', 'yaw': -1.98, 'datetime': '2018-10-09 12:38:56.258999', 'mgs': 0, 'volt': 0.9229, 'depth': 1.92, 'time': 2, 'pitch': 6.44, 'roll': -7.91, 'pres': 189}
{'lipoC2': 7.48, 'lipoC3S1': 4.09, 'temp': 30.5, 'lipoC3S3': 12.38, 'lipoC3S2': 8.18, 'rot1': 0, 'rot0': 0, 'rot3': 0, 'rot2': 0, 'state': 'normal', 'yaw': -1.71, 'datetime': '2018-10-09 12:38:56.269139', 'mgs': 0, 'volt': 0.9229, 'depth': 1.92, 'time': 2, 'pitch': 6.35, 'roll': -7.6, 'pres': 189}
{'lipoC2': 7.48, 'lipoC3S1': 4.09, 'temp': 30.5, 'lipoC3S3': 12.38, 'lipoC3S2': 8.18, 'rot1': 0, 'rot0': 0, 'rot3': 0, 'rot2': 0, 'state': 'normal', 'yaw': -1.39, 'datetime': '2018-10-09 12:38:56.285197', 'mgs': 0, 'volt': 0.9229, 'depth': 1.92, 'time': 2, 'pitch': 6.2, 'roll': -7.5, 'pres': 189}
{'lipoC2': 7.47, 'lipoC3S1': 4.0, 'temp': 30.5, 'lipoC3S3': 12.21, 'lipoC3S2': 8.04, 'rot1': 0, 'rot0': 0, 'rot3': 0, 'rot2': 0, 'state': 'normal', 'yaw': -1.05, 'datetime': '2018-10-09 12:38:56.301145', 'mgs': 0, 'volt': 0.9277, 'depth': 1.996, 'time': 3, 'pitch': 6.06, 'roll': -7.66, 'pres': 190}
{'lipoC2': 7.47, 'lipoC3S1': 4.03, 'temp': 30.5, 'lipoC3S3': 12.27, 'lipoC3S2': 8.1, 'rot1': 0, 'rot0': 0, 'rot3': 1, 'rot2': 1, 'state': 'normal', 'yaw': -0.85, 'datetime': '2018-10-09 12:38:56.311027', 'mgs': 0, 'volt': 0.9229, 'depth': 1.92, 'time': 3, 'pitch': 6.25, 'roll': -7.93, 'pres': 189}
{'lipoC2': 7.47, 'lipoC3S1': 4.07, 'temp': 30.5, 'lipoC3S3': 12.27, 'lipoC3S2': 8.09, 'rot1': 0, 'rot0': 0, 'rot3': 2, 'rot2': 2, 'state': 'normal', 'yaw': -0.87, 'datetime': '2018-10-09 12:38:56.326884', 'mgs': 0, 'volt': 0.9326, 'depth': 2.072, 'time': 3, 'pitch': 7.06, 'roll': -8.1, 'pres': 191}
{'lipoC2': 7.47, 'lipoC3S1': 4.04, 'temp': 30.5, 'lipoC3S3': 12.29, 'lipoC3S2': 8.1, 'rot1': 0, 'rot0': 0, 'rot3': 3, 'rot2': 3, 'state': 'normal', 'yaw': -1.05, 'datetime': '2018-10-09 12:38:56.342762', 'mgs': 0, 'volt': 0.918, 'depth': 1.843, 'time': 3, 'pitch': 8.36, 'roll': -8.09, 'pres': 188}
{'lipoC2': 7.47, 'lipoC3S1': 4.03, 'temp': 30.5, 'lipoC3S3': 12.29, 'lipoC3S2': 8.1, 'rot1': 0, 'rot0': 0, 'rot3': 4, 'rot2': 4, 'state': 'normal', 'yaw': -1.24, 'datetime': '2018-10-09 12:38:56.352749', 'mgs': 0, 'volt': 0.918, 'depth': 1.843, 'time': 3, 'pitch': 9.63, 'roll': -7.76, 'pres': 188}
{'lipoC2': 7.47, 'lipoC3S1': 4.03, 'temp': 30.5, 'lipoC3S3': 12.27, 'lipoC3S2': 8.09, 'rot1': 0, 'rot0': 0, 'rot3': 5, 'rot2': 5, 'state': 'normal', 'yaw': -1.39, 'datetime': '2018-10-09 12:38:56.368587', 'mgs': 0, 'volt': 0.9229, 'depth': 1.92, 'time': 3, 'pitch': 10.82, 'roll': -7.26, 'pres': 189}
{'lipoC2': 7.47, 'lipoC3S1': 4.04, 'temp': 30.5, 'lipoC3S3': 12.29, 'lipoC3S2': 8.11, 'rot1': 0, 'rot0': 0, 'rot3': 6, 'rot2': 6, 'state': 'normal', 'yaw': -1.54, 'datetime': '2018-10-09 12:38:56.384508', 'mgs': 0, 'volt': 0.9131, 'depth': 1.767, 'time': 3, 'pitch': 11.97, 'roll': -6.67, 'pres': 187}
{'lipoC2': 7.47, 'lipoC3S1': 4.07, 'temp': 30.5, 'lipoC3S3': 12.26, 'lipoC3S2': 8.09, 'rot1': 0, 'rot0': 0, 'rot3': 7, 'rot2': 7, 'state': 'normal', 'yaw': -1.66, 'datetime': '2018-10-09 12:38:56.394401', 'mgs': 0, 'volt': 0.9277, 'depth': 1.996, 'time': 3, 'pitch': 12.86, 'roll': -6.21, 'pres': 190}
{'lipoC2': 7.47, 'lipoC3S1': 4.05, 'temp': 30.5, 'lipoC3S3': 12.31, 'lipoC3S2': 8.13, 'rot1': 0, 'rot0': 0, 'rot3': 8, 'rot2': 7, 'state': 'normal', 'yaw': -1.87, 'datetime': '2018-10-09 12:38:56.410283', 'mgs': 0, 'volt': 0.9326, 'depth': 2.072, 'time': 3, 'pitch': 13.58, 'roll': -5.88, 'pres': 191}
{'lipoC2': 7.47, 'lipoC3S1': 4.05, 'temp': 30.5, 'lipoC3S3': 12.31, 'lipoC3S2': 8.13, 'rot1': 0, 'rot0': 0, 'rot3': 9, 'rot2': 8, 'state': 'normal', 'yaw': -2.09, 'datetime': '2018-10-09 12:38:56.426158', 'mgs': 0, 'volt': 0.9277, 'depth': 1.996, 'time': 3, 'pitch': 14.16, 'roll': -5.59, 'pres': 190}
{'lipoC2': 7.47, 'lipoC3S1': 4.03, 'temp': 30.5, 'lipoC3S3': 12.29, 'lipoC3S2': 8.11, 'rot1': 0, 'rot0': 0, 'rot3': 10, 'rot2': 9, 'state': 'normal', 'yaw': -2.29, 'datetime': '2018-10-09 12:38:56.436078', 'mgs': 0, 'volt': 0.9033, 'depth': 1.614, 'time': 4, 'pitch': 14.5, 'roll': -5.4, 'pres': 185}
{'lipoC2': 7.47, 'lipoC3S1': 4.08, 'temp': 30.5, 'lipoC3S3': 12.29, 'lipoC3S2': 8.11, 'rot1': 0, 'rot0': 0, 'rot3': 11, 'rot2': 10, 'state': 'normal', 'yaw': -2.46, 'datetime': '2018-10-09 12:38:56.451976', 'mgs': 0, 'volt': 0.8984, 'depth': 1.538, 'time': 4, 'pitch': 14.47, 'roll': -5.45, 'pres': 184}
{'lipoC2': 7.47, 'lipoC3S1': 4.07, 'temp': 30.5, 'lipoC3S3': 12.26, 'lipoC3S2': 8.14, 'rot1': 0, 'rot0': 0, 'rot3': 13, 'rot2': 11, 'state': 'normal', 'yaw': -2.44, 'datetime': '2018-10-09 12:38:56.468071', 'mgs': 0, 'volt': 0.9082, 'depth': 1.691, 'time': 4, 'pitch': 13.99, 'roll': -5.72, 'pres': 186}
{'lipoC2': 7.48, 'lipoC3S1': 4.05, 'temp': 30.5, 'lipoC3S3': 12.33, 'lipoC3S2': 8.13, 'rot1': 0, 'rot0': 0, 'rot3': 14, 'rot2': 12, 'state': 'normal', 'yaw': -2.24, 'datetime': '2018-10-09 12:38:56.478079', 'mgs': 0, 'volt': 0.9033, 'depth': 1.614, 'time': 4, 'pitch': 13.17, 'roll': -6.1, 'pres': 185}
{'lipoC2': 7.48, 'lipoC3S1': 4.05, 'temp': 30.5, 'lipoC3S3': 12.3, 'lipoC3S2': 8.13, 'rot1': 0, 'rot0': 0, 'rot3': 15, 'rot2': 13, 'state': 'normal', 'yaw': -1.81, 'datetime': '2018-10-09 12:38:56.494026', 'mgs': 0, 'volt': 0.8789, 'depth': 1.233, 'time': 4, 'pitch': 12.23, 'roll': -6.59, 'pres': 180}
{'lipoC2': 7.47, 'lipoC3S1': 4.08, 'temp': 30.5, 'lipoC3S3': 12.27, 'lipoC3S2': 8.11, 'rot1': 0, 'rot0': 0, 'rot3': 16, 'rot2': 14, 'state': 'normal', 'yaw': -1.29, 'datetime': '2018-10-09 12:38:56.510004', 'mgs': 0, 'volt': 0.8838, 'depth': 1.309, 'time': 4, 'pitch': 11.65, 'roll': -7.04, 'pres': 181}
{'lipoC2': 7.47, 'lipoC3S1': 4.07, 'temp': 30.5, 'lipoC3S3': 12.33, 'lipoC3S2': 8.14, 'rot1': 0, 'rot0': 0, 'rot3': 18, 'rot2': 15, 'state': 'normal', 'yaw': -0.91, 'datetime': '2018-10-09 12:38:56.519929', 'mgs': 0, 'volt': 0.8936, 'depth': 1.462, 'time': 4, 'pitch': 11.47, 'roll': -7.66, 'pres': 183}
{'lipoC2': 7.47, 'lipoC3S1': 4.05, 'temp': 30.5, 'lipoC3S3': 12.33, 'lipoC3S2': 8.13, 'rot1': 0, 'rot0': 0, 'rot3': 19, 'rot2': 16, 'state': 'normal', 'yaw': -0.68, 'datetime': '2018-10-09 12:38:56.535816', 'mgs': 0, 'volt': 0.8936, 'depth': 1.462, 'time': 4, 'pitch': 11.7, 'roll': -8.5, 'pres': 183}
{'lipoC2': 7.47, 'lipoC3S1': 4.08, 'temp': 30.5, 'lipoC3S3': 12.3, 'lipoC3S2': 8.13, 'rot1': 0, 'rot0': 0, 'rot3': 20, 'rot2': 17, 'state': 'normal', 'yaw': -0.56, 'datetime': '2018-10-09 12:38:56.551244', 'mgs': 0, 'volt': 0.8691, 'depth': 1.08, 'time': 4, 'pitch': 11.99, 'roll': -9.16, 'pres': 178}
{'lipoC2': 7.48, 'lipoC3S1': 4.06, 'temp': 30.5, 'lipoC3S3': 12.33, 'lipoC3S2': 8.13, 'rot1': 0, 'rot0': 0, 'rot3': 21, 'rot2': 18, 'state': 'normal', 'yaw': -0.4, 'datetime': '2018-10-09 12:38:56.560659', 'mgs': 0, 'volt': 0.8838, 'depth': 1.309, 'time': 4, 'pitch': 12.06, 'roll': -9.46, 'pres': 181}
{'lipoC2': 7.47, 'lipoC3S1': 4.05, 'temp': 30.5, 'lipoC3S3': 12.3, 'lipoC3S2': 8.11, 'rot1': 0, 'rot0': 0, 'rot3': 23, 'rot2': 19, 'state': 'normal', 'yaw': -0.1, 'datetime': '2018-10-09 12:38:56.576021', 'mgs': 0, 'volt': 0.8643, 'depth': 1.004, 'time': 5, 'pitch': 11.72, 'roll': -9.24, 'pres': 177}
{'lipoC2': 7.48, 'lipoC3S1': 4.05, 'temp': 30.5, 'lipoC3S3': 12.33, 'lipoC3S2': 8.13, 'rot1': 0, 'rot0': 0, 'rot3': 24, 'rot2': 20, 'state': 'normal', 'yaw': 0.18, 'datetime': '2018-10-09 12:38:56.591462', 'mgs': 0, 'volt': 0.8838, 'depth': 1.309, 'time': 5, 'pitch': 11.08, 'roll': -8.67, 'pres': 181}
{'lipoC2': 7.47, 'lipoC3S1': 4.07, 'temp': 30.5, 'lipoC3S3': 12.29, 'lipoC3S2': 8.11, 'rot1': 0, 'rot0': 0, 'rot3': 25, 'rot2': 21, 'state': 'normal', 'yaw': 0.48, 'datetime': '2018-10-09 12:38:56.600873', 'mgs': 0, 'volt': 0.874, 'depth': 1.157, 'time': 5, 'pitch': 10.24, 'roll': -7.87, 'pres': 179}
{'lipoC2': 7.47, 'lipoC3S1': 4.07, 'temp': 30.5, 'lipoC3S3': 12.33, 'lipoC3S2': 8.16, 'rot1': 0, 'rot0': 0, 'rot3': 27, 'rot2': 22, 'state': 'normal', 'yaw': 0.73, 'datetime': '2018-10-09 12:38:56.616267', 'mgs': 0, 'volt': 0.8789, 'depth': 1.233, 'time': 5, 'pitch': 9.54, 'roll': -7.25, 'pres': 180}
{'lipoC2': 7.47, 'lipoC3S1': 4.07, 'temp': 30.5, 'lipoC3S3': 12.29, 'lipoC3S2': 8.11, 'rot1': 0, 'rot0': 0, 'rot3': 28, 'rot2': 23, 'state': 'normal', 'yaw': 0.94, 'datetime': '2018-10-09 12:38:56.631683', 'mgs': 0, 'volt': 0.8691, 'depth': 1.08, 'time': 5, 'pitch': 9.01, 'roll': -7.01, 'pres': 178}
{'lipoC2': 7.47, 'lipoC3S1': 4.07, 'temp': 30.5, 'lipoC3S3': 12.27, 'lipoC3S2': 8.14, 'rot1': 0, 'rot0': 0, 'rot3': 29, 'rot2': 24, 'state': 'normal', 'yaw': 1.15, 'datetime': '2018-10-09 12:38:56.641278', 'mgs': 0, 'volt': 0.8789, 'depth': 1.233, 'time': 5, 'pitch': 8.8, 'roll': -7.35, 'pres': 180}
{'lipoC2': 7.47, 'lipoC3S1': 4.07, 'temp': 30.5, 'lipoC3S3': 12.33, 'lipoC3S2': 8.13, 'rot1': 0, 'rot0': 0, 'rot3': 30, 'rot2': 25, 'state': 'normal', 'yaw': 1.29, 'datetime': '2018-10-09 12:38:56.656646', 'mgs': 0, 'volt': 0.8838, 'depth': 1.309, 'time': 5, 'pitch': 9.04, 'roll': -8.11, 'pres': 181}
{'lipoC2': 7.48, 'lipoC3S1': 4.04, 'temp': 30.5, 'lipoC3S3': 12.3, 'lipoC3S2': 8.12, 'rot1': 0, 'rot0': 0, 'rot3': 32, 'rot2': 26, 'state': 'normal', 'yaw': 1.41, 'datetime': '2018-10-09 12:38:56.672082', 'mgs': 0, 'volt': 0.8643, 'depth': 1.004, 'time': 5, 'pitch': 9.56, 'roll': -8.94, 'pres': 177}
{'lipoC2': 7.47, 'lipoC3S1': 4.07, 'temp': 30.5, 'lipoC3S3': 12.27, 'lipoC3S2': 8.11, 'rot1': 0, 'rot0': 0, 'rot3': 33, 'rot2': 27, 'state': 'normal', 'yaw': 1.5, 'datetime': '2018-10-09 12:38:56.681514', 'mgs': 0, 'volt': 0.8691, 'depth': 1.08, 'time': 5, 'pitch': 10.15, 'roll': -9.56, 'pres': 178}
{'lipoC2': 7.47, 'lipoC3S1': 4.06, 'temp': 30.5, 'lipoC3S3': 12.33, 'lipoC3S2': 8.14, 'rot1': 0, 'rot0': 0, 'rot3': 34, 'rot2': 28, 'state': 'normal', 'yaw': 1.51, 'datetime': '2018-10-09 12:38:56.696842', 'mgs': 0, 'volt': 0.8789, 'depth': 1.233, 'time': 6, 'pitch': 10.65, 'roll': -9.68, 'pres': 180}
{'lipoC2': 7.48, 'lipoC3S1': 3.98, 'temp': 30.5, 'lipoC3S3': 12.05, 'lipoC3S2': 8.01, 'rot1': 0, 'rot0': 0, 'rot3': 35, 'rot2': 29, 'state': 'normal', 'yaw': 1.47, 'datetime': '2018-10-09 12:38:56.712306', 'mgs': 0, 'volt': 0.874, 'depth': 1.157, 'time': 6, 'pitch': 11.16, 'roll': -9.5, 'pres': 179}
{'lipoC2': 7.44, 'lipoC3S1': 4.06, 'temp': 30.5, 'lipoC3S3': 12.22, 'lipoC3S2': 8.06, 'rot1': 0, 'rot0': 1, 'rot3': 36, 'rot2': 29, 'state': 'normal', 'yaw': 1.4, 'datetime': '2018-10-09 12:38:56.721765', 'mgs': 0, 'volt': 0.8643, 'depth': 1.004, 'time': 6, 'pitch': 11.84, 'roll': -9.15, 'pres': 177}
{'lipoC2': 7.47, 'lipoC3S1': 4.03, 'temp': 30.44, 'lipoC3S3': 12.23, 'lipoC3S2': 8.12, 'rot1': 2, 'rot0': 2, 'rot3': 37, 'rot2': 30, 'state': 'normal', 'yaw': 1.19, 'datetime': '2018-10-09 12:38:56.737079', 'mgs': 0, 'volt': 0.8105, 'depth': 0.165, 'time': 6, 'pitch': 12.97, 'roll': -8.93, 'pres': 166}
{'lipoC2': 7.47, 'lipoC3S1': 4.02, 'temp': 30.44, 'lipoC3S3': 12.1, 'lipoC3S2': 8.06, 'rot1': 3, 'rot0': 3, 'rot3': 38, 'rot2': 31, 'state': 'normal', 'yaw': 0.96, 'datetime': '2018-10-09 12:38:56.752526', 'mgs': 0, 'volt': 0.874, 'depth': 1.157, 'time': 6, 'pitch': 14.23, 'roll': -8.79, 'pres': 179}
{'lipoC2': 7.47, 'lipoC3S1': 4.06, 'temp': 30.44, 'lipoC3S3': 12.21, 'lipoC3S2': 8.11, 'rot1': 4, 'rot0': 5, 'rot3': 39, 'rot2': 32, 'state': 'normal', 'yaw': 0.62, 'datetime': '2018-10-09 12:38:56.762022', 'mgs': 0, 'volt': 0.9619, 'depth': 2.53, 'time': 6, 'pitch': 15.17, 'roll': -8.8, 'pres': 197}
{'lipoC2': 7.44, 'lipoC3S1': 4.06, 'temp': 30.44, 'lipoC3S3': 12.22, 'lipoC3S2': 8.05, 'rot1': 5, 'rot0': 6, 'rot3': 40, 'rot2': 33, 'state': 'normal', 'yaw': 0.41, 'datetime': '2018-10-09 12:38:56.777470', 'mgs': 0, 'volt': 0.8838, 'depth': 1.309, 'time': 6, 'pitch': 15.51, 'roll': -8.83, 'pres': 181}
{'lipoC2': 7.47, 'lipoC3S1': 3.97, 'temp': 30.44, 'lipoC3S3': 12.27, 'lipoC3S2': 8.12, 'rot1': 6, 'rot0': 7, 'rot3': 41, 'rot2': 33, 'state': 'normal', 'yaw': 0.22, 'datetime': '2018-10-09 12:38:56.792880', 'mgs': 0, 'volt': 0.9131, 'depth': 1.767, 'time': 6, 'pitch': 15.67, 'roll': -8.99, 'pres': 187}
{'lipoC2': 7.44, 'lipoC3S1': 4.07, 'temp': 30.5, 'lipoC3S3': 12.22, 'lipoC3S2': 8.12, 'rot1': 7, 'rot0': 8, 'rot3': 42, 'rot2': 34, 'state': 'normal', 'yaw': 0.01, 'datetime': '2018-10-09 12:38:56.886064', 'mgs': 0, 'volt': 0.9229, 'depth': 1.92, 'time': 6, 'pitch': 15.89, 'roll': -9.37, 'pres': 189}
{'lipoC2': 7.46, 'lipoC3S1': 4.07, 'temp': 30.5, 'lipoC3S3': 12.25, 'lipoC3S2': 8.06, 'rot1': 8, 'rot0': 9, 'rot3': 43, 'rot2': 35, 'state': 'normal', 'yaw': -0.31, 'datetime': '2018-10-09 12:38:56.991166', 'mgs': 0, 'volt': 0.8984, 'depth': 1.538, 'time': 6, 'pitch': 16.49, 'roll': -9.89, 'pres': 184}
{'lipoC2': 7.47, 'lipoC3S1': 4.02, 'temp': 30.5, 'lipoC3S3': 12.27, 'lipoC3S2': 8.12, 'rot1': 9, 'rot0': 11, 'rot3': 44, 'rot2': 36, 'state': 'normal', 'yaw': -0.76, 'datetime': '2018-10-09 12:38:57.095005', 'mgs': 0, 'volt': 0.918, 'depth': 1.843, 'time': 7, 'pitch': 17.4, 'roll': -10.44, 'pres': 188}
{'lipoC2': 7.47, 'lipoC3S1': 4.03, 'temp': 30.5, 'lipoC3S3': 12.17, 'lipoC3S2': 8.08, 'rot1': 11, 'rot0': 12, 'rot3': 45, 'rot2': 37, 'state': 'normal', 'yaw': -1.13, 'datetime': '2018-10-09 12:38:57.198865', 'mgs': 0, 'volt': 0.9082, 'depth': 1.691, 'time': 7, 'pitch': 18.19, 'roll': -10.7, 'pres': 186}
{'lipoC2': 7.48, 'lipoC3S1': 4.02, 'temp': 30.5, 'lipoC3S3': 12.29, 'lipoC3S2': 7.99, 'rot1': 12, 'rot0': 13, 'rot3': 47, 'rot2': 37, 'state': 'normal', 'yaw': -1.5, 'datetime': '2018-10-09 12:38:57.302923', 'mgs': 0, 'volt': 0.9326, 'depth': 2.072, 'time': 7, 'pitch': 18.82, 'roll': -10.67, 'pres': 191}
{'lipoC2': 7.47, 'lipoC3S1': 4.01, 'temp': 30.5, 'lipoC3S3': 12.23, 'lipoC3S2': 8.11, 'rot1': 13, 'rot0': 14, 'rot3': 48, 'rot2': 38, 'state': 'normal', 'yaw': -1.81, 'datetime': '2018-10-09 12:38:57.406929', 'mgs': 0, 'volt': 0.9375, 'depth': 2.148, 'time': 7, 'pitch': 19.15, 'roll': -10.39, 'pres': 192}
{'lipoC2': 7.46, 'lipoC3S1': 4.06, 'temp': 30.5, 'lipoC3S3': 12.19, 'lipoC3S2': 8.04, 'rot1': 14, 'rot0': 15, 'rot3': 49, 'rot2': 39, 'state': 'normal', 'yaw': -2.12, 'datetime': '2018-10-09 12:38:57.510928', 'mgs': 0, 'volt': 0.9424, 'depth': 2.225, 'time': 7, 'pitch': 19.23, 'roll': -10.03, 'pres': 193}
{'lipoC2': 7.48, 'lipoC3S1': 4.02, 'temp': 30.5, 'lipoC3S3': 12.14, 'lipoC3S2': 8.05, 'rot1': 15, 'rot0': 17, 'rot3': 50, 'rot2': 40, 'state': 'normal', 'yaw': -2.48, 'datetime': '2018-10-09 12:38:57.615633', 'mgs': 0, 'volt': 0.9229, 'depth': 1.92, 'time': 7, 'pitch': 19.07, 'roll': -9.85, 'pres': 189}
{'lipoC2': 7.48, 'lipoC3S1': 3.91, 'temp': 30.5, 'lipoC3S3': 12.29, 'lipoC3S2': 8.07, 'rot1': 16, 'rot0': 18, 'rot3': 51, 'rot2': 41, 'state': 'normal', 'yaw': -2.79, 'datetime': '2018-10-09 12:38:57.719636', 'mgs': 0, 'volt': 0.9375, 'depth': 2.148, 'time': 7, 'pitch': 18.94, 'roll': -10.04, 'pres': 192}
{'lipoC2': 7.47, 'lipoC3S1': 4.02, 'temp': 30.5, 'lipoC3S3': 12.09, 'lipoC3S2': 8.05, 'rot1': 17, 'rot0': 19, 'rot3': 51, 'rot2': 41, 'state': 'normal', 'yaw': -3.1, 'datetime': '2018-10-09 12:38:57.824071', 'mgs': 0, 'volt': 0.9277, 'depth': 1.996, 'time': 7, 'pitch': 18.89, 'roll': -10.5, 'pres': 190}
{'lipoC2': 7.48, 'lipoC3S1': 4.07, 'temp': 30.5, 'lipoC3S3': 12.29, 'lipoC3S2': 8.04, 'rot1': 19, 'rot0': 20, 'rot3': 52, 'rot2': 42, 'state': 'normal', 'yaw': -3.4, 'datetime': '2018-10-09 12:38:57.928142', 'mgs': 0, 'volt': 0.9473, 'depth': 2.301, 'time': 7, 'pitch': 18.74, 'roll': -10.96, 'pres': 194}
{'lipoC2': 7.48, 'lipoC3S1': 4.02, 'temp': 30.5, 'lipoC3S3': 12.29, 'lipoC3S2': 7.98, 'rot1': 20, 'rot0': 22, 'rot3': 53, 'rot2': 43, 'state': 'normal', 'yaw': -3.57, 'datetime': '2018-10-09 12:38:58.033430', 'mgs': 0, 'volt': 0.9521, 'depth': 2.377, 'time': 7, 'pitch': 18.33, 'roll': -11.12, 'pres': 195}
{'lipoC2': 7.47, 'lipoC3S1': 3.98, 'temp': 30.5, 'lipoC3S3': 12.26, 'lipoC3S2': 8.11, 'rot1': 21, 'rot0': 23, 'rot3': 54, 'rot2': 44, 'state': 'normal', 'yaw': -3.69, 'datetime': '2018-10-09 12:38:58.137344', 'mgs': 0, 'volt': 0.957, 'depth': 2.454, 'time': 8, 'pitch': 17.68, 'roll': -11.06, 'pres': 196}
{'lipoC2': 7.47, 'lipoC3S1': 3.96, 'temp': 30.5, 'lipoC3S3': 12.27, 'lipoC3S2': 8.12, 'rot1': 22, 'rot0': 24, 'rot3': 55, 'rot2': 45, 'state': 'normal', 'yaw': -3.81, 'datetime': '2018-10-09 12:38:58.242682', 'mgs': 0, 'volt': 0.9619, 'depth': 2.53, 'time': 8, 'pitch': 17.07, 'roll': -10.89, 'pres': 197}
{'lipoC2': 7.47, 'lipoC3S1': 4.06, 'temp': 30.5, 'lipoC3S3': 12.19, 'lipoC3S2': 8.11, 'rot1': 23, 'rot0': 25, 'rot3': 56, 'rot2': 45, 'state': 'normal', 'yaw': -4.03, 'datetime': '2018-10-09 12:38:58.346746', 'mgs': 0, 'volt': 1.0059, 'depth': 3.217, 'time': 8, 'pitch': 16.54, 'roll': -10.74, 'pres': 206}
{'lipoC2': 7.46, 'lipoC3S1': 4.06, 'temp': 30.5, 'lipoC3S3': 12.29, 'lipoC3S2': 8.07, 'rot1': 24, 'rot0': 27, 'rot3': 57, 'rot2': 46, 'state': 'normal', 'yaw': -4.29, 'datetime': '2018-10-09 12:38:58.450684', 'mgs': 0, 'volt': 0.9424, 'depth': 2.225, 'time': 8, 'pitch': 16.24, 'roll': -10.72, 'pres': 193}
{'lipoC2': 7.48, 'lipoC3S1': 4.02, 'temp': 30.5, 'lipoC3S3': 12.26, 'lipoC3S2': 7.94, 'rot1': 25, 'rot0': 28, 'rot3': 58, 'rot2': 47, 'state': 'normal', 'yaw': -4.59, 'datetime': '2018-10-09 12:38:58.554705', 'mgs': 0, 'volt': 0.9375, 'depth': 2.148, 'time': 8, 'pitch': 16.14, 'roll': -10.95, 'pres': 192}
{'lipoC2': 7.47, 'lipoC3S1': 3.98, 'temp': 30.5, 'lipoC3S3': 12.27, 'lipoC3S2': 8.12, 'rot1': 26, 'rot0': 29, 'rot3': 59, 'rot2': 48, 'state': 'normal', 'yaw': -4.9, 'datetime': '2018-10-09 12:38:58.658672', 'mgs': 0, 'volt': 0.9717, 'depth': 2.682, 'time': 8, 'pitch': 16.08, 'roll': -11.38, 'pres': 199}
{'lipoC2': 7.47, 'lipoC3S1': 4.06, 'temp': 30.56, 'lipoC3S3': 12.21, 'lipoC3S2': 8.11, 'rot1': 28, 'rot0': 30, 'rot3': 60, 'rot2': 48, 'state': 'normal', 'yaw': -4.89, 'datetime': '2018-10-09 12:38:58.762608', 'mgs': 0, 'volt': 1.0059, 'depth': 3.217, 'time': 8, 'pitch': 15.99, 'roll': -11.69, 'pres': 206}
{'lipoC2': 7.47, 'lipoC3S1': 4.06, 'temp': 30.56, 'lipoC3S3': 12.1, 'lipoC3S2': 8.05, 'rot1': 29, 'rot0': 31, 'rot3': 61, 'rot2': 49, 'state': 'normal', 'yaw': -4.61, 'datetime': '2018-10-09 12:38:58.866668', 'mgs': 0, 'volt': 0.957, 'depth': 2.454, 'time': 8, 'pitch': 15.88, 'roll': -11.93, 'pres': 196}
{'lipoC2': 7.48, 'lipoC3S1': 4.02, 'temp': 30.56, 'lipoC3S3': 12.29, 'lipoC3S2': 7.97, 'rot1': 30, 'rot0': 32, 'rot3': 61, 'rot2': 50, 'state': 'normal', 'yaw': -4.1, 'datetime': '2018-10-09 12:38:58.970744', 'mgs': 0, 'volt': 0.9668, 'depth': 2.606, 'time': 8, 'pitch': 15.78, 'roll': -12.01, 'pres': 198}
{'lipoC2': 7.48, 'lipoC3S1': 4.02, 'temp': 30.5, 'lipoC3S3': 12.17, 'lipoC3S2': 8.09, 'rot1': 31, 'rot0': 33, 'rot3': 62, 'rot2': 50, 'state': 'normal', 'yaw': -3.56, 'datetime': '2018-10-09 12:38:59.077238', 'mgs': 0, 'volt': 0.9668, 'depth': 2.606, 'time': 9, 'pitch': 15.74, 'roll': -11.97, 'pres': 198}
{'lipoC2': 7.47, 'lipoC3S1': 3.92, 'temp': 30.5, 'lipoC3S3': 12.29, 'lipoC3S2': 8.08, 'rot1': 32, 'rot0': 34, 'rot3': 63, 'rot2': 51, 'state': 'normal', 'yaw': -2.91, 'datetime': '2018-10-09 12:38:59.179997', 'mgs': 0, 'volt': 0.9961, 'depth': 3.064, 'time': 9, 'pitch': 15.71, 'roll': -11.8, 'pres': 204}
