{'lipoC2': 7.36, 'lipoC3S1': 3.94, 'temp': 29.88, 'lipoC3S3': 11.88, 'lipoC3S2': 7.87, 'rot1': 0, 'rot0': 0, 'rot3': 0, 'rot2': 0, 'state': 'normal', 'yaw': -0.3, 'datetime': '2018-10-09 23:16:58.599095', 'mgs': 0, 'volt': 0.8594, 'depth': 0.928, 'time': 1, 'pitch': -3.01, 'roll': -0.69, 'pres': 176}
{'lipoC2': 7.36, 'lipoC3S1': 3.94, 'temp': 29.88, 'lipoC3S3': 11.88, 'lipoC3S2': 7.87, 'rot1': 0, 'rot0': 0, 'rot3': 0, 'rot2': 0, 'state': 'normal', 'yaw': -3.22, 'datetime': '2018-10-09 23:16:58.622211', 'mgs': 0, 'volt': 0.8594, 'depth': 0.928, 'time': 1, 'pitch': -2.65, 'roll': -0.88, 'pres': 176}
{'lipoC2': 7.36, 'lipoC3S1': 3.94, 'temp': 29.88, 'lipoC3S3': 11.88, 'lipoC3S2': 7.87, 'rot1': 0, 'rot0': 0, 'rot3': 0, 'rot2': 0, 'state': 'normal', 'yaw': -5.53, 'datetime': '2018-10-09 23:16:58.645432', 'mgs': 0, 'volt': 0.8594, 'depth': 0.928, 'time': 1, 'pitch': -1.46, 'roll': -0.83, 'pres': 176}
{'lipoC2': 7.35, 'lipoC3S1': 3.94, 'temp': 29.88, 'lipoC3S3': 11.88, 'lipoC3S2': 7.87, 'rot1': 0, 'rot0': 0, 'rot3': 0, 'rot2': 0, 'state': 'normal', 'yaw': -6.89, 'datetime': '2018-10-09 23:16:58.665122', 'mgs': 0, 'volt': 0.8496, 'depth': 0.775, 'time': 1, 'pitch': 0.04, 'roll': -0.91, 'pres': 174}
{'lipoC2': 7.35, 'lipoC3S1': 3.94, 'temp': 29.88, 'lipoC3S3': 11.88, 'lipoC3S2': 7.87, 'rot1': 0, 'rot0': 0, 'rot3': 0, 'rot2': 0, 'state': 'normal', 'yaw': -7.26, 'datetime': '2018-10-09 23:16:58.675157', 'mgs': 0, 'volt': 0.8496, 'depth': 0.775, 'time': 1, 'pitch': 0.85, 'roll': -1.29, 'pres': 174}
{'lipoC2': 7.36, 'lipoC3S1': 3.94, 'temp': 29.81, 'lipoC3S3': 11.88, 'lipoC3S2': 7.87, 'rot1': 0, 'rot0': 0, 'rot3': 0, 'rot2': 0, 'state': 'normal', 'yaw': -7.06, 'datetime': '2018-10-09 23:16:58.685221', 'mgs': 0, 'volt': 0.8447, 'depth': 0.699, 'time': 1, 'pitch': 0.96, 'roll': -1.92, 'pres': 173}
{'lipoC2': 7.35, 'lipoC3S1': 3.94, 'temp': 29.81, 'lipoC3S3': 11.88, 'lipoC3S2': 7.87, 'rot1': 0, 'rot0': 0, 'rot3': 0, 'rot2': 0, 'state': 'normal', 'yaw': -6.68, 'datetime': '2018-10-09 23:16:58.695299', 'mgs': 0, 'volt': 0.8398, 'depth': 0.623, 'time': 1, 'pitch': 0.85, 'roll': -2.92, 'pres': 172}
{'lipoC2': 7.35, 'lipoC3S1': 3.94, 'temp': 29.81, 'lipoC3S3': 11.88, 'lipoC3S2': 7.87, 'rot1': 0, 'rot0': 0, 'rot3': 0, 'rot2': 0, 'state': 'normal', 'yaw': -6.34, 'datetime': '2018-10-09 23:16:58.705403', 'mgs': 0, 'volt': 0.8398, 'depth': 0.623, 'time': 1, 'pitch': 0.62, 'roll': -3.77, 'pres': 172}
{'lipoC2': 7.36, 'lipoC3S1': 3.94, 'temp': 29.81, 'lipoC3S3': 11.88, 'lipoC3S2': 7.87, 'rot1': 0, 'rot0': 0, 'rot3': 0, 'rot2': 0, 'state': 'normal', 'yaw': -5.81, 'datetime': '2018-10-09 23:16:58.715472', 'mgs': 0, 'volt': 0.8398, 'depth': 0.623, 'time': 2, 'pitch': 0.7, 'roll': -4.21, 'pres': 172}
{'lipoC2': 7.35, 'lipoC3S1': 3.94, 'temp': 29.81, 'lipoC3S3': 11.88, 'lipoC3S2': 7.87, 'rot1': 0, 'rot0': 0, 'rot3': 0, 'rot2': 0, 'state': 'normal', 'yaw': -4.5, 'datetime': '2018-10-09 23:16:58.725570', 'mgs': 0, 'volt': 0.8398, 'depth': 0.623, 'time': 2, 'pitch': 0.99, 'roll': -3.99, 'pres': 172}
{'lipoC2': 7.36, 'lipoC3S1': 3.94, 'temp': 29.81, 'lipoC3S3': 11.88, 'lipoC3S2': 7.87, 'rot1': 0, 'rot0': 0, 'rot3': 0, 'rot2': 0, 'state': 'normal', 'yaw': -2.67, 'datetime': '2018-10-09 23:16:58.735626', 'mgs': 0, 'volt': 0.8398, 'depth': 0.623, 'time': 2, 'pitch': 1.29, 'roll': -3.05, 'pres': 172}
{'lipoC2': 7.36, 'lipoC3S1': 3.94, 'temp': 29.81, 'lipoC3S3': 11.88, 'lipoC3S2': 7.87, 'rot1': 0, 'rot0': 0, 'rot3': 0, 'rot2': 0, 'state': 'normal', 'yaw': -0.47, 'datetime': '2018-10-09 23:16:58.745666', 'mgs': 0, 'volt': 0.8447, 'depth': 0.699, 'time': 2, 'pitch': 1.53, 'roll': -1.51, 'pres': 173}
{'lipoC2': 7.36, 'lipoC3S1': 3.94, 'temp': 29.88, 'lipoC3S3': 11.88, 'lipoC3S2': 7.87, 'rot1': 0, 'rot0': 0, 'rot3': 0, 'rot2': 0, 'state': 'normal', 'yaw': 1.8, 'datetime': '2018-10-09 23:16:58.755696', 'mgs': 0, 'volt': 0.8447, 'depth': 0.699, 'time': 2, 'pitch': 1.4, 'roll': 0.21, 'pres': 173}
{'lipoC2': 7.35, 'lipoC3S1': 3.94, 'temp': 29.88, 'lipoC3S3': 11.88, 'lipoC3S2': 7.87, 'rot1': 0, 'rot0': 0, 'rot3': 0, 'rot2': 0, 'state': 'normal', 'yaw': 4.3, 'datetime': '2018-10-09 23:16:58.765739', 'mgs': 0, 'volt': 0.8447, 'depth': 0.699, 'time': 2, 'pitch': 1.26, 'roll': 1.9, 'pres': 173}
{'lipoC2': 7.36, 'lipoC3S1': 3.94, 'temp': 29.81, 'lipoC3S3': 11.88, 'lipoC3S2': 7.87, 'rot1': 0, 'rot0': 0, 'rot3': 0, 'rot2': 0, 'state': 'normal', 'yaw': 6.34, 'datetime': '2018-10-09 23:16:58.775964', 'mgs': 0, 'volt': 0.8447, 'depth': 0.699, 'time': 2, 'pitch': 1.45, 'roll': 3.07, 'pres': 173}
{'lipoC2': 7.35, 'lipoC3S1': 3.94, 'temp': 29.81, 'lipoC3S3': 11.88, 'lipoC3S2': 7.87, 'rot1': 0, 'rot0': 0, 'rot3': 0, 'rot2': 0, 'state': 'normal', 'yaw': 7.8, 'datetime': '2018-10-09 23:16:58.786024', 'mgs': 0, 'volt': 0.8447, 'depth': 0.699, 'time': 2, 'pitch': 1.33, 'roll': 3.75, 'pres': 173}
{'lipoC2': 7.36, 'lipoC3S1': 3.94, 'temp': 29.81, 'lipoC3S3': 11.88, 'lipoC3S2': 7.87, 'rot1': 0, 'rot0': 0, 'rot3': 0, 'rot2': 0, 'state': 'normal', 'yaw': 8.5, 'datetime': '2018-10-09 23:16:58.796053', 'mgs': 0, 'volt': 0.8447, 'depth': 0.699, 'time': 2, 'pitch': 0.48, 'roll': 3.94, 'pres': 173}
{'lipoC2': 7.36, 'lipoC3S1': 3.94, 'temp': 29.81, 'lipoC3S3': 11.88, 'lipoC3S2': 7.87, 'rot1': 0, 'rot0': 0, 'rot3': 0, 'rot2': 0, 'state': 'normal', 'yaw': 9.22, 'datetime': '2018-10-09 23:16:58.806098', 'mgs': 0, 'volt': 0.8496, 'depth': 0.775, 'time': 3, 'pitch': -1.0, 'roll': 3.55, 'pres': 174}
{'lipoC2': 7.35, 'lipoC3S1': 3.94, 'temp': 29.81, 'lipoC3S3': 11.88, 'lipoC3S2': 7.87, 'rot1': 0, 'rot0': 0, 'rot3': 0, 'rot2': 0, 'state': 'normal', 'yaw': 10.26, 'datetime': '2018-10-09 23:16:58.816141', 'mgs': 0, 'volt': 0.8496, 'depth': 0.775, 'time': 3, 'pitch': -2.28, 'roll': 2.96, 'pres': 174}
{'lipoC2': 7.36, 'lipoC3S1': 3.94, 'temp': 29.88, 'lipoC3S3': 11.88, 'lipoC3S2': 7.87, 'rot1': 0, 'rot0': 0, 'rot3': 0, 'rot2': 0, 'state': 'normal', 'yaw': 11.98, 'datetime': '2018-10-09 23:16:58.826185', 'mgs': 0, 'volt': 0.8496, 'depth': 0.775, 'time': 3, 'pitch': -2.74, 'roll': 2.25, 'pres': 174}
{'lipoC2': 7.35, 'lipoC3S1': 3.94, 'temp': 29.88, 'lipoC3S3': 11.88, 'lipoC3S2': 7.87, 'rot1': 0, 'rot0': 0, 'rot3': 0, 'rot2': 0, 'state': 'normal', 'yaw': 13.69, 'datetime': '2018-10-09 23:16:58.836201', 'mgs': 0, 'volt': 0.8447, 'depth': 0.699, 'time': 3, 'pitch': -2.54, 'roll': 1.65, 'pres': 173}
{'lipoC2': 7.35, 'lipoC3S1': 3.94, 'temp': 29.75, 'lipoC3S3': 11.88, 'lipoC3S2': 7.87, 'rot1': 0, 'rot0': 0, 'rot3': 0, 'rot2': 0, 'state': 'normal', 'yaw': 15.39, 'datetime': '2018-10-09 23:16:58.846201', 'mgs': 0, 'volt': 0.8447, 'depth': 0.699, 'time': 3, 'pitch': -2.62, 'roll': 0.81, 'pres': 173}
{'lipoC2': 7.35, 'lipoC3S1': 3.94, 'temp': 29.75, 'lipoC3S3': 11.88, 'lipoC3S2': 7.87, 'rot1': 0, 'rot0': 0, 'rot3': 0, 'rot2': 0, 'state': 'normal', 'yaw': 16.74, 'datetime': '2018-10-09 23:16:58.855708', 'mgs': 0, 'volt': 0.8447, 'depth': 0.699, 'time': 3, 'pitch': -2.94, 'roll': -0.41, 'pres': 173}
{'lipoC2': 7.35, 'lipoC3S1': 3.94, 'temp': 29.75, 'lipoC3S3': 11.88, 'lipoC3S2': 7.87, 'rot1': 0, 'rot0': 0, 'rot3': 0, 'rot2': 0, 'state': 'normal', 'yaw': 17.74, 'datetime': '2018-10-09 23:16:58.865168', 'mgs': 0, 'volt': 0.8447, 'depth': 0.699, 'time': 3, 'pitch': -3.04, 'roll': -1.87, 'pres': 173}
{'lipoC2': 7.35, 'lipoC3S1': 3.94, 'temp': 29.75, 'lipoC3S3': 11.88, 'lipoC3S2': 7.87, 'rot1': 0, 'rot0': 0, 'rot3': 0, 'rot2': 0, 'state': 'normal', 'yaw': 18.67, 'datetime': '2018-10-09 23:16:58.874659', 'mgs': 0, 'volt': 0.8447, 'depth': 0.699, 'time': 3, 'pitch': -2.77, 'roll': -3.38, 'pres': 173}
{'lipoC2': 7.35, 'lipoC3S1': 3.94, 'temp': 29.75, 'lipoC3S3': 11.88, 'lipoC3S2': 7.87, 'rot1': 0, 'rot0': 0, 'rot3': 0, 'rot2': 0, 'state': 'normal', 'yaw': 19.53, 'datetime': '2018-10-09 23:16:58.884234', 'mgs': 0, 'volt': 0.8447, 'depth': 0.699, 'time': 3, 'pitch': -3.1, 'roll': -4.43, 'pres': 173}
{'lipoC2': 7.35, 'lipoC3S1': 3.94, 'temp': 29.81, 'lipoC3S3': 11.88, 'lipoC3S2': 7.87, 'rot1': 0, 'rot0': 0, 'rot3': 0, 'rot2': 0, 'state': 'normal', 'yaw': 19.99, 'datetime': '2018-10-09 23:16:58.893751', 'mgs': 0, 'volt': 0.8447, 'depth': 0.699, 'time': 3, 'pitch': -3.56, 'roll': -4.64, 'pres': 173}
{'lipoC2': 7.35, 'lipoC3S1': 3.94, 'temp': 29.81, 'lipoC3S3': 11.88, 'lipoC3S2': 7.87, 'rot1': 0, 'rot0': 0, 'rot3': 0, 'rot2': 0, 'state': 'normal', 'yaw': 20.08, 'datetime': '2018-10-09 23:16:58.903166', 'mgs': 0, 'volt': 0.8398, 'depth': 0.623, 'time': 4, 'pitch': -2.97, 'roll': -4.43, 'pres': 172}
{'lipoC2': 7.36, 'lipoC3S1': 3.94, 'temp': 29.88, 'lipoC3S3': 11.88, 'lipoC3S2': 7.87, 'rot1': 0, 'rot0': 0, 'rot3': 0, 'rot2': 0, 'state': 'normal', 'yaw': 19.94, 'datetime': '2018-10-09 23:16:58.912803', 'mgs': 0, 'volt': 0.8398, 'depth': 0.623, 'time': 4, 'pitch': -1.99, 'roll': -4.35, 'pres': 172}
{'lipoC2': 7.36, 'lipoC3S1': 3.94, 'temp': 29.88, 'lipoC3S3': 11.88, 'lipoC3S2': 7.87, 'rot1': 0, 'rot0': 0, 'rot3': 0, 'rot2': 0, 'state': 'normal', 'yaw': 19.95, 'datetime': '2018-10-09 23:16:58.922276', 'mgs': 0, 'volt': 0.8398, 'depth': 0.623, 'time': 4, 'pitch': -2.19, 'roll': -4.71, 'pres': 172}
{'lipoC2': 7.36, 'lipoC3S1': 3.94, 'temp': 29.75, 'lipoC3S3': 11.88, 'lipoC3S2': 7.87, 'rot1': 0, 'rot0': 0, 'rot3': 0, 'rot2': 0, 'state': 'normal', 'yaw': 19.32, 'datetime': '2018-10-09 23:16:58.931783', 'mgs': 0, 'volt': 0.8398, 'depth': 0.623, 'time': 4, 'pitch': -2.25, 'roll': -4.96, 'pres': 172}
{'lipoC2': 7.36, 'lipoC3S1': 3.94, 'temp': 29.75, 'lipoC3S3': 11.88, 'lipoC3S2': 7.87, 'rot1': 0, 'rot0': 0, 'rot3': 0, 'rot2': 0, 'state': 'normal', 'yaw': 18.34, 'datetime': '2018-10-09 23:16:58.941279', 'mgs': 0, 'volt': 0.8398, 'depth': 0.623, 'time': 4, 'pitch': -1.73, 'roll': -4.92, 'pres': 172}
{'lipoC2': 7.36, 'lipoC3S1': 3.94, 'temp': 29.75, 'lipoC3S3': 11.89, 'lipoC3S2': 7.87, 'rot1': 0, 'rot0': 0, 'rot3': 0, 'rot2': 0, 'state': 'normal', 'yaw': 17.56, 'datetime': '2018-10-09 23:16:58.950763', 'mgs': 0, 'volt': 0.8398, 'depth': 0.623, 'time': 4, 'pitch': -1.38, 'roll': -4.52, 'pres': 172}
{'lipoC2': 7.36, 'lipoC3S1': 3.94, 'temp': 29.75, 'lipoC3S3': 11.88, 'lipoC3S2': 7.87, 'rot1': 0, 'rot0': 0, 'rot3': 0, 'rot2': 0, 'state': 'normal', 'yaw': 16.93, 'datetime': '2018-10-09 23:16:58.960256', 'mgs': 0, 'volt': 0.8398, 'depth': 0.623, 'time': 4, 'pitch': -0.95, 'roll': -3.78, 'pres': 172}
{'lipoC2': 7.35, 'lipoC3S1': 3.94, 'temp': 29.75, 'lipoC3S3': 11.88, 'lipoC3S2': 7.87, 'rot1': 0, 'rot0': 0, 'rot3': 0, 'rot2': 0, 'state': 'normal', 'yaw': 16.57, 'datetime': '2018-10-09 23:16:58.969694', 'mgs': 0, 'volt': 0.835, 'depth': 0.546, 'time': 4, 'pitch': -0.2, 'roll': -2.97, 'pres': 171}
{'lipoC2': 7.36, 'lipoC3S1': 3.94, 'temp': 29.75, 'lipoC3S3': 11.88, 'lipoC3S2': 7.87, 'rot1': 0, 'rot0': 0, 'rot3': 0, 'rot2': 0, 'state': 'normal', 'yaw': 16.63, 'datetime': '2018-10-09 23:16:58.979163', 'mgs': 0, 'volt': 0.835, 'depth': 0.546, 'time': 4, 'pitch': 0.29, 'roll': -2.72, 'pres': 171}
{'lipoC2': 7.35, 'lipoC3S1': 3.94, 'temp': 29.75, 'lipoC3S3': 11.88, 'lipoC3S2': 7.87, 'rot1': 0, 'rot0': 0, 'rot3': 0, 'rot2': 0, 'state': 'normal', 'yaw': 16.69, 'datetime': '2018-10-09 23:16:58.988676', 'mgs': 0, 'volt': 0.835, 'depth': 0.546, 'time': 4, 'pitch': 0.74, 'roll': -3.12, 'pres': 171}
{'lipoC2': 7.35, 'lipoC3S1': 3.94, 'temp': 29.75, 'lipoC3S3': 11.88, 'lipoC3S2': 7.87, 'rot1': 0, 'rot0': 0, 'rot3': 0, 'rot2': 0, 'state': 'normal', 'yaw': 16.09, 'datetime': '2018-10-09 23:16:58.998306', 'mgs': 0, 'volt': 0.835, 'depth': 0.546, 'time': 5, 'pitch': 1.35, 'roll': -3.89, 'pres': 171}
{'lipoC2': 7.35, 'lipoC3S1': 3.94, 'temp': 29.75, 'lipoC3S3': 11.88, 'lipoC3S2': 7.87, 'rot1': 0, 'rot0': 0, 'rot3': 0, 'rot2': 0, 'state': 'normal', 'yaw': 15.3, 'datetime': '2018-10-09 23:16:59.007799', 'mgs': 0, 'volt': 0.835, 'depth': 0.546, 'time': 5, 'pitch': 0.65, 'roll': -4.43, 'pres': 171}
{'lipoC2': 7.35, 'lipoC3S1': 3.94, 'temp': 29.75, 'lipoC3S3': 11.88, 'lipoC3S2': 7.87, 'rot1': 0, 'rot0': 0, 'rot3': 0, 'rot2': 0, 'state': 'normal', 'yaw': 14.5, 'datetime': '2018-10-09 23:16:59.017288', 'mgs': 0, 'volt': 0.8398, 'depth': 0.623, 'time': 5, 'pitch': -0.46, 'roll': -4.32, 'pres': 172}
{'lipoC2': 7.36, 'lipoC3S1': 3.94, 'temp': 29.69, 'lipoC3S3': 11.88, 'lipoC3S2': 7.87, 'rot1': 0, 'rot0': 0, 'rot3': 0, 'rot2': 0, 'state': 'normal', 'yaw': 14.11, 'datetime': '2018-10-09 23:16:59.101360', 'mgs': 0, 'volt': 0.8398, 'depth': 0.623, 'time': 5, 'pitch': -1.08, 'roll': -3.5, 'pres': 172}
{'lipoC2': 7.35, 'lipoC3S1': 3.94, 'temp': 29.69, 'lipoC3S3': 11.88, 'lipoC3S2': 7.87, 'rot1': 0, 'rot0': 0, 'rot3': 0, 'rot2': 0, 'state': 'normal', 'yaw': 14.72, 'datetime': '2018-10-09 23:16:59.204632', 'mgs': 0, 'volt': 0.8398, 'depth': 0.623, 'time': 5, 'pitch': -1.79, 'roll': -2.57, 'pres': 172}
{'lipoC2': 7.35, 'lipoC3S1': 3.94, 'temp': 29.75, 'lipoC3S3': 11.88, 'lipoC3S2': 7.87, 'rot1': 0, 'rot0': 0, 'rot3': 0, 'rot2': 0, 'state': 'normal', 'yaw': 16.11, 'datetime': '2018-10-09 23:16:59.308059', 'mgs': 0, 'volt': 0.8398, 'depth': 0.623, 'time': 5, 'pitch': -2.17, 'roll': -1.87, 'pres': 172}
{'lipoC2': 7.35, 'lipoC3S1': 3.94, 'temp': 29.75, 'lipoC3S3': 11.88, 'lipoC3S2': 7.87, 'rot1': 0, 'rot0': 0, 'rot3': 0, 'rot2': 0, 'state': 'normal', 'yaw': 17.86, 'datetime': '2018-10-09 23:16:59.411304', 'mgs': 0, 'volt': 0.8398, 'depth': 0.623, 'time': 5, 'pitch': -1.57, 'roll': -1.53, 'pres': 172}
{'lipoC2': 7.35, 'lipoC3S1': 3.94, 'temp': 29.75, 'lipoC3S3': 11.89, 'lipoC3S2': 7.87, 'rot1': 0, 'rot0': 0, 'rot3': 0, 'rot2': 0, 'state': 'normal', 'yaw': 19.21, 'datetime': '2018-10-09 23:16:59.514512', 'mgs': 0, 'volt': 0.8398, 'depth': 0.623, 'time': 5, 'pitch': -0.2, 'roll': -1.63, 'pres': 172}
{'lipoC2': 7.35, 'lipoC3S1': 3.94, 'temp': 29.75, 'lipoC3S3': 11.88, 'lipoC3S2': 7.87, 'rot1': 0, 'rot0': 0, 'rot3': 0, 'rot2': 0, 'state': 'normal', 'yaw': 20.16, 'datetime': '2018-10-09 23:16:59.617741', 'mgs': 0, 'volt': 0.8398, 'depth': 0.623, 'time': 5, 'pitch': 1.0, 'roll': -1.89, 'pres': 172}
{'lipoC2': 7.35, 'lipoC3S1': 3.94, 'temp': 29.75, 'lipoC3S3': 11.88, 'lipoC3S2': 7.87, 'rot1': 0, 'rot0': 0, 'rot3': 0, 'rot2': 0, 'state': 'normal', 'yaw': 21.03, 'datetime': '2018-10-09 23:16:59.720943', 'mgs': 0, 'volt': 0.8398, 'depth': 0.623, 'time': 6, 'pitch': 0.77, 'roll': -1.93, 'pres': 172}
{'lipoC2': 7.35, 'lipoC3S1': 3.94, 'temp': 29.75, 'lipoC3S3': 11.88, 'lipoC3S2': 7.87, 'rot1': 0, 'rot0': 0, 'rot3': 0, 'rot2': 0, 'state': 'normal', 'yaw': 21.77, 'datetime': '2018-10-09 23:16:59.824227', 'mgs': 0, 'volt': 0.8398, 'depth': 0.623, 'time': 6, 'pitch': -0.69, 'roll': -1.67, 'pres': 172}
{'lipoC2': 7.35, 'lipoC3S1': 3.94, 'temp': 29.75, 'lipoC3S3': 11.88, 'lipoC3S2': 7.87, 'rot1': 0, 'rot0': 0, 'rot3': 0, 'rot2': 0, 'state': 'normal', 'yaw': 22.39, 'datetime': '2018-10-09 23:16:59.928707', 'mgs': 0, 'volt': 0.8447, 'depth': 0.699, 'time': 6, 'pitch': -2.12, 'roll': -1.23, 'pres': 173}
{'lipoC2': 7.35, 'lipoC3S1': 3.94, 'temp': 29.81, 'lipoC3S3': 11.88, 'lipoC3S2': 7.87, 'rot1': 0, 'rot0': 0, 'rot3': 0, 'rot2': 0, 'state': 'normal', 'yaw': 22.97, 'datetime': '2018-10-09 23:17:00.031933', 'mgs': 0, 'volt': 0.8447, 'depth': 0.699, 'time': 6, 'pitch': -2.7, 'roll': -0.84, 'pres': 173}
{'lipoC2': 7.35, 'lipoC3S1': 3.94, 'temp': 29.81, 'lipoC3S3': 11.88, 'lipoC3S2': 7.87, 'rot1': 0, 'rot0': 0, 'rot3': 0, 'rot2': 0, 'state': 'normal', 'yaw': 23.0, 'datetime': '2018-10-09 23:17:00.136376', 'mgs': 0, 'volt': 0.8447, 'depth': 0.699, 'time': 6, 'pitch': -2.36, 'roll': -0.67, 'pres': 173}
{'lipoC2': 7.35, 'lipoC3S1': 3.94, 'temp': 29.81, 'lipoC3S3': 11.88, 'lipoC3S2': 7.87, 'rot1': 0, 'rot0': 0, 'rot3': 0, 'rot2': 0, 'state': 'normal', 'yaw': 23.07, 'datetime': '2018-10-09 23:17:00.240798', 'mgs': 0, 'volt': 0.8447, 'depth': 0.699, 'time': 6, 'pitch': -1.51, 'roll': -1.02, 'pres': 173}
{'lipoC2': 7.35, 'lipoC3S1': 3.94, 'temp': 29.81, 'lipoC3S3': 11.88, 'lipoC3S2': 7.87, 'rot1': 0, 'rot0': 0, 'rot3': 0, 'rot2': 0, 'state': 'normal', 'yaw': 23.34, 'datetime': '2018-10-09 23:17:00.344050', 'mgs': 0, 'volt': 0.8447, 'depth': 0.699, 'time': 6, 'pitch': -0.61, 'roll': -1.68, 'pres': 173}
{'lipoC2': 7.36, 'lipoC3S1': 3.94, 'temp': 29.81, 'lipoC3S3': 11.88, 'lipoC3S2': 7.87, 'rot1': 0, 'rot0': 0, 'rot3': 0, 'rot2': 0, 'state': 'normal', 'yaw': 23.53, 'datetime': '2018-10-09 23:17:00.448495', 'mgs': 0, 'volt': 0.8447, 'depth': 0.699, 'time': 6, 'pitch': -0.54, 'roll': -2.17, 'pres': 173}
{'lipoC2': 7.35, 'lipoC3S1': 3.94, 'temp': 29.81, 'lipoC3S3': 11.89, 'lipoC3S2': 7.87, 'rot1': 0, 'rot0': 0, 'rot3': 0, 'rot2': 0, 'state': 'normal', 'yaw': 23.9, 'datetime': '2018-10-09 23:17:00.552475', 'mgs': 0, 'volt': 0.8447, 'depth': 0.699, 'time': 6, 'pitch': -1.13, 'roll': -2.61, 'pres': 173}
{'lipoC2': 7.35, 'lipoC3S1': 3.94, 'temp': 29.81, 'lipoC3S3': 11.88, 'lipoC3S2': 7.87, 'rot1': 0, 'rot0': 0, 'rot3': 0, 'rot2': 0, 'state': 'normal', 'yaw': 24.14, 'datetime': '2018-10-09 23:17:00.655702', 'mgs': 0, 'volt': 0.8447, 'depth': 0.699, 'time': 6, 'pitch': -1.78, 'roll': -3.03, 'pres': 173}
{'lipoC2': 7.35, 'lipoC3S1': 3.94, 'temp': 29.75, 'lipoC3S3': 11.89, 'lipoC3S2': 7.87, 'rot1': 0, 'rot0': 0, 'rot3': 0, 'rot2': 0, 'state': 'normal', 'yaw': 23.85, 'datetime': '2018-10-09 23:17:00.758928', 'mgs': 0, 'volt': 0.8447, 'depth': 0.699, 'time': 7, 'pitch': -1.66, 'roll': -3.41, 'pres': 173}
{'lipoC2': 7.35, 'lipoC3S1': 3.94, 'temp': 29.75, 'lipoC3S3': 11.88, 'lipoC3S2': 7.87, 'rot1': 0, 'rot0': 0, 'rot3': 0, 'rot2': 0, 'state': 'normal', 'yaw': 23.1, 'datetime': '2018-10-09 23:17:00.862318', 'mgs': 0, 'volt': 0.8496, 'depth': 0.775, 'time': 7, 'pitch': -1.17, 'roll': -3.59, 'pres': 174}
{'lipoC2': 7.35, 'lipoC3S1': 3.94, 'temp': 29.75, 'lipoC3S3': 11.88, 'lipoC3S2': 7.87, 'rot1': 0, 'rot0': 0, 'rot3': 0, 'rot2': 0, 'state': 'normal', 'yaw': 21.74, 'datetime': '2018-10-09 23:17:00.965501', 'mgs': 0, 'volt': 0.8496, 'depth': 0.775, 'time': 7, 'pitch': -0.57, 'roll': -3.11, 'pres': 174}
{'lipoC2': 7.36, 'lipoC3S1': 3.94, 'temp': 29.75, 'lipoC3S3': 11.89, 'lipoC3S2': 7.87, 'rot1': 0, 'rot0': 0, 'rot3': 0, 'rot2': 0, 'state': 'normal', 'yaw': 20.29, 'datetime': '2018-10-09 23:17:01.068826', 'mgs': 0, 'volt': 0.8447, 'depth': 0.699, 'time': 7, 'pitch': -0.65, 'roll': -2.0, 'pres': 173}
{'lipoC2': 7.36, 'lipoC3S1': 3.94, 'temp': 29.75, 'lipoC3S3': 11.88, 'lipoC3S2': 7.87, 'rot1': 0, 'rot0': 0, 'rot3': 0, 'rot2': 0, 'state': 'normal', 'yaw': 19.59, 'datetime': '2018-10-09 23:17:01.172019', 'mgs': 0, 'volt': 0.8447, 'depth': 0.699, 'time': 7, 'pitch': -1.56, 'roll': -1.28, 'pres': 173}
{'lipoC2': 7.35, 'lipoC3S1': 3.94, 'temp': 29.75, 'lipoC3S3': 11.89, 'lipoC3S2': 7.87, 'rot1': 0, 'rot0': 0, 'rot3': 0, 'rot2': 0, 'state': 'normal', 'yaw': 19.92, 'datetime': '2018-10-09 23:17:01.275318', 'mgs': 0, 'volt': 0.8447, 'depth': 0.699, 'time': 7, 'pitch': -2.92, 'roll': -1.52, 'pres': 173}
{'lipoC2': 7.35, 'lipoC3S1': 3.94, 'temp': 29.75, 'lipoC3S3': 11.89, 'lipoC3S2': 7.87, 'rot1': 0, 'rot0': 0, 'rot3': 0, 'rot2': 0, 'state': 'normal', 'yaw': 20.76, 'datetime': '2018-10-09 23:17:01.390171', 'mgs': 0, 'volt': 0.8398, 'depth': 0.623, 'time': 7, 'pitch': -3.94, 'roll': -2.55, 'pres': 172}
{'lipoC2': 7.36, 'lipoC3S1': 3.94, 'temp': 29.75, 'lipoC3S3': 11.89, 'lipoC3S2': 7.87, 'rot1': 0, 'rot0': 0, 'rot3': 0, 'rot2': 0, 'state': 'normal', 'yaw': 21.44, 'datetime': '2018-10-09 23:17:01.489255', 'mgs': 0, 'volt': 0.8398, 'depth': 0.623, 'time': 7, 'pitch': -4.38, 'roll': -3.86, 'pres': 172}
{'lipoC2': 7.36, 'lipoC3S1': 3.94, 'temp': 29.75, 'lipoC3S3': 11.88, 'lipoC3S2': 7.87, 'rot1': 0, 'rot0': 0, 'rot3': 0, 'rot2': 0, 'state': 'normal', 'yaw': 21.5, 'datetime': '2018-10-09 23:17:01.592294', 'mgs': 0, 'volt': 0.8398, 'depth': 0.623, 'time': 7, 'pitch': -4.13, 'roll': -4.81, 'pres': 172}
{'lipoC2': 7.35, 'lipoC3S1': 3.94, 'temp': 29.75, 'lipoC3S3': 11.88, 'lipoC3S2': 7.87, 'rot1': 0, 'rot0': 0, 'rot3': 0, 'rot2': 0, 'state': 'normal', 'yaw': 21.22, 'datetime': '2018-10-09 23:17:01.695802', 'mgs': 0, 'volt': 0.8398, 'depth': 0.623, 'time': 7, 'pitch': -3.5, 'roll': -5.05, 'pres': 172}
{'lipoC2': 7.35, 'lipoC3S1': 3.94, 'temp': 29.75, 'lipoC3S3': 11.88, 'lipoC3S2': 7.87, 'rot1': 0, 'rot0': 0, 'rot3': 0, 'rot2': 0, 'state': 'normal', 'yaw': 21.04, 'datetime': '2018-10-09 23:17:01.800250', 'mgs': 0, 'volt': 0.8398, 'depth': 0.623, 'time': 8, 'pitch': -3.04, 'roll': -5.03, 'pres': 172}
{'lipoC2': 7.35, 'lipoC3S1': 3.94, 'temp': 29.75, 'lipoC3S3': 11.89, 'lipoC3S2': 7.87, 'rot1': 0, 'rot0': 0, 'rot3': 0, 'rot2': 0, 'state': 'normal', 'yaw': 21.08, 'datetime': '2018-10-09 23:17:01.903566', 'mgs': 0, 'volt': 0.8398, 'depth': 0.623, 'time': 8, 'pitch': -3.41, 'roll': -4.89, 'pres': 172}
{'lipoC2': 7.35, 'lipoC3S1': 3.94, 'temp': 29.81, 'lipoC3S3': 11.89, 'lipoC3S2': 7.87, 'rot1': 0, 'rot0': 0, 'rot3': 0, 'rot2': 0, 'state': 'normal', 'yaw': 21.17, 'datetime': '2018-10-09 23:17:02.008149', 'mgs': 0, 'volt': 0.835, 'depth': 0.546, 'time': 8, 'pitch': -4.21, 'roll': -4.71, 'pres': 171}
{'lipoC2': 7.35, 'lipoC3S1': 3.94, 'temp': 29.81, 'lipoC3S3': 11.89, 'lipoC3S2': 7.87, 'rot1': 0, 'rot0': 0, 'rot3': 0, 'rot2': 0, 'state': 'normal', 'yaw': 21.07, 'datetime': '2018-10-09 23:17:02.111860', 'mgs': 0, 'volt': 0.835, 'depth': 0.546, 'time': 8, 'pitch': -4.66, 'roll': -4.34, 'pres': 171}
{'lipoC2': 7.35, 'lipoC3S1': 3.94, 'temp': 29.75, 'lipoC3S3': 11.89, 'lipoC3S2': 7.87, 'rot1': 0, 'rot0': 0, 'rot3': 0, 'rot2': 0, 'state': 'normal', 'yaw': 20.62, 'datetime': '2018-10-09 23:17:02.215080', 'mgs': 0, 'volt': 0.8398, 'depth': 0.623, 'time': 8, 'pitch': -4.19, 'roll': -3.51, 'pres': 172}
{'lipoC2': 7.35, 'lipoC3S1': 3.94, 'temp': 29.75, 'lipoC3S3': 11.89, 'lipoC3S2': 7.87, 'rot1': 0, 'rot0': 0, 'rot3': 0, 'rot2': 0, 'state': 'normal', 'yaw': 20.13, 'datetime': '2018-10-09 23:17:02.318355', 'mgs': 0, 'volt': 0.835, 'depth': 0.546, 'time': 8, 'pitch': -3.25, 'roll': -2.67, 'pres': 171}
{'lipoC2': 7.35, 'lipoC3S1': 3.94, 'temp': 29.75, 'lipoC3S3': 11.88, 'lipoC3S2': 7.87, 'rot1': 0, 'rot0': 0, 'rot3': 0, 'rot2': 0, 'state': 'normal', 'yaw': 19.68, 'datetime': '2018-10-09 23:17:02.421709', 'mgs': 0, 'volt': 0.8398, 'depth': 0.623, 'time': 8, 'pitch': -2.35, 'roll': -1.96, 'pres': 172}
{'lipoC2': 7.36, 'lipoC3S1': 3.94, 'temp': 29.75, 'lipoC3S3': 11.88, 'lipoC3S2': 7.87, 'rot1': 0, 'rot0': 0, 'rot3': 0, 'rot2': 0, 'state': 'normal', 'yaw': 19.6, 'datetime': '2018-10-09 23:17:02.524977', 'mgs': 0, 'volt': 0.8398, 'depth': 0.623, 'time': 8, 'pitch': -1.73, 'roll': -1.98, 'pres': 172}
{'lipoC2': 7.35, 'lipoC3S1': 3.94, 'temp': 29.75, 'lipoC3S3': 11.89, 'lipoC3S2': 7.87, 'rot1': 0, 'rot0': 0, 'rot3': 0, 'rot2': 0, 'state': 'normal', 'yaw': 19.87, 'datetime': '2018-10-09 23:17:02.628120', 'mgs': 0, 'volt': 0.8398, 'depth': 0.623, 'time': 8, 'pitch': -1.74, 'roll': -2.82, 'pres': 172}
{'lipoC2': 7.36, 'lipoC3S1': 3.94, 'temp': 29.81, 'lipoC3S3': 11.89, 'lipoC3S2': 7.87, 'rot1': 0, 'rot0': 0, 'rot3': 0, 'rot2': 0, 'state': 'normal', 'yaw': 20.04, 'datetime': '2018-10-09 23:17:02.731422', 'mgs': 0, 'volt': 0.835, 'depth': 0.546, 'time': 9, 'pitch': -1.91, 'roll': -3.74, 'pres': 171}
{'lipoC2': 7.36, 'lipoC3S1': 3.94, 'temp': 29.81, 'lipoC3S3': 11.89, 'lipoC3S2': 7.87, 'rot1': 0, 'rot0': 0, 'rot3': 0, 'rot2': 0, 'state': 'normal', 'yaw': 19.94, 'datetime': '2018-10-09 23:17:02.834809', 'mgs': 0, 'volt': 0.835, 'depth': 0.546, 'time': 9, 'pitch': -2.04, 'roll': -4.05, 'pres': 171}
{'lipoC2': 7.35, 'lipoC3S1': 3.94, 'temp': 29.75, 'lipoC3S3': 11.89, 'lipoC3S2': 7.87, 'rot1': 0, 'rot0': 0, 'rot3': 0, 'rot2': 0, 'state': 'normal', 'yaw': 19.51, 'datetime': '2018-10-09 23:17:02.937830', 'mgs': 0, 'volt': 0.835, 'depth': 0.546, 'time': 9, 'pitch': -2.19, 'roll': -3.26, 'pres': 171}
{'lipoC2': 7.35, 'lipoC3S1': 3.94, 'temp': 29.75, 'lipoC3S3': 11.89, 'lipoC3S2': 7.87, 'rot1': 0, 'rot0': 0, 'rot3': 0, 'rot2': 0, 'state': 'normal', 'yaw': 19.22, 'datetime': '2018-10-09 23:17:03.042294', 'mgs': 0, 'volt': 0.835, 'depth': 0.546, 'time': 9, 'pitch': -2.63, 'roll': -1.96, 'pres': 171}
{'lipoC2': 7.35, 'lipoC3S1': 3.94, 'temp': 29.75, 'lipoC3S3': 11.89, 'lipoC3S2': 7.87, 'rot1': 0, 'rot0': 0, 'rot3': 0, 'rot2': 0, 'state': 'normal', 'yaw': 19.48, 'datetime': '2018-10-09 23:17:03.145504', 'mgs': 0, 'volt': 0.835, 'depth': 0.546, 'time': 9, 'pitch': -3.02, 'roll': -0.84, 'pres': 171}
{'lipoC2': 7.35, 'lipoC3S1': 3.94, 'temp': 29.75, 'lipoC3S3': 11.89, 'lipoC3S2': 7.87, 'rot1': 0, 'rot0': 0, 'rot3': 0, 'rot2': 0, 'state': 'normal', 'yaw': 20.22, 'datetime': '2018-10-09 23:17:03.249219', 'mgs': 0, 'volt': 0.835, 'depth': 0.546, 'time': 9, 'pitch': -2.91, 'roll': -0.73, 'pres': 171}
{'lipoC2': 7.36, 'lipoC3S1': 3.94, 'temp': 29.75, 'lipoC3S3': 11.89, 'lipoC3S2': 7.87, 'rot1': 0, 'rot0': 0, 'rot3': 0, 'rot2': 0, 'state': 'normal', 'yaw': 20.91, 'datetime': '2018-10-09 23:17:03.353759', 'mgs': 0, 'volt': 0.8301, 'depth': 0.47, 'time': 9, 'pitch': -2.36, 'roll': -1.52, 'pres': 170}
{'lipoC2': 7.36, 'lipoC3S1': 3.94, 'temp': 29.75, 'lipoC3S3': 11.88, 'lipoC3S2': 7.87, 'rot1': 0, 'rot0': 0, 'rot3': 0, 'rot2': 0, 'state': 'normal', 'yaw': 21.07, 'datetime': '2018-10-09 23:17:03.457037', 'mgs': 0, 'volt': 0.835, 'depth': 0.546, 'time': 9, 'pitch': -1.72, 'roll': -2.92, 'pres': 171}
{'lipoC2': 7.36, 'lipoC3S1': 3.94, 'temp': 29.75, 'lipoC3S3': 11.88, 'lipoC3S2': 7.87, 'rot1': 0, 'rot0': 0, 'rot3': 0, 'rot2': 0, 'state': 'normal', 'yaw': 20.7, 'datetime': '2018-10-09 23:17:03.561559', 'mgs': 0, 'volt': 0.8301, 'depth': 0.47, 'time': 9, 'pitch': -1.18, 'roll': -4.04, 'pres': 170}
{'lipoC2': 7.35, 'lipoC3S1': 3.94, 'temp': 29.75, 'lipoC3S3': 11.88, 'lipoC3S2': 7.87, 'rot1': 0, 'rot0': 0, 'rot3': 0, 'rot2': 0, 'state': 'normal', 'yaw': 20.02, 'datetime': '2018-10-09 23:17:03.665340', 'mgs': 0, 'volt': 0.8301, 'depth': 0.47, 'time': 9, 'pitch': -0.66, 'roll': -4.41, 'pres': 170}
{'lipoC2': 7.35, 'lipoC3S1': 3.94, 'temp': 29.75, 'lipoC3S3': 11.88, 'lipoC3S2': 7.87, 'rot1': 0, 'rot0': 0, 'rot3': 0, 'rot2': 0, 'state': 'normal', 'yaw': 19.22, 'datetime': '2018-10-09 23:17:03.768732', 'mgs': 0, 'volt': 0.835, 'depth': 0.546, 'time': 10, 'pitch': -0.37, 'roll': -3.81, 'pres': 171}
{'lipoC2': 7.35, 'lipoC3S1': 3.94, 'temp': 29.75, 'lipoC3S3': 11.89, 'lipoC3S2': 7.87, 'rot1': 0, 'rot0': 0, 'rot3': 0, 'rot2': 0, 'state': 'normal', 'yaw': 18.81, 'datetime': '2018-10-09 23:17:03.871979', 'mgs': 0, 'volt': 0.8301, 'depth': 0.47, 'time': 10, 'pitch': -0.54, 'roll': -2.92, 'pres': 170}
{'lipoC2': 7.35, 'lipoC3S1': 3.94, 'temp': 29.75, 'lipoC3S3': 11.89, 'lipoC3S2': 7.87, 'rot1': 0, 'rot0': 0, 'rot3': 0, 'rot2': 0, 'state': 'normal', 'yaw': 18.75, 'datetime': '2018-10-09 23:17:03.975622', 'mgs': 0, 'volt': 0.8301, 'depth': 0.47, 'time': 10, 'pitch': -0.9, 'roll': -2.2, 'pres': 170}
{'lipoC2': 7.36, 'lipoC3S1': 3.94, 'temp': 29.75, 'lipoC3S3': 11.89, 'lipoC3S2': 7.87, 'rot1': 0, 'rot0': 0, 'rot3': 0, 'rot2': 0, 'state': 'normal', 'yaw': 18.9, 'datetime': '2018-10-09 23:17:04.078951', 'mgs': 0, 'volt': 0.8301, 'depth': 0.47, 'time': 10, 'pitch': -1.23, 'roll': -2.14, 'pres': 170}
{'lipoC2': 7.36, 'lipoC3S1': 3.94, 'temp': 29.75, 'lipoC3S3': 11.89, 'lipoC3S2': 7.87, 'rot1': 0, 'rot0': 0, 'rot3': 0, 'rot2': 0, 'state': 'normal', 'yaw': 18.99, 'datetime': '2018-10-09 23:17:04.183012', 'mgs': 0, 'volt': 0.8301, 'depth': 0.47, 'time': 10, 'pitch': -1.37, 'roll': -2.76, 'pres': 170}
{'lipoC2': 7.36, 'lipoC3S1': 3.94, 'temp': 29.75, 'lipoC3S3': 11.88, 'lipoC3S2': 7.87, 'rot1': 0, 'rot0': 0, 'rot3': 0, 'rot2': 0, 'state': 'normal', 'yaw': 18.68, 'datetime': '2018-10-09 23:17:04.285771', 'mgs': 0, 'volt': 0.8301, 'depth': 0.47, 'time': 10, 'pitch': -1.33, 'roll': -3.54, 'pres': 170}
{'lipoC2': 7.35, 'lipoC3S1': 3.94, 'temp': 29.75, 'lipoC3S3': 11.89, 'lipoC3S2': 7.87, 'rot1': 0, 'rot0': 0, 'rot3': 0, 'rot2': 0, 'state': 'normal', 'yaw': 17.89, 'datetime': '2018-10-09 23:17:04.388968', 'mgs': 0, 'volt': 0.8301, 'depth': 0.47, 'time': 10, 'pitch': -1.24, 'roll': -4.0, 'pres': 170}
{'lipoC2': 7.35, 'lipoC3S1': 3.94, 'temp': 29.75, 'lipoC3S3': 11.89, 'lipoC3S2': 7.87, 'rot1': 0, 'rot0': 0, 'rot3': 0, 'rot2': 0, 'state': 'normal', 'yaw': 17.13, 'datetime': '2018-10-09 23:17:04.492305', 'mgs': 0, 'volt': 0.8301, 'depth': 0.47, 'time': 10, 'pitch': -1.35, 'roll': -3.82, 'pres': 170}
{'lipoC2': 7.35, 'lipoC3S1': 3.94, 'temp': 29.75, 'lipoC3S3': 11.88, 'lipoC3S2': 7.87, 'rot1': 0, 'rot0': 0, 'rot3': 0, 'rot2': 0, 'state': 'normal', 'yaw': 16.84, 'datetime': '2018-10-09 23:17:04.596922', 'mgs': 0, 'volt': 0.835, 'depth': 0.546, 'time': 10, 'pitch': -1.56, 'roll': -3.34, 'pres': 171}
{'lipoC2': 7.36, 'lipoC3S1': 3.94, 'temp': 29.75, 'lipoC3S3': 11.89, 'lipoC3S2': 7.87, 'rot1': 0, 'rot0': 0, 'rot3': 0, 'rot2': 0, 'state': 'normal', 'yaw': 17.16, 'datetime': '2018-10-09 23:17:04.700222', 'mgs': 0, 'volt': 0.8301, 'depth': 0.47, 'time': 10, 'pitch': -1.57, 'roll': -3.11, 'pres': 170}
{'lipoC2': 7.35, 'lipoC3S1': 3.94, 'temp': 29.75, 'lipoC3S3': 11.89, 'lipoC3S2': 7.87, 'rot1': 0, 'rot0': 0, 'rot3': 0, 'rot2': 0, 'state': 'normal', 'yaw': 17.64, 'datetime': '2018-10-09 23:17:04.805185', 'mgs': 1, 'volt': 0.8301, 'depth': 0.47, 'time': 11, 'pitch': -1.57, 'roll': -3.33, 'pres': 170}
{'lipoC2': 7.35, 'lipoC3S1': 3.94, 'temp': 29.75, 'lipoC3S3': 11.89, 'lipoC3S2': 7.87, 'rot1': 0, 'rot0': 0, 'rot3': 0, 'rot2': 0, 'state': 'normal', 'yaw': 0.03, 'datetime': '2018-10-09 23:17:09.335109', 'mgs': 0, 'volt': 0.8447, 'depth': 0.699, 'time': 1, 'pitch': -4.8, 'roll': 0.14, 'pres': 173}
{'lipoC2': 7.35, 'lipoC3S1': 3.94, 'temp': 29.75, 'lipoC3S3': 11.88, 'lipoC3S2': 7.87, 'rot1': 0, 'rot0': 0, 'rot3': 0, 'rot2': 0, 'state': 'normal', 'yaw': 0.39, 'datetime': '2018-10-09 23:17:12.386183', 'mgs': 0, 'volt': 0.8496, 'depth': 0.775, 'time': 1, 'pitch': -5.33, 'roll': 0.38, 'pres': 174}
{'lipoC2': 7.35, 'lipoC3S1': 3.94, 'temp': 29.75, 'lipoC3S3': 11.89, 'lipoC3S2': 7.87, 'rot1': 0, 'rot0': 0, 'rot3': 0, 'rot2': 0, 'state': 'normal', 'yaw': 0.55, 'datetime': '2018-10-09 23:17:12.415426', 'mgs': 0, 'volt': 0.8496, 'depth': 0.775, 'time': 1, 'pitch': -5.66, 'roll': 0.75, 'pres': 174}
{'lipoC2': 7.35, 'lipoC3S1': 3.94, 'temp': 29.75, 'lipoC3S3': 11.88, 'lipoC3S2': 7.87, 'rot1': 0, 'rot0': 0, 'rot3': 0, 'rot2': 0, 'state': 'normal', 'yaw': 0.49, 'datetime': '2018-10-09 23:17:12.438586', 'mgs': 0, 'volt': 0.8447, 'depth': 0.699, 'time': 1, 'pitch': -5.81, 'roll': 1.27, 'pres': 173}
{'lipoC2': 7.35, 'lipoC3S1': 3.94, 'temp': 29.75, 'lipoC3S3': 11.89, 'lipoC3S2': 7.87, 'rot1': 0, 'rot0': 0, 'rot3': 0, 'rot2': 0, 'state': 'normal', 'yaw': 0.23, 'datetime': '2018-10-09 23:17:12.455166', 'mgs': 1, 'volt': 0.8447, 'depth': 0.699, 'time': 1, 'pitch': -5.76, 'roll': 1.65, 'pres': 173}
{'lipoC2': 7.35, 'lipoC3S1': 3.94, 'temp': 29.75, 'lipoC3S3': 11.89, 'lipoC3S2': 7.87, 'rot1': 0, 'rot0': 0, 'rot3': 0, 'rot2': 0, 'state': 'normal', 'yaw': -0.08, 'datetime': '2018-10-09 23:17:12.471022', 'mgs': 1, 'volt': 0.8447, 'depth': 0.699, 'time': 1, 'pitch': -5.66, 'roll': 1.79, 'pres': 173}
{'lipoC2': 7.35, 'lipoC3S1': 3.94, 'temp': 29.75, 'lipoC3S3': 11.89, 'lipoC3S2': 7.87, 'rot1': 0, 'rot0': 0, 'rot3': 0, 'rot2': 0, 'state': 'normal', 'yaw': -0.28, 'datetime': '2018-10-09 23:17:12.481022', 'mgs': 1, 'volt': 0.8447, 'depth': 0.699, 'time': 1, 'pitch': -5.37, 'roll': 1.77, 'pres': 173}
{'lipoC2': 7.36, 'lipoC3S1': 3.94, 'temp': 29.75, 'lipoC3S3': 11.89, 'lipoC3S2': 7.88, 'rot1': 0, 'rot0': 0, 'rot3': 0, 'rot2': 0, 'state': 'normal', 'yaw': -0.27, 'datetime': '2018-10-09 23:17:12.496824', 'mgs': 1, 'volt': 0.8447, 'depth': 0.699, 'time': 1, 'pitch': -5.05, 'roll': 1.75, 'pres': 173}
{'lipoC2': 7.35, 'lipoC3S1': 3.94, 'temp': 29.75, 'lipoC3S3': 11.89, 'lipoC3S2': 7.88, 'rot1': 0, 'rot0': 0, 'rot3': 0, 'rot2': 0, 'state': 'normal', 'yaw': -0.02, 'datetime': '2018-10-09 23:17:12.512647', 'mgs': 0, 'volt': 0.8447, 'depth': 0.699, 'time': 2, 'pitch': -5.35, 'roll': 1.67, 'pres': 173}
{'lipoC2': 7.35, 'lipoC3S1': 3.94, 'temp': 29.81, 'lipoC3S3': 11.89, 'lipoC3S2': 7.88, 'rot1': 0, 'rot0': 0, 'rot3': 0, 'rot2': 0, 'state': 'normal', 'yaw': 0.24, 'datetime': '2018-10-09 23:17:12.522679', 'mgs': 0, 'volt': 0.8447, 'depth': 0.699, 'time': 2, 'pitch': -6.13, 'roll': 1.64, 'pres': 173}
{'lipoC2': 7.36, 'lipoC3S1': 3.94, 'temp': 29.81, 'lipoC3S3': 11.89, 'lipoC3S2': 7.88, 'rot1': 0, 'rot0': 0, 'rot3': 0, 'rot2': 0, 'state': 'normal', 'yaw': 0.47, 'datetime': '2018-10-09 23:17:12.538514', 'mgs': 0, 'volt': 0.8447, 'depth': 0.699, 'time': 2, 'pitch': -6.74, 'roll': 1.87, 'pres': 173}
{'lipoC2': 7.35, 'lipoC3S1': 3.94, 'temp': 29.81, 'lipoC3S3': 11.89, 'lipoC3S2': 7.88, 'rot1': 0, 'rot0': 0, 'rot3': 0, 'rot2': 0, 'state': 'normal', 'yaw': 0.79, 'datetime': '2018-10-09 23:17:12.554366', 'mgs': 0, 'volt': 0.8447, 'depth': 0.699, 'time': 2, 'pitch': -6.72, 'roll': 2.24, 'pres': 173}
{'lipoC2': 7.35, 'lipoC3S1': 3.94, 'temp': 29.75, 'lipoC3S3': 11.89, 'lipoC3S2': 7.87, 'rot1': 0, 'rot0': 0, 'rot3': 0, 'rot2': 0, 'state': 'normal', 'yaw': 1.0, 'datetime': '2018-10-09 23:17:12.564358', 'mgs': 0, 'volt': 0.8447, 'depth': 0.699, 'time': 2, 'pitch': -5.82, 'roll': 2.48, 'pres': 173}
{'lipoC2': 7.35, 'lipoC3S1': 3.94, 'temp': 29.75, 'lipoC3S3': 11.89, 'lipoC3S2': 7.87, 'rot1': 0, 'rot0': 0, 'rot3': 0, 'rot2': 0, 'state': 'normal', 'yaw': 1.08, 'datetime': '2018-10-09 23:17:12.580398', 'mgs': 0, 'volt': 0.8447, 'depth': 0.699, 'time': 2, 'pitch': -4.52, 'roll': 2.52, 'pres': 173}
{'lipoC2': 7.35, 'lipoC3S1': 3.94, 'temp': 29.75, 'lipoC3S3': 11.89, 'lipoC3S2': 7.87, 'rot1': 0, 'rot0': 0, 'rot3': 0, 'rot2': 0, 'state': 'normal', 'yaw': 1.23, 'datetime': '2018-10-09 23:17:12.596367', 'mgs': 0, 'volt': 0.8398, 'depth': 0.623, 'time': 2, 'pitch': -3.11, 'roll': 2.44, 'pres': 172}
{'lipoC2': 7.35, 'lipoC3S1': 3.94, 'temp': 29.75, 'lipoC3S3': 11.89, 'lipoC3S2': 7.87, 'rot1': 0, 'rot0': 0, 'rot3': 0, 'rot2': 0, 'state': 'normal', 'yaw': 1.53, 'datetime': '2018-10-09 23:17:12.606393', 'mgs': 0, 'volt': 0.8398, 'depth': 0.623, 'time': 2, 'pitch': -2.34, 'roll': 2.51, 'pres': 172}
{'lipoC2': 7.35, 'lipoC3S1': 3.94, 'temp': 29.81, 'lipoC3S3': 11.89, 'lipoC3S2': 7.87, 'rot1': 0, 'rot0': 0, 'rot3': 0, 'rot2': 0, 'state': 'normal', 'yaw': 1.84, 'datetime': '2018-10-09 23:17:12.622223', 'mgs': 0, 'volt': 0.835, 'depth': 0.546, 'time': 2, 'pitch': -2.22, 'roll': 2.98, 'pres': 171}
{'lipoC2': 7.36, 'lipoC3S1': 3.94, 'temp': 29.81, 'lipoC3S3': 11.89, 'lipoC3S2': 7.88, 'rot1': 0, 'rot0': 0, 'rot3': 0, 'rot2': 0, 'state': 'normal', 'yaw': 2.25, 'datetime': '2018-10-09 23:17:12.638043', 'mgs': 0, 'volt': 0.835, 'depth': 0.546, 'time': 3, 'pitch': -2.37, 'roll': 3.65, 'pres': 171}
{'lipoC2': 7.36, 'lipoC3S1': 3.94, 'temp': 29.81, 'lipoC3S3': 11.89, 'lipoC3S2': 7.87, 'rot1': 0, 'rot0': 0, 'rot3': 0, 'rot2': 0, 'state': 'normal', 'yaw': 2.76, 'datetime': '2018-10-09 23:17:12.648041', 'mgs': 0, 'volt': 0.835, 'depth': 0.546, 'time': 3, 'pitch': -2.67, 'roll': 4.46, 'pres': 171}
{'lipoC2': 7.36, 'lipoC3S1': 3.94, 'temp': 29.81, 'lipoC3S3': 11.89, 'lipoC3S2': 7.88, 'rot1': 0, 'rot0': 0, 'rot3': 0, 'rot2': 0, 'state': 'normal', 'yaw': 3.46, 'datetime': '2018-10-09 23:17:12.663901', 'mgs': 0, 'volt': 0.835, 'depth': 0.546, 'time': 3, 'pitch': -3.02, 'roll': 4.88, 'pres': 171}
{'lipoC2': 7.36, 'lipoC3S1': 3.94, 'temp': 29.81, 'lipoC3S3': 11.89, 'lipoC3S2': 7.88, 'rot1': 0, 'rot0': 0, 'rot3': 0, 'rot2': 0, 'state': 'normal', 'yaw': 4.23, 'datetime': '2018-10-09 23:17:12.679742', 'mgs': 0, 'volt': 0.835, 'depth': 0.546, 'time': 3, 'pitch': -3.34, 'roll': 4.91, 'pres': 171}
{'lipoC2': 7.36, 'lipoC3S1': 3.94, 'temp': 29.81, 'lipoC3S3': 11.89, 'lipoC3S2': 7.88, 'rot1': 0, 'rot0': 0, 'rot3': 0, 'rot2': 0, 'state': 'normal', 'yaw': 4.79, 'datetime': '2018-10-09 23:17:12.689744', 'mgs': 0, 'volt': 0.835, 'depth': 0.546, 'time': 3, 'pitch': -3.39, 'roll': 4.71, 'pres': 171}
{'lipoC2': 7.35, 'lipoC3S1': 3.94, 'temp': 29.81, 'lipoC3S3': 11.89, 'lipoC3S2': 7.87, 'rot1': 0, 'rot0': 0, 'rot3': 0, 'rot2': 0, 'state': 'normal', 'yaw': 5.17, 'datetime': '2018-10-09 23:17:12.705565', 'mgs': 0, 'volt': 0.835, 'depth': 0.546, 'time': 3, 'pitch': -3.13, 'roll': 4.4, 'pres': 171}
{'lipoC2': 7.35, 'lipoC3S1': 3.94, 'temp': 29.81, 'lipoC3S3': 11.89, 'lipoC3S2': 7.87, 'rot1': 0, 'rot0': 0, 'rot3': 0, 'rot2': 0, 'state': 'normal', 'yaw': 5.36, 'datetime': '2018-10-09 23:17:12.721343', 'mgs': 0, 'volt': 0.835, 'depth': 0.546, 'time': 3, 'pitch': -2.64, 'roll': 4.16, 'pres': 171}
{'lipoC2': 7.36, 'lipoC3S1': 3.94, 'temp': 29.75, 'lipoC3S3': 11.89, 'lipoC3S2': 7.87, 'rot1': 0, 'rot0': 0, 'rot3': 0, 'rot2': 0, 'state': 'normal', 'yaw': 5.37, 'datetime': '2018-10-09 23:17:12.731333', 'mgs': 0, 'volt': 0.835, 'depth': 0.546, 'time': 3, 'pitch': -2.19, 'roll': 4.04, 'pres': 171}
{'lipoC2': 7.36, 'lipoC3S1': 3.94, 'temp': 29.75, 'lipoC3S3': 11.89, 'lipoC3S2': 7.87, 'rot1': 0, 'rot0': 0, 'rot3': 0, 'rot2': 0, 'state': 'normal', 'yaw': 5.12, 'datetime': '2018-10-09 23:17:12.747121', 'mgs': 0, 'volt': 0.835, 'depth': 0.546, 'time': 3, 'pitch': -2.02, 'roll': 4.05, 'pres': 171}
{'lipoC2': 7.36, 'lipoC3S1': 3.94, 'temp': 29.75, 'lipoC3S3': 11.89, 'lipoC3S2': 7.88, 'rot1': 0, 'rot0': 0, 'rot3': 0, 'rot2': 0, 'state': 'normal', 'yaw': 4.56, 'datetime': '2018-10-09 23:17:12.762909', 'mgs': 0, 'volt': 0.835, 'depth': 0.546, 'time': 3, 'pitch': -2.23, 'roll': 4.31, 'pres': 171}
{'lipoC2': 7.36, 'lipoC3S1': 3.94, 'temp': 29.75, 'lipoC3S3': 11.89, 'lipoC3S2': 7.88, 'rot1': 0, 'rot0': 0, 'rot3': 0, 'rot2': 0, 'state': 'normal', 'yaw': 3.71, 'datetime': '2018-10-09 23:17:12.773104', 'mgs': 0, 'volt': 0.835, 'depth': 0.546, 'time': 4, 'pitch': -3.02, 'roll': 4.85, 'pres': 171}
{'lipoC2': 7.36, 'lipoC3S1': 3.94, 'temp': 29.75, 'lipoC3S3': 11.89, 'lipoC3S2': 7.88, 'rot1': 0, 'rot0': 0, 'rot3': 0, 'rot2': 0, 'state': 'normal', 'yaw': 2.91, 'datetime': '2018-10-09 23:17:12.789113', 'mgs': 0, 'volt': 0.835, 'depth': 0.546, 'time': 4, 'pitch': -3.86, 'roll': 5.5, 'pres': 171}
{'lipoC2': 7.36, 'lipoC3S1': 3.94, 'temp': 29.75, 'lipoC3S3': 11.89, 'lipoC3S2': 7.88, 'rot1': 0, 'rot0': 0, 'rot3': 0, 'rot2': 0, 'state': 'normal', 'yaw': 2.36, 'datetime': '2018-10-09 23:17:12.805077', 'mgs': 0, 'volt': 0.8301, 'depth': 0.47, 'time': 4, 'pitch': -4.64, 'roll': 5.99, 'pres': 170}
{'lipoC2': 7.36, 'lipoC3S1': 3.94, 'temp': 29.75, 'lipoC3S3': 11.89, 'lipoC3S2': 7.88, 'rot1': 0, 'rot0': 0, 'rot3': 0, 'rot2': 0, 'state': 'normal', 'yaw': 2.28, 'datetime': '2018-10-09 23:17:12.815153', 'mgs': 0, 'volt': 0.835, 'depth': 0.546, 'time': 4, 'pitch': -5.06, 'roll': 5.85, 'pres': 171}
{'lipoC2': 7.35, 'lipoC3S1': 3.94, 'temp': 29.75, 'lipoC3S3': 11.88, 'lipoC3S2': 7.87, 'rot1': 0, 'rot0': 0, 'rot3': 0, 'rot2': 0, 'state': 'normal', 'yaw': 2.49, 'datetime': '2018-10-09 23:17:12.831046', 'mgs': 0, 'volt': 0.835, 'depth': 0.546, 'time': 4, 'pitch': -4.88, 'roll': 5.22, 'pres': 171}
{'lipoC2': 7.35, 'lipoC3S1': 3.9, 'temp': 29.75, 'lipoC3S3': 11.85, 'lipoC3S2': 7.83, 'rot1': 0, 'rot0': 0, 'rot3': 0, 'rot2': 0, 'state': 'normal', 'yaw': 2.92, 'datetime': '2018-10-09 23:17:12.846976', 'mgs': 0, 'volt': 0.8594, 'depth': 0.928, 'time': 4, 'pitch': -3.8, 'roll': 4.22, 'pres': 176}
{'lipoC2': 7.35, 'lipoC3S1': 3.93, 'temp': 29.75, 'lipoC3S3': 11.81, 'lipoC3S2': 7.81, 'rot1': 0, 'rot0': 0, 'rot3': 1, 'rot2': 1, 'state': 'normal', 'yaw': 3.21, 'datetime': '2018-10-09 23:17:12.857017', 'mgs': 0, 'volt': 0.8447, 'depth': 0.699, 'time': 4, 'pitch': -2.95, 'roll': 3.39, 'pres': 173}
{'lipoC2': 7.35, 'lipoC3S1': 3.91, 'temp': 29.75, 'lipoC3S3': 11.85, 'lipoC3S2': 7.83, 'rot1': 0, 'rot0': 0, 'rot3': 3, 'rot2': 2, 'state': 'normal', 'yaw': 3.28, 'datetime': '2018-10-09 23:17:12.872858', 'mgs': 0, 'volt': 0.8154, 'depth': 0.241, 'time': 4, 'pitch': -2.51, 'roll': 2.82, 'pres': 167}
{'lipoC2': 7.35, 'lipoC3S1': 3.91, 'temp': 29.75, 'lipoC3S3': 11.84, 'lipoC3S2': 7.82, 'rot1': 0, 'rot0': 0, 'rot3': 4, 'rot2': 3, 'state': 'normal', 'yaw': 3.17, 'datetime': '2018-10-09 23:17:12.888710', 'mgs': 0, 'volt': 0.8301, 'depth': 0.47, 'time': 4, 'pitch': -2.66, 'roll': 2.51, 'pres': 170}
{'lipoC2': 7.35, 'lipoC3S1': 3.92, 'temp': 29.75, 'lipoC3S3': 11.87, 'lipoC3S2': 7.87, 'rot1': 0, 'rot0': 0, 'rot3': 5, 'rot2': 4, 'state': 'normal', 'yaw': 2.66, 'datetime': '2018-10-09 23:17:12.898856', 'mgs': 0, 'volt': 0.835, 'depth': 0.546, 'time': 4, 'pitch': -2.93, 'roll': 3.03, 'pres': 171}
{'lipoC2': 7.35, 'lipoC3S1': 3.91, 'temp': 29.75, 'lipoC3S3': 11.84, 'lipoC3S2': 7.84, 'rot1': 0, 'rot0': 0, 'rot3': 6, 'rot2': 4, 'state': 'normal', 'yaw': 2.16, 'datetime': '2018-10-09 23:17:12.914764', 'mgs': 0, 'volt': 0.8252, 'depth': 0.394, 'time': 5, 'pitch': -3.22, 'roll': 4.15, 'pres': 169}
{'lipoC2': 7.35, 'lipoC3S1': 3.92, 'temp': 29.75, 'lipoC3S3': 11.87, 'lipoC3S2': 7.86, 'rot1': 0, 'rot0': 0, 'rot3': 8, 'rot2': 5, 'state': 'normal', 'yaw': 1.8, 'datetime': '2018-10-09 23:17:12.930742', 'mgs': 0, 'volt': 0.8447, 'depth': 0.699, 'time': 5, 'pitch': -3.23, 'roll': 5.38, 'pres': 173}
{'lipoC2': 7.35, 'lipoC3S1': 3.93, 'temp': 29.75, 'lipoC3S3': 11.83, 'lipoC3S2': 7.82, 'rot1': 0, 'rot0': 0, 'rot3': 9, 'rot2': 6, 'state': 'normal', 'yaw': 1.87, 'datetime': '2018-10-09 23:17:12.940796', 'mgs': 0, 'volt': 0.8301, 'depth': 0.47, 'time': 5, 'pitch': -2.99, 'roll': 5.9, 'pres': 170}
{'lipoC2': 7.35, 'lipoC3S1': 3.92, 'temp': 29.75, 'lipoC3S3': 11.87, 'lipoC3S2': 7.85, 'rot1': 0, 'rot0': 0, 'rot3': 10, 'rot2': 7, 'state': 'normal', 'yaw': 2.14, 'datetime': '2018-10-09 23:17:12.956884', 'mgs': 0, 'volt': 0.8496, 'depth': 0.775, 'time': 5, 'pitch': -2.66, 'roll': 5.4, 'pres': 174}
{'lipoC2': 7.35, 'lipoC3S1': 3.93, 'temp': 29.75, 'lipoC3S3': 11.81, 'lipoC3S2': 7.85, 'rot1': 0, 'rot0': 0, 'rot3': 11, 'rot2': 8, 'state': 'normal', 'yaw': 2.53, 'datetime': '2018-10-09 23:17:12.972901', 'mgs': 0, 'volt': 0.8398, 'depth': 0.623, 'time': 5, 'pitch': -2.56, 'roll': 4.14, 'pres': 172}
{'lipoC2': 7.35, 'lipoC3S1': 3.93, 'temp': 29.75, 'lipoC3S3': 11.83, 'lipoC3S2': 7.82, 'rot1': 0, 'rot0': 0, 'rot3': 12, 'rot2': 9, 'state': 'normal', 'yaw': 2.88, 'datetime': '2018-10-09 23:17:12.982990', 'mgs': 0, 'volt': 0.835, 'depth': 0.546, 'time': 5, 'pitch': -2.78, 'roll': 2.64, 'pres': 171}
{'lipoC2': 7.35, 'lipoC3S1': 3.91, 'temp': 29.75, 'lipoC3S3': 11.84, 'lipoC3S2': 7.83, 'rot1': 0, 'rot0': 0, 'rot3': 14, 'rot2': 10, 'state': 'normal', 'yaw': 3.17, 'datetime': '2018-10-09 23:17:12.999031', 'mgs': 0, 'volt': 0.8252, 'depth': 0.394, 'time': 5, 'pitch': -3.25, 'roll': 1.31, 'pres': 169}
{'lipoC2': 7.35, 'lipoC3S1': 3.91, 'temp': 29.75, 'lipoC3S3': 11.85, 'lipoC3S2': 7.84, 'rot1': 0, 'rot0': 0, 'rot3': 15, 'rot2': 11, 'state': 'normal', 'yaw': 3.32, 'datetime': '2018-10-09 23:17:13.015029', 'mgs': 0, 'volt': 0.8301, 'depth': 0.47, 'time': 5, 'pitch': -3.77, 'roll': 0.72, 'pres': 170}
{'lipoC2': 7.35, 'lipoC3S1': 3.93, 'temp': 29.75, 'lipoC3S3': 11.83, 'lipoC3S2': 7.84, 'rot1': 0, 'rot0': 0, 'rot3': 16, 'rot2': 12, 'state': 'normal', 'yaw': 3.34, 'datetime': '2018-10-09 23:17:13.025266', 'mgs': 0, 'volt': 0.8301, 'depth': 0.47, 'time': 5, 'pitch': -4.09, 'roll': 0.89, 'pres': 170}
{'lipoC2': 7.35, 'lipoC3S1': 3.93, 'temp': 29.75, 'lipoC3S3': 11.83, 'lipoC3S2': 7.82, 'rot1': 0, 'rot0': 0, 'rot3': 17, 'rot2': 12, 'state': 'normal', 'yaw': 3.26, 'datetime': '2018-10-09 23:17:13.041289', 'mgs': 0, 'volt': 0.8252, 'depth': 0.394, 'time': 5, 'pitch': -4.0, 'roll': 1.74, 'pres': 169}
{'lipoC2': 7.35, 'lipoC3S1': 3.93, 'temp': 29.75, 'lipoC3S3': 11.81, 'lipoC3S2': 7.81, 'rot1': 0, 'rot0': 0, 'rot3': 18, 'rot2': 13, 'state': 'normal', 'yaw': 3.22, 'datetime': '2018-10-09 23:17:13.057282', 'mgs': 0, 'volt': 0.835, 'depth': 0.546, 'time': 6, 'pitch': -3.37, 'roll': 2.86, 'pres': 171}
{'lipoC2': 7.35, 'lipoC3S1': 3.93, 'temp': 29.75, 'lipoC3S3': 11.81, 'lipoC3S2': 7.81, 'rot1': 0, 'rot0': 0, 'rot3': 20, 'rot2': 14, 'state': 'normal', 'yaw': 3.24, 'datetime': '2018-10-09 23:17:13.067432', 'mgs': 0, 'volt': 0.835, 'depth': 0.546, 'time': 6, 'pitch': -3.01, 'roll': 3.54, 'pres': 171}
{'lipoC2': 7.35, 'lipoC3S1': 3.93, 'temp': 29.75, 'lipoC3S3': 11.83, 'lipoC3S2': 7.83, 'rot1': 0, 'rot0': 0, 'rot3': 21, 'rot2': 15, 'state': 'normal', 'yaw': 3.26, 'datetime': '2018-10-09 23:17:13.083413', 'mgs': 0, 'volt': 0.8301, 'depth': 0.47, 'time': 6, 'pitch': -3.42, 'roll': 3.42, 'pres': 170}
{'lipoC2': 7.35, 'lipoC3S1': 3.93, 'temp': 29.75, 'lipoC3S3': 11.83, 'lipoC3S2': 7.85, 'rot1': 0, 'rot0': 0, 'rot3': 22, 'rot2': 16, 'state': 'normal', 'yaw': 3.21, 'datetime': '2018-10-09 23:17:13.099450', 'mgs': 0, 'volt': 0.8398, 'depth': 0.623, 'time': 6, 'pitch': -4.26, 'roll': 2.66, 'pres': 172}
{'lipoC2': 7.35, 'lipoC3S1': 3.91, 'temp': 29.75, 'lipoC3S3': 11.85, 'lipoC3S2': 7.85, 'rot1': 0, 'rot0': 0, 'rot3': 23, 'rot2': 17, 'state': 'normal', 'yaw': 2.85, 'datetime': '2018-10-09 23:17:13.109595', 'mgs': 0, 'volt': 0.8398, 'depth': 0.623, 'time': 6, 'pitch': -4.97, 'roll': 1.93, 'pres': 172}
{'lipoC2': 7.35, 'lipoC3S1': 3.92, 'temp': 29.69, 'lipoC3S3': 11.87, 'lipoC3S2': 7.86, 'rot1': 0, 'rot0': 0, 'rot3': 25, 'rot2': 18, 'state': 'normal', 'yaw': 2.15, 'datetime': '2018-10-09 23:17:13.125077', 'mgs': 0, 'volt': 0.8398, 'depth': 0.623, 'time': 6, 'pitch': -5.11, 'roll': 1.72, 'pres': 172}
{'lipoC2': 7.35, 'lipoC3S1': 3.92, 'temp': 29.69, 'lipoC3S3': 11.81, 'lipoC3S2': 7.85, 'rot1': 0, 'rot0': 0, 'rot3': 26, 'rot2': 19, 'state': 'normal', 'yaw': 1.55, 'datetime': '2018-10-09 23:17:13.140528', 'mgs': 0, 'volt': 0.835, 'depth': 0.546, 'time': 6, 'pitch': -4.51, 'roll': 2.09, 'pres': 171}
{'lipoC2': 7.35, 'lipoC3S1': 3.93, 'temp': 29.81, 'lipoC3S3': 11.83, 'lipoC3S2': 7.81, 'rot1': 0, 'rot0': 0, 'rot3': 27, 'rot2': 19, 'state': 'normal', 'yaw': 1.06, 'datetime': '2018-10-09 23:17:13.150403', 'mgs': 0, 'volt': 0.8301, 'depth': 0.47, 'time': 6, 'pitch': -3.37, 'roll': 2.86, 'pres': 170}
{'lipoC2': 7.35, 'lipoC3S1': 3.93, 'temp': 29.81, 'lipoC3S3': 11.83, 'lipoC3S2': 7.83, 'rot1': 0, 'rot0': 0, 'rot3': 28, 'rot2': 20, 'state': 'normal', 'yaw': 0.53, 'datetime': '2018-10-09 23:17:13.165994', 'mgs': 0, 'volt': 0.8301, 'depth': 0.47, 'time': 6, 'pitch': -2.17, 'roll': 3.8, 'pres': 170}
{'lipoC2': 7.35, 'lipoC3S1': 3.91, 'temp': 29.75, 'lipoC3S3': 11.83, 'lipoC3S2': 7.82, 'rot1': 0, 'rot0': 0, 'rot3': 30, 'rot2': 21, 'state': 'normal', 'yaw': -0.03, 'datetime': '2018-10-09 23:17:13.181532', 'mgs': 0, 'volt': 0.8301, 'depth': 0.47, 'time': 7, 'pitch': -1.72, 'roll': 4.13, 'pres': 170}
{'lipoC2': 7.35, 'lipoC3S1': 3.9, 'temp': 29.75, 'lipoC3S3': 11.84, 'lipoC3S2': 7.82, 'rot1': 0, 'rot0': 0, 'rot3': 31, 'rot2': 22, 'state': 'normal', 'yaw': -0.71, 'datetime': '2018-10-09 23:17:13.191230', 'mgs': 0, 'volt': 0.8301, 'depth': 0.47, 'time': 7, 'pitch': -1.9, 'roll': 3.76, 'pres': 170}
{'lipoC2': 7.35, 'lipoC3S1': 3.91, 'temp': 29.75, 'lipoC3S3': 11.85, 'lipoC3S2': 7.83, 'rot1': 0, 'rot0': 0, 'rot3': 32, 'rot2': 23, 'state': 'normal', 'yaw': -1.5, 'datetime': '2018-10-09 23:17:13.206809', 'mgs': 0, 'volt': 0.8496, 'depth': 0.775, 'time': 7, 'pitch': -2.75, 'roll': 2.59, 'pres': 174}
{'lipoC2': 7.35, 'lipoC3S1': 3.91, 'temp': 29.75, 'lipoC3S3': 11.87, 'lipoC3S2': 7.85, 'rot1': 0, 'rot0': 0, 'rot3': 33, 'rot2': 24, 'state': 'normal', 'yaw': -2.11, 'datetime': '2018-10-09 23:17:13.222341', 'mgs': 0, 'volt': 0.8398, 'depth': 0.623, 'time': 7, 'pitch': -3.43, 'roll': 1.61, 'pres': 172}
{'lipoC2': 7.35, 'lipoC3S1': 3.91, 'temp': 29.75, 'lipoC3S3': 11.85, 'lipoC3S2': 7.85, 'rot1': 0, 'rot0': 0, 'rot3': 34, 'rot2': 25, 'state': 'normal', 'yaw': -2.5, 'datetime': '2018-10-09 23:17:13.232010', 'mgs': 0, 'volt': 0.8447, 'depth': 0.699, 'time': 7, 'pitch': -3.52, 'roll': 1.36, 'pres': 173}
{'lipoC2': 7.35, 'lipoC3S1': 3.93, 'temp': 29.75, 'lipoC3S3': 11.88, 'lipoC3S2': 7.87, 'rot1': 0, 'rot0': 0, 'rot3': 35, 'rot2': 25, 'state': 'normal', 'yaw': -2.66, 'datetime': '2018-10-09 23:17:13.247583', 'mgs': 0, 'volt': 0.8252, 'depth': 0.394, 'time': 7, 'pitch': -3.31, 'roll': 1.73, 'pres': 169}
{'lipoC2': 7.34, 'lipoC3S1': 3.92, 'temp': 29.75, 'lipoC3S3': 11.77, 'lipoC3S2': 7.78, 'rot1': 0, 'rot0': 0, 'rot3': 35, 'rot2': 25, 'state': 'normal', 'yaw': -2.6, 'datetime': '2018-10-09 23:17:13.263181', 'mgs': 0, 'volt': 0.8252, 'depth': 0.394, 'time': 7, 'pitch': -3.16, 'roll': 2.42, 'pres': 169}
{'lipoC2': 7.35, 'lipoC3S1': 3.92, 'temp': 29.75, 'lipoC3S3': 11.76, 'lipoC3S2': 7.83, 'rot1': 1, 'rot0': 1, 'rot3': 36, 'rot2': 26, 'state': 'normal', 'yaw': -2.46, 'datetime': '2018-10-09 23:17:13.272981', 'mgs': 0, 'volt': 0.9033, 'depth': 1.614, 'time': 7, 'pitch': -2.96, 'roll': 2.7, 'pres': 185}
{'lipoC2': 7.35, 'lipoC3S1': 3.88, 'temp': 29.75, 'lipoC3S3': 11.84, 'lipoC3S2': 7.85, 'rot1': 2, 'rot0': 2, 'rot3': 37, 'rot2': 26, 'state': 'normal', 'yaw': -2.25, 'datetime': '2018-10-09 23:17:13.288650', 'mgs': 0, 'volt': 0.8447, 'depth': 0.699, 'time': 7, 'pitch': -2.79, 'roll': 2.31, 'pres': 173}
{'lipoC2': 7.34, 'lipoC3S1': 3.92, 'temp': 29.75, 'lipoC3S3': 11.76, 'lipoC3S2': 7.84, 'rot1': 3, 'rot0': 4, 'rot3': 38, 'rot2': 27, 'state': 'normal', 'yaw': -2.14, 'datetime': '2018-10-09 23:17:13.304200', 'mgs': 0, 'volt': 0.957, 'depth': 2.454, 'time': 7, 'pitch': -2.94, 'roll': 1.5, 'pres': 196}
{'lipoC2': 7.35, 'lipoC3S1': 3.8, 'temp': 29.69, 'lipoC3S3': 11.84, 'lipoC3S2': 7.78, 'rot1': 4, 'rot0': 5, 'rot3': 39, 'rot2': 29, 'state': 'normal', 'yaw': -2.15, 'datetime': '2018-10-09 23:17:13.313937', 'mgs': 0, 'volt': 0.8643, 'depth': 1.004, 'time': 8, 'pitch': -3.22, 'roll': 0.72, 'pres': 177}
{'lipoC2': 7.34, 'lipoC3S1': 3.83, 'temp': 29.69, 'lipoC3S3': 11.84, 'lipoC3S2': 7.83, 'rot1': 5, 'rot0': 6, 'rot3': 40, 'rot2': 29, 'state': 'normal', 'yaw': -2.13, 'datetime': '2018-10-09 23:17:13.329684', 'mgs': 0, 'volt': 0.8643, 'depth': 1.004, 'time': 8, 'pitch': -3.35, 'roll': 0.23, 'pres': 177}
{'lipoC2': 7.34, 'lipoC3S1': 3.88, 'temp': 29.75, 'lipoC3S3': 11.83, 'lipoC3S2': 7.84, 'rot1': 7, 'rot0': 7, 'rot3': 42, 'rot2': 30, 'state': 'normal', 'yaw': -2.01, 'datetime': '2018-10-09 23:17:13.345316', 'mgs': 0, 'volt': 0.8691, 'depth': 1.08, 'time': 8, 'pitch': -3.23, 'roll': 0.14, 'pres': 178}
{'lipoC2': 7.34, 'lipoC3S1': 3.92, 'temp': 29.75, 'lipoC3S3': 11.77, 'lipoC3S2': 7.83, 'rot1': 8, 'rot0': 8, 'rot3': 43, 'rot2': 31, 'state': 'normal', 'yaw': -1.93, 'datetime': '2018-10-09 23:17:13.355005', 'mgs': 0, 'volt': 0.9375, 'depth': 2.148, 'time': 8, 'pitch': -2.93, 'roll': 0.36, 'pres': 192}
{'lipoC2': 7.35, 'lipoC3S1': 3.89, 'temp': 29.69, 'lipoC3S3': 11.83, 'lipoC3S2': 7.84, 'rot1': 9, 'rot0': 9, 'rot3': 44, 'rot2': 31, 'state': 'normal', 'yaw': -1.95, 'datetime': '2018-10-09 23:17:13.396074', 'mgs': 0, 'volt': 0.8789, 'depth': 1.233, 'time': 8, 'pitch': -2.27, 'roll': 0.68, 'pres': 180}
{'lipoC2': 7.35, 'lipoC3S1': 3.92, 'temp': 29.69, 'lipoC3S3': 11.83, 'lipoC3S2': 7.84, 'rot1': 10, 'rot0': 10, 'rot3': 44, 'rot2': 32, 'state': 'normal', 'yaw': -2.11, 'datetime': '2018-10-09 23:17:13.499654', 'mgs': 0, 'volt': 0.9326, 'depth': 2.072, 'time': 8, 'pitch': -1.22, 'roll': 0.91, 'pres': 191}
{'lipoC2': 7.35, 'lipoC3S1': 3.81, 'temp': 29.69, 'lipoC3S3': 11.84, 'lipoC3S2': 7.79, 'rot1': 11, 'rot0': 12, 'rot3': 45, 'rot2': 33, 'state': 'normal', 'yaw': -2.28, 'datetime': '2018-10-09 23:17:13.603139', 'mgs': 0, 'volt': 0.8887, 'depth': 1.385, 'time': 8, 'pitch': -0.11, 'roll': 0.75, 'pres': 182}
{'lipoC2': 7.34, 'lipoC3S1': 3.92, 'temp': 29.69, 'lipoC3S3': 11.77, 'lipoC3S2': 7.78, 'rot1': 12, 'rot0': 13, 'rot3': 46, 'rot2': 33, 'state': 'normal', 'yaw': -2.5, 'datetime': '2018-10-09 23:17:13.706946', 'mgs': 0, 'volt': 0.874, 'depth': 1.157, 'time': 8, 'pitch': 1.13, 'roll': 0.34, 'pres': 179}
{'lipoC2': 7.35, 'lipoC3S1': 3.92, 'temp': 29.69, 'lipoC3S3': 11.76, 'lipoC3S2': 7.83, 'rot1': 13, 'rot0': 14, 'rot3': 47, 'rot2': 34, 'state': 'normal', 'yaw': -2.78, 'datetime': '2018-10-09 23:17:13.810498', 'mgs': 0, 'volt': 0.9521, 'depth': 2.377, 'time': 8, 'pitch': 2.72, 'roll': 0.02, 'pres': 195}
{'lipoC2': 7.35, 'lipoC3S1': 3.79, 'temp': 29.75, 'lipoC3S3': 11.84, 'lipoC3S2': 7.78, 'rot1': 14, 'rot0': 15, 'rot3': 49, 'rot2': 35, 'state': 'normal', 'yaw': -3.06, 'datetime': '2018-10-09 23:17:13.914793', 'mgs': 0, 'volt': 0.9082, 'depth': 1.691, 'time': 8, 'pitch': 4.27, 'roll': 0.05, 'pres': 186}
{'lipoC2': 7.36, 'lipoC3S1': 3.92, 'temp': 29.75, 'lipoC3S3': 11.76, 'lipoC3S2': 7.83, 'rot1': 15, 'rot0': 16, 'rot3': 50, 'rot2': 35, 'state': 'normal', 'yaw': -3.38, 'datetime': '2018-10-09 23:17:14.018731', 'mgs': 0, 'volt': 0.9326, 'depth': 2.072, 'time': 9, 'pitch': 5.77, 'roll': 0.37, 'pres': 191}
{'lipoC2': 7.35, 'lipoC3S1': 3.84, 'temp': 29.81, 'lipoC3S3': 11.83, 'lipoC3S2': 7.84, 'rot1': 17, 'rot0': 17, 'rot3': 50, 'rot2': 37, 'state': 'normal', 'yaw': -3.77, 'datetime': '2018-10-09 23:17:14.122279', 'mgs': 0, 'volt': 0.918, 'depth': 1.843, 'time': 9, 'pitch': 7.21, 'roll': 0.79, 'pres': 188}
{'lipoC2': 7.34, 'lipoC3S1': 3.92, 'temp': 29.81, 'lipoC3S3': 11.76, 'lipoC3S2': 7.78, 'rot1': 18, 'rot0': 19, 'rot3': 51, 'rot2': 38, 'state': 'normal', 'yaw': -4.16, 'datetime': '2018-10-09 23:17:14.227066', 'mgs': 0, 'volt': 0.9033, 'depth': 1.614, 'time': 9, 'pitch': 8.14, 'roll': 1.03, 'pres': 185}
{'lipoC2': 7.35, 'lipoC3S1': 3.9, 'temp': 29.81, 'lipoC3S3': 11.81, 'lipoC3S2': 7.84, 'rot1': 19, 'rot0': 20, 'rot3': 52, 'rot2': 38, 'state': 'normal', 'yaw': -4.64, 'datetime': '2018-10-09 23:17:14.330691', 'mgs': 0, 'volt': 0.9863, 'depth': 2.911, 'time': 9, 'pitch': 8.69, 'roll': 1.14, 'pres': 202}
{'lipoC2': 7.35, 'lipoC3S1': 3.84, 'temp': 29.75, 'lipoC3S3': 11.84, 'lipoC3S2': 7.78, 'rot1': 20, 'rot0': 21, 'rot3': 53, 'rot2': 39, 'state': 'normal', 'yaw': -5.08, 'datetime': '2018-10-09 23:17:14.434264', 'mgs': 0, 'volt': 0.9326, 'depth': 2.072, 'time': 9, 'pitch': 8.8, 'roll': 1.07, 'pres': 191}
{'lipoC2': 7.35, 'lipoC3S1': 3.92, 'temp': 29.75, 'lipoC3S3': 11.76, 'lipoC3S2': 7.83, 'rot1': 21, 'rot0': 22, 'rot3': 54, 'rot2': 40, 'state': 'normal', 'yaw': -5.37, 'datetime': '2018-10-09 23:17:14.539063', 'mgs': 0, 'volt': 0.9521, 'depth': 2.377, 'time': 9, 'pitch': 8.6, 'roll': 1.03, 'pres': 195}
{'lipoC2': 7.35, 'lipoC3S1': 3.85, 'temp': 29.75, 'lipoC3S3': 11.84, 'lipoC3S2': 7.84, 'rot1': 22, 'rot0': 23, 'rot3': 55, 'rot2': 40, 'state': 'normal', 'yaw': -5.46, 'datetime': '2018-10-09 23:17:14.642507', 'mgs': 0, 'volt': 0.9375, 'depth': 2.148, 'time': 9, 'pitch': 8.27, 'roll': 1.03, 'pres': 192}
{'lipoC2': 7.35, 'lipoC3S1': 3.89, 'temp': 29.75, 'lipoC3S3': 11.8, 'lipoC3S2': 7.71, 'rot1': 23, 'rot0': 24, 'rot3': 55, 'rot2': 41, 'state': 'normal', 'yaw': -5.4, 'datetime': '2018-10-09 23:17:14.746086', 'mgs': 0, 'volt': 0.9131, 'depth': 1.767, 'time': 9, 'pitch': 8.08, 'roll': 1.11, 'pres': 187}
{'lipoC2': 7.34, 'lipoC3S1': 3.92, 'temp': 29.75, 'lipoC3S3': 11.77, 'lipoC3S2': 7.78, 'rot1': 24, 'rot0': 25, 'rot3': 56, 'rot2': 42, 'state': 'normal', 'yaw': -5.18, 'datetime': '2018-10-09 23:17:14.849668', 'mgs': 0, 'volt': 0.9131, 'depth': 1.767, 'time': 9, 'pitch': 7.93, 'roll': 1.3, 'pres': 187}
{'lipoC2': 7.35, 'lipoC3S1': 3.92, 'temp': 29.75, 'lipoC3S3': 11.76, 'lipoC3S2': 7.83, 'rot1': 26, 'rot0': 26, 'rot3': 57, 'rot2': 42, 'state': 'normal', 'yaw': -4.79, 'datetime': '2018-10-09 23:17:14.953467', 'mgs': 0, 'volt': 1.001, 'depth': 3.14, 'time': 10, 'pitch': 7.54, 'roll': 1.48, 'pres': 205}
{'lipoC2': 7.35, 'lipoC3S1': 3.88, 'temp': 29.75, 'lipoC3S3': 11.81, 'lipoC3S2': 7.7, 'rot1': 27, 'rot0': 27, 'rot3': 58, 'rot2': 43, 'state': 'normal', 'yaw': -4.42, 'datetime': '2018-10-09 23:17:15.057162', 'mgs': 0, 'volt': 0.918, 'depth': 1.843, 'time': 10, 'pitch': 6.78, 'roll': 1.48, 'pres': 188}
{'lipoC2': 7.35, 'lipoC3S1': 3.88, 'temp': 29.75, 'lipoC3S3': 11.81, 'lipoC3S2': 7.84, 'rot1': 28, 'rot0': 28, 'rot3': 59, 'rot2': 45, 'state': 'normal', 'yaw': -4.08, 'datetime': '2018-10-09 23:17:15.161029', 'mgs': 0, 'volt': 0.9424, 'depth': 2.225, 'time': 10, 'pitch': 5.7, 'roll': 1.33, 'pres': 193}
{'lipoC2': 7.35, 'lipoC3S1': 3.88, 'temp': 29.75, 'lipoC3S3': 11.71, 'lipoC3S2': 7.79, 'rot1': 29, 'rot0': 29, 'rot3': 59, 'rot2': 45, 'state': 'normal', 'yaw': -3.66, 'datetime': '2018-10-09 23:17:15.264820', 'mgs': 0, 'volt': 0.9229, 'depth': 1.92, 'time': 10, 'pitch': 4.63, 'roll': 1.1, 'pres': 189}
{'lipoC2': 7.35, 'lipoC3S1': 3.92, 'temp': 29.75, 'lipoC3S3': 11.81, 'lipoC3S2': 7.83, 'rot1': 30, 'rot0': 30, 'rot3': 60, 'rot2': 46, 'state': 'normal', 'yaw': -3.21, 'datetime': '2018-10-09 23:17:15.368530', 'mgs': 0, 'volt': 0.9961, 'depth': 3.064, 'time': 10, 'pitch': 4.13, 'roll': 0.97, 'pres': 204}
{'lipoC2': 7.33, 'lipoC3S1': 3.92, 'temp': 29.75, 'lipoC3S3': 11.75, 'lipoC3S2': 7.82, 'rot1': 31, 'rot0': 32, 'rot3': 61, 'rot2': 46, 'state': 'normal', 'yaw': -2.82, 'datetime': '2018-10-09 23:17:15.472624', 'mgs': 0, 'volt': 0.9668, 'depth': 2.606, 'time': 10, 'pitch': 4.12, 'roll': 0.92, 'pres': 198}
{'lipoC2': 7.35, 'lipoC3S1': 3.96, 'temp': 29.75, 'lipoC3S3': 11.83, 'lipoC3S2': 7.77, 'rot1': 32, 'rot0': 33, 'rot3': 62, 'rot2': 47, 'state': 'normal', 'yaw': -2.51, 'datetime': '2018-10-09 23:17:15.576394', 'mgs': 0, 'volt': 0.9521, 'depth': 2.377, 'time': 10, 'pitch': 4.28, 'roll': 0.81, 'pres': 195}
{'lipoC2': 7.35, 'lipoC3S1': 3.89, 'temp': 29.75, 'lipoC3S3': 11.83, 'lipoC3S2': 7.83, 'rot1': 33, 'rot0': 34, 'rot3': 63, 'rot2': 48, 'state': 'normal', 'yaw': -2.29, 'datetime': '2018-10-09 23:17:15.681381', 'mgs': 0, 'volt': 0.9473, 'depth': 2.301, 'time': 10, 'pitch': 4.28, 'roll': 0.63, 'pres': 194}
{'lipoC2': 7.35, 'lipoC3S1': 3.88, 'temp': 29.75, 'lipoC3S3': 11.75, 'lipoC3S2': 7.8, 'rot1': 35, 'rot0': 35, 'rot3': 63, 'rot2': 48, 'state': 'normal', 'yaw': -2.1, 'datetime': '2018-10-09 23:17:15.785164', 'mgs': 0, 'volt': 0.9326, 'depth': 2.072, 'time': 10, 'pitch': 3.96, 'roll': 0.38, 'pres': 191}
{'lipoC2': 7.35, 'lipoC3S1': 3.86, 'temp': 29.81, 'lipoC3S3': 11.81, 'lipoC3S2': 7.83, 'rot1': 36, 'rot0': 36, 'rot3': 64, 'rot2': 49, 'state': 'normal', 'yaw': -1.99, 'datetime': '2018-10-09 23:17:15.889041', 'mgs': 0, 'volt': 0.9619, 'depth': 2.53, 'time': 10, 'pitch': 3.57, 'roll': 0.18, 'pres': 197}
{'lipoC2': 7.35, 'lipoC3S1': 3.91, 'temp': 29.81, 'lipoC3S3': 11.64, 'lipoC3S2': 7.78, 'rot1': 37, 'rot0': 37, 'rot3': 66, 'rot2': 50, 'state': 'normal', 'yaw': -1.94, 'datetime': '2018-10-09 23:17:15.993761', 'mgs': 0, 'volt': 0.9424, 'depth': 2.225, 'time': 11, 'pitch': 3.38, 'roll': 0.08, 'pres': 193}
{'lipoC2': 7.35, 'lipoC3S1': 3.87, 'temp': 29.75, 'lipoC3S3': 11.81, 'lipoC3S2': 7.83, 'rot1': 38, 'rot0': 38, 'rot3': 67, 'rot2': 50, 'state': 'normal', 'yaw': -1.91, 'datetime': '2018-10-09 23:17:16.097454', 'mgs': 0, 'volt': 0.9619, 'depth': 2.53, 'time': 11, 'pitch': 3.73, 'roll': 0.11, 'pres': 197}
{'lipoC2': 7.35, 'lipoC3S1': 3.88, 'temp': 29.75, 'lipoC3S3': 11.72, 'lipoC3S2': 7.78, 'rot1': 39, 'rot0': 40, 'rot3': 67, 'rot2': 51, 'state': 'normal', 'yaw': -1.82, 'datetime': '2018-10-09 23:17:16.201175', 'mgs': 0, 'volt': 0.9473, 'depth': 2.301, 'time': 11, 'pitch': 4.29, 'roll': 0.21, 'pres': 194}
{'lipoC2': 7.35, 'lipoC3S1': 3.92, 'temp': 29.81, 'lipoC3S3': 11.84, 'lipoC3S2': 7.83, 'rot1': 40, 'rot0': 41, 'rot3': 68, 'rot2': 52, 'state': 'normal', 'yaw': -1.67, 'datetime': '2018-10-09 23:17:16.304924', 'mgs': 0, 'volt': 1.0156, 'depth': 3.369, 'time': 11, 'pitch': 4.7, 'roll': 0.38, 'pres': 208}
{'lipoC2': 7.35, 'lipoC3S1': 3.88, 'temp': 29.81, 'lipoC3S3': 11.83, 'lipoC3S2': 7.71, 'rot1': 41, 'rot0': 42, 'rot3': 70, 'rot2': 52, 'state': 'normal', 'yaw': -1.47, 'datetime': '2018-10-09 23:17:16.408587', 'mgs': 0, 'volt': 0.957, 'depth': 2.454, 'time': 11, 'pitch': 4.79, 'roll': 0.57, 'pres': 196}
{'lipoC2': 7.33, 'lipoC3S1': 3.92, 'temp': 29.81, 'lipoC3S3': 11.77, 'lipoC3S2': 7.82, 'rot1': 43, 'rot0': 43, 'rot3': 71, 'rot2': 53, 'state': 'normal', 'yaw': -1.32, 'datetime': '2018-10-09 23:17:16.512307', 'mgs': 0, 'volt': 0.9814, 'depth': 2.835, 'time': 11, 'pitch': 4.72, 'roll': 0.67, 'pres': 201}
{'lipoC2': 7.35, 'lipoC3S1': 3.8, 'temp': 29.75, 'lipoC3S3': 11.83, 'lipoC3S2': 7.8, 'rot1': 44, 'rot0': 44, 'rot3': 71, 'rot2': 54, 'state': 'normal', 'yaw': -1.18, 'datetime': '2018-10-09 23:17:16.616002', 'mgs': 0, 'volt': 0.9814, 'depth': 2.835, 'time': 11, 'pitch': 4.67, 'roll': 0.64, 'pres': 201}
