{'lipoC2': 7.26, 'lipoC3S1': 4.13, 'temp': 27.81, 'lipoC3S3': 12.47, 'lipoC3S2': 8.25, 'rot1': 264, 'rot0': 258, 'rot3': 135, 'rot2': 130, 'state': 'normal', 'yaw': 135.97, 'datetime': '2018-10-03 17:40:41.464716', 'mgs': 0, 'volt': 0.9521, 'depth': 2.377, 'time': 49, 'pitch': 1.04, 'roll': 0.43, 'pres': 195}
{'lipoC2': 7.26, 'lipoC3S1': 4.13, 'temp': 27.81, 'lipoC3S3': 12.47, 'lipoC3S2': 8.25, 'rot1': 264, 'rot0': 258, 'rot3': 135, 'rot2': 130, 'state': 'normal', 'yaw': 136.36, 'datetime': '2018-10-03 17:40:41.489050', 'mgs': 0, 'volt': 0.9521, 'depth': 2.377, 'time': 49, 'pitch': 0.96, 'roll': 0.44, 'pres': 195}
{'lipoC2': 7.26, 'lipoC3S1': 4.13, 'temp': 27.81, 'lipoC3S3': 12.47, 'lipoC3S2': 8.25, 'rot1': 264, 'rot0': 258, 'rot3': 135, 'rot2': 130, 'state': 'normal', 'yaw': 136.73, 'datetime': '2018-10-03 17:40:41.513532', 'mgs': 0, 'volt': 0.957, 'depth': 2.454, 'time': 50, 'pitch': 0.84, 'roll': 0.45, 'pres': 196}
{'lipoC2': 7.26, 'lipoC3S1': 4.13, 'temp': 27.81, 'lipoC3S3': 12.47, 'lipoC3S2': 8.25, 'rot1': 264, 'rot0': 258, 'rot3': 135, 'rot2': 130, 'state': 'normal', 'yaw': 137.13, 'datetime': '2018-10-03 17:40:41.538561', 'mgs': 0, 'volt': 0.957, 'depth': 2.454, 'time': 50, 'pitch': 0.66, 'roll': 0.46, 'pres': 196}
{'lipoC2': 7.26, 'lipoC3S1': 4.13, 'temp': 27.81, 'lipoC3S3': 12.47, 'lipoC3S2': 8.25, 'rot1': 264, 'rot0': 258, 'rot3': 135, 'rot2': 130, 'state': 'normal', 'yaw': 137.49, 'datetime': '2018-10-03 17:40:41.551082', 'mgs': 0, 'volt': 0.9619, 'depth': 2.53, 'time': 50, 'pitch': 0.52, 'roll': 0.47, 'pres': 197}
{'lipoC2': 7.26, 'lipoC3S1': 4.13, 'temp': 27.81, 'lipoC3S3': 12.47, 'lipoC3S2': 8.25, 'rot1': 264, 'rot0': 258, 'rot3': 135, 'rot2': 130, 'state': 'normal', 'yaw': 137.87, 'datetime': '2018-10-03 17:40:41.560742', 'mgs': 0, 'volt': 0.9619, 'depth': 2.53, 'time': 50, 'pitch': 0.4, 'roll': 0.51, 'pres': 197}
{'lipoC2': 7.26, 'lipoC3S1': 4.13, 'temp': 27.81, 'lipoC3S3': 12.47, 'lipoC3S2': 8.25, 'rot1': 264, 'rot0': 258, 'rot3': 135, 'rot2': 130, 'state': 'normal', 'yaw': 138.2, 'datetime': '2018-10-03 17:40:41.570330', 'mgs': 0, 'volt': 0.9668, 'depth': 2.606, 'time': 50, 'pitch': 0.37, 'roll': 0.56, 'pres': 198}
{'lipoC2': 7.26, 'lipoC3S1': 4.13, 'temp': 27.81, 'lipoC3S3': 12.47, 'lipoC3S2': 8.25, 'rot1': 264, 'rot0': 258, 'rot3': 135, 'rot2': 130, 'state': 'normal', 'yaw': 138.57, 'datetime': '2018-10-03 17:40:41.579951', 'mgs': 0, 'volt': 0.9668, 'depth': 2.606, 'time': 50, 'pitch': 0.37, 'roll': 0.59, 'pres': 198}
{'lipoC2': 7.26, 'lipoC3S1': 4.13, 'temp': 27.81, 'lipoC3S3': 12.47, 'lipoC3S2': 8.25, 'rot1': 264, 'rot0': 258, 'rot3': 135, 'rot2': 130, 'state': 'normal', 'yaw': 138.89, 'datetime': '2018-10-03 17:40:41.589547', 'mgs': 0, 'volt': 0.9668, 'depth': 2.606, 'time': 50, 'pitch': 0.36, 'roll': 0.6, 'pres': 198}
{'lipoC2': 7.26, 'lipoC3S1': 4.13, 'temp': 27.81, 'lipoC3S3': 12.47, 'lipoC3S2': 8.25, 'rot1': 264, 'rot0': 258, 'rot3': 135, 'rot2': 130, 'state': 'normal', 'yaw': 139.23, 'datetime': '2018-10-03 17:40:41.599250', 'mgs': 0, 'volt': 0.9668, 'depth': 2.606, 'time': 50, 'pitch': 0.36, 'roll': 0.62, 'pres': 198}
{'lipoC2': 7.26, 'lipoC3S1': 4.13, 'temp': 27.75, 'lipoC3S3': 12.47, 'lipoC3S2': 8.25, 'rot1': 0, 'rot0': 0, 'rot3': 0, 'rot2': 0, 'state': 'normal', 'yaw': 0.0, 'datetime': '2018-10-03 17:40:41.845178', 'mgs': 0, 'volt': 0.9814, 'depth': 2.835, 'time': 1, 'pitch': -6.74, 'roll': 0.41, 'pres': 201}
{'lipoC2': 7.26, 'lipoC3S1': 4.13, 'temp': 27.75, 'lipoC3S3': 12.46, 'lipoC3S2': 8.25, 'rot1': 0, 'rot0': 0, 'rot3': 0, 'rot2': 0, 'state': 'normal', 'yaw': 0.01, 'datetime': '2018-10-03 17:40:41.949301', 'mgs': 0, 'volt': 0.9766, 'depth': 2.759, 'time': 1, 'pitch': -7.12, 'roll': 0.31, 'pres': 200}
{'lipoC2': 7.26, 'lipoC3S1': 4.13, 'temp': 27.75, 'lipoC3S3': 12.46, 'lipoC3S2': 8.25, 'rot1': 0, 'rot0': 0, 'rot3': 0, 'rot2': 0, 'state': 'normal', 'yaw': 0.02, 'datetime': '2018-10-03 17:40:42.053096', 'mgs': 0, 'volt': 0.9766, 'depth': 2.759, 'time': 1, 'pitch': -7.34, 'roll': 0.25, 'pres': 200}
{'lipoC2': 7.26, 'lipoC3S1': 4.13, 'temp': 27.75, 'lipoC3S3': 12.47, 'lipoC3S2': 8.25, 'rot1': 0, 'rot0': 0, 'rot3': 0, 'rot2': 0, 'state': 'normal', 'yaw': 0.12, 'datetime': '2018-10-03 17:40:42.156291', 'mgs': 0, 'volt': 0.9766, 'depth': 2.759, 'time': 1, 'pitch': -7.51, 'roll': 0.07, 'pres': 200}
{'lipoC2': 7.26, 'lipoC3S1': 4.13, 'temp': 27.75, 'lipoC3S3': 12.46, 'lipoC3S2': 8.25, 'rot1': 0, 'rot0': 0, 'rot3': 0, 'rot2': 0, 'state': 'normal', 'yaw': 0.22, 'datetime': '2018-10-03 17:40:42.262840', 'mgs': 0, 'volt': 0.9766, 'depth': 2.759, 'time': 1, 'pitch': -7.57, 'roll': -0.07, 'pres': 200}
{'lipoC2': 7.26, 'lipoC3S1': 4.13, 'temp': 27.81, 'lipoC3S3': 12.47, 'lipoC3S2': 8.25, 'rot1': 0, 'rot0': 0, 'rot3': 0, 'rot2': 0, 'state': 'normal', 'yaw': 0.31, 'datetime': '2018-10-03 17:40:42.369270', 'mgs': 0, 'volt': 0.9766, 'depth': 2.759, 'time': 1, 'pitch': -7.52, 'roll': -0.15, 'pres': 200}
{'lipoC2': 7.26, 'lipoC3S1': 4.13, 'temp': 27.81, 'lipoC3S3': 12.46, 'lipoC3S2': 8.25, 'rot1': 0, 'rot0': 0, 'rot3': 0, 'rot2': 0, 'state': 'normal', 'yaw': 0.4, 'datetime': '2018-10-03 17:40:42.472413', 'mgs': 0, 'volt': 0.9766, 'depth': 2.759, 'time': 1, 'pitch': -7.42, 'roll': -0.2, 'pres': 200}
{'lipoC2': 7.26, 'lipoC3S1': 4.13, 'temp': 27.81, 'lipoC3S3': 12.46, 'lipoC3S2': 8.25, 'rot1': 0, 'rot0': 0, 'rot3': 0, 'rot2': 0, 'state': 'normal', 'yaw': 0.48, 'datetime': '2018-10-03 17:40:42.570174', 'mgs': 0, 'volt': 0.9766, 'depth': 2.759, 'time': 1, 'pitch': -7.33, 'roll': -0.22, 'pres': 200}
{'lipoC2': 7.26, 'lipoC3S1': 4.13, 'temp': 27.81, 'lipoC3S3': 12.46, 'lipoC3S2': 8.25, 'rot1': 0, 'rot0': 0, 'rot3': 0, 'rot2': 0, 'state': 'normal', 'yaw': 0.52, 'datetime': '2018-10-03 17:40:42.673217', 'mgs': 0, 'volt': 0.9766, 'depth': 2.759, 'time': 2, 'pitch': -7.25, 'roll': -0.19, 'pres': 200}
{'lipoC2': 7.26, 'lipoC3S1': 4.13, 'temp': 27.81, 'lipoC3S3': 12.47, 'lipoC3S2': 8.25, 'rot1': 0, 'rot0': 0, 'rot3': 0, 'rot2': 0, 'state': 'normal', 'yaw': 0.57, 'datetime': '2018-10-03 17:40:42.781136', 'mgs': 0, 'volt': 0.9766, 'depth': 2.759, 'time': 2, 'pitch': -7.18, 'roll': -0.11, 'pres': 200}
{'lipoC2': 7.26, 'lipoC3S1': 4.13, 'temp': 27.81, 'lipoC3S3': 12.47, 'lipoC3S2': 8.25, 'rot1': 0, 'rot0': 0, 'rot3': 0, 'rot2': 0, 'state': 'normal', 'yaw': 0.59, 'datetime': '2018-10-03 17:40:42.885210', 'mgs': 0, 'volt': 0.9814, 'depth': 2.835, 'time': 2, 'pitch': -7.14, 'roll': -0.01, 'pres': 201}
{'lipoC2': 7.26, 'lipoC3S1': 4.13, 'temp': 27.81, 'lipoC3S3': 12.46, 'lipoC3S2': 8.25, 'rot1': 0, 'rot0': 0, 'rot3': 0, 'rot2': 0, 'state': 'normal', 'yaw': 0.61, 'datetime': '2018-10-03 17:40:42.988296', 'mgs': 0, 'volt': 0.9814, 'depth': 2.835, 'time': 2, 'pitch': -7.11, 'roll': 0.11, 'pres': 201}
{'lipoC2': 7.26, 'lipoC3S1': 4.13, 'temp': 27.75, 'lipoC3S3': 12.47, 'lipoC3S2': 8.25, 'rot1': 0, 'rot0': 0, 'rot3': 0, 'rot2': 0, 'state': 'normal', 'yaw': 0.6, 'datetime': '2018-10-03 17:40:43.092097', 'mgs': 0, 'volt': 0.9814, 'depth': 2.835, 'time': 2, 'pitch': -7.12, 'roll': 0.23, 'pres': 201}
{'lipoC2': 7.26, 'lipoC3S1': 4.13, 'temp': 27.75, 'lipoC3S3': 12.46, 'lipoC3S2': 8.25, 'rot1': 0, 'rot0': 0, 'rot3': 0, 'rot2': 0, 'state': 'normal', 'yaw': 0.64, 'datetime': '2018-10-03 17:40:43.195147', 'mgs': 0, 'volt': 0.9814, 'depth': 2.835, 'time': 2, 'pitch': -7.13, 'roll': 0.36, 'pres': 201}
{'lipoC2': 7.26, 'lipoC3S1': 4.13, 'temp': 27.81, 'lipoC3S3': 12.47, 'lipoC3S2': 8.25, 'rot1': 0, 'rot0': 0, 'rot3': 0, 'rot2': 0, 'state': 'normal', 'yaw': 0.66, 'datetime': '2018-10-03 17:40:43.299374', 'mgs': 0, 'volt': 0.9814, 'depth': 2.835, 'time': 2, 'pitch': -7.14, 'roll': 0.44, 'pres': 201}
{'lipoC2': 7.26, 'lipoC3S1': 4.13, 'temp': 27.81, 'lipoC3S3': 12.46, 'lipoC3S2': 8.25, 'rot1': 0, 'rot0': 0, 'rot3': 0, 'rot2': 0, 'state': 'normal', 'yaw': 0.67, 'datetime': '2018-10-03 17:40:43.402998', 'mgs': 0, 'volt': 0.9766, 'depth': 2.759, 'time': 2, 'pitch': -7.21, 'roll': 0.48, 'pres': 200}
{'lipoC2': 7.26, 'lipoC3S1': 4.13, 'temp': 27.81, 'lipoC3S3': 12.47, 'lipoC3S2': 8.25, 'rot1': 0, 'rot0': 0, 'rot3': 0, 'rot2': 0, 'state': 'normal', 'yaw': 0.68, 'datetime': '2018-10-03 17:40:43.501401', 'mgs': 0, 'volt': 0.9766, 'depth': 2.759, 'time': 2, 'pitch': -7.39, 'roll': 0.2, 'pres': 200}
{'lipoC2': 7.26, 'lipoC3S1': 4.13, 'temp': 27.81, 'lipoC3S3': 12.47, 'lipoC3S2': 8.25, 'rot1': 0, 'rot0': 0, 'rot3': 0, 'rot2': 0, 'state': 'normal', 'yaw': 0.69, 'datetime': '2018-10-03 17:40:43.609163', 'mgs': 0, 'volt': 0.9766, 'depth': 2.759, 'time': 3, 'pitch': -7.57, 'roll': -0.12, 'pres': 200}
{'lipoC2': 7.26, 'lipoC3S1': 4.13, 'temp': 27.81, 'lipoC3S3': 12.46, 'lipoC3S2': 8.25, 'rot1': 0, 'rot0': 0, 'rot3': 0, 'rot2': 0, 'state': 'normal', 'yaw': 0.71, 'datetime': '2018-10-03 17:40:43.714178', 'mgs': 0, 'volt': 0.9766, 'depth': 2.759, 'time': 3, 'pitch': -7.79, 'roll': -0.45, 'pres': 200}
{'lipoC2': 7.26, 'lipoC3S1': 4.13, 'temp': 27.81, 'lipoC3S3': 12.47, 'lipoC3S2': 8.25, 'rot1': 0, 'rot0': 0, 'rot3': 0, 'rot2': 0, 'state': 'normal', 'yaw': 0.71, 'datetime': '2018-10-03 17:40:43.817376', 'mgs': 0, 'volt': 0.9766, 'depth': 2.759, 'time': 3, 'pitch': -7.97, 'roll': -0.71, 'pres': 200}
{'lipoC2': 7.26, 'lipoC3S1': 4.13, 'temp': 27.81, 'lipoC3S3': 12.47, 'lipoC3S2': 8.25, 'rot1': 0, 'rot0': 0, 'rot3': 0, 'rot2': 0, 'state': 'normal', 'yaw': 0.72, 'datetime': '2018-10-03 17:40:43.920662', 'mgs': 0, 'volt': 0.9766, 'depth': 2.759, 'time': 3, 'pitch': -8.17, 'roll': -0.93, 'pres': 200}
{'lipoC2': 7.26, 'lipoC3S1': 4.13, 'temp': 27.75, 'lipoC3S3': 12.46, 'lipoC3S2': 8.25, 'rot1': 0, 'rot0': 0, 'rot3': 0, 'rot2': 0, 'state': 'normal', 'yaw': 0.72, 'datetime': '2018-10-03 17:40:44.024128', 'mgs': 0, 'volt': 0.9766, 'depth': 2.759, 'time': 3, 'pitch': -8.38, 'roll': -1.08, 'pres': 200}
{'lipoC2': 7.26, 'lipoC3S1': 4.13, 'temp': 27.75, 'lipoC3S3': 12.47, 'lipoC3S2': 8.25, 'rot1': 0, 'rot0': 0, 'rot3': 0, 'rot2': 0, 'state': 'normal', 'yaw': 0.73, 'datetime': '2018-10-03 17:40:44.127240', 'mgs': 0, 'volt': 0.9766, 'depth': 2.759, 'time': 3, 'pitch': -8.63, 'roll': -1.16, 'pres': 200}
{'lipoC2': 7.26, 'lipoC3S1': 4.13, 'temp': 27.81, 'lipoC3S3': 12.47, 'lipoC3S2': 8.25, 'rot1': 0, 'rot0': 0, 'rot3': 0, 'rot2': 0, 'state': 'normal', 'yaw': 0.73, 'datetime': '2018-10-03 17:40:44.230477', 'mgs': 0, 'volt': 0.9766, 'depth': 2.759, 'time': 3, 'pitch': -8.87, 'roll': -1.17, 'pres': 200}
{'lipoC2': 7.26, 'lipoC3S1': 4.13, 'temp': 27.81, 'lipoC3S3': 12.47, 'lipoC3S2': 8.25, 'rot1': 0, 'rot0': 0, 'rot3': 0, 'rot2': 0, 'state': 'normal', 'yaw': 0.73, 'datetime': '2018-10-03 17:40:44.333670', 'mgs': 0, 'volt': 0.9766, 'depth': 2.759, 'time': 3, 'pitch': -9.07, 'roll': -1.12, 'pres': 200}
{'lipoC2': 7.26, 'lipoC3S1': 4.13, 'temp': 27.81, 'lipoC3S3': 12.47, 'lipoC3S2': 8.25, 'rot1': 0, 'rot0': 0, 'rot3': 0, 'rot2': 0, 'state': 'normal', 'yaw': 0.74, 'datetime': '2018-10-03 17:40:44.436911', 'mgs': 0, 'volt': 0.9766, 'depth': 2.759, 'time': 3, 'pitch': -9.22, 'roll': -0.98, 'pres': 200}
{'lipoC2': 7.26, 'lipoC3S1': 4.13, 'temp': 27.81, 'lipoC3S3': 12.47, 'lipoC3S2': 8.25, 'rot1': 0, 'rot0': 0, 'rot3': 0, 'rot2': 0, 'state': 'normal', 'yaw': 0.75, 'datetime': '2018-10-03 17:40:44.540121', 'mgs': 0, 'volt': 0.9766, 'depth': 2.759, 'time': 3, 'pitch': -9.32, 'roll': -0.99, 'pres': 200}
{'lipoC2': 7.26, 'lipoC3S1': 4.13, 'temp': 27.81, 'lipoC3S3': 12.47, 'lipoC3S2': 8.25, 'rot1': 0, 'rot0': 0, 'rot3': 0, 'rot2': 0, 'state': 'normal', 'yaw': 0.74, 'datetime': '2018-10-03 17:40:44.644857', 'mgs': 0, 'volt': 0.9766, 'depth': 2.759, 'time': 4, 'pitch': -9.39, 'roll': -1.04, 'pres': 200}
{'lipoC2': 7.26, 'lipoC3S1': 4.13, 'temp': 27.81, 'lipoC3S3': 12.47, 'lipoC3S2': 8.25, 'rot1': 0, 'rot0': 0, 'rot3': 0, 'rot2': 0, 'state': 'normal', 'yaw': 0.73, 'datetime': '2018-10-03 17:40:44.747888', 'mgs': 0, 'volt': 0.9766, 'depth': 2.759, 'time': 4, 'pitch': -9.38, 'roll': -1.04, 'pres': 200}
{'lipoC2': 7.26, 'lipoC3S1': 4.13, 'temp': 27.81, 'lipoC3S3': 12.47, 'lipoC3S2': 8.25, 'rot1': 0, 'rot0': 0, 'rot3': 0, 'rot2': 0, 'state': 'normal', 'yaw': 0.72, 'datetime': '2018-10-03 17:40:44.851073', 'mgs': 0, 'volt': 0.9766, 'depth': 2.759, 'time': 4, 'pitch': -9.15, 'roll': -1.02, 'pres': 200}
{'lipoC2': 7.26, 'lipoC3S1': 4.13, 'temp': 27.81, 'lipoC3S3': 12.47, 'lipoC3S2': 8.25, 'rot1': 0, 'rot0': 0, 'rot3': 0, 'rot2': 0, 'state': 'normal', 'yaw': 0.72, 'datetime': '2018-10-03 17:40:44.955611', 'mgs': 0, 'volt': 0.9766, 'depth': 2.759, 'time': 4, 'pitch': -8.8, 'roll': -1.02, 'pres': 200}
{'lipoC2': 7.26, 'lipoC3S1': 4.13, 'temp': 27.81, 'lipoC3S3': 12.46, 'lipoC3S2': 8.25, 'rot1': 0, 'rot0': 0, 'rot3': 0, 'rot2': 0, 'state': 'normal', 'yaw': 0.71, 'datetime': '2018-10-03 17:40:45.058792', 'mgs': 0, 'volt': 0.9766, 'depth': 2.759, 'time': 4, 'pitch': -8.66, 'roll': -0.93, 'pres': 200}
{'lipoC2': 7.26, 'lipoC3S1': 4.13, 'temp': 27.81, 'lipoC3S3': 12.47, 'lipoC3S2': 8.25, 'rot1': 0, 'rot0': 0, 'rot3': 0, 'rot2': 0, 'state': 'normal', 'yaw': 0.78, 'datetime': '2018-10-03 17:40:45.162114', 'mgs': 0, 'volt': 0.9717, 'depth': 2.682, 'time': 4, 'pitch': -9.57, 'roll': -0.77, 'pres': 199}
{'lipoC2': 7.26, 'lipoC3S1': 4.13, 'temp': 27.81, 'lipoC3S3': 12.47, 'lipoC3S2': 8.25, 'rot1': 0, 'rot0': 0, 'rot3': 0, 'rot2': 0, 'state': 'normal', 'yaw': 1.27, 'datetime': '2018-10-03 17:40:45.266509', 'mgs': 0, 'volt': 0.9717, 'depth': 2.682, 'time': 4, 'pitch': -11.59, 'roll': -0.83, 'pres': 199}
{'lipoC2': 7.26, 'lipoC3S1': 4.13, 'temp': 27.81, 'lipoC3S3': 12.47, 'lipoC3S2': 8.25, 'rot1': 0, 'rot0': 0, 'rot3': 0, 'rot2': 0, 'state': 'normal', 'yaw': 2.33, 'datetime': '2018-10-03 17:40:45.369569', 'mgs': 0, 'volt': 0.9619, 'depth': 2.53, 'time': 4, 'pitch': -13.01, 'roll': -0.94, 'pres': 197}
{'lipoC2': 7.26, 'lipoC3S1': 4.13, 'temp': 27.81, 'lipoC3S3': 12.47, 'lipoC3S2': 8.25, 'rot1': 0, 'rot0': 0, 'rot3': 0, 'rot2': 0, 'state': 'normal', 'yaw': 3.85, 'datetime': '2018-10-03 17:40:45.472897', 'mgs': 0, 'volt': 0.957, 'depth': 2.454, 'time': 4, 'pitch': -15.59, 'roll': -1.32, 'pres': 196}
{'lipoC2': 7.26, 'lipoC3S1': 4.13, 'temp': 27.81, 'lipoC3S3': 12.47, 'lipoC3S2': 8.25, 'rot1': 0, 'rot0': 0, 'rot3': 0, 'rot2': 0, 'state': 'normal', 'yaw': 5.5, 'datetime': '2018-10-03 17:40:45.576184', 'mgs': 0, 'volt': 0.9521, 'depth': 2.377, 'time': 4, 'pitch': -18.01, 'roll': -1.31, 'pres': 195}
{'lipoC2': 7.26, 'lipoC3S1': 4.13, 'temp': 27.88, 'lipoC3S3': 12.47, 'lipoC3S2': 8.25, 'rot1': 0, 'rot0': 0, 'rot3': 0, 'rot2': 0, 'state': 'normal', 'yaw': 7.8, 'datetime': '2018-10-03 17:40:45.679563', 'mgs': 0, 'volt': 0.9424, 'depth': 2.225, 'time': 5, 'pitch': -20.91, 'roll': -1.71, 'pres': 193}
{'lipoC2': 7.26, 'lipoC3S1': 4.13, 'temp': 27.88, 'lipoC3S3': 12.47, 'lipoC3S2': 8.25, 'rot1': 0, 'rot0': 0, 'rot3': 0, 'rot2': 0, 'state': 'normal', 'yaw': 10.32, 'datetime': '2018-10-03 17:40:45.782946', 'mgs': 0, 'volt': 0.9326, 'depth': 2.072, 'time': 5, 'pitch': -23.42, 'roll': -2.46, 'pres': 191}
{'lipoC2': 7.26, 'lipoC3S1': 4.13, 'temp': 27.88, 'lipoC3S3': 12.46, 'lipoC3S2': 8.25, 'rot1': 0, 'rot0': 0, 'rot3': 0, 'rot2': 0, 'state': 'normal', 'yaw': 12.89, 'datetime': '2018-10-03 17:40:45.886125', 'mgs': 0, 'volt': 0.9277, 'depth': 1.996, 'time': 5, 'pitch': -25.25, 'roll': -3.27, 'pres': 190}
{'lipoC2': 7.26, 'lipoC3S1': 4.13, 'temp': 27.88, 'lipoC3S3': 12.47, 'lipoC3S2': 8.25, 'rot1': 0, 'rot0': 0, 'rot3': 0, 'rot2': 0, 'state': 'normal', 'yaw': 15.75, 'datetime': '2018-10-03 17:40:45.989827', 'mgs': 0, 'volt': 0.9229, 'depth': 1.92, 'time': 5, 'pitch': -26.42, 'roll': -4.27, 'pres': 189}
{'lipoC2': 7.26, 'lipoC3S1': 4.13, 'temp': 27.88, 'lipoC3S3': 12.47, 'lipoC3S2': 8.25, 'rot1': 0, 'rot0': 0, 'rot3': 0, 'rot2': 0, 'state': 'normal', 'yaw': 19.51, 'datetime': '2018-10-03 17:40:46.093096', 'mgs': 0, 'volt': 0.9131, 'depth': 1.767, 'time': 5, 'pitch': -27.26, 'roll': -5.76, 'pres': 187}
{'lipoC2': 7.26, 'lipoC3S1': 4.13, 'temp': 27.88, 'lipoC3S3': 12.47, 'lipoC3S2': 8.25, 'rot1': 0, 'rot0': 0, 'rot3': 0, 'rot2': 0, 'state': 'normal', 'yaw': 23.41, 'datetime': '2018-10-03 17:40:46.196186', 'mgs': 0, 'volt': 0.9033, 'depth': 1.614, 'time': 5, 'pitch': -27.54, 'roll': -7.34, 'pres': 185}
{'lipoC2': 7.26, 'lipoC3S1': 4.13, 'temp': 27.88, 'lipoC3S3': 12.47, 'lipoC3S2': 8.25, 'rot1': 0, 'rot0': 0, 'rot3': 0, 'rot2': 0, 'state': 'normal', 'yaw': 27.57, 'datetime': '2018-10-03 17:40:46.300164', 'mgs': 0, 'volt': 0.8936, 'depth': 1.462, 'time': 5, 'pitch': -27.54, 'roll': -8.9, 'pres': 183}
{'lipoC2': 7.26, 'lipoC3S1': 4.13, 'temp': 27.81, 'lipoC3S3': 12.46, 'lipoC3S2': 8.25, 'rot1': 0, 'rot0': 0, 'rot3': 0, 'rot2': 0, 'state': 'normal', 'yaw': 32.12, 'datetime': '2018-10-03 17:40:46.403516', 'mgs': 0, 'volt': 0.8838, 'depth': 1.309, 'time': 5, 'pitch': -27.55, 'roll': -10.2, 'pres': 181}
{'lipoC2': 7.26, 'lipoC3S1': 4.13, 'temp': 27.81, 'lipoC3S3': 12.47, 'lipoC3S2': 8.25, 'rot1': 0, 'rot0': 0, 'rot3': 0, 'rot2': 0, 'state': 'normal', 'yaw': 35.89, 'datetime': '2018-10-03 17:40:46.506899', 'mgs': 0, 'volt': 0.874, 'depth': 1.157, 'time': 5, 'pitch': -27.51, 'roll': -10.74, 'pres': 179}
{'lipoC2': 7.26, 'lipoC3S1': 4.13, 'temp': 27.81, 'lipoC3S3': 12.47, 'lipoC3S2': 8.25, 'rot1': 0, 'rot0': 0, 'rot3': 0, 'rot2': 0, 'state': 'normal', 'yaw': 39.13, 'datetime': '2018-10-03 17:40:46.611286', 'mgs': 0, 'volt': 0.8643, 'depth': 1.004, 'time': 6, 'pitch': -27.3, 'roll': -10.5, 'pres': 177}
{'lipoC2': 7.26, 'lipoC3S1': 4.13, 'temp': 27.81, 'lipoC3S3': 12.47, 'lipoC3S2': 8.25, 'rot1': 0, 'rot0': 0, 'rot3': 0, 'rot2': 0, 'state': 'normal', 'yaw': 42.14, 'datetime': '2018-10-03 17:40:46.714511', 'mgs': 0, 'volt': 0.8594, 'depth': 0.928, 'time': 6, 'pitch': -26.77, 'roll': -9.49, 'pres': 176}
{'lipoC2': 7.26, 'lipoC3S1': 4.13, 'temp': 27.81, 'lipoC3S3': 12.47, 'lipoC3S2': 8.25, 'rot1': 0, 'rot0': 0, 'rot3': 0, 'rot2': 0, 'state': 'normal', 'yaw': 44.33, 'datetime': '2018-10-03 17:40:46.818215', 'mgs': 0, 'volt': 0.8545, 'depth': 0.851, 'time': 6, 'pitch': -25.8, 'roll': -7.93, 'pres': 175}
{'lipoC2': 7.26, 'lipoC3S1': 4.13, 'temp': 27.88, 'lipoC3S3': 12.46, 'lipoC3S2': 8.25, 'rot1': 0, 'rot0': 0, 'rot3': 0, 'rot2': 0, 'state': 'normal', 'yaw': 46.19, 'datetime': '2018-10-03 17:40:46.922457', 'mgs': 0, 'volt': 0.8447, 'depth': 0.699, 'time': 6, 'pitch': -24.47, 'roll': -5.98, 'pres': 173}
{'lipoC2': 7.26, 'lipoC3S1': 4.13, 'temp': 27.88, 'lipoC3S3': 12.47, 'lipoC3S2': 8.25, 'rot1': 0, 'rot0': 0, 'rot3': 0, 'rot2': 0, 'state': 'normal', 'yaw': 47.9, 'datetime': '2018-10-03 17:40:47.025769', 'mgs': 0, 'volt': 0.8398, 'depth': 0.623, 'time': 6, 'pitch': -22.75, 'roll': -3.55, 'pres': 172}
{'lipoC2': 7.26, 'lipoC3S1': 4.13, 'temp': 27.81, 'lipoC3S3': 12.47, 'lipoC3S2': 8.25, 'rot1': 0, 'rot0': 0, 'rot3': 0, 'rot2': 0, 'state': 'normal', 'yaw': 49.36, 'datetime': '2018-10-03 17:40:47.129116', 'mgs': 0, 'volt': 0.8301, 'depth': 0.47, 'time': 6, 'pitch': -20.99, 'roll': -1.33, 'pres': 170}
{'lipoC2': 7.26, 'lipoC3S1': 4.13, 'temp': 27.81, 'lipoC3S3': 12.47, 'lipoC3S2': 8.25, 'rot1': 0, 'rot0': 0, 'rot3': 0, 'rot2': 0, 'state': 'normal', 'yaw': 50.66, 'datetime': '2018-10-03 17:40:47.232648', 'mgs': 0, 'volt': 0.8301, 'depth': 0.47, 'time': 6, 'pitch': -19.33, 'roll': 0.86, 'pres': 170}
{'lipoC2': 7.26, 'lipoC3S1': 4.13, 'temp': 27.81, 'lipoC3S3': 12.47, 'lipoC3S2': 8.25, 'rot1': 0, 'rot0': 0, 'rot3': 0, 'rot2': 0, 'state': 'normal', 'yaw': 51.97, 'datetime': '2018-10-03 17:40:47.335987', 'mgs': 0, 'volt': 0.8252, 'depth': 0.394, 'time': 6, 'pitch': -17.85, 'roll': 3.14, 'pres': 169}
{'lipoC2': 7.26, 'lipoC3S1': 4.13, 'temp': 27.81, 'lipoC3S3': 12.47, 'lipoC3S2': 8.25, 'rot1': 0, 'rot0': 0, 'rot3': 0, 'rot2': 0, 'state': 'normal', 'yaw': 53.03, 'datetime': '2018-10-03 17:40:47.439319', 'mgs': 0, 'volt': 0.8154, 'depth': 0.241, 'time': 6, 'pitch': -17.02, 'roll': 4.93, 'pres': 167}
{'lipoC2': 7.26, 'lipoC3S1': 4.13, 'temp': 27.81, 'lipoC3S3': 12.47, 'lipoC3S2': 8.25, 'rot1': 0, 'rot0': 0, 'rot3': 0, 'rot2': 0, 'state': 'normal', 'yaw': 53.76, 'datetime': '2018-10-03 17:40:47.542971', 'mgs': 0, 'volt': 0.8154, 'depth': 0.241, 'time': 6, 'pitch': -16.91, 'roll': 6.52, 'pres': 167}
{'lipoC2': 7.26, 'lipoC3S1': 4.13, 'temp': 27.81, 'lipoC3S3': 12.47, 'lipoC3S2': 8.25, 'rot1': 0, 'rot0': 0, 'rot3': 0, 'rot2': 0, 'state': 'normal', 'yaw': 54.8, 'datetime': '2018-10-03 17:40:47.646197', 'mgs': 0, 'volt': 0.8105, 'depth': 0.165, 'time': 7, 'pitch': -16.52, 'roll': 7.59, 'pres': 166}
{'lipoC2': 7.26, 'lipoC3S1': 4.13, 'temp': 27.81, 'lipoC3S3': 12.47, 'lipoC3S2': 8.25, 'rot1': 0, 'rot0': 0, 'rot3': 0, 'rot2': 0, 'state': 'normal', 'yaw': 56.16, 'datetime': '2018-10-03 17:40:47.749464', 'mgs': 0, 'volt': 0.8057, 'depth': 0.089, 'time': 7, 'pitch': -15.82, 'roll': 7.64, 'pres': 165}
{'lipoC2': 7.26, 'lipoC3S1': 4.13, 'temp': 27.81, 'lipoC3S3': 12.47, 'lipoC3S2': 8.25, 'rot1': 0, 'rot0': 0, 'rot3': 0, 'rot2': 0, 'state': 'normal', 'yaw': 57.44, 'datetime': '2018-10-03 17:40:47.852740', 'mgs': 0, 'volt': 0.8008, 'depth': 0.012, 'time': 7, 'pitch': -15.33, 'roll': 7.18, 'pres': 164}
{'lipoC2': 7.26, 'lipoC3S1': 4.13, 'temp': 27.81, 'lipoC3S3': 12.47, 'lipoC3S2': 8.25, 'rot1': 0, 'rot0': 0, 'rot3': 0, 'rot2': 0, 'state': 'normal', 'yaw': 58.3, 'datetime': '2018-10-03 17:40:47.956038', 'mgs': 0, 'volt': 0.8008, 'depth': 0.012, 'time': 7, 'pitch': -15.24, 'roll': 6.54, 'pres': 164}
{'lipoC2': 7.26, 'lipoC3S1': 4.13, 'temp': 27.81, 'lipoC3S3': 12.47, 'lipoC3S2': 8.25, 'rot1': 0, 'rot0': 0, 'rot3': 0, 'rot2': 0, 'state': 'normal', 'yaw': 58.83, 'datetime': '2018-10-03 17:40:48.060776', 'mgs': 0, 'volt': 0.791, 'depth': -0.14, 'time': 7, 'pitch': -15.4, 'roll': 5.81, 'pres': 162}
{'lipoC2': 7.26, 'lipoC3S1': 4.13, 'temp': 27.81, 'lipoC3S3': 12.47, 'lipoC3S2': 8.25, 'rot1': 0, 'rot0': 0, 'rot3': 0, 'rot2': 0, 'state': 'normal', 'yaw': 59.21, 'datetime': '2018-10-03 17:40:48.164101', 'mgs': 0, 'volt': 0.791, 'depth': -0.14, 'time': 7, 'pitch': -15.67, 'roll': 4.91, 'pres': 162}
{'lipoC2': 7.26, 'lipoC3S1': 4.13, 'temp': 27.81, 'lipoC3S3': 12.47, 'lipoC3S2': 8.25, 'rot1': 0, 'rot0': 0, 'rot3': 0, 'rot2': 0, 'state': 'normal', 'yaw': 59.24, 'datetime': '2018-10-03 17:40:48.267691', 'mgs': 0, 'volt': 0.7861, 'depth': -0.217, 'time': 7, 'pitch': -16.18, 'roll': 4.0, 'pres': 161}
{'lipoC2': 7.26, 'lipoC3S1': 4.13, 'temp': 27.81, 'lipoC3S3': 12.47, 'lipoC3S2': 8.25, 'rot1': 0, 'rot0': 0, 'rot3': 0, 'rot2': 0, 'state': 'normal', 'yaw': 58.87, 'datetime': '2018-10-03 17:40:48.370898', 'mgs': 0, 'volt': 0.7861, 'depth': -0.217, 'time': 7, 'pitch': -16.95, 'roll': 3.44, 'pres': 161}
{'lipoC2': 7.26, 'lipoC3S1': 4.13, 'temp': 27.81, 'lipoC3S3': 12.47, 'lipoC3S2': 8.25, 'rot1': 0, 'rot0': 0, 'rot3': 0, 'rot2': 0, 'state': 'normal', 'yaw': 58.31, 'datetime': '2018-10-03 17:40:48.475555', 'mgs': 0, 'volt': 0.7861, 'depth': -0.217, 'time': 7, 'pitch': -17.53, 'roll': 3.02, 'pres': 161}
{'lipoC2': 7.26, 'lipoC3S1': 4.13, 'temp': 27.81, 'lipoC3S3': 12.47, 'lipoC3S2': 8.25, 'rot1': 0, 'rot0': 0, 'rot3': 0, 'rot2': 0, 'state': 'normal', 'yaw': 57.69, 'datetime': '2018-10-03 17:40:48.576159', 'mgs': 0, 'volt': 0.7861, 'depth': -0.217, 'time': 7, 'pitch': -17.65, 'roll': 2.54, 'pres': 161}
{'lipoC2': 7.26, 'lipoC3S1': 4.13, 'temp': 27.88, 'lipoC3S3': 12.47, 'lipoC3S2': 8.25, 'rot1': 0, 'rot0': 0, 'rot3': 0, 'rot2': 0, 'state': 'normal', 'yaw': 57.0, 'datetime': '2018-10-03 17:40:48.676843', 'mgs': 0, 'volt': 0.7861, 'depth': -0.217, 'time': 8, 'pitch': -17.64, 'roll': 2.18, 'pres': 161}
{'lipoC2': 7.26, 'lipoC3S1': 4.13, 'temp': 27.88, 'lipoC3S3': 12.47, 'lipoC3S2': 8.25, 'rot1': 0, 'rot0': 0, 'rot3': 0, 'rot2': 0, 'state': 'normal', 'yaw': 56.22, 'datetime': '2018-10-03 17:40:48.780270', 'mgs': 0, 'volt': 0.7861, 'depth': -0.217, 'time': 8, 'pitch': -17.76, 'roll': 1.87, 'pres': 161}
{'lipoC2': 7.26, 'lipoC3S1': 4.13, 'temp': 27.81, 'lipoC3S3': 12.47, 'lipoC3S2': 8.25, 'rot1': 0, 'rot0': 0, 'rot3': 0, 'rot2': 0, 'state': 'normal', 'yaw': 55.46, 'datetime': '2018-10-03 17:40:48.887995', 'mgs': 0, 'volt': 0.7861, 'depth': -0.217, 'time': 8, 'pitch': -18.03, 'roll': 1.42, 'pres': 161}
{'lipoC2': 7.26, 'lipoC3S1': 4.13, 'temp': 27.81, 'lipoC3S3': 12.47, 'lipoC3S2': 8.25, 'rot1': 0, 'rot0': 0, 'rot3': 0, 'rot2': 0, 'state': 'normal', 'yaw': 54.89, 'datetime': '2018-10-03 17:40:48.993113', 'mgs': 0, 'volt': 0.7861, 'depth': -0.217, 'time': 8, 'pitch': -18.3, 'roll': 0.98, 'pres': 161}
{'lipoC2': 7.26, 'lipoC3S1': 4.13, 'temp': 27.75, 'lipoC3S3': 12.47, 'lipoC3S2': 8.26, 'rot1': 0, 'rot0': 0, 'rot3': 0, 'rot2': 0, 'state': 'normal', 'yaw': 54.34, 'datetime': '2018-10-03 17:40:49.094535', 'mgs': 0, 'volt': 0.7861, 'depth': -0.217, 'time': 8, 'pitch': -18.39, 'roll': 0.64, 'pres': 161}
{'lipoC2': 7.26, 'lipoC3S1': 4.13, 'temp': 27.75, 'lipoC3S3': 12.47, 'lipoC3S2': 8.25, 'rot1': 0, 'rot0': 0, 'rot3': 0, 'rot2': 0, 'state': 'normal', 'yaw': 53.78, 'datetime': '2018-10-03 17:40:49.197528', 'mgs': 0, 'volt': 0.7861, 'depth': -0.217, 'time': 8, 'pitch': -18.35, 'roll': 0.43, 'pres': 161}
{'lipoC2': 7.26, 'lipoC3S1': 4.13, 'temp': 27.75, 'lipoC3S3': 12.47, 'lipoC3S2': 8.25, 'rot1': 0, 'rot0': 0, 'rot3': 0, 'rot2': 0, 'state': 'normal', 'yaw': 53.14, 'datetime': '2018-10-03 17:40:49.303500', 'mgs': 0, 'volt': 0.7861, 'depth': -0.217, 'time': 8, 'pitch': -18.3, 'roll': 0.4, 'pres': 161}
{'lipoC2': 7.26, 'lipoC3S1': 4.13, 'temp': 27.81, 'lipoC3S3': 12.47, 'lipoC3S2': 8.25, 'rot1': 0, 'rot0': 0, 'rot3': 0, 'rot2': 0, 'state': 'normal', 'yaw': 52.56, 'datetime': '2018-10-03 17:40:49.406799', 'mgs': 0, 'volt': 0.7861, 'depth': -0.217, 'time': 8, 'pitch': -18.31, 'roll': 0.52, 'pres': 161}
{'lipoC2': 7.26, 'lipoC3S1': 4.13, 'temp': 27.81, 'lipoC3S3': 12.47, 'lipoC3S2': 8.25, 'rot1': 0, 'rot0': 0, 'rot3': 0, 'rot2': 0, 'state': 'normal', 'yaw': 51.89, 'datetime': '2018-10-03 17:40:49.510758', 'mgs': 0, 'volt': 0.7861, 'depth': -0.217, 'time': 8, 'pitch': -18.48, 'roll': 0.77, 'pres': 161}
{'lipoC2': 7.26, 'lipoC3S1': 4.13, 'temp': 27.81, 'lipoC3S3': 12.47, 'lipoC3S2': 8.25, 'rot1': 0, 'rot0': 0, 'rot3': 0, 'rot2': 0, 'state': 'normal', 'yaw': 50.6, 'datetime': '2018-10-03 17:40:49.614137', 'mgs': 0, 'volt': 0.7861, 'depth': -0.217, 'time': 9, 'pitch': -18.83, 'roll': 1.4, 'pres': 161}
{'lipoC2': 7.26, 'lipoC3S1': 4.13, 'temp': 27.81, 'lipoC3S3': 12.47, 'lipoC3S2': 8.25, 'rot1': 0, 'rot0': 0, 'rot3': 0, 'rot2': 0, 'state': 'normal', 'yaw': 48.63, 'datetime': '2018-10-03 17:40:49.718806', 'mgs': 0, 'volt': 0.7861, 'depth': -0.217, 'time': 9, 'pitch': -19.47, 'roll': 2.5, 'pres': 161}
{'lipoC2': 7.26, 'lipoC3S1': 4.13, 'temp': 27.88, 'lipoC3S3': 12.47, 'lipoC3S2': 8.25, 'rot1': 0, 'rot0': 0, 'rot3': 0, 'rot2': 0, 'state': 'normal', 'yaw': 45.73, 'datetime': '2018-10-03 17:40:49.822238', 'mgs': 0, 'volt': 0.7861, 'depth': -0.217, 'time': 9, 'pitch': -20.61, 'roll': 4.16, 'pres': 161}
{'lipoC2': 7.26, 'lipoC3S1': 4.13, 'temp': 27.88, 'lipoC3S3': 12.47, 'lipoC3S2': 8.25, 'rot1': 0, 'rot0': 0, 'rot3': 0, 'rot2': 0, 'state': 'normal', 'yaw': 42.66, 'datetime': '2018-10-03 17:40:49.925641', 'mgs': 0, 'volt': 0.7861, 'depth': -0.217, 'time': 9, 'pitch': -21.84, 'roll': 5.78, 'pres': 161}
{'lipoC2': 7.26, 'lipoC3S1': 4.13, 'temp': 27.88, 'lipoC3S3': 12.47, 'lipoC3S2': 8.25, 'rot1': 0, 'rot0': 0, 'rot3': 0, 'rot2': 0, 'state': 'normal', 'yaw': 39.38, 'datetime': '2018-10-03 17:40:50.030300', 'mgs': 0, 'volt': 0.791, 'depth': -0.14, 'time': 9, 'pitch': -22.89, 'roll': 7.31, 'pres': 162}
{'lipoC2': 7.26, 'lipoC3S1': 4.13, 'temp': 27.81, 'lipoC3S3': 12.47, 'lipoC3S2': 8.25, 'rot1': 0, 'rot0': 0, 'rot3': 0, 'rot2': 0, 'state': 'normal', 'yaw': 35.65, 'datetime': '2018-10-03 17:40:50.133957', 'mgs': 0, 'volt': 0.791, 'depth': -0.14, 'time': 9, 'pitch': -23.43, 'roll': 8.81, 'pres': 162}
{'lipoC2': 7.26, 'lipoC3S1': 4.13, 'temp': 27.81, 'lipoC3S3': 12.47, 'lipoC3S2': 8.25, 'rot1': 0, 'rot0': 0, 'rot3': 0, 'rot2': 0, 'state': 'normal', 'yaw': 32.09, 'datetime': '2018-10-03 17:40:50.237076', 'mgs': 0, 'volt': 0.7959, 'depth': -0.064, 'time': 9, 'pitch': -23.02, 'roll': 10.16, 'pres': 163}
{'lipoC2': 7.26, 'lipoC3S1': 4.13, 'temp': 27.81, 'lipoC3S3': 12.47, 'lipoC3S2': 8.25, 'rot1': 0, 'rot0': 0, 'rot3': 0, 'rot2': 0, 'state': 'normal', 'yaw': 28.52, 'datetime': '2018-10-03 17:40:50.340498', 'mgs': 0, 'volt': 0.7959, 'depth': -0.064, 'time': 9, 'pitch': -22.77, 'roll': 11.1, 'pres': 163}
{'lipoC2': 7.26, 'lipoC3S1': 4.13, 'temp': 27.81, 'lipoC3S3': 12.47, 'lipoC3S2': 8.25, 'rot1': 0, 'rot0': 0, 'rot3': 0, 'rot2': 0, 'state': 'normal', 'yaw': 23.55, 'datetime': '2018-10-03 17:40:50.443871', 'mgs': 0, 'volt': 0.791, 'depth': -0.14, 'time': 9, 'pitch': -23.18, 'roll': 12.5, 'pres': 162}
{'lipoC2': 7.26, 'lipoC3S1': 4.13, 'temp': 27.81, 'lipoC3S3': 12.47, 'lipoC3S2': 8.25, 'rot1': 0, 'rot0': 0, 'rot3': 0, 'rot2': 0, 'state': 'normal', 'yaw': 18.3, 'datetime': '2018-10-03 17:40:50.547316', 'mgs': 0, 'volt': 0.7959, 'depth': -0.064, 'time': 9, 'pitch': -24.2, 'roll': 13.94, 'pres': 163}
{'lipoC2': 7.26, 'lipoC3S1': 4.13, 'temp': 27.81, 'lipoC3S3': 12.47, 'lipoC3S2': 8.25, 'rot1': 0, 'rot0': 0, 'rot3': 0, 'rot2': 0, 'state': 'normal', 'yaw': 12.49, 'datetime': '2018-10-03 17:40:50.650738', 'mgs': 0, 'volt': 0.8008, 'depth': 0.012, 'time': 10, 'pitch': -25.05, 'roll': 15.43, 'pres': 164}
{'lipoC2': 7.26, 'lipoC3S1': 4.13, 'temp': 27.81, 'lipoC3S3': 12.47, 'lipoC3S2': 8.25, 'rot1': 0, 'rot0': 0, 'rot3': 0, 'rot2': 0, 'state': 'normal', 'yaw': 6.76, 'datetime': '2018-10-03 17:40:50.754319', 'mgs': 0, 'volt': 0.8008, 'depth': 0.012, 'time': 10, 'pitch': -25.25, 'roll': 16.51, 'pres': 164}
{'lipoC2': 7.26, 'lipoC3S1': 4.13, 'temp': 27.81, 'lipoC3S3': 12.47, 'lipoC3S2': 8.25, 'rot1': 0, 'rot0': 0, 'rot3': 0, 'rot2': 0, 'state': 'normal', 'yaw': 1.11, 'datetime': '2018-10-03 17:40:50.857662', 'mgs': 0, 'volt': 0.8008, 'depth': 0.012, 'time': 10, 'pitch': -24.64, 'roll': 16.69, 'pres': 164}
{'lipoC2': 7.26, 'lipoC3S1': 4.13, 'temp': 27.81, 'lipoC3S3': 12.47, 'lipoC3S2': 8.25, 'rot1': 0, 'rot0': 0, 'rot3': 0, 'rot2': 0, 'state': 'normal', 'yaw': -3.3, 'datetime': '2018-10-03 17:40:50.961098', 'mgs': 0, 'volt': 0.8008, 'depth': 0.012, 'time': 10, 'pitch': -23.53, 'roll': 15.8, 'pres': 164}
{'lipoC2': 7.26, 'lipoC3S1': 4.13, 'temp': 27.81, 'lipoC3S3': 12.47, 'lipoC3S2': 8.25, 'rot1': 0, 'rot0': 0, 'rot3': 0, 'rot2': 0, 'state': 'normal', 'yaw': -7.36, 'datetime': '2018-10-03 17:40:51.071785', 'mgs': 0, 'volt': 0.7959, 'depth': -0.064, 'time': 10, 'pitch': -22.2, 'roll': 14.26, 'pres': 163}
{'lipoC2': 7.26, 'lipoC3S1': 4.13, 'temp': 27.81, 'lipoC3S3': 12.47, 'lipoC3S2': 8.25, 'rot1': 0, 'rot0': 0, 'rot3': 0, 'rot2': 0, 'state': 'normal', 'yaw': -11.67, 'datetime': '2018-10-03 17:40:51.167069', 'mgs': 0, 'volt': 0.7959, 'depth': -0.064, 'time': 10, 'pitch': -20.73, 'roll': 12.14, 'pres': 163}
{'lipoC2': 7.26, 'lipoC3S1': 4.13, 'temp': 27.88, 'lipoC3S3': 12.47, 'lipoC3S2': 8.25, 'rot1': 0, 'rot0': 0, 'rot3': 0, 'rot2': 0, 'state': 'normal', 'yaw': -15.63, 'datetime': '2018-10-03 17:40:51.273837', 'mgs': 0, 'volt': 0.791, 'depth': -0.14, 'time': 10, 'pitch': -19.52, 'roll': 10.06, 'pres': 162}
{'lipoC2': 7.26, 'lipoC3S1': 4.13, 'temp': 27.88, 'lipoC3S3': 12.47, 'lipoC3S2': 8.25, 'rot1': 0, 'rot0': 0, 'rot3': 0, 'rot2': 0, 'state': 'normal', 'yaw': -19.93, 'datetime': '2018-10-03 17:40:51.376868', 'mgs': 0, 'volt': 0.7861, 'depth': -0.217, 'time': 10, 'pitch': -18.4, 'roll': 7.77, 'pres': 161}
{'lipoC2': 7.26, 'lipoC3S1': 4.13, 'temp': 27.88, 'lipoC3S3': 12.47, 'lipoC3S2': 8.25, 'rot1': 0, 'rot0': 0, 'rot3': 0, 'rot2': 0, 'state': 'normal', 'yaw': -23.46, 'datetime': '2018-10-03 17:40:51.480293', 'mgs': 0, 'volt': 0.7813, 'depth': -0.293, 'time': 10, 'pitch': -17.9, 'roll': 5.62, 'pres': 160}
{'lipoC2': 7.26, 'lipoC3S1': 4.13, 'temp': 27.81, 'lipoC3S3': 12.47, 'lipoC3S2': 8.25, 'rot1': 0, 'rot0': 0, 'rot3': 0, 'rot2': 0, 'state': 'normal', 'yaw': -26.4, 'datetime': '2018-10-03 17:40:51.585348', 'mgs': 0, 'volt': 0.7764, 'depth': -0.369, 'time': 10, 'pitch': -17.66, 'roll': 3.29, 'pres': 159}
{'lipoC2': 7.26, 'lipoC3S1': 4.13, 'temp': 27.81, 'lipoC3S3': 12.47, 'lipoC3S2': 8.25, 'rot1': 0, 'rot0': 0, 'rot3': 0, 'rot2': 0, 'state': 'normal', 'yaw': -28.96, 'datetime': '2018-10-03 17:40:51.688740', 'mgs': 0, 'volt': 0.7764, 'depth': -0.369, 'time': 11, 'pitch': -17.13, 'roll': 0.67, 'pres': 159}
{'lipoC2': 7.26, 'lipoC3S1': 4.13, 'temp': 27.81, 'lipoC3S3': 12.47, 'lipoC3S2': 8.25, 'rot1': 0, 'rot0': 0, 'rot3': 0, 'rot2': 0, 'state': 'normal', 'yaw': -30.68, 'datetime': '2018-10-03 17:40:51.792220', 'mgs': 0, 'volt': 0.7715, 'depth': -0.446, 'time': 11, 'pitch': -16.52, 'roll': -1.72, 'pres': 158}
{'lipoC2': 7.26, 'lipoC3S1': 4.13, 'temp': 27.81, 'lipoC3S3': 12.47, 'lipoC3S2': 8.25, 'rot1': 0, 'rot0': 0, 'rot3': 0, 'rot2': 0, 'state': 'normal', 'yaw': -31.82, 'datetime': '2018-10-03 17:40:51.895628', 'mgs': 0, 'volt': 0.7666, 'depth': -0.522, 'time': 11, 'pitch': -16.06, 'roll': -4.0, 'pres': 157}
{'lipoC2': 7.26, 'lipoC3S1': 4.13, 'temp': 27.81, 'lipoC3S3': 12.47, 'lipoC3S2': 8.25, 'rot1': 0, 'rot0': 0, 'rot3': 0, 'rot2': 0, 'state': 'normal', 'yaw': -32.92, 'datetime': '2018-10-03 17:40:51.999132', 'mgs': 0, 'volt': 0.7666, 'depth': -0.522, 'time': 11, 'pitch': -15.43, 'roll': -5.92, 'pres': 157}
{'lipoC2': 7.26, 'lipoC3S1': 4.13, 'temp': 27.81, 'lipoC3S3': 12.47, 'lipoC3S2': 8.25, 'rot1': 0, 'rot0': 0, 'rot3': 0, 'rot2': 0, 'state': 'normal', 'yaw': -34.45, 'datetime': '2018-10-03 17:40:52.102830', 'mgs': 0, 'volt': 0.7715, 'depth': -0.446, 'time': 11, 'pitch': -14.67, 'roll': -6.51, 'pres': 158}
{'lipoC2': 7.26, 'lipoC3S1': 4.13, 'temp': 27.81, 'lipoC3S3': 12.47, 'lipoC3S2': 8.25, 'rot1': 0, 'rot0': 0, 'rot3': 0, 'rot2': 0, 'state': 'normal', 'yaw': -36.59, 'datetime': '2018-10-03 17:40:52.205906', 'mgs': 0, 'volt': 0.7715, 'depth': -0.446, 'time': 11, 'pitch': -13.65, 'roll': -6.06, 'pres': 158}
{'lipoC2': 7.26, 'lipoC3S1': 4.13, 'temp': 27.88, 'lipoC3S3': 12.47, 'lipoC3S2': 8.25, 'rot1': 0, 'rot0': 0, 'rot3': 0, 'rot2': 0, 'state': 'normal', 'yaw': -39.51, 'datetime': '2018-10-03 17:40:52.309565', 'mgs': 0, 'volt': 0.7715, 'depth': -0.446, 'time': 11, 'pitch': -13.05, 'roll': -4.53, 'pres': 158}
{'lipoC2': 7.26, 'lipoC3S1': 4.13, 'temp': 27.88, 'lipoC3S3': 12.47, 'lipoC3S2': 8.25, 'rot1': 0, 'rot0': 0, 'rot3': 0, 'rot2': 0, 'state': 'normal', 'yaw': -42.23, 'datetime': '2018-10-03 17:40:52.413288', 'mgs': 0, 'volt': 0.7764, 'depth': -0.369, 'time': 11, 'pitch': -12.96, 'roll': -2.89, 'pres': 159}
{'lipoC2': 7.26, 'lipoC3S1': 4.13, 'temp': 27.81, 'lipoC3S3': 12.47, 'lipoC3S2': 8.25, 'rot1': 0, 'rot0': 0, 'rot3': 0, 'rot2': 0, 'state': 'normal', 'yaw': -44.66, 'datetime': '2018-10-03 17:40:52.516564', 'mgs': 0, 'volt': 0.7764, 'depth': -0.369, 'time': 11, 'pitch': -13.14, 'roll': -1.47, 'pres': 159}
{'lipoC2': 7.26, 'lipoC3S1': 4.13, 'temp': 27.81, 'lipoC3S3': 12.47, 'lipoC3S2': 8.25, 'rot1': 0, 'rot0': 0, 'rot3': 0, 'rot2': 0, 'state': 'normal', 'yaw': -46.55, 'datetime': '2018-10-03 17:40:52.619983', 'mgs': 0, 'volt': 0.7764, 'depth': -0.369, 'time': 12, 'pitch': -13.6, 'roll': -0.64, 'pres': 159}
{'lipoC2': 7.26, 'lipoC3S1': 4.13, 'temp': 27.81, 'lipoC3S3': 12.47, 'lipoC3S2': 8.25, 'rot1': 0, 'rot0': 0, 'rot3': 0, 'rot2': 0, 'state': 'normal', 'yaw': -47.66, 'datetime': '2018-10-03 17:40:52.723609', 'mgs': 0, 'volt': 0.7764, 'depth': -0.369, 'time': 12, 'pitch': -13.85, 'roll': -0.48, 'pres': 159}
{'lipoC2': 7.26, 'lipoC3S1': 4.13, 'temp': 27.81, 'lipoC3S3': 12.47, 'lipoC3S2': 8.25, 'rot1': 0, 'rot0': 0, 'rot3': 0, 'rot2': 0, 'state': 'normal', 'yaw': -48.36, 'datetime': '2018-10-03 17:40:52.828288', 'mgs': 0, 'volt': 0.7764, 'depth': -0.369, 'time': 12, 'pitch': -13.71, 'roll': -0.7, 'pres': 159}
{'lipoC2': 7.26, 'lipoC3S1': 4.13, 'temp': 27.81, 'lipoC3S3': 12.47, 'lipoC3S2': 8.25, 'rot1': 0, 'rot0': 0, 'rot3': 0, 'rot2': 0, 'state': 'normal', 'yaw': -48.86, 'datetime': '2018-10-03 17:40:52.931581', 'mgs': 0, 'volt': 0.7764, 'depth': -0.369, 'time': 12, 'pitch': -13.42, 'roll': -1.14, 'pres': 159}
{'lipoC2': 7.26, 'lipoC3S1': 4.13, 'temp': 27.88, 'lipoC3S3': 12.47, 'lipoC3S2': 8.25, 'rot1': 0, 'rot0': 0, 'rot3': 0, 'rot2': 0, 'state': 'normal', 'yaw': -49.03, 'datetime': '2018-10-03 17:40:53.034883', 'mgs': 0, 'volt': 0.7715, 'depth': -0.446, 'time': 12, 'pitch': -13.16, 'roll': -1.63, 'pres': 158}
{'lipoC2': 7.26, 'lipoC3S1': 4.13, 'temp': 27.88, 'lipoC3S3': 12.47, 'lipoC3S2': 8.25, 'rot1': 0, 'rot0': 0, 'rot3': 0, 'rot2': 0, 'state': 'normal', 'yaw': -48.9, 'datetime': '2018-10-03 17:40:53.140010', 'mgs': 0, 'volt': 0.7764, 'depth': -0.369, 'time': 12, 'pitch': -12.86, 'roll': -2.15, 'pres': 159}
{'lipoC2': 7.26, 'lipoC3S1': 4.13, 'temp': 27.81, 'lipoC3S3': 12.47, 'lipoC3S2': 8.25, 'rot1': 0, 'rot0': 0, 'rot3': 0, 'rot2': 0, 'state': 'normal', 'yaw': -48.53, 'datetime': '2018-10-03 17:40:53.243371', 'mgs': 0, 'volt': 0.7764, 'depth': -0.369, 'time': 12, 'pitch': -12.55, 'roll': -2.58, 'pres': 159}
{'lipoC2': 7.26, 'lipoC3S1': 4.13, 'temp': 27.81, 'lipoC3S3': 12.47, 'lipoC3S2': 8.25, 'rot1': 0, 'rot0': 0, 'rot3': 0, 'rot2': 0, 'state': 'normal', 'yaw': -48.0, 'datetime': '2018-10-03 17:40:53.346773', 'mgs': 0, 'volt': 0.7715, 'depth': -0.446, 'time': 12, 'pitch': -12.36, 'roll': -2.76, 'pres': 158}
{'lipoC2': 7.26, 'lipoC3S1': 4.13, 'temp': 27.94, 'lipoC3S3': 12.47, 'lipoC3S2': 8.25, 'rot1': 0, 'rot0': 0, 'rot3': 0, 'rot2': 0, 'state': 'normal', 'yaw': -47.14, 'datetime': '2018-10-03 17:40:53.450193', 'mgs': 0, 'volt': 0.7715, 'depth': -0.446, 'time': 12, 'pitch': -12.34, 'roll': -2.89, 'pres': 158}
{'lipoC2': 7.26, 'lipoC3S1': 4.13, 'temp': 27.94, 'lipoC3S3': 12.47, 'lipoC3S2': 8.25, 'rot1': 0, 'rot0': 0, 'rot3': 0, 'rot2': 0, 'state': 'normal', 'yaw': -45.8, 'datetime': '2018-10-03 17:40:53.553751', 'mgs': 0, 'volt': 0.7764, 'depth': -0.369, 'time': 12, 'pitch': -12.62, 'roll': -3.13, 'pres': 159}
{'lipoC2': 7.26, 'lipoC3S1': 4.13, 'temp': 27.94, 'lipoC3S3': 12.47, 'lipoC3S2': 8.25, 'rot1': 0, 'rot0': 0, 'rot3': 0, 'rot2': 0, 'state': 'normal', 'yaw': -44.21, 'datetime': '2018-10-03 17:40:53.656998', 'mgs': 0, 'volt': 0.7715, 'depth': -0.446, 'time': 13, 'pitch': -13.05, 'roll': -3.44, 'pres': 158}
{'lipoC2': 7.26, 'lipoC3S1': 4.13, 'temp': 27.81, 'lipoC3S3': 12.47, 'lipoC3S2': 8.25, 'rot1': 0, 'rot0': 0, 'rot3': 0, 'rot2': 0, 'state': 'normal', 'yaw': -42.19, 'datetime': '2018-10-03 17:40:53.760413', 'mgs': 0, 'volt': 0.7715, 'depth': -0.446, 'time': 13, 'pitch': -13.71, 'roll': -3.87, 'pres': 158}
{'lipoC2': 7.26, 'lipoC3S1': 4.13, 'temp': 27.81, 'lipoC3S3': 12.47, 'lipoC3S2': 8.25, 'rot1': 0, 'rot0': 0, 'rot3': 0, 'rot2': 0, 'state': 'normal', 'yaw': -39.66, 'datetime': '2018-10-03 17:40:53.863960', 'mgs': 0, 'volt': 0.7764, 'depth': -0.369, 'time': 13, 'pitch': -14.56, 'roll': -4.35, 'pres': 159}
{'lipoC2': 7.26, 'lipoC3S1': 4.13, 'temp': 27.88, 'lipoC3S3': 12.47, 'lipoC3S2': 8.25, 'rot1': 0, 'rot0': 0, 'rot3': 0, 'rot2': 0, 'state': 'normal', 'yaw': -37.41, 'datetime': '2018-10-03 17:40:53.967432', 'mgs': 0, 'volt': 0.7764, 'depth': -0.369, 'time': 13, 'pitch': -15.11, 'roll': -4.55, 'pres': 159}
{'lipoC2': 7.26, 'lipoC3S1': 4.13, 'temp': 27.88, 'lipoC3S3': 12.47, 'lipoC3S2': 8.25, 'rot1': 0, 'rot0': 0, 'rot3': 0, 'rot2': 0, 'state': 'normal', 'yaw': -35.39, 'datetime': '2018-10-03 17:40:54.070960', 'mgs': 0, 'volt': 0.7764, 'depth': -0.369, 'time': 13, 'pitch': -15.49, 'roll': -4.47, 'pres': 159}
{'lipoC2': 7.26, 'lipoC3S1': 4.13, 'temp': 27.88, 'lipoC3S3': 12.47, 'lipoC3S2': 8.25, 'rot1': 0, 'rot0': 0, 'rot3': 0, 'rot2': 0, 'state': 'normal', 'yaw': -33.59, 'datetime': '2018-10-03 17:40:54.174962', 'mgs': 0, 'volt': 0.7764, 'depth': -0.369, 'time': 13, 'pitch': -15.64, 'roll': -3.99, 'pres': 159}
{'lipoC2': 7.26, 'lipoC3S1': 4.13, 'temp': 27.88, 'lipoC3S3': 12.47, 'lipoC3S2': 8.25, 'rot1': 0, 'rot0': 0, 'rot3': 0, 'rot2': 0, 'state': 'normal', 'yaw': -32.3, 'datetime': '2018-10-03 17:40:54.278659', 'mgs': 0, 'volt': 0.7764, 'depth': -0.369, 'time': 13, 'pitch': -15.72, 'roll': -3.28, 'pres': 159}
{'lipoC2': 7.26, 'lipoC3S1': 4.13, 'temp': 27.88, 'lipoC3S3': 12.47, 'lipoC3S2': 8.25, 'rot1': 0, 'rot0': 0, 'rot3': 0, 'rot2': 0, 'state': 'normal', 'yaw': -31.18, 'datetime': '2018-10-03 17:40:54.382990', 'mgs': 0, 'volt': 0.7764, 'depth': -0.369, 'time': 13, 'pitch': -15.88, 'roll': -2.51, 'pres': 159}
{'lipoC2': 7.26, 'lipoC3S1': 4.13, 'temp': 27.88, 'lipoC3S3': 12.47, 'lipoC3S2': 8.25, 'rot1': 0, 'rot0': 0, 'rot3': 0, 'rot2': 0, 'state': 'normal', 'yaw': -30.36, 'datetime': '2018-10-03 17:40:54.486553', 'mgs': 0, 'volt': 0.7813, 'depth': -0.293, 'time': 13, 'pitch': -15.98, 'roll': -1.77, 'pres': 160}
{'lipoC2': 7.26, 'lipoC3S1': 4.13, 'temp': 27.88, 'lipoC3S3': 12.47, 'lipoC3S2': 8.25, 'rot1': 0, 'rot0': 0, 'rot3': 0, 'rot2': 0, 'state': 'normal', 'yaw': -30.19, 'datetime': '2018-10-03 17:40:54.590239', 'mgs': 0, 'volt': 0.7861, 'depth': -0.217, 'time': 13, 'pitch': -15.82, 'roll': -0.85, 'pres': 161}
{'lipoC2': 7.26, 'lipoC3S1': 4.13, 'temp': 27.88, 'lipoC3S3': 12.47, 'lipoC3S2': 8.25, 'rot1': 0, 'rot0': 0, 'rot3': 0, 'rot2': 0, 'state': 'normal', 'yaw': -30.44, 'datetime': '2018-10-03 17:40:54.694671', 'mgs': 0, 'volt': 0.7861, 'depth': -0.217, 'time': 14, 'pitch': -15.2, 'roll': 0.28, 'pres': 161}
{'lipoC2': 7.26, 'lipoC3S1': 4.13, 'temp': 27.88, 'lipoC3S3': 12.47, 'lipoC3S2': 8.25, 'rot1': 0, 'rot0': 0, 'rot3': 0, 'rot2': 0, 'state': 'normal', 'yaw': -30.7, 'datetime': '2018-10-03 17:40:54.798241', 'mgs': 0, 'volt': 0.791, 'depth': -0.14, 'time': 14, 'pitch': -14.72, 'roll': 1.37, 'pres': 162}
{'lipoC2': 7.26, 'lipoC3S1': 4.13, 'temp': 27.88, 'lipoC3S3': 12.47, 'lipoC3S2': 8.25, 'rot1': 0, 'rot0': 0, 'rot3': 0, 'rot2': 0, 'state': 'normal', 'yaw': -30.55, 'datetime': '2018-10-03 17:40:54.901579', 'mgs': 0, 'volt': 0.8008, 'depth': 0.012, 'time': 14, 'pitch': -14.75, 'roll': 1.91, 'pres': 164}
{'lipoC2': 7.26, 'lipoC3S1': 4.13, 'temp': 27.88, 'lipoC3S3': 12.47, 'lipoC3S2': 8.25, 'rot1': 0, 'rot0': 0, 'rot3': 0, 'rot2': 0, 'state': 'normal', 'yaw': -29.78, 'datetime': '2018-10-03 17:40:55.005252', 'mgs': 0, 'volt': 0.8105, 'depth': 0.165, 'time': 14, 'pitch': -14.65, 'roll': 1.87, 'pres': 166}
{'lipoC2': 7.26, 'lipoC3S1': 4.13, 'temp': 27.88, 'lipoC3S3': 12.47, 'lipoC3S2': 8.25, 'rot1': 0, 'rot0': 0, 'rot3': 0, 'rot2': 0, 'state': 'normal', 'yaw': -28.48, 'datetime': '2018-10-03 17:40:55.108685', 'mgs': 0, 'volt': 0.8154, 'depth': 0.241, 'time': 14, 'pitch': -13.48, 'roll': 1.16, 'pres': 167}
{'lipoC2': 7.26, 'lipoC3S1': 4.13, 'temp': 27.81, 'lipoC3S3': 12.47, 'lipoC3S2': 8.25, 'rot1': 0, 'rot0': 0, 'rot3': 0, 'rot2': 0, 'state': 'normal', 'yaw': -27.14, 'datetime': '2018-10-03 17:40:55.206290', 'mgs': 0, 'volt': 0.8252, 'depth': 0.394, 'time': 14, 'pitch': -11.82, 'roll': -0.24, 'pres': 169}
{'lipoC2': 7.26, 'lipoC3S1': 4.13, 'temp': 27.81, 'lipoC3S3': 12.47, 'lipoC3S2': 8.25, 'rot1': 0, 'rot0': 0, 'rot3': 0, 'rot2': 0, 'state': 'normal', 'yaw': -25.74, 'datetime': '2018-10-03 17:40:55.309818', 'mgs': 0, 'volt': 0.8301, 'depth': 0.47, 'time': 14, 'pitch': -10.69, 'roll': -1.7, 'pres': 170}
{'lipoC2': 7.26, 'lipoC3S1': 4.13, 'temp': 27.88, 'lipoC3S3': 12.47, 'lipoC3S2': 8.25, 'rot1': 0, 'rot0': 0, 'rot3': 0, 'rot2': 0, 'state': 'normal', 'yaw': -24.35, 'datetime': '2018-10-03 17:40:55.413161', 'mgs': 0, 'volt': 0.835, 'depth': 0.546, 'time': 14, 'pitch': -10.18, 'roll': -3.03, 'pres': 171}
{'lipoC2': 7.26, 'lipoC3S1': 4.13, 'temp': 27.88, 'lipoC3S3': 12.47, 'lipoC3S2': 8.25, 'rot1': 0, 'rot0': 0, 'rot3': 0, 'rot2': 0, 'state': 'normal', 'yaw': -23.31, 'datetime': '2018-10-03 17:40:55.516544', 'mgs': 0, 'volt': 0.8447, 'depth': 0.699, 'time': 14, 'pitch': -9.82, 'roll': -3.85, 'pres': 173}
{'lipoC2': 7.26, 'lipoC3S1': 4.13, 'temp': 27.88, 'lipoC3S3': 12.47, 'lipoC3S2': 8.25, 'rot1': 0, 'rot0': 0, 'rot3': 0, 'rot2': 0, 'state': 'normal', 'yaw': -22.64, 'datetime': '2018-10-03 17:40:55.619812', 'mgs': 0, 'volt': 0.8496, 'depth': 0.775, 'time': 15, 'pitch': -9.57, 'roll': -4.12, 'pres': 174}
{'lipoC2': 7.26, 'lipoC3S1': 4.13, 'temp': 27.88, 'lipoC3S3': 12.47, 'lipoC3S2': 8.25, 'rot1': 0, 'rot0': 0, 'rot3': 0, 'rot2': 0, 'state': 'normal', 'yaw': -22.11, 'datetime': '2018-10-03 17:40:55.723261', 'mgs': 0, 'volt': 0.8545, 'depth': 0.851, 'time': 15, 'pitch': -9.8, 'roll': -3.91, 'pres': 175}
{'lipoC2': 7.26, 'lipoC3S1': 4.13, 'temp': 27.88, 'lipoC3S3': 12.47, 'lipoC3S2': 8.25, 'rot1': 0, 'rot0': 0, 'rot3': 0, 'rot2': 0, 'state': 'normal', 'yaw': -21.77, 'datetime': '2018-10-03 17:40:55.826539', 'mgs': 0, 'volt': 0.8594, 'depth': 0.928, 'time': 15, 'pitch': -10.36, 'roll': -3.25, 'pres': 176}
{'lipoC2': 7.26, 'lipoC3S1': 4.13, 'temp': 27.81, 'lipoC3S3': 12.47, 'lipoC3S2': 8.25, 'rot1': 0, 'rot0': 0, 'rot3': 0, 'rot2': 0, 'state': 'normal', 'yaw': -21.46, 'datetime': '2018-10-03 17:40:55.931126', 'mgs': 0, 'volt': 0.8643, 'depth': 1.004, 'time': 15, 'pitch': -11.27, 'roll': -2.41, 'pres': 177}
{'lipoC2': 7.26, 'lipoC3S1': 4.13, 'temp': 27.81, 'lipoC3S3': 12.47, 'lipoC3S2': 8.25, 'rot1': 0, 'rot0': 0, 'rot3': 0, 'rot2': 0, 'state': 'normal', 'yaw': -20.88, 'datetime': '2018-10-03 17:40:56.034449', 'mgs': 0, 'volt': 0.8691, 'depth': 1.08, 'time': 15, 'pitch': -12.32, 'roll': -1.6, 'pres': 178}
{'lipoC2': 7.26, 'lipoC3S1': 4.13, 'temp': 27.81, 'lipoC3S3': 12.47, 'lipoC3S2': 8.25, 'rot1': 0, 'rot0': 0, 'rot3': 0, 'rot2': 0, 'state': 'normal', 'yaw': -20.06, 'datetime': '2018-10-03 17:40:56.137811', 'mgs': 0, 'volt': 0.8789, 'depth': 1.233, 'time': 15, 'pitch': -12.23, 'roll': -1.25, 'pres': 180}
{'lipoC2': 7.26, 'lipoC3S1': 4.13, 'temp': 27.81, 'lipoC3S3': 12.47, 'lipoC3S2': 8.25, 'rot1': 0, 'rot0': 0, 'rot3': 0, 'rot2': 0, 'state': 'normal', 'yaw': -19.14, 'datetime': '2018-10-03 17:40:56.242843', 'mgs': 0, 'volt': 0.8838, 'depth': 1.309, 'time': 15, 'pitch': -10.74, 'roll': -1.79, 'pres': 181}
{'lipoC2': 7.26, 'lipoC3S1': 4.13, 'temp': 27.88, 'lipoC3S3': 12.47, 'lipoC3S2': 8.25, 'rot1': 0, 'rot0': 0, 'rot3': 0, 'rot2': 0, 'state': 'normal', 'yaw': -18.26, 'datetime': '2018-10-03 17:40:56.346000', 'mgs': 0, 'volt': 0.8887, 'depth': 1.385, 'time': 15, 'pitch': -9.44, 'roll': -2.92, 'pres': 182}
{'lipoC2': 7.26, 'lipoC3S1': 4.13, 'temp': 27.88, 'lipoC3S3': 12.47, 'lipoC3S2': 8.25, 'rot1': 0, 'rot0': 0, 'rot3': 0, 'rot2': 0, 'state': 'normal', 'yaw': -17.62, 'datetime': '2018-10-03 17:40:56.450428', 'mgs': 0, 'volt': 0.8936, 'depth': 1.462, 'time': 15, 'pitch': -9.03, 'roll': -4.24, 'pres': 183}
{'lipoC2': 7.26, 'lipoC3S1': 4.13, 'temp': 27.88, 'lipoC3S3': 12.47, 'lipoC3S2': 8.25, 'rot1': 0, 'rot0': 0, 'rot3': 0, 'rot2': 0, 'state': 'normal', 'yaw': -17.33, 'datetime': '2018-10-03 17:40:56.554822', 'mgs': 0, 'volt': 0.8984, 'depth': 1.538, 'time': 15, 'pitch': -9.57, 'roll': -5.34, 'pres': 184}
{'lipoC2': 7.26, 'lipoC3S1': 4.13, 'temp': 27.81, 'lipoC3S3': 12.47, 'lipoC3S2': 8.25, 'rot1': 0, 'rot0': 0, 'rot3': 0, 'rot2': 0, 'state': 'normal', 'yaw': -17.37, 'datetime': '2018-10-03 17:40:56.655968', 'mgs': 0, 'volt': 0.9082, 'depth': 1.691, 'time': 16, 'pitch': -10.64, 'roll': -6.26, 'pres': 186}
{'lipoC2': 7.26, 'lipoC3S1': 4.13, 'temp': 27.81, 'lipoC3S3': 12.47, 'lipoC3S2': 8.25, 'rot1': 0, 'rot0': 0, 'rot3': 0, 'rot2': 0, 'state': 'normal', 'yaw': -17.63, 'datetime': '2018-10-03 17:40:56.759294', 'mgs': 0, 'volt': 0.9131, 'depth': 1.767, 'time': 16, 'pitch': -11.18, 'roll': -6.83, 'pres': 187}
{'lipoC2': 7.26, 'lipoC3S1': 4.13, 'temp': 27.81, 'lipoC3S3': 12.47, 'lipoC3S2': 8.25, 'rot1': 0, 'rot0': 0, 'rot3': 0, 'rot2': 0, 'state': 'normal', 'yaw': -18.19, 'datetime': '2018-10-03 17:40:56.862623', 'mgs': 0, 'volt': 0.9229, 'depth': 1.92, 'time': 16, 'pitch': -11.34, 'roll': -7.0, 'pres': 189}
{'lipoC2': 7.26, 'lipoC3S1': 4.13, 'temp': 27.81, 'lipoC3S3': 12.47, 'lipoC3S2': 8.25, 'rot1': 0, 'rot0': 0, 'rot3': 0, 'rot2': 0, 'state': 'normal', 'yaw': -19.19, 'datetime': '2018-10-03 17:40:56.965972', 'mgs': 0, 'volt': 0.9326, 'depth': 2.072, 'time': 16, 'pitch': -11.51, 'roll': -6.66, 'pres': 191}
{'lipoC2': 7.26, 'lipoC3S1': 4.13, 'temp': 27.88, 'lipoC3S3': 12.47, 'lipoC3S2': 8.25, 'rot1': 0, 'rot0': 0, 'rot3': 0, 'rot2': 0, 'state': 'normal', 'yaw': -20.19, 'datetime': '2018-10-03 17:40:57.069309', 'mgs': 0, 'volt': 0.9424, 'depth': 2.225, 'time': 16, 'pitch': -11.71, 'roll': -5.97, 'pres': 193}
{'lipoC2': 7.26, 'lipoC3S1': 4.13, 'temp': 27.88, 'lipoC3S3': 12.47, 'lipoC3S2': 8.25, 'rot1': 0, 'rot0': 0, 'rot3': 0, 'rot2': 0, 'state': 'normal', 'yaw': -20.91, 'datetime': '2018-10-03 17:40:57.174912', 'mgs': 0, 'volt': 0.9521, 'depth': 2.377, 'time': 16, 'pitch': -11.83, 'roll': -5.2, 'pres': 195}
{'lipoC2': 7.26, 'lipoC3S1': 4.13, 'temp': 27.88, 'lipoC3S3': 12.48, 'lipoC3S2': 8.26, 'rot1': 0, 'rot0': 0, 'rot3': 0, 'rot2': 0, 'state': 'normal', 'yaw': -21.36, 'datetime': '2018-10-03 17:40:57.275529', 'mgs': 0, 'volt': 0.9619, 'depth': 2.53, 'time': 16, 'pitch': -11.51, 'roll': -4.17, 'pres': 197}
{'lipoC2': 7.26, 'lipoC3S1': 4.13, 'temp': 27.81, 'lipoC3S3': 12.47, 'lipoC3S2': 8.26, 'rot1': 0, 'rot0': 0, 'rot3': 0, 'rot2': 0, 'state': 'normal', 'yaw': -21.28, 'datetime': '2018-10-03 17:40:57.378861', 'mgs': 0, 'volt': 0.9619, 'depth': 2.53, 'time': 16, 'pitch': -9.64, 'roll': -1.55, 'pres': 197}
{'lipoC2': 7.26, 'lipoC3S1': 4.13, 'temp': 27.81, 'lipoC3S3': 12.47, 'lipoC3S2': 8.25, 'rot1': 0, 'rot0': 0, 'rot3': 0, 'rot2': 0, 'state': 'normal', 'yaw': -20.89, 'datetime': '2018-10-03 17:40:57.483505', 'mgs': 0, 'volt': 0.9521, 'depth': 2.377, 'time': 16, 'pitch': -9.74, 'roll': 0.53, 'pres': 195}
{'lipoC2': 7.26, 'lipoC3S1': 4.13, 'temp': 27.75, 'lipoC3S3': 12.48, 'lipoC3S2': 8.26, 'rot1': 0, 'rot0': 0, 'rot3': 0, 'rot2': 0, 'state': 'normal', 'yaw': -20.7, 'datetime': '2018-10-03 17:40:57.586850', 'mgs': 0, 'volt': 0.9766, 'depth': 2.759, 'time': 16, 'pitch': -9.07, 'roll': 0.22, 'pres': 200}
{'lipoC2': 7.26, 'lipoC3S1': 4.13, 'temp': 27.75, 'lipoC3S3': 12.47, 'lipoC3S2': 8.26, 'rot1': 0, 'rot0': 0, 'rot3': 0, 'rot2': 0, 'state': 'normal', 'yaw': -20.97, 'datetime': '2018-10-03 17:40:57.690198', 'mgs': 0, 'volt': 0.9717, 'depth': 2.682, 'time': 17, 'pitch': -8.88, 'roll': 0.23, 'pres': 199}
{'lipoC2': 7.26, 'lipoC3S1': 4.13, 'temp': 27.81, 'lipoC3S3': 12.47, 'lipoC3S2': 8.25, 'rot1': 0, 'rot0': 0, 'rot3': 0, 'rot2': 0, 'state': 'normal', 'yaw': -21.01, 'datetime': '2018-10-03 17:40:57.794783', 'mgs': 0, 'volt': 0.9717, 'depth': 2.682, 'time': 17, 'pitch': -9.21, 'roll': 0.19, 'pres': 199}
{'lipoC2': 7.26, 'lipoC3S1': 4.13, 'temp': 27.81, 'lipoC3S3': 12.47, 'lipoC3S2': 8.25, 'rot1': 0, 'rot0': 0, 'rot3': 0, 'rot2': 0, 'state': 'normal', 'yaw': -21.14, 'datetime': '2018-10-03 17:40:57.898140', 'mgs': 0, 'volt': 0.9717, 'depth': 2.682, 'time': 17, 'pitch': -9.59, 'roll': 0.16, 'pres': 199}
{'lipoC2': 7.26, 'lipoC3S1': 4.13, 'temp': 27.81, 'lipoC3S3': 12.47, 'lipoC3S2': 8.25, 'rot1': 0, 'rot0': 0, 'rot3': 0, 'rot2': 0, 'state': 'normal', 'yaw': -21.32, 'datetime': '2018-10-03 17:40:58.007765', 'mgs': 0, 'volt': 0.9766, 'depth': 2.759, 'time': 17, 'pitch': -9.61, 'roll': 0.14, 'pres': 200}
{'lipoC2': 7.26, 'lipoC3S1': 4.13, 'temp': 27.81, 'lipoC3S3': 12.47, 'lipoC3S2': 8.25, 'rot1': 0, 'rot0': 0, 'rot3': 0, 'rot2': 0, 'state': 'normal', 'yaw': -21.39, 'datetime': '2018-10-03 17:40:58.111172', 'mgs': 0, 'volt': 0.9766, 'depth': 2.759, 'time': 17, 'pitch': -9.38, 'roll': 0.13, 'pres': 200}
{'lipoC2': 7.26, 'lipoC3S1': 4.13, 'temp': 27.81, 'lipoC3S3': 12.47, 'lipoC3S2': 8.26, 'rot1': 0, 'rot0': 0, 'rot3': 0, 'rot2': 0, 'state': 'normal', 'yaw': -21.52, 'datetime': '2018-10-03 17:40:58.214496', 'mgs': 0, 'volt': 0.9766, 'depth': 2.759, 'time': 17, 'pitch': -9.09, 'roll': 0.13, 'pres': 200}
{'lipoC2': 7.26, 'lipoC3S1': 4.13, 'temp': 27.81, 'lipoC3S3': 12.47, 'lipoC3S2': 8.25, 'rot1': 0, 'rot0': 0, 'rot3': 0, 'rot2': 0, 'state': 'normal', 'yaw': -21.63, 'datetime': '2018-10-03 17:40:58.317775', 'mgs': 0, 'volt': 0.9766, 'depth': 2.759, 'time': 17, 'pitch': -8.81, 'roll': 0.14, 'pres': 200}
{'lipoC2': 7.26, 'lipoC3S1': 4.13, 'temp': 27.81, 'lipoC3S3': 12.47, 'lipoC3S2': 8.25, 'rot1': 0, 'rot0': 0, 'rot3': 0, 'rot2': 0, 'state': 'normal', 'yaw': -21.74, 'datetime': '2018-10-03 17:40:58.421163', 'mgs': 0, 'volt': 0.9766, 'depth': 2.759, 'time': 17, 'pitch': -8.58, 'roll': 0.12, 'pres': 200}
{'lipoC2': 7.26, 'lipoC3S1': 4.13, 'temp': 27.81, 'lipoC3S3': 12.47, 'lipoC3S2': 8.25, 'rot1': 0, 'rot0': 0, 'rot3': 0, 'rot2': 0, 'state': 'normal', 'yaw': -21.85, 'datetime': '2018-10-03 17:40:58.524701', 'mgs': 0, 'volt': 0.9766, 'depth': 2.759, 'time': 17, 'pitch': -8.32, 'roll': 0.11, 'pres': 200}
{'lipoC2': 7.26, 'lipoC3S1': 4.13, 'temp': 27.81, 'lipoC3S3': 12.47, 'lipoC3S2': 8.25, 'rot1': 0, 'rot0': 0, 'rot3': 0, 'rot2': 0, 'state': 'normal', 'yaw': -21.97, 'datetime': '2018-10-03 17:40:58.628018', 'mgs': 0, 'volt': 0.9766, 'depth': 2.759, 'time': 18, 'pitch': -8.06, 'roll': 0.1, 'pres': 200}
{'lipoC2': 7.26, 'lipoC3S1': 4.13, 'temp': 27.81, 'lipoC3S3': 12.47, 'lipoC3S2': 8.25, 'rot1': 0, 'rot0': 0, 'rot3': 0, 'rot2': 0, 'state': 'normal', 'yaw': -22.08, 'datetime': '2018-10-03 17:40:58.731416', 'mgs': 0, 'volt': 0.9766, 'depth': 2.759, 'time': 18, 'pitch': -7.83, 'roll': 0.09, 'pres': 200}
{'lipoC2': 7.26, 'lipoC3S1': 4.13, 'temp': 27.81, 'lipoC3S3': 12.47, 'lipoC3S2': 8.25, 'rot1': 0, 'rot0': 0, 'rot3': 0, 'rot2': 0, 'state': 'normal', 'yaw': -22.17, 'datetime': '2018-10-03 17:40:58.835708', 'mgs': 0, 'volt': 0.9766, 'depth': 2.759, 'time': 18, 'pitch': -7.64, 'roll': 0.1, 'pres': 200}
{'lipoC2': 7.26, 'lipoC3S1': 4.13, 'temp': 27.81, 'lipoC3S3': 12.47, 'lipoC3S2': 8.26, 'rot1': 0, 'rot0': 0, 'rot3': 0, 'rot2': 0, 'state': 'normal', 'yaw': -22.3, 'datetime': '2018-10-03 17:40:58.939107', 'mgs': 0, 'volt': 0.9766, 'depth': 2.759, 'time': 18, 'pitch': -7.56, 'roll': 0.09, 'pres': 200}
{'lipoC2': 7.26, 'lipoC3S1': 4.13, 'temp': 27.88, 'lipoC3S3': 12.47, 'lipoC3S2': 8.25, 'rot1': 0, 'rot0': 0, 'rot3': 0, 'rot2': 0, 'state': 'normal', 'yaw': -22.4, 'datetime': '2018-10-03 17:40:59.043191', 'mgs': 0, 'volt': 0.9766, 'depth': 2.759, 'time': 18, 'pitch': -7.57, 'roll': 0.1, 'pres': 200}
{'lipoC2': 7.26, 'lipoC3S1': 4.13, 'temp': 27.88, 'lipoC3S3': 12.47, 'lipoC3S2': 8.25, 'rot1': 0, 'rot0': 0, 'rot3': 0, 'rot2': 0, 'state': 'normal', 'yaw': -22.5, 'datetime': '2018-10-03 17:40:59.147099', 'mgs': 0, 'volt': 0.9766, 'depth': 2.759, 'time': 18, 'pitch': -7.69, 'roll': 0.12, 'pres': 200}
{'lipoC2': 7.26, 'lipoC3S1': 4.13, 'temp': 27.88, 'lipoC3S3': 12.47, 'lipoC3S2': 8.25, 'rot1': 0, 'rot0': 0, 'rot3': 0, 'rot2': 0, 'state': 'normal', 'yaw': -22.61, 'datetime': '2018-10-03 17:40:59.250618', 'mgs': 0, 'volt': 0.9766, 'depth': 2.759, 'time': 18, 'pitch': -7.93, 'roll': 0.15, 'pres': 200}
{'lipoC2': 7.26, 'lipoC3S1': 4.13, 'temp': 27.88, 'lipoC3S3': 12.47, 'lipoC3S2': 8.25, 'rot1': 0, 'rot0': 0, 'rot3': 0, 'rot2': 0, 'state': 'normal', 'yaw': -22.74, 'datetime': '2018-10-03 17:40:59.355065', 'mgs': 0, 'volt': 0.9766, 'depth': 2.759, 'time': 18, 'pitch': -8.19, 'roll': 0.18, 'pres': 200}
{'lipoC2': 7.26, 'lipoC3S1': 4.13, 'temp': 27.88, 'lipoC3S3': 12.47, 'lipoC3S2': 8.25, 'rot1': 0, 'rot0': 0, 'rot3': 0, 'rot2': 0, 'state': 'normal', 'yaw': -22.87, 'datetime': '2018-10-03 17:40:59.458410', 'mgs': 0, 'volt': 0.9766, 'depth': 2.759, 'time': 18, 'pitch': -8.5, 'roll': 0.21, 'pres': 200}
{'lipoC2': 7.26, 'lipoC3S1': 4.13, 'temp': 27.88, 'lipoC3S3': 12.47, 'lipoC3S2': 8.25, 'rot1': 0, 'rot0': 0, 'rot3': 0, 'rot2': 0, 'state': 'normal', 'yaw': -22.98, 'datetime': '2018-10-03 17:40:59.561820', 'mgs': 0, 'volt': 0.9766, 'depth': 2.759, 'time': 18, 'pitch': -8.8, 'roll': 0.24, 'pres': 200}
{'lipoC2': 7.26, 'lipoC3S1': 4.13, 'temp': 27.88, 'lipoC3S3': 12.47, 'lipoC3S2': 8.25, 'rot1': 0, 'rot0': 0, 'rot3': 0, 'rot2': 0, 'state': 'normal', 'yaw': -23.11, 'datetime': '2018-10-03 17:40:59.665113', 'mgs': 0, 'volt': 0.9766, 'depth': 2.759, 'time': 19, 'pitch': -9.11, 'roll': 0.26, 'pres': 200}
{'lipoC2': 7.26, 'lipoC3S1': 4.13, 'temp': 27.81, 'lipoC3S3': 12.47, 'lipoC3S2': 8.25, 'rot1': 0, 'rot0': 0, 'rot3': 0, 'rot2': 0, 'state': 'normal', 'yaw': -23.26, 'datetime': '2018-10-03 17:40:59.768811', 'mgs': 0, 'volt': 0.9766, 'depth': 2.759, 'time': 19, 'pitch': -9.44, 'roll': 0.29, 'pres': 200}
{'lipoC2': 7.26, 'lipoC3S1': 4.13, 'temp': 27.81, 'lipoC3S3': 12.47, 'lipoC3S2': 8.25, 'rot1': 0, 'rot0': 0, 'rot3': 0, 'rot2': 0, 'state': 'normal', 'yaw': -23.38, 'datetime': '2018-10-03 17:40:59.872085', 'mgs': 0, 'volt': 0.9766, 'depth': 2.759, 'time': 19, 'pitch': -9.62, 'roll': 0.3, 'pres': 200}
{'lipoC2': 7.26, 'lipoC3S1': 4.13, 'temp': 27.81, 'lipoC3S3': 12.47, 'lipoC3S2': 8.25, 'rot1': 0, 'rot0': 0, 'rot3': 0, 'rot2': 0, 'state': 'normal', 'yaw': -23.41, 'datetime': '2018-10-03 17:40:59.976592', 'mgs': 1, 'volt': 0.9717, 'depth': 2.682, 'time': 19, 'pitch': -9.59, 'roll': 0.2, 'pres': 199}
{'lipoC2': 7.26, 'lipoC3S1': 4.13, 'temp': 27.81, 'lipoC3S3': 12.47, 'lipoC3S2': 8.25, 'rot1': 0, 'rot0': 0, 'rot3': 0, 'rot2': 0, 'state': 'normal', 'yaw': 0.0, 'datetime': '2018-10-03 17:41:06.011571', 'mgs': 0, 'volt': 0.9717, 'depth': 2.682, 'time': 1, 'pitch': -9.09, 'roll': -0.96, 'pres': 199}
{'lipoC2': 7.26, 'lipoC3S1': 4.13, 'temp': 27.81, 'lipoC3S3': 12.47, 'lipoC3S2': 8.25, 'rot1': 0, 'rot0': 0, 'rot3': 0, 'rot2': 0, 'state': 'normal', 'yaw': -0.25, 'datetime': '2018-10-03 17:41:09.039879', 'mgs': 0, 'volt': 0.9717, 'depth': 2.682, 'time': 1, 'pitch': -8.97, 'roll': -0.98, 'pres': 199}
{'lipoC2': 7.26, 'lipoC3S1': 4.13, 'temp': 27.75, 'lipoC3S3': 12.47, 'lipoC3S2': 8.26, 'rot1': 0, 'rot0': 0, 'rot3': 0, 'rot2': 0, 'state': 'normal', 'yaw': -0.51, 'datetime': '2018-10-03 17:41:09.058704', 'mgs': 0, 'volt': 0.9717, 'depth': 2.682, 'time': 1, 'pitch': -8.95, 'roll': -0.94, 'pres': 199}
{'lipoC2': 7.26, 'lipoC3S1': 4.13, 'temp': 27.75, 'lipoC3S3': 12.47, 'lipoC3S2': 8.26, 'rot1': 0, 'rot0': 0, 'rot3': 0, 'rot2': 0, 'state': 'normal', 'yaw': -0.78, 'datetime': '2018-10-03 17:41:09.082280', 'mgs': 0, 'volt': 0.9766, 'depth': 2.759, 'time': 1, 'pitch': -8.9, 'roll': -0.88, 'pres': 200}
{'lipoC2': 7.26, 'lipoC3S1': 4.13, 'temp': 27.75, 'lipoC3S3': 12.47, 'lipoC3S2': 8.26, 'rot1': 0, 'rot0': 0, 'rot3': 0, 'rot2': 0, 'state': 'normal', 'yaw': -1.06, 'datetime': '2018-10-03 17:41:09.095210', 'mgs': 0, 'volt': 0.9717, 'depth': 2.682, 'time': 1, 'pitch': -8.86, 'roll': -0.79, 'pres': 199}
{'lipoC2': 7.26, 'lipoC3S1': 4.13, 'temp': 27.81, 'lipoC3S3': 12.47, 'lipoC3S2': 8.26, 'rot1': 0, 'rot0': 0, 'rot3': 0, 'rot2': 0, 'state': 'normal', 'yaw': -1.32, 'datetime': '2018-10-03 17:41:09.112111', 'mgs': 0, 'volt': 0.9717, 'depth': 2.682, 'time': 1, 'pitch': -8.86, 'roll': -0.67, 'pres': 199}
{'lipoC2': 7.26, 'lipoC3S1': 4.13, 'temp': 27.81, 'lipoC3S3': 12.47, 'lipoC3S2': 8.26, 'rot1': 0, 'rot0': 0, 'rot3': 0, 'rot2': 0, 'state': 'normal', 'yaw': -1.55, 'datetime': '2018-10-03 17:41:09.133865', 'mgs': 0, 'volt': 0.9717, 'depth': 2.682, 'time': 1, 'pitch': -8.86, 'roll': -0.57, 'pres': 199}
{'lipoC2': 7.26, 'lipoC3S1': 4.13, 'temp': 27.81, 'lipoC3S3': 12.47, 'lipoC3S2': 8.25, 'rot1': 0, 'rot0': 0, 'rot3': 0, 'rot2': 0, 'state': 'normal', 'yaw': -1.78, 'datetime': '2018-10-03 17:41:09.146834', 'mgs': 0, 'volt': 0.9766, 'depth': 2.759, 'time': 1, 'pitch': -8.85, 'roll': -0.47, 'pres': 200}
{'lipoC2': 7.26, 'lipoC3S1': 4.13, 'temp': 27.81, 'lipoC3S3': 12.47, 'lipoC3S2': 8.25, 'rot1': 0, 'rot0': 0, 'rot3': 0, 'rot2': 0, 'state': 'normal', 'yaw': -1.99, 'datetime': '2018-10-03 17:41:09.165760', 'mgs': 0, 'volt': 0.9766, 'depth': 2.759, 'time': 2, 'pitch': -8.78, 'roll': -0.34, 'pres': 200}
{'lipoC2': 7.26, 'lipoC3S1': 4.13, 'temp': 27.75, 'lipoC3S3': 12.47, 'lipoC3S2': 8.25, 'rot1': 0, 'rot0': 0, 'rot3': 0, 'rot2': 0, 'state': 'normal', 'yaw': -2.15, 'datetime': '2018-10-03 17:41:09.187453', 'mgs': 0, 'volt': 0.9766, 'depth': 2.759, 'time': 2, 'pitch': -8.71, 'roll': -0.19, 'pres': 200}
{'lipoC2': 7.26, 'lipoC3S1': 4.13, 'temp': 27.75, 'lipoC3S3': 12.47, 'lipoC3S2': 8.25, 'rot1': 0, 'rot0': 0, 'rot3': 0, 'rot2': 0, 'state': 'normal', 'yaw': -2.29, 'datetime': '2018-10-03 17:41:09.200359', 'mgs': 0, 'volt': 0.9717, 'depth': 2.682, 'time': 2, 'pitch': -8.63, 'roll': -0.04, 'pres': 199}
