{'lipoC2': 7.75, 'lipoC3S1': 3.86, 'temp': 28.56, 'lipoC3S3': 11.67, 'lipoC3S2': 7.71, 'rot1': 281, 'rot0': 268, 'rot3': 210, 'rot2': 170, 'state': 'normal', 'yaw': 13.46, 'datetime': '2018-10-05 20:09:48.782779', 'mgs': 0, 'volt': 0.8105, 'depth': 0.165, 'time': 76, 'pitch': -11.96, 'roll': -0.41, 'pres': 166}
{'lipoC2': 7.75, 'lipoC3S1': 3.86, 'temp': 28.5, 'lipoC3S3': 11.67, 'lipoC3S2': 7.71, 'rot1': 281, 'rot0': 268, 'rot3': 210, 'rot2': 170, 'state': 'normal', 'yaw': 13.31, 'datetime': '2018-10-05 20:09:48.808098', 'mgs': 0, 'volt': 0.8105, 'depth': 0.165, 'time': 76, 'pitch': -12.0, 'roll': 0.24, 'pres': 166}
{'lipoC2': 7.75, 'lipoC3S1': 3.86, 'temp': 28.5, 'lipoC3S3': 11.67, 'lipoC3S2': 7.71, 'rot1': 281, 'rot0': 268, 'rot3': 210, 'rot2': 170, 'state': 'normal', 'yaw': 13.61, 'datetime': '2018-10-05 20:09:48.833476', 'mgs': 0, 'volt': 0.8105, 'depth': 0.165, 'time': 77, 'pitch': -12.33, 'roll': 0.61, 'pres': 166}
{'lipoC2': 7.75, 'lipoC3S1': 3.86, 'temp': 28.5, 'lipoC3S3': 11.67, 'lipoC3S2': 7.71, 'rot1': 281, 'rot0': 268, 'rot3': 210, 'rot2': 170, 'state': 'normal', 'yaw': 13.86, 'datetime': '2018-10-05 20:09:48.858052', 'mgs': 0, 'volt': 0.8105, 'depth': 0.165, 'time': 77, 'pitch': -12.86, 'roll': 0.88, 'pres': 166}
{'lipoC2': 7.73, 'lipoC3S1': 3.86, 'temp': 28.56, 'lipoC3S3': 11.67, 'lipoC3S2': 7.71, 'rot1': 281, 'rot0': 268, 'rot3': 210, 'rot2': 170, 'state': 'normal', 'yaw': 13.79, 'datetime': '2018-10-05 20:09:48.868929', 'mgs': 0, 'volt': 0.8154, 'depth': 0.241, 'time': 77, 'pitch': -13.53, 'roll': 1.26, 'pres': 167}
{'lipoC2': 7.75, 'lipoC3S1': 3.86, 'temp': 28.56, 'lipoC3S3': 11.67, 'lipoC3S2': 7.71, 'rot1': 281, 'rot0': 268, 'rot3': 210, 'rot2': 170, 'state': 'normal', 'yaw': 13.52, 'datetime': '2018-10-05 20:09:48.880389', 'mgs': 0, 'volt': 0.8154, 'depth': 0.241, 'time': 77, 'pitch': -13.88, 'roll': 1.57, 'pres': 167}
{'lipoC2': 7.75, 'lipoC3S1': 3.86, 'temp': 28.56, 'lipoC3S3': 11.67, 'lipoC3S2': 7.71, 'rot1': 281, 'rot0': 268, 'rot3': 210, 'rot2': 170, 'state': 'normal', 'yaw': 13.37, 'datetime': '2018-10-05 20:09:48.891348', 'mgs': 0, 'volt': 0.8154, 'depth': 0.241, 'time': 77, 'pitch': -13.89, 'roll': 1.57, 'pres': 167}
{'lipoC2': 7.75, 'lipoC3S1': 3.86, 'temp': 28.56, 'lipoC3S3': 11.67, 'lipoC3S2': 7.71, 'rot1': 281, 'rot0': 268, 'rot3': 210, 'rot2': 170, 'state': 'normal', 'yaw': 13.24, 'datetime': '2018-10-05 20:09:48.901563', 'mgs': 0, 'volt': 0.8154, 'depth': 0.241, 'time': 77, 'pitch': -13.66, 'roll': 1.27, 'pres': 167}
{'lipoC2': 7.75, 'lipoC3S1': 3.86, 'temp': 28.5, 'lipoC3S3': 11.67, 'lipoC3S2': 7.71, 'rot1': 281, 'rot0': 268, 'rot3': 210, 'rot2': 170, 'state': 'normal', 'yaw': 13.18, 'datetime': '2018-10-05 20:09:48.911622', 'mgs': 0, 'volt': 0.8154, 'depth': 0.241, 'time': 77, 'pitch': -13.33, 'roll': 0.76, 'pres': 167}
{'lipoC2': 7.75, 'lipoC3S1': 3.86, 'temp': 28.5, 'lipoC3S3': 11.67, 'lipoC3S2': 7.71, 'rot1': 281, 'rot0': 268, 'rot3': 210, 'rot2': 170, 'state': 'normal', 'yaw': 13.2, 'datetime': '2018-10-05 20:09:48.921769', 'mgs': 0, 'volt': 0.8154, 'depth': 0.241, 'time': 77, 'pitch': -12.81, 'roll': -0.03, 'pres': 167}
{'lipoC2': 7.73, 'lipoC3S1': 3.86, 'temp': 28.5, 'lipoC3S3': 11.67, 'lipoC3S2': 7.71, 'rot1': 281, 'rot0': 268, 'rot3': 210, 'rot2': 170, 'state': 'normal', 'yaw': 13.11, 'datetime': '2018-10-05 20:09:48.931881', 'mgs': 0, 'volt': 0.8105, 'depth': 0.165, 'time': 77, 'pitch': -12.48, 'roll': -0.72, 'pres': 166}
{'lipoC2': 7.75, 'lipoC3S1': 3.86, 'temp': 28.56, 'lipoC3S3': 11.67, 'lipoC3S2': 7.71, 'rot1': 281, 'rot0': 268, 'rot3': 210, 'rot2': 170, 'state': 'normal', 'yaw': 12.74, 'datetime': '2018-10-05 20:09:48.942064', 'mgs': 0, 'volt': 0.8105, 'depth': 0.165, 'time': 77, 'pitch': -12.67, 'roll': -1.27, 'pres': 166}
{'lipoC2': 7.75, 'lipoC3S1': 3.86, 'temp': 28.56, 'lipoC3S3': 11.67, 'lipoC3S2': 7.71, 'rot1': 281, 'rot0': 268, 'rot3': 210, 'rot2': 170, 'state': 'normal', 'yaw': 12.42, 'datetime': '2018-10-05 20:09:48.952153', 'mgs': 0, 'volt': 0.8105, 'depth': 0.165, 'time': 78, 'pitch': -13.03, 'roll': -1.66, 'pres': 166}
{'lipoC2': 7.73, 'lipoC3S1': 3.86, 'temp': 28.5, 'lipoC3S3': 11.67, 'lipoC3S2': 7.71, 'rot1': 281, 'rot0': 268, 'rot3': 210, 'rot2': 170, 'state': 'normal', 'yaw': 12.29, 'datetime': '2018-10-05 20:09:48.962324', 'mgs': 0, 'volt': 0.8105, 'depth': 0.165, 'time': 78, 'pitch': -13.23, 'roll': -2.04, 'pres': 166}
{'lipoC2': 7.75, 'lipoC3S1': 3.86, 'temp': 28.5, 'lipoC3S3': 11.67, 'lipoC3S2': 7.71, 'rot1': 281, 'rot0': 268, 'rot3': 210, 'rot2': 170, 'state': 'normal', 'yaw': 12.17, 'datetime': '2018-10-05 20:09:48.973078', 'mgs': 0, 'volt': 0.8105, 'depth': 0.165, 'time': 78, 'pitch': -12.78, 'roll': -2.18, 'pres': 166}
{'lipoC2': 7.73, 'lipoC3S1': 3.86, 'temp': 28.56, 'lipoC3S3': 11.67, 'lipoC3S2': 7.71, 'rot1': 281, 'rot0': 268, 'rot3': 210, 'rot2': 170, 'state': 'normal', 'yaw': 12.17, 'datetime': '2018-10-05 20:09:48.984167', 'mgs': 0, 'volt': 0.8057, 'depth': 0.089, 'time': 78, 'pitch': -12.23, 'roll': -1.99, 'pres': 165}
{'lipoC2': 7.75, 'lipoC3S1': 3.86, 'temp': 28.56, 'lipoC3S3': 11.67, 'lipoC3S2': 7.71, 'rot1': 281, 'rot0': 268, 'rot3': 210, 'rot2': 170, 'state': 'normal', 'yaw': 12.13, 'datetime': '2018-10-05 20:09:48.994952', 'mgs': 0, 'volt': 0.8105, 'depth': 0.165, 'time': 78, 'pitch': -11.96, 'roll': -1.56, 'pres': 166}
{'lipoC2': 7.73, 'lipoC3S1': 3.86, 'temp': 28.56, 'lipoC3S3': 11.67, 'lipoC3S2': 7.71, 'rot1': 281, 'rot0': 268, 'rot3': 210, 'rot2': 170, 'state': 'normal', 'yaw': 11.99, 'datetime': '2018-10-05 20:09:49.005000', 'mgs': 0, 'volt': 0.8105, 'depth': 0.165, 'time': 78, 'pitch': -11.89, 'roll': -0.96, 'pres': 166}
{'lipoC2': 7.73, 'lipoC3S1': 3.86, 'temp': 28.5, 'lipoC3S3': 11.67, 'lipoC3S2': 7.71, 'rot1': 281, 'rot0': 268, 'rot3': 210, 'rot2': 170, 'state': 'normal', 'yaw': 11.94, 'datetime': '2018-10-05 20:09:49.015150', 'mgs': 0, 'volt': 0.8105, 'depth': 0.165, 'time': 78, 'pitch': -11.81, 'roll': -0.49, 'pres': 166}
{'lipoC2': 7.73, 'lipoC3S1': 3.86, 'temp': 28.5, 'lipoC3S3': 11.67, 'lipoC3S2': 7.71, 'rot1': 281, 'rot0': 268, 'rot3': 210, 'rot2': 170, 'state': 'normal', 'yaw': 12.09, 'datetime': '2018-10-05 20:09:49.025165', 'mgs': 0, 'volt': 0.8105, 'depth': 0.165, 'time': 78, 'pitch': -11.74, 'roll': -0.28, 'pres': 166}
{'lipoC2': 7.73, 'lipoC3S1': 3.86, 'temp': 28.5, 'lipoC3S3': 11.67, 'lipoC3S2': 7.71, 'rot1': 281, 'rot0': 268, 'rot3': 210, 'rot2': 170, 'state': 'normal', 'yaw': 12.12, 'datetime': '2018-10-05 20:09:49.035291', 'mgs': 0, 'volt': 0.8105, 'depth': 0.165, 'time': 78, 'pitch': -12.01, 'roll': -0.23, 'pres': 166}
{'lipoC2': 7.73, 'lipoC3S1': 3.86, 'temp': 28.5, 'lipoC3S3': 11.67, 'lipoC3S2': 7.71, 'rot1': 281, 'rot0': 268, 'rot3': 210, 'rot2': 170, 'state': 'normal', 'yaw': 12.18, 'datetime': '2018-10-05 20:09:49.045518', 'mgs': 0, 'volt': 0.8154, 'depth': 0.241, 'time': 79, 'pitch': -12.24, 'roll': -0.28, 'pres': 167}
{'lipoC2': 7.73, 'lipoC3S1': 3.86, 'temp': 28.44, 'lipoC3S3': 11.67, 'lipoC3S2': 7.71, 'rot1': 281, 'rot0': 268, 'rot3': 210, 'rot2': 170, 'state': 'normal', 'yaw': 12.29, 'datetime': '2018-10-05 20:09:49.056326', 'mgs': 0, 'volt': 0.8154, 'depth': 0.241, 'time': 79, 'pitch': -12.1, 'roll': -0.45, 'pres': 167}
{'lipoC2': 7.73, 'lipoC3S1': 3.86, 'temp': 28.44, 'lipoC3S3': 11.67, 'lipoC3S2': 7.71, 'rot1': 281, 'rot0': 268, 'rot3': 210, 'rot2': 170, 'state': 'normal', 'yaw': 12.28, 'datetime': '2018-10-05 20:09:49.095417', 'mgs': 0, 'volt': 0.8154, 'depth': 0.241, 'time': 79, 'pitch': -11.74, 'roll': -0.64, 'pres': 167}
{'lipoC2': 7.73, 'lipoC3S1': 3.86, 'temp': 28.44, 'lipoC3S3': 11.67, 'lipoC3S2': 7.71, 'rot1': 281, 'rot0': 268, 'rot3': 210, 'rot2': 170, 'state': 'normal', 'yaw': 12.09, 'datetime': '2018-10-05 20:09:49.199569', 'mgs': 0, 'volt': 0.8154, 'depth': 0.241, 'time': 79, 'pitch': -11.66, 'roll': -0.9, 'pres': 167}
{'lipoC2': 7.73, 'lipoC3S1': 3.86, 'temp': 28.44, 'lipoC3S3': 11.67, 'lipoC3S2': 7.71, 'rot1': 281, 'rot0': 268, 'rot3': 210, 'rot2': 170, 'state': 'normal', 'yaw': 11.85, 'datetime': '2018-10-05 20:09:49.303646', 'mgs': 0, 'volt': 0.8154, 'depth': 0.241, 'time': 79, 'pitch': -12.08, 'roll': -1.19, 'pres': 167}
{'lipoC2': 7.73, 'lipoC3S1': 3.86, 'temp': 28.44, 'lipoC3S3': 11.67, 'lipoC3S2': 7.71, 'rot1': 281, 'rot0': 268, 'rot3': 210, 'rot2': 170, 'state': 'normal', 'yaw': 11.7, 'datetime': '2018-10-05 20:09:49.407779', 'mgs': 0, 'volt': 0.8154, 'depth': 0.241, 'time': 79, 'pitch': -12.84, 'roll': -1.54, 'pres': 167}
{'lipoC2': 7.73, 'lipoC3S1': 3.86, 'temp': 28.5, 'lipoC3S3': 11.67, 'lipoC3S2': 7.71, 'rot1': 281, 'rot0': 268, 'rot3': 210, 'rot2': 170, 'state': 'normal', 'yaw': 11.68, 'datetime': '2018-10-05 20:09:49.511862', 'mgs': 0, 'volt': 0.8154, 'depth': 0.241, 'time': 79, 'pitch': -13.54, 'roll': -1.74, 'pres': 167}
{'lipoC2': 7.73, 'lipoC3S1': 3.86, 'temp': 28.5, 'lipoC3S3': 11.67, 'lipoC3S2': 7.71, 'rot1': 281, 'rot0': 268, 'rot3': 210, 'rot2': 170, 'state': 'normal', 'yaw': 11.77, 'datetime': '2018-10-05 20:09:49.627220', 'mgs': 0, 'volt': 0.8154, 'depth': 0.241, 'time': 79, 'pitch': -13.84, 'roll': -1.76, 'pres': 167}
{'lipoC2': 7.73, 'lipoC3S1': 3.86, 'temp': 28.56, 'lipoC3S3': 11.67, 'lipoC3S2': 7.71, 'rot1': 281, 'rot0': 268, 'rot3': 210, 'rot2': 170, 'state': 'normal', 'yaw': 11.97, 'datetime': '2018-10-05 20:09:49.731320', 'mgs': 0, 'volt': 0.8154, 'depth': 0.241, 'time': 79, 'pitch': -13.72, 'roll': -1.57, 'pres': 167}
{'lipoC2': 7.73, 'lipoC3S1': 3.86, 'temp': 28.56, 'lipoC3S3': 11.67, 'lipoC3S2': 7.71, 'rot1': 281, 'rot0': 268, 'rot3': 210, 'rot2': 170, 'state': 'normal', 'yaw': 12.06, 'datetime': '2018-10-05 20:09:49.836883', 'mgs': 0, 'volt': 0.8154, 'depth': 0.241, 'time': 79, 'pitch': -13.64, 'roll': -1.18, 'pres': 167}
{'lipoC2': 7.73, 'lipoC3S1': 3.86, 'temp': 28.56, 'lipoC3S3': 11.67, 'lipoC3S2': 7.71, 'rot1': 281, 'rot0': 268, 'rot3': 210, 'rot2': 170, 'state': 'normal', 'yaw': 12.17, 'datetime': '2018-10-05 20:09:49.940701', 'mgs': 0, 'volt': 0.8154, 'depth': 0.241, 'time': 80, 'pitch': -13.94, 'roll': -0.66, 'pres': 167}
{'lipoC2': 7.73, 'lipoC3S1': 3.86, 'temp': 28.5, 'lipoC3S3': 11.67, 'lipoC3S2': 7.71, 'rot1': 281, 'rot0': 268, 'rot3': 210, 'rot2': 170, 'state': 'normal', 'yaw': 12.26, 'datetime': '2018-10-05 20:09:50.046323', 'mgs': 0, 'volt': 0.8203, 'depth': 0.317, 'time': 80, 'pitch': -14.46, 'roll': -0.19, 'pres': 168}
{'lipoC2': 7.73, 'lipoC3S1': 3.86, 'temp': 28.5, 'lipoC3S3': 11.67, 'lipoC3S2': 7.71, 'rot1': 281, 'rot0': 268, 'rot3': 210, 'rot2': 170, 'state': 'normal', 'yaw': 12.28, 'datetime': '2018-10-05 20:09:50.155794', 'mgs': 0, 'volt': 0.8154, 'depth': 0.241, 'time': 80, 'pitch': -14.6, 'roll': 0.3, 'pres': 167}
{'lipoC2': 7.73, 'lipoC3S1': 3.86, 'temp': 28.5, 'lipoC3S3': 11.67, 'lipoC3S2': 7.71, 'rot1': 281, 'rot0': 268, 'rot3': 210, 'rot2': 170, 'state': 'normal', 'yaw': 12.21, 'datetime': '2018-10-05 20:09:50.254678', 'mgs': 0, 'volt': 0.8154, 'depth': 0.241, 'time': 80, 'pitch': -14.47, 'roll': 0.68, 'pres': 167}
{'lipoC2': 7.73, 'lipoC3S1': 3.86, 'temp': 28.5, 'lipoC3S3': 11.67, 'lipoC3S2': 7.71, 'rot1': 281, 'rot0': 268, 'rot3': 210, 'rot2': 170, 'state': 'normal', 'yaw': 12.12, 'datetime': '2018-10-05 20:09:50.359225', 'mgs': 0, 'volt': 0.8154, 'depth': 0.241, 'time': 80, 'pitch': -14.41, 'roll': 0.85, 'pres': 167}
{'lipoC2': 7.73, 'lipoC3S1': 3.86, 'temp': 28.5, 'lipoC3S3': 11.67, 'lipoC3S2': 7.71, 'rot1': 281, 'rot0': 268, 'rot3': 210, 'rot2': 170, 'state': 'normal', 'yaw': 12.01, 'datetime': '2018-10-05 20:09:50.463412', 'mgs': 0, 'volt': 0.8203, 'depth': 0.317, 'time': 80, 'pitch': -14.43, 'roll': 0.78, 'pres': 168}
{'lipoC2': 7.73, 'lipoC3S1': 3.86, 'temp': 28.5, 'lipoC3S3': 11.67, 'lipoC3S2': 7.71, 'rot1': 281, 'rot0': 268, 'rot3': 210, 'rot2': 170, 'state': 'normal', 'yaw': 11.86, 'datetime': '2018-10-05 20:09:50.567971', 'mgs': 0, 'volt': 0.8203, 'depth': 0.317, 'time': 80, 'pitch': -14.55, 'roll': 0.56, 'pres': 168}
{'lipoC2': 7.73, 'lipoC3S1': 3.86, 'temp': 28.5, 'lipoC3S3': 11.67, 'lipoC3S2': 7.71, 'rot1': 281, 'rot0': 268, 'rot3': 210, 'rot2': 170, 'state': 'normal', 'yaw': 11.58, 'datetime': '2018-10-05 20:09:50.671848', 'mgs': 0, 'volt': 0.8203, 'depth': 0.317, 'time': 80, 'pitch': -14.58, 'roll': 0.26, 'pres': 168}
{'lipoC2': 7.73, 'lipoC3S1': 3.86, 'temp': 28.5, 'lipoC3S3': 11.67, 'lipoC3S2': 7.71, 'rot1': 281, 'rot0': 268, 'rot3': 210, 'rot2': 170, 'state': 'normal', 'yaw': 11.34, 'datetime': '2018-10-05 20:09:50.776100', 'mgs': 0, 'volt': 0.8203, 'depth': 0.317, 'time': 80, 'pitch': -14.55, 'roll': -0.08, 'pres': 168}
{'lipoC2': 7.73, 'lipoC3S1': 3.86, 'temp': 28.5, 'lipoC3S3': 11.67, 'lipoC3S2': 7.71, 'rot1': 281, 'rot0': 268, 'rot3': 210, 'rot2': 170, 'state': 'normal', 'yaw': 11.21, 'datetime': '2018-10-05 20:09:50.880692', 'mgs': 0, 'volt': 0.8203, 'depth': 0.317, 'time': 81, 'pitch': -14.57, 'roll': -0.51, 'pres': 168}
{'lipoC2': 7.73, 'lipoC3S1': 3.86, 'temp': 28.44, 'lipoC3S3': 11.67, 'lipoC3S2': 7.71, 'rot1': 281, 'rot0': 268, 'rot3': 210, 'rot2': 170, 'state': 'normal', 'yaw': 11.28, 'datetime': '2018-10-05 20:09:50.984863', 'mgs': 0, 'volt': 0.8203, 'depth': 0.317, 'time': 81, 'pitch': -14.83, 'roll': -0.96, 'pres': 168}
{'lipoC2': 7.73, 'lipoC3S1': 3.86, 'temp': 28.44, 'lipoC3S3': 11.67, 'lipoC3S2': 7.71, 'rot1': 281, 'rot0': 268, 'rot3': 210, 'rot2': 170, 'state': 'normal', 'yaw': 11.41, 'datetime': '2018-10-05 20:09:51.090489', 'mgs': 0, 'volt': 0.8203, 'depth': 0.317, 'time': 81, 'pitch': -15.14, 'roll': -1.16, 'pres': 168}
{'lipoC2': 7.73, 'lipoC3S1': 3.86, 'temp': 28.5, 'lipoC3S3': 11.67, 'lipoC3S2': 7.71, 'rot1': 281, 'rot0': 268, 'rot3': 210, 'rot2': 170, 'state': 'normal', 'yaw': 11.45, 'datetime': '2018-10-05 20:09:51.194719', 'mgs': 0, 'volt': 0.8154, 'depth': 0.241, 'time': 81, 'pitch': -15.3, 'roll': -1.05, 'pres': 167}
{'lipoC2': 7.73, 'lipoC3S1': 3.86, 'temp': 28.5, 'lipoC3S3': 11.67, 'lipoC3S2': 7.71, 'rot1': 281, 'rot0': 268, 'rot3': 210, 'rot2': 170, 'state': 'normal', 'yaw': 11.45, 'datetime': '2018-10-05 20:09:51.299959', 'mgs': 0, 'volt': 0.8203, 'depth': 0.317, 'time': 81, 'pitch': -15.16, 'roll': -0.67, 'pres': 168}
{'lipoC2': 7.73, 'lipoC3S1': 3.86, 'temp': 28.5, 'lipoC3S3': 11.67, 'lipoC3S2': 7.71, 'rot1': 281, 'rot0': 268, 'rot3': 210, 'rot2': 170, 'state': 'normal', 'yaw': 11.85, 'datetime': '2018-10-05 20:09:51.404266', 'mgs': 0, 'volt': 0.8154, 'depth': 0.241, 'time': 81, 'pitch': -14.85, 'roll': -0.33, 'pres': 167}
{'lipoC2': 7.73, 'lipoC3S1': 3.86, 'temp': 28.5, 'lipoC3S3': 11.67, 'lipoC3S2': 7.71, 'rot1': 281, 'rot0': 268, 'rot3': 210, 'rot2': 170, 'state': 'normal', 'yaw': 12.42, 'datetime': '2018-10-05 20:09:51.508526', 'mgs': 0, 'volt': 0.8154, 'depth': 0.241, 'time': 81, 'pitch': -14.62, 'roll': -0.17, 'pres': 167}
{'lipoC2': 7.73, 'lipoC3S1': 3.86, 'temp': 28.5, 'lipoC3S3': 11.67, 'lipoC3S2': 7.71, 'rot1': 281, 'rot0': 268, 'rot3': 210, 'rot2': 170, 'state': 'normal', 'yaw': 12.72, 'datetime': '2018-10-05 20:09:51.613277', 'mgs': 0, 'volt': 0.8154, 'depth': 0.241, 'time': 81, 'pitch': -14.47, 'roll': 0.07, 'pres': 167}
{'lipoC2': 7.73, 'lipoC3S1': 3.86, 'temp': 28.5, 'lipoC3S3': 11.67, 'lipoC3S2': 7.71, 'rot1': 281, 'rot0': 268, 'rot3': 210, 'rot2': 170, 'state': 'normal', 'yaw': 12.64, 'datetime': '2018-10-05 20:09:51.710181', 'mgs': 0, 'volt': 0.8154, 'depth': 0.241, 'time': 81, 'pitch': -14.37, 'roll': 0.5, 'pres': 167}
{'lipoC2': 7.73, 'lipoC3S1': 3.86, 'temp': 28.5, 'lipoC3S3': 11.67, 'lipoC3S2': 7.71, 'rot1': 281, 'rot0': 268, 'rot3': 210, 'rot2': 170, 'state': 'normal', 'yaw': 12.55, 'datetime': '2018-10-05 20:09:51.814362', 'mgs': 0, 'volt': 0.8154, 'depth': 0.241, 'time': 81, 'pitch': -14.22, 'roll': 0.72, 'pres': 167}
{'lipoC2': 7.73, 'lipoC3S1': 3.86, 'temp': 28.5, 'lipoC3S3': 11.67, 'lipoC3S2': 7.71, 'rot1': 281, 'rot0': 268, 'rot3': 210, 'rot2': 170, 'state': 'normal', 'yaw': 12.6, 'datetime': '2018-10-05 20:09:51.918484', 'mgs': 0, 'volt': 0.8154, 'depth': 0.241, 'time': 82, 'pitch': -13.96, 'roll': 0.6, 'pres': 167}
{'lipoC2': 7.73, 'lipoC3S1': 3.86, 'temp': 28.5, 'lipoC3S3': 11.67, 'lipoC3S2': 7.71, 'rot1': 281, 'rot0': 268, 'rot3': 210, 'rot2': 170, 'state': 'normal', 'yaw': 12.58, 'datetime': '2018-10-05 20:09:52.022602', 'mgs': 1, 'volt': 0.8105, 'depth': 0.165, 'time': 82, 'pitch': -13.73, 'roll': 0.26, 'pres': 166}
{'lipoC2': 7.73, 'lipoC3S1': 3.86, 'temp': 28.5, 'lipoC3S3': 11.67, 'lipoC3S2': 7.71, 'rot1': 0, 'rot0': 0, 'rot3': 0, 'rot2': 0, 'state': 'normal', 'yaw': -0.03, 'datetime': '2018-10-05 20:09:58.058947', 'mgs': 0, 'volt': 0.8105, 'depth': 0.165, 'time': 1, 'pitch': -13.71, 'roll': 0.07, 'pres': 166}
{'lipoC2': 7.75, 'lipoC3S1': 3.86, 'temp': 28.5, 'lipoC3S3': 11.67, 'lipoC3S2': 7.71, 'rot1': 0, 'rot0': 0, 'rot3': 0, 'rot2': 0, 'state': 'normal', 'yaw': -0.28, 'datetime': '2018-10-05 20:10:01.102932', 'mgs': 0, 'volt': 0.8105, 'depth': 0.165, 'time': 1, 'pitch': -13.61, 'roll': -0.06, 'pres': 166}
{'lipoC2': 7.75, 'lipoC3S1': 3.86, 'temp': 28.5, 'lipoC3S3': 11.67, 'lipoC3S2': 7.71, 'rot1': 0, 'rot0': 0, 'rot3': 0, 'rot2': 0, 'state': 'normal', 'yaw': -0.3, 'datetime': '2018-10-05 20:10:01.143186', 'mgs': 0, 'volt': 0.8105, 'depth': 0.165, 'time': 1, 'pitch': -13.28, 'roll': -0.41, 'pres': 166}
{'lipoC2': 7.75, 'lipoC3S1': 3.86, 'temp': 28.5, 'lipoC3S3': 11.67, 'lipoC3S2': 7.71, 'rot1': 0, 'rot0': 0, 'rot3': 0, 'rot2': 0, 'state': 'normal', 'yaw': -0.3, 'datetime': '2018-10-05 20:10:01.170389', 'mgs': 0, 'volt': 0.8057, 'depth': 0.089, 'time': 1, 'pitch': -13.06, 'roll': -0.86, 'pres': 165}
{'lipoC2': 7.75, 'lipoC3S1': 3.86, 'temp': 28.5, 'lipoC3S3': 11.67, 'lipoC3S2': 7.71, 'rot1': 0, 'rot0': 0, 'rot3': 0, 'rot2': 0, 'state': 'normal', 'yaw': -0.62, 'datetime': '2018-10-05 20:10:01.203264', 'mgs': 0, 'volt': 0.8105, 'depth': 0.165, 'time': 1, 'pitch': -13.18, 'roll': -1.12, 'pres': 166}
{'lipoC2': 7.73, 'lipoC3S1': 3.86, 'temp': 28.5, 'lipoC3S3': 11.67, 'lipoC3S2': 7.71, 'rot1': 0, 'rot0': 0, 'rot3': 0, 'rot2': 0, 'state': 'normal', 'yaw': -1.03, 'datetime': '2018-10-05 20:10:01.236189', 'mgs': 0, 'volt': 0.8105, 'depth': 0.165, 'time': 1, 'pitch': -13.52, 'roll': -1.2, 'pres': 166}
{'lipoC2': 7.75, 'lipoC3S1': 3.86, 'temp': 28.5, 'lipoC3S3': 11.67, 'lipoC3S2': 7.71, 'rot1': 0, 'rot0': 0, 'rot3': 0, 'rot2': 0, 'state': 'normal', 'yaw': -1.32, 'datetime': '2018-10-05 20:10:01.247064', 'mgs': 0, 'volt': 0.8105, 'depth': 0.165, 'time': 1, 'pitch': -13.8, 'roll': -1.31, 'pres': 166}
{'lipoC2': 7.73, 'lipoC3S1': 3.86, 'temp': 28.5, 'lipoC3S3': 11.67, 'lipoC3S2': 7.71, 'rot1': 0, 'rot0': 0, 'rot3': 0, 'rot2': 0, 'state': 'normal', 'yaw': -1.54, 'datetime': '2018-10-05 20:10:01.264230', 'mgs': 0, 'volt': 0.8105, 'depth': 0.165, 'time': 1, 'pitch': -14.13, 'roll': -1.39, 'pres': 166}
{'lipoC2': 7.73, 'lipoC3S1': 3.86, 'temp': 28.5, 'lipoC3S3': 11.67, 'lipoC3S2': 7.71, 'rot1': 0, 'rot0': 0, 'rot3': 0, 'rot2': 0, 'state': 'normal', 'yaw': -1.59, 'datetime': '2018-10-05 20:10:01.280538', 'mgs': 0, 'volt': 0.8105, 'depth': 0.165, 'time': 2, 'pitch': -14.36, 'roll': -1.39, 'pres': 166}
{'lipoC2': 7.73, 'lipoC3S1': 3.86, 'temp': 28.5, 'lipoC3S3': 11.67, 'lipoC3S2': 7.71, 'rot1': 0, 'rot0': 0, 'rot3': 0, 'rot2': 0, 'state': 'normal', 'yaw': -1.42, 'datetime': '2018-10-05 20:10:01.290686', 'mgs': 0, 'volt': 0.8105, 'depth': 0.165, 'time': 2, 'pitch': -14.36, 'roll': -1.34, 'pres': 166}
{'lipoC2': 7.75, 'lipoC3S1': 3.86, 'temp': 28.5, 'lipoC3S3': 11.67, 'lipoC3S2': 7.71, 'rot1': 0, 'rot0': 0, 'rot3': 0, 'rot2': 0, 'state': 'normal', 'yaw': -1.2, 'datetime': '2018-10-05 20:10:01.307101', 'mgs': 0, 'volt': 0.8105, 'depth': 0.165, 'time': 2, 'pitch': -14.19, 'roll': -1.08, 'pres': 166}
{'lipoC2': 7.73, 'lipoC3S1': 3.86, 'temp': 28.5, 'lipoC3S3': 11.67, 'lipoC3S2': 7.71, 'rot1': 0, 'rot0': 0, 'rot3': 0, 'rot2': 0, 'state': 'normal', 'yaw': -1.08, 'datetime': '2018-10-05 20:10:01.323357', 'mgs': 0, 'volt': 0.8105, 'depth': 0.165, 'time': 2, 'pitch': -14.16, 'roll': -0.67, 'pres': 166}
{'lipoC2': 7.75, 'lipoC3S1': 3.86, 'temp': 28.5, 'lipoC3S3': 11.67, 'lipoC3S2': 7.71, 'rot1': 0, 'rot0': 0, 'rot3': 0, 'rot2': 0, 'state': 'normal', 'yaw': -1.07, 'datetime': '2018-10-05 20:10:01.333490', 'mgs': 0, 'volt': 0.8105, 'depth': 0.165, 'time': 2, 'pitch': -14.19, 'roll': -0.25, 'pres': 166}
{'lipoC2': 7.75, 'lipoC3S1': 3.86, 'temp': 28.5, 'lipoC3S3': 11.67, 'lipoC3S2': 7.71, 'rot1': 0, 'rot0': 0, 'rot3': 0, 'rot2': 0, 'state': 'normal', 'yaw': -0.95, 'datetime': '2018-10-05 20:10:01.350307', 'mgs': 0, 'volt': 0.8154, 'depth': 0.241, 'time': 2, 'pitch': -14.07, 'roll': 0.02, 'pres': 167}
{'lipoC2': 7.75, 'lipoC3S1': 3.86, 'temp': 28.5, 'lipoC3S3': 11.67, 'lipoC3S2': 7.71, 'rot1': 0, 'rot0': 0, 'rot3': 0, 'rot2': 0, 'state': 'normal', 'yaw': -0.92, 'datetime': '2018-10-05 20:10:01.367546', 'mgs': 0, 'volt': 0.8154, 'depth': 0.241, 'time': 2, 'pitch': -13.93, 'roll': 0.1, 'pres': 167}
{'lipoC2': 7.75, 'lipoC3S1': 3.86, 'temp': 28.5, 'lipoC3S3': 11.67, 'lipoC3S2': 7.71, 'rot1': 0, 'rot0': 0, 'rot3': 0, 'rot2': 0, 'state': 'normal', 'yaw': -0.92, 'datetime': '2018-10-05 20:10:01.377930', 'mgs': 0, 'volt': 0.8105, 'depth': 0.165, 'time': 2, 'pitch': -13.95, 'roll': 0.06, 'pres': 166}
{'lipoC2': 7.73, 'lipoC3S1': 3.86, 'temp': 28.5, 'lipoC3S3': 11.67, 'lipoC3S2': 7.71, 'rot1': 0, 'rot0': 0, 'rot3': 0, 'rot2': 0, 'state': 'normal', 'yaw': -0.92, 'datetime': '2018-10-05 20:10:01.394149', 'mgs': 0, 'volt': 0.8154, 'depth': 0.241, 'time': 2, 'pitch': -14.11, 'roll': -0.13, 'pres': 167}
{'lipoC2': 7.75, 'lipoC3S1': 3.86, 'temp': 28.5, 'lipoC3S3': 11.67, 'lipoC3S2': 7.71, 'rot1': 0, 'rot0': 0, 'rot3': 0, 'rot2': 0, 'state': 'normal', 'yaw': -0.92, 'datetime': '2018-10-05 20:10:01.410587', 'mgs': 0, 'volt': 0.8154, 'depth': 0.241, 'time': 3, 'pitch': -14.16, 'roll': -0.34, 'pres': 167}
{'lipoC2': 7.73, 'lipoC3S1': 3.86, 'temp': 28.5, 'lipoC3S3': 11.67, 'lipoC3S2': 7.71, 'rot1': 0, 'rot0': 0, 'rot3': 0, 'rot2': 0, 'state': 'normal', 'yaw': -0.92, 'datetime': '2018-10-05 20:10:01.420874', 'mgs': 0, 'volt': 0.8154, 'depth': 0.241, 'time': 3, 'pitch': -13.98, 'roll': -0.54, 'pres': 167}
{'lipoC2': 7.73, 'lipoC3S1': 3.86, 'temp': 28.5, 'lipoC3S3': 11.67, 'lipoC3S2': 7.71, 'rot1': 0, 'rot0': 0, 'rot3': 0, 'rot2': 0, 'state': 'normal', 'yaw': -1.0, 'datetime': '2018-10-05 20:10:01.437314', 'mgs': 0, 'volt': 0.8154, 'depth': 0.241, 'time': 3, 'pitch': -13.7, 'roll': -0.67, 'pres': 167}
{'lipoC2': 7.73, 'lipoC3S1': 3.86, 'temp': 28.5, 'lipoC3S3': 11.67, 'lipoC3S2': 7.71, 'rot1': 0, 'rot0': 0, 'rot3': 0, 'rot2': 0, 'state': 'normal', 'yaw': -1.14, 'datetime': '2018-10-05 20:10:01.454131', 'mgs': 0, 'volt': 0.8105, 'depth': 0.165, 'time': 3, 'pitch': -13.59, 'roll': -0.78, 'pres': 166}
{'lipoC2': 7.75, 'lipoC3S1': 3.86, 'temp': 28.5, 'lipoC3S3': 11.67, 'lipoC3S2': 7.71, 'rot1': 0, 'rot0': 0, 'rot3': 0, 'rot2': 0, 'state': 'normal', 'yaw': -1.16, 'datetime': '2018-10-05 20:10:01.465003', 'mgs': 0, 'volt': 0.8105, 'depth': 0.165, 'time': 3, 'pitch': -13.7, 'roll': -0.88, 'pres': 166}
{'lipoC2': 7.75, 'lipoC3S1': 3.86, 'temp': 28.5, 'lipoC3S3': 11.67, 'lipoC3S2': 7.71, 'rot1': 0, 'rot0': 0, 'rot3': 0, 'rot2': 0, 'state': 'normal', 'yaw': -1.15, 'datetime': '2018-10-05 20:10:01.481364', 'mgs': 0, 'volt': 0.8105, 'depth': 0.165, 'time': 3, 'pitch': -13.82, 'roll': -0.91, 'pres': 166}
{'lipoC2': 7.75, 'lipoC3S1': 3.86, 'temp': 28.5, 'lipoC3S3': 11.67, 'lipoC3S2': 7.71, 'rot1': 0, 'rot0': 0, 'rot3': 0, 'rot2': 0, 'state': 'normal', 'yaw': -1.11, 'datetime': '2018-10-05 20:10:01.497693', 'mgs': 0, 'volt': 0.8105, 'depth': 0.165, 'time': 3, 'pitch': -13.82, 'roll': -0.83, 'pres': 166}
{'lipoC2': 7.75, 'lipoC3S1': 3.86, 'temp': 28.5, 'lipoC3S3': 11.67, 'lipoC3S2': 7.71, 'rot1': 0, 'rot0': 0, 'rot3': 0, 'rot2': 0, 'state': 'normal', 'yaw': -1.11, 'datetime': '2018-10-05 20:10:01.507937', 'mgs': 0, 'volt': 0.8105, 'depth': 0.165, 'time': 3, 'pitch': -13.82, 'roll': -0.58, 'pres': 166}
{'lipoC2': 7.75, 'lipoC3S1': 3.86, 'temp': 28.5, 'lipoC3S3': 11.67, 'lipoC3S2': 7.72, 'rot1': 0, 'rot0': 0, 'rot3': 0, 'rot2': 0, 'state': 'normal', 'yaw': -1.1, 'datetime': '2018-10-05 20:10:01.524176', 'mgs': 0, 'volt': 0.8105, 'depth': 0.165, 'time': 3, 'pitch': -13.76, 'roll': -0.3, 'pres': 166}
{'lipoC2': 7.73, 'lipoC3S1': 3.86, 'temp': 28.5, 'lipoC3S3': 11.67, 'lipoC3S2': 7.71, 'rot1': 0, 'rot0': 0, 'rot3': 0, 'rot2': 0, 'state': 'normal', 'yaw': -0.95, 'datetime': '2018-10-05 20:10:01.541329', 'mgs': 0, 'volt': 0.8105, 'depth': 0.165, 'time': 3, 'pitch': -13.76, 'roll': -0.05, 'pres': 166}
{'lipoC2': 7.75, 'lipoC3S1': 3.86, 'temp': 28.5, 'lipoC3S3': 11.67, 'lipoC3S2': 7.71, 'rot1': 0, 'rot0': 0, 'rot3': 0, 'rot2': 0, 'state': 'normal', 'yaw': -0.77, 'datetime': '2018-10-05 20:10:01.551650', 'mgs': 0, 'volt': 0.8105, 'depth': 0.165, 'time': 4, 'pitch': -13.83, 'roll': 0.14, 'pres': 166}
{'lipoC2': 7.73, 'lipoC3S1': 3.86, 'temp': 28.5, 'lipoC3S3': 11.67, 'lipoC3S2': 7.71, 'rot1': 0, 'rot0': 0, 'rot3': 0, 'rot2': 0, 'state': 'normal', 'yaw': -0.64, 'datetime': '2018-10-05 20:10:01.569193', 'mgs': 0, 'volt': 0.8105, 'depth': 0.165, 'time': 4, 'pitch': -13.93, 'roll': 0.35, 'pres': 166}
{'lipoC2': 7.73, 'lipoC3S1': 3.86, 'temp': 28.5, 'lipoC3S3': 11.67, 'lipoC3S2': 7.71, 'rot1': 0, 'rot0': 0, 'rot3': 0, 'rot2': 0, 'state': 'normal', 'yaw': -0.51, 'datetime': '2018-10-05 20:10:01.585714', 'mgs': 0, 'volt': 0.8105, 'depth': 0.165, 'time': 4, 'pitch': -13.85, 'roll': 0.55, 'pres': 166}
{'lipoC2': 7.73, 'lipoC3S1': 3.86, 'temp': 28.5, 'lipoC3S3': 11.67, 'lipoC3S2': 7.71, 'rot1': 0, 'rot0': 0, 'rot3': 0, 'rot2': 0, 'state': 'normal', 'yaw': -0.4, 'datetime': '2018-10-05 20:10:01.595944', 'mgs': 0, 'volt': 0.8105, 'depth': 0.165, 'time': 4, 'pitch': -13.61, 'roll': 0.65, 'pres': 166}
{'lipoC2': 7.73, 'lipoC3S1': 3.86, 'temp': 28.5, 'lipoC3S3': 11.67, 'lipoC3S2': 7.71, 'rot1': 0, 'rot0': 0, 'rot3': 0, 'rot2': 0, 'state': 'normal', 'yaw': -0.34, 'datetime': '2018-10-05 20:10:01.612053', 'mgs': 0, 'volt': 0.8105, 'depth': 0.165, 'time': 4, 'pitch': -13.53, 'roll': 0.68, 'pres': 166}
{'lipoC2': 7.75, 'lipoC3S1': 3.86, 'temp': 28.5, 'lipoC3S3': 11.67, 'lipoC3S2': 7.71, 'rot1': 0, 'rot0': 0, 'rot3': 0, 'rot2': 0, 'state': 'normal', 'yaw': -0.35, 'datetime': '2018-10-05 20:10:01.628323', 'mgs': 0, 'volt': 0.8105, 'depth': 0.165, 'time': 4, 'pitch': -13.68, 'roll': 0.67, 'pres': 166}
{'lipoC2': 7.73, 'lipoC3S1': 3.86, 'temp': 28.5, 'lipoC3S3': 11.67, 'lipoC3S2': 7.71, 'rot1': 0, 'rot0': 0, 'rot3': 0, 'rot2': 0, 'state': 'normal', 'yaw': -0.43, 'datetime': '2018-10-05 20:10:01.638584', 'mgs': 0, 'volt': 0.8105, 'depth': 0.165, 'time': 4, 'pitch': -13.77, 'roll': 0.52, 'pres': 166}
{'lipoC2': 7.75, 'lipoC3S1': 3.86, 'temp': 28.5, 'lipoC3S3': 11.67, 'lipoC3S2': 7.71, 'rot1': 0, 'rot0': 0, 'rot3': 0, 'rot2': 0, 'state': 'normal', 'yaw': -0.43, 'datetime': '2018-10-05 20:10:01.654817', 'mgs': 0, 'volt': 0.8105, 'depth': 0.165, 'time': 4, 'pitch': -13.77, 'roll': 0.21, 'pres': 166}
{'lipoC2': 7.75, 'lipoC3S1': 3.86, 'temp': 28.5, 'lipoC3S3': 11.67, 'lipoC3S2': 7.71, 'rot1': 0, 'rot0': 0, 'rot3': 0, 'rot2': 0, 'state': 'normal', 'yaw': -0.34, 'datetime': '2018-10-05 20:10:01.672110', 'mgs': 0, 'volt': 0.8105, 'depth': 0.165, 'time': 4, 'pitch': -13.93, 'roll': -0.25, 'pres': 166}
{'lipoC2': 7.73, 'lipoC3S1': 3.86, 'temp': 28.5, 'lipoC3S3': 11.67, 'lipoC3S2': 7.71, 'rot1': 0, 'rot0': 0, 'rot3': 0, 'rot2': 0, 'state': 'normal', 'yaw': -0.33, 'datetime': '2018-10-05 20:10:01.682770', 'mgs': 0, 'volt': 0.8105, 'depth': 0.165, 'time': 4, 'pitch': -14.28, 'roll': -0.56, 'pres': 166}
{'lipoC2': 7.75, 'lipoC3S1': 3.86, 'temp': 28.5, 'lipoC3S3': 11.67, 'lipoC3S2': 7.71, 'rot1': 0, 'rot0': 0, 'rot3': 0, 'rot2': 0, 'state': 'normal', 'yaw': -0.45, 'datetime': '2018-10-05 20:10:01.699110', 'mgs': 0, 'volt': 0.8105, 'depth': 0.165, 'time': 5, 'pitch': -14.57, 'roll': -0.64, 'pres': 166}
{'lipoC2': 7.75, 'lipoC3S1': 3.86, 'temp': 28.5, 'lipoC3S3': 11.67, 'lipoC3S2': 7.71, 'rot1': 0, 'rot0': 0, 'rot3': 0, 'rot2': 0, 'state': 'normal', 'yaw': -0.56, 'datetime': '2018-10-05 20:10:01.715400', 'mgs': 0, 'volt': 0.8105, 'depth': 0.165, 'time': 5, 'pitch': -14.5, 'roll': -0.57, 'pres': 166}
{'lipoC2': 7.73, 'lipoC3S1': 3.86, 'temp': 28.5, 'lipoC3S3': 11.67, 'lipoC3S2': 7.71, 'rot1': 0, 'rot0': 0, 'rot3': 0, 'rot2': 0, 'state': 'normal', 'yaw': -0.64, 'datetime': '2018-10-05 20:10:01.725689', 'mgs': 0, 'volt': 0.8105, 'depth': 0.165, 'time': 5, 'pitch': -14.27, 'roll': -0.38, 'pres': 166}
{'lipoC2': 7.73, 'lipoC3S1': 3.86, 'temp': 28.5, 'lipoC3S3': 11.67, 'lipoC3S2': 7.71, 'rot1': 0, 'rot0': 0, 'rot3': 0, 'rot2': 0, 'state': 'normal', 'yaw': -0.76, 'datetime': '2018-10-05 20:10:01.742097', 'mgs': 0, 'volt': 0.8105, 'depth': 0.165, 'time': 5, 'pitch': -14.27, 'roll': -0.09, 'pres': 166}
{'lipoC2': 7.75, 'lipoC3S1': 3.86, 'temp': 28.5, 'lipoC3S3': 11.67, 'lipoC3S2': 7.72, 'rot1': 0, 'rot0': 0, 'rot3': 0, 'rot2': 0, 'state': 'normal', 'yaw': -0.87, 'datetime': '2018-10-05 20:10:01.758635', 'mgs': 0, 'volt': 0.8105, 'depth': 0.165, 'time': 5, 'pitch': -14.44, 'roll': 0.22, 'pres': 166}
{'lipoC2': 7.75, 'lipoC3S1': 3.86, 'temp': 28.5, 'lipoC3S3': 11.67, 'lipoC3S2': 7.72, 'rot1': 0, 'rot0': 0, 'rot3': 0, 'rot2': 0, 'state': 'normal', 'yaw': -0.91, 'datetime': '2018-10-05 20:10:01.769857', 'mgs': 0, 'volt': 0.8105, 'depth': 0.165, 'time': 5, 'pitch': -14.49, 'roll': 0.41, 'pres': 166}
{'lipoC2': 7.75, 'lipoC3S1': 3.86, 'temp': 28.5, 'lipoC3S3': 11.67, 'lipoC3S2': 7.71, 'rot1': 0, 'rot0': 0, 'rot3': 0, 'rot2': 0, 'state': 'normal', 'yaw': -0.95, 'datetime': '2018-10-05 20:10:01.786628', 'mgs': 0, 'volt': 0.8154, 'depth': 0.241, 'time': 5, 'pitch': -14.48, 'roll': 0.53, 'pres': 167}
{'lipoC2': 7.75, 'lipoC3S1': 3.86, 'temp': 28.5, 'lipoC3S3': 11.67, 'lipoC3S2': 7.71, 'rot1': 0, 'rot0': 0, 'rot3': 0, 'rot2': 0, 'state': 'normal', 'yaw': -0.94, 'datetime': '2018-10-05 20:10:01.802895', 'mgs': 0, 'volt': 0.8105, 'depth': 0.165, 'time': 5, 'pitch': -14.46, 'roll': 0.54, 'pres': 166}
{'lipoC2': 7.75, 'lipoC3S1': 3.86, 'temp': 28.5, 'lipoC3S3': 11.67, 'lipoC3S2': 7.71, 'rot1': 0, 'rot0': 0, 'rot3': 0, 'rot2': 0, 'state': 'normal', 'yaw': -0.79, 'datetime': '2018-10-05 20:10:01.813143', 'mgs': 0, 'volt': 0.8154, 'depth': 0.241, 'time': 5, 'pitch': -14.52, 'roll': 0.47, 'pres': 167}
{'lipoC2': 7.73, 'lipoC3S1': 3.79, 'temp': 28.5, 'lipoC3S3': 11.54, 'lipoC3S2': 7.61, 'rot1': 0, 'rot0': 0, 'rot3': 1, 'rot2': 0, 'state': 'normal', 'yaw': -0.68, 'datetime': '2018-10-05 20:10:01.829638', 'mgs': 0, 'volt': 0.8105, 'depth': 0.165, 'time': 6, 'pitch': -14.59, 'roll': 0.42, 'pres': 166}
{'lipoC2': 7.73, 'lipoC3S1': 3.82, 'temp': 28.5, 'lipoC3S3': 11.59, 'lipoC3S2': 7.64, 'rot1': 0, 'rot0': 0, 'rot3': 2, 'rot2': 0, 'state': 'normal', 'yaw': -0.75, 'datetime': '2018-10-05 20:10:01.846041', 'mgs': 0, 'volt': 0.8105, 'depth': 0.165, 'time': 6, 'pitch': -14.4, 'roll': 0.62, 'pres': 166}
{'lipoC2': 7.73, 'lipoC3S1': 3.81, 'temp': 28.5, 'lipoC3S3': 11.6, 'lipoC3S2': 7.65, 'rot1': 0, 'rot0': 0, 'rot3': 3, 'rot2': 1, 'state': 'normal', 'yaw': -0.88, 'datetime': '2018-10-05 20:10:01.856289', 'mgs': 0, 'volt': 0.8301, 'depth': 0.47, 'time': 6, 'pitch': -13.89, 'roll': 1.08, 'pres': 170}
{'lipoC2': 7.73, 'lipoC3S1': 3.83, 'temp': 28.5, 'lipoC3S3': 11.61, 'lipoC3S2': 7.65, 'rot1': 0, 'rot0': 0, 'rot3': 4, 'rot2': 2, 'state': 'normal', 'yaw': -0.86, 'datetime': '2018-10-05 20:10:01.873302', 'mgs': 0, 'volt': 0.8301, 'depth': 0.47, 'time': 6, 'pitch': -13.36, 'roll': 1.57, 'pres': 170}
{'lipoC2': 7.73, 'lipoC3S1': 3.82, 'temp': 28.5, 'lipoC3S3': 11.61, 'lipoC3S2': 7.68, 'rot1': 0, 'rot0': 0, 'rot3': 5, 'rot2': 3, 'state': 'normal', 'yaw': -0.62, 'datetime': '2018-10-05 20:10:01.890123', 'mgs': 0, 'volt': 0.8252, 'depth': 0.394, 'time': 6, 'pitch': -13.07, 'roll': 1.96, 'pres': 169}
{'lipoC2': 7.73, 'lipoC3S1': 3.84, 'temp': 28.5, 'lipoC3S3': 11.6, 'lipoC3S2': 7.69, 'rot1': 0, 'rot0': 0, 'rot3': 6, 'rot2': 4, 'state': 'normal', 'yaw': -0.15, 'datetime': '2018-10-05 20:10:01.900383', 'mgs': 0, 'volt': 0.8203, 'depth': 0.317, 'time': 6, 'pitch': -13.01, 'roll': 2.0, 'pres': 168}
{'lipoC2': 7.73, 'lipoC3S1': 3.83, 'temp': 28.5, 'lipoC3S3': 11.61, 'lipoC3S2': 7.68, 'rot1': 0, 'rot0': 0, 'rot3': 7, 'rot2': 4, 'state': 'normal', 'yaw': 0.21, 'datetime': '2018-10-05 20:10:01.916744', 'mgs': 0, 'volt': 0.8154, 'depth': 0.241, 'time': 6, 'pitch': -12.92, 'roll': 1.91, 'pres': 167}
{'lipoC2': 7.73, 'lipoC3S1': 3.84, 'temp': 28.5, 'lipoC3S3': 11.64, 'lipoC3S2': 7.69, 'rot1': 0, 'rot0': 0, 'rot3': 8, 'rot2': 5, 'state': 'normal', 'yaw': 0.49, 'datetime': '2018-10-05 20:10:01.933105', 'mgs': 0, 'volt': 0.8105, 'depth': 0.165, 'time': 6, 'pitch': -12.5, 'roll': 1.74, 'pres': 166}
{'lipoC2': 7.73, 'lipoC3S1': 3.84, 'temp': 28.5, 'lipoC3S3': 11.59, 'lipoC3S2': 7.68, 'rot1': 0, 'rot0': 0, 'rot3': 9, 'rot2': 6, 'state': 'normal', 'yaw': 0.68, 'datetime': '2018-10-05 20:10:01.943480', 'mgs': 0, 'volt': 0.8105, 'depth': 0.165, 'time': 6, 'pitch': -11.83, 'roll': 1.61, 'pres': 166}
{'lipoC2': 7.73, 'lipoC3S1': 3.84, 'temp': 28.5, 'lipoC3S3': 11.58, 'lipoC3S2': 7.65, 'rot1': 0, 'rot0': 0, 'rot3': 10, 'rot2': 7, 'state': 'normal', 'yaw': 0.74, 'datetime': '2018-10-05 20:10:01.962936', 'mgs': 0, 'volt': 0.8057, 'depth': 0.089, 'time': 6, 'pitch': -11.0, 'roll': 1.55, 'pres': 165}
{'lipoC2': 7.73, 'lipoC3S1': 3.82, 'temp': 28.5, 'lipoC3S3': 11.6, 'lipoC3S2': 7.66, 'rot1': 0, 'rot0': 0, 'rot3': 12, 'rot2': 8, 'state': 'normal', 'yaw': 0.76, 'datetime': '2018-10-05 20:10:01.980636', 'mgs': 0, 'volt': 0.7959, 'depth': -0.064, 'time': 7, 'pitch': -10.17, 'roll': 1.54, 'pres': 163}
{'lipoC2': 7.73, 'lipoC3S1': 3.82, 'temp': 28.5, 'lipoC3S3': 11.59, 'lipoC3S2': 7.65, 'rot1': 0, 'rot0': 0, 'rot3': 13, 'rot2': 8, 'state': 'normal', 'yaw': 0.76, 'datetime': '2018-10-05 20:10:01.992193', 'mgs': 0, 'volt': 0.8008, 'depth': 0.012, 'time': 7, 'pitch': -9.51, 'roll': 1.56, 'pres': 164}
{'lipoC2': 7.73, 'lipoC3S1': 3.84, 'temp': 28.5, 'lipoC3S3': 11.58, 'lipoC3S2': 7.69, 'rot1': 0, 'rot0': 0, 'rot3': 14, 'rot2': 9, 'state': 'normal', 'yaw': 0.75, 'datetime': '2018-10-05 20:10:02.009005', 'mgs': 0, 'volt': 0.8105, 'depth': 0.165, 'time': 7, 'pitch': -9.0, 'roll': 1.58, 'pres': 166}
{'lipoC2': 7.73, 'lipoC3S1': 3.83, 'temp': 28.5, 'lipoC3S3': 11.63, 'lipoC3S2': 7.68, 'rot1': 0, 'rot0': 0, 'rot3': 15, 'rot2': 10, 'state': 'normal', 'yaw': 0.77, 'datetime': '2018-10-05 20:10:02.025812', 'mgs': 0, 'volt': 0.8105, 'depth': 0.165, 'time': 7, 'pitch': -8.32, 'roll': 1.58, 'pres': 166}
{'lipoC2': 7.73, 'lipoC3S1': 3.83, 'temp': 28.5, 'lipoC3S3': 11.63, 'lipoC3S2': 7.67, 'rot1': 0, 'rot0': 0, 'rot3': 17, 'rot2': 11, 'state': 'normal', 'yaw': 0.8, 'datetime': '2018-10-05 20:10:02.036306', 'mgs': 0, 'volt': 0.8105, 'depth': 0.165, 'time': 7, 'pitch': -7.57, 'roll': 1.55, 'pres': 166}
{'lipoC2': 7.73, 'lipoC3S1': 3.84, 'temp': 28.5, 'lipoC3S3': 11.58, 'lipoC3S2': 7.69, 'rot1': 0, 'rot0': 0, 'rot3': 18, 'rot2': 12, 'state': 'normal', 'yaw': 0.82, 'datetime': '2018-10-05 20:10:02.052630', 'mgs': 0, 'volt': 0.8105, 'depth': 0.165, 'time': 7, 'pitch': -6.73, 'roll': 1.43, 'pres': 166}
{'lipoC2': 7.73, 'lipoC3S1': 3.83, 'temp': 28.5, 'lipoC3S3': 11.61, 'lipoC3S2': 7.69, 'rot1': 0, 'rot0': 0, 'rot3': 19, 'rot2': 13, 'state': 'normal', 'yaw': 0.86, 'datetime': '2018-10-05 20:10:02.069059', 'mgs': 0, 'volt': 0.8203, 'depth': 0.317, 'time': 7, 'pitch': -5.84, 'roll': 1.16, 'pres': 168}
{'lipoC2': 7.73, 'lipoC3S1': 3.83, 'temp': 28.44, 'lipoC3S3': 11.63, 'lipoC3S2': 7.67, 'rot1': 0, 'rot0': 0, 'rot3': 20, 'rot2': 14, 'state': 'normal', 'yaw': 0.86, 'datetime': '2018-10-05 20:10:02.081759', 'mgs': 0, 'volt': 0.8252, 'depth': 0.394, 'time': 7, 'pitch': -5.18, 'roll': 0.82, 'pres': 169}
{'lipoC2': 7.73, 'lipoC3S1': 3.83, 'temp': 28.44, 'lipoC3S3': 11.59, 'lipoC3S2': 7.67, 'rot1': 0, 'rot0': 0, 'rot3': 21, 'rot2': 15, 'state': 'normal', 'yaw': 0.87, 'datetime': '2018-10-05 20:10:02.099529', 'mgs': 0, 'volt': 0.8057, 'depth': 0.089, 'time': 7, 'pitch': -4.68, 'roll': 0.37, 'pres': 165}
{'lipoC2': 7.73, 'lipoC3S1': 3.84, 'temp': 28.44, 'lipoC3S3': 11.58, 'lipoC3S2': 7.65, 'rot1': 0, 'rot0': 0, 'rot3': 23, 'rot2': 16, 'state': 'normal', 'yaw': 0.86, 'datetime': '2018-10-05 20:10:02.116037', 'mgs': 0, 'volt': 0.8154, 'depth': 0.241, 'time': 7, 'pitch': -4.32, 'roll': -0.1, 'pres': 167}
{'lipoC2': 7.73, 'lipoC3S1': 3.83, 'temp': 28.5, 'lipoC3S3': 11.61, 'lipoC3S2': 7.68, 'rot1': 0, 'rot0': 0, 'rot3': 24, 'rot2': 16, 'state': 'normal', 'yaw': 0.85, 'datetime': '2018-10-05 20:10:02.126392', 'mgs': 0, 'volt': 0.8252, 'depth': 0.394, 'time': 8, 'pitch': -4.18, 'roll': -0.42, 'pres': 169}
{'lipoC2': 7.73, 'lipoC3S1': 3.82, 'temp': 28.5, 'lipoC3S3': 11.61, 'lipoC3S2': 7.66, 'rot1': 0, 'rot0': 0, 'rot3': 25, 'rot2': 17, 'state': 'normal', 'yaw': 0.84, 'datetime': '2018-10-05 20:10:02.146005', 'mgs': 0, 'volt': 0.8203, 'depth': 0.317, 'time': 8, 'pitch': -4.13, 'roll': -0.62, 'pres': 168}
{'lipoC2': 7.73, 'lipoC3S1': 3.82, 'temp': 28.5, 'lipoC3S3': 11.6, 'lipoC3S2': 7.65, 'rot1': 0, 'rot0': 0, 'rot3': 26, 'rot2': 18, 'state': 'normal', 'yaw': 0.78, 'datetime': '2018-10-05 20:10:02.165732', 'mgs': 0, 'volt': 0.8057, 'depth': 0.089, 'time': 8, 'pitch': -4.1, 'roll': -0.67, 'pres': 165}
{'lipoC2': 7.73, 'lipoC3S1': 3.85, 'temp': 28.5, 'lipoC3S3': 11.56, 'lipoC3S2': 7.68, 'rot1': 0, 'rot0': 0, 'rot3': 27, 'rot2': 19, 'state': 'normal', 'yaw': 0.77, 'datetime': '2018-10-05 20:10:02.176728', 'mgs': 0, 'volt': 0.8154, 'depth': 0.241, 'time': 8, 'pitch': -4.11, 'roll': -0.5, 'pres': 167}
{'lipoC2': 7.73, 'lipoC3S1': 3.84, 'temp': 28.5, 'lipoC3S3': 11.6, 'lipoC3S2': 7.68, 'rot1': 0, 'rot0': 0, 'rot3': 29, 'rot2': 20, 'state': 'normal', 'yaw': 0.76, 'datetime': '2018-10-05 20:10:02.193814', 'mgs': 0, 'volt': 0.8252, 'depth': 0.394, 'time': 8, 'pitch': -4.1, 'roll': -0.22, 'pres': 169}
{'lipoC2': 7.73, 'lipoC3S1': 3.82, 'temp': 28.5, 'lipoC3S3': 11.6, 'lipoC3S2': 7.66, 'rot1': 0, 'rot0': 0, 'rot3': 30, 'rot2': 21, 'state': 'normal', 'yaw': 0.71, 'datetime': '2018-10-05 20:10:02.209735', 'mgs': 0, 'volt': 0.8154, 'depth': 0.241, 'time': 8, 'pitch': -4.13, 'roll': 0.06, 'pres': 167}
{'lipoC2': 7.73, 'lipoC3S1': 3.84, 'temp': 28.5, 'lipoC3S3': 11.56, 'lipoC3S2': 7.67, 'rot1': 0, 'rot0': 0, 'rot3': 31, 'rot2': 22, 'state': 'normal', 'yaw': 0.71, 'datetime': '2018-10-05 20:10:02.219486', 'mgs': 0, 'volt': 0.8203, 'depth': 0.317, 'time': 8, 'pitch': -4.24, 'roll': 0.27, 'pres': 168}
{'lipoC2': 7.73, 'lipoC3S1': 3.83, 'temp': 28.5, 'lipoC3S3': 11.61, 'lipoC3S2': 7.68, 'rot1': 0, 'rot0': 0, 'rot3': 32, 'rot2': 22, 'state': 'normal', 'yaw': 0.71, 'datetime': '2018-10-05 20:10:02.235420', 'mgs': 0, 'volt': 0.8203, 'depth': 0.317, 'time': 8, 'pitch': -4.43, 'roll': 0.43, 'pres': 168}
{'lipoC2': 7.73, 'lipoC3S1': 3.82, 'temp': 28.5, 'lipoC3S3': 11.6, 'lipoC3S2': 7.65, 'rot1': 0, 'rot0': 0, 'rot3': 33, 'rot2': 23, 'state': 'normal', 'yaw': 0.71, 'datetime': '2018-10-05 20:10:02.251333', 'mgs': 0, 'volt': 0.8252, 'depth': 0.394, 'time': 8, 'pitch': -4.64, 'roll': 0.46, 'pres': 169}
{'lipoC2': 7.73, 'lipoC3S1': 3.84, 'temp': 28.5, 'lipoC3S3': 11.56, 'lipoC3S2': 7.68, 'rot1': 0, 'rot0': 0, 'rot3': 35, 'rot2': 24, 'state': 'normal', 'yaw': 0.72, 'datetime': '2018-10-05 20:10:02.261081', 'mgs': 0, 'volt': 0.8252, 'depth': 0.394, 'time': 9, 'pitch': -4.9, 'roll': 0.45, 'pres': 169}
{'lipoC2': 7.72, 'lipoC3S1': 3.71, 'temp': 28.5, 'lipoC3S3': 11.4, 'lipoC3S2': 7.42, 'rot1': 0, 'rot0': 0, 'rot3': 35, 'rot2': 25, 'state': 'normal', 'yaw': 0.71, 'datetime': '2018-10-05 20:10:02.277146', 'mgs': 0, 'volt': 0.8398, 'depth': 0.623, 'time': 9, 'pitch': -5.2, 'roll': 0.43, 'pres': 172}
{'lipoC2': 7.73, 'lipoC3S1': 3.8, 'temp': 28.44, 'lipoC3S3': 11.39, 'lipoC3S2': 7.53, 'rot1': 1, 'rot0': 1, 'rot3': 36, 'rot2': 26, 'state': 'normal', 'yaw': 0.68, 'datetime': '2018-10-05 20:10:02.295829', 'mgs': 0, 'volt': 0.8252, 'depth': 0.394, 'time': 9, 'pitch': -5.36, 'roll': 0.47, 'pres': 169}
{'lipoC2': 7.72, 'lipoC3S1': 3.79, 'temp': 28.44, 'lipoC3S3': 11.44, 'lipoC3S2': 7.55, 'rot1': 2, 'rot0': 3, 'rot3': 38, 'rot2': 27, 'state': 'normal', 'yaw': 0.44, 'datetime': '2018-10-05 20:10:02.307076', 'mgs': 0, 'volt': 0.874, 'depth': 1.157, 'time': 9, 'pitch': -4.53, 'roll': 0.72, 'pres': 179}
{'lipoC2': 7.73, 'lipoC3S1': 3.72, 'temp': 28.44, 'lipoC3S3': 11.46, 'lipoC3S2': 7.61, 'rot1': 4, 'rot0': 4, 'rot3': 39, 'rot2': 28, 'state': 'normal', 'yaw': 0.0, 'datetime': '2018-10-05 20:10:02.322973', 'mgs': 0, 'volt': 0.9131, 'depth': 1.767, 'time': 9, 'pitch': -2.71, 'roll': 0.98, 'pres': 187}
{'lipoC2': 7.72, 'lipoC3S1': 3.65, 'temp': 28.5, 'lipoC3S3': 11.4, 'lipoC3S2': 7.43, 'rot1': 5, 'rot0': 6, 'rot3': 40, 'rot2': 29, 'state': 'normal', 'yaw': -0.51, 'datetime': '2018-10-05 20:10:02.339027', 'mgs': 0, 'volt': 0.8398, 'depth': 0.623, 'time': 9, 'pitch': -1.1, 'roll': 1.22, 'pres': 172}
{'lipoC2': 7.71, 'lipoC3S1': 3.78, 'temp': 28.5, 'lipoC3S3': 11.23, 'lipoC3S2': 7.54, 'rot1': 7, 'rot0': 8, 'rot3': 42, 'rot2': 30, 'state': 'normal', 'yaw': -1.14, 'datetime': '2018-10-05 20:10:02.348747', 'mgs': 0, 'volt': 0.8643, 'depth': 1.004, 'time': 9, 'pitch': 0.36, 'roll': 1.4, 'pres': 177}
{'lipoC2': 7.7, 'lipoC3S1': 3.75, 'temp': 28.38, 'lipoC3S3': 11.44, 'lipoC3S2': 7.56, 'rot1': 8, 'rot0': 9, 'rot3': 43, 'rot2': 31, 'state': 'normal', 'yaw': -1.91, 'datetime': '2018-10-05 20:10:02.364826', 'mgs': 0, 'volt': 0.9033, 'depth': 1.614, 'time': 9, 'pitch': 1.72, 'roll': 1.37, 'pres': 185}
{'lipoC2': 7.73, 'lipoC3S1': 3.72, 'temp': 28.38, 'lipoC3S3': 11.44, 'lipoC3S2': 7.54, 'rot1': 9, 'rot0': 11, 'rot3': 44, 'rot2': 32, 'state': 'normal', 'yaw': -2.64, 'datetime': '2018-10-05 20:10:02.380856', 'mgs': 0, 'volt': 0.8447, 'depth': 0.699, 'time': 9, 'pitch': 2.69, 'roll': 1.19, 'pres': 173}
{'lipoC2': 7.73, 'lipoC3S1': 3.7, 'temp': 28.44, 'lipoC3S3': 11.44, 'lipoC3S2': 7.52, 'rot1': 11, 'rot0': 12, 'rot3': 45, 'rot2': 33, 'state': 'normal', 'yaw': -3.42, 'datetime': '2018-10-05 20:10:02.392624', 'mgs': 0, 'volt': 0.8203, 'depth': 0.317, 'time': 9, 'pitch': 3.52, 'roll': 1.0, 'pres': 168}
{'lipoC2': 7.71, 'lipoC3S1': 3.78, 'temp': 28.44, 'lipoC3S3': 11.23, 'lipoC3S2': 7.53, 'rot1': 12, 'rot0': 14, 'rot3': 46, 'rot2': 34, 'state': 'normal', 'yaw': -4.28, 'datetime': '2018-10-05 20:10:02.410462', 'mgs': 0, 'volt': 0.8838, 'depth': 1.309, 'time': 10, 'pitch': 4.31, 'roll': 0.69, 'pres': 181}
{'lipoC2': 7.71, 'lipoC3S1': 3.78, 'temp': 28.44, 'lipoC3S3': 11.32, 'lipoC3S2': 7.53, 'rot1': 14, 'rot0': 15, 'rot3': 48, 'rot2': 34, 'state': 'normal', 'yaw': -5.15, 'datetime': '2018-10-05 20:10:02.426585', 'mgs': 0, 'volt': 0.8936, 'depth': 1.462, 'time': 10, 'pitch': 4.95, 'roll': 0.39, 'pres': 183}
{'lipoC2': 7.72, 'lipoC3S1': 3.77, 'temp': 28.44, 'lipoC3S3': 11.31, 'lipoC3S2': 7.32, 'rot1': 15, 'rot0': 17, 'rot3': 49, 'rot2': 35, 'state': 'normal', 'yaw': -6.13, 'datetime': '2018-10-05 20:10:02.436479', 'mgs': 0, 'volt': 0.8691, 'depth': 1.08, 'time': 10, 'pitch': 5.51, 'roll': 0.07, 'pres': 178}
{'lipoC2': 7.72, 'lipoC3S1': 3.76, 'temp': 28.44, 'lipoC3S3': 11.27, 'lipoC3S2': 7.37, 'rot1': 17, 'rot0': 19, 'rot3': 50, 'rot2': 36, 'state': 'normal', 'yaw': -7.05, 'datetime': '2018-10-05 20:10:02.512112', 'mgs': 0, 'volt': 0.8691, 'depth': 1.08, 'time': 10, 'pitch': 5.97, 'roll': -0.35, 'pres': 178}
{'lipoC2': 7.73, 'lipoC3S1': 3.68, 'temp': 28.38, 'lipoC3S3': 11.44, 'lipoC3S2': 7.48, 'rot1': 18, 'rot0': 20, 'rot3': 51, 'rot2': 37, 'state': 'normal', 'yaw': -8.07, 'datetime': '2018-10-05 20:10:02.616172', 'mgs': 0, 'volt': 0.8789, 'depth': 1.233, 'time': 10, 'pitch': 6.33, 'roll': -0.75, 'pres': 180}
{'lipoC2': 7.71, 'lipoC3S1': 3.77, 'temp': 28.38, 'lipoC3S3': 11.42, 'lipoC3S2': 7.54, 'rot1': 20, 'rot0': 22, 'rot3': 52, 'rot2': 38, 'state': 'normal', 'yaw': -8.96, 'datetime': '2018-10-05 20:10:02.720109', 'mgs': 0, 'volt': 0.9375, 'depth': 2.148, 'time': 10, 'pitch': 6.41, 'roll': -1.13, 'pres': 192}
{'lipoC2': 7.72, 'lipoC3S1': 3.81, 'temp': 28.44, 'lipoC3S3': 11.32, 'lipoC3S2': 7.6, 'rot1': 21, 'rot0': 23, 'rot3': 53, 'rot2': 39, 'state': 'normal', 'yaw': -9.82, 'datetime': '2018-10-05 20:10:02.824141', 'mgs': 0, 'volt': 0.8643, 'depth': 1.004, 'time': 10, 'pitch': 6.29, 'roll': -1.47, 'pres': 177}
{'lipoC2': 7.73, 'lipoC3S1': 3.81, 'temp': 28.44, 'lipoC3S3': 11.55, 'lipoC3S2': 7.49, 'rot1': 23, 'rot0': 25, 'rot3': 54, 'rot2': 40, 'state': 'normal', 'yaw': -10.81, 'datetime': '2018-10-05 20:10:02.928142', 'mgs': 0, 'volt': 0.8643, 'depth': 1.004, 'time': 10, 'pitch': 6.13, 'roll': -1.62, 'pres': 177}
{'lipoC2': 7.75, 'lipoC3S1': 3.77, 'temp': 28.44, 'lipoC3S3': 11.52, 'lipoC3S2': 7.62, 'rot1': 25, 'rot0': 26, 'rot3': 55, 'rot2': 40, 'state': 'normal', 'yaw': -11.66, 'datetime': '2018-10-05 20:10:03.032104', 'mgs': 0, 'volt': 0.9473, 'depth': 2.301, 'time': 10, 'pitch': 5.97, 'roll': -1.59, 'pres': 194}
{'lipoC2': 7.71, 'lipoC3S1': 3.82, 'temp': 28.5, 'lipoC3S3': 11.51, 'lipoC3S2': 7.62, 'rot1': 26, 'rot0': 28, 'rot3': 55, 'rot2': 41, 'state': 'normal', 'yaw': -12.49, 'datetime': '2018-10-05 20:10:03.136327', 'mgs': 0, 'volt': 0.9326, 'depth': 2.072, 'time': 10, 'pitch': 5.81, 'roll': -1.43, 'pres': 191}
{'lipoC2': 7.72, 'lipoC3S1': 3.81, 'temp': 28.5, 'lipoC3S3': 11.34, 'lipoC3S2': 7.53, 'rot1': 28, 'rot0': 29, 'rot3': 56, 'rot2': 41, 'state': 'normal', 'yaw': -13.12, 'datetime': '2018-10-05 20:10:03.240295', 'mgs': 0, 'volt': 0.8691, 'depth': 1.08, 'time': 11, 'pitch': 5.64, 'roll': -1.27, 'pres': 178}
{'lipoC2': 7.73, 'lipoC3S1': 3.67, 'temp': 28.5, 'lipoC3S3': 11.55, 'lipoC3S2': 7.52, 'rot1': 29, 'rot0': 30, 'rot3': 56, 'rot2': 42, 'state': 'normal', 'yaw': -13.54, 'datetime': '2018-10-05 20:10:03.344266', 'mgs': 0, 'volt': 0.874, 'depth': 1.157, 'time': 11, 'pitch': 5.38, 'roll': -1.11, 'pres': 179}
{'lipoC2': 7.72, 'lipoC3S1': 3.75, 'temp': 28.5, 'lipoC3S3': 11.4, 'lipoC3S2': 7.53, 'rot1': 31, 'rot0': 32, 'rot3': 57, 'rot2': 42, 'state': 'normal', 'yaw': -13.8, 'datetime': '2018-10-05 20:10:03.459068', 'mgs': 0, 'volt': 0.9521, 'depth': 2.377, 'time': 11, 'pitch': 5.04, 'roll': -0.96, 'pres': 195}
{'lipoC2': 7.73, 'lipoC3S1': 3.77, 'temp': 28.56, 'lipoC3S3': 11.34, 'lipoC3S2': 7.49, 'rot1': 32, 'rot0': 33, 'rot3': 58, 'rot2': 43, 'state': 'normal', 'yaw': -13.86, 'datetime': '2018-10-05 20:10:03.563702', 'mgs': 0, 'volt': 0.8936, 'depth': 1.462, 'time': 11, 'pitch': 4.56, 'roll': -1.06, 'pres': 183}
{'lipoC2': 7.72, 'lipoC3S1': 3.77, 'temp': 28.56, 'lipoC3S3': 11.29, 'lipoC3S2': 7.53, 'rot1': 34, 'rot0': 35, 'rot3': 59, 'rot2': 44, 'state': 'normal', 'yaw': -13.86, 'datetime': '2018-10-05 20:10:03.668013', 'mgs': 0, 'volt': 0.8984, 'depth': 1.538, 'time': 11, 'pitch': 4.01, 'roll': -1.27, 'pres': 184}
{'lipoC2': 7.73, 'lipoC3S1': 3.69, 'temp': 28.5, 'lipoC3S3': 11.5, 'lipoC3S2': 7.51, 'rot1': 35, 'rot0': 36, 'rot3': 60, 'rot2': 45, 'state': 'normal', 'yaw': -13.85, 'datetime': '2018-10-05 20:10:03.772062', 'mgs': 0, 'volt': 0.8984, 'depth': 1.538, 'time': 11, 'pitch': 3.38, 'roll': -1.69, 'pres': 184}
{'lipoC2': 7.73, 'lipoC3S1': 3.68, 'temp': 28.5, 'lipoC3S3': 11.51, 'lipoC3S2': 7.49, 'rot1': 37, 'rot0': 38, 'rot3': 61, 'rot2': 46, 'state': 'normal', 'yaw': -13.77, 'datetime': '2018-10-05 20:10:03.877402', 'mgs': 0, 'volt': 0.8984, 'depth': 1.538, 'time': 11, 'pitch': 2.86, 'roll': -2.08, 'pres': 184}
{'lipoC2': 7.73, 'lipoC3S1': 3.74, 'temp': 28.5, 'lipoC3S3': 11.43, 'lipoC3S2': 7.59, 'rot1': 38, 'rot0': 39, 'rot3': 63, 'rot2': 47, 'state': 'normal', 'yaw': -13.6, 'datetime': '2018-10-05 20:10:03.982003', 'mgs': 0, 'volt': 0.9131, 'depth': 1.767, 'time': 11, 'pitch': 2.38, 'roll': -2.48, 'pres': 187}
{'lipoC2': 7.71, 'lipoC3S1': 3.81, 'temp': 28.5, 'lipoC3S3': 11.34, 'lipoC3S2': 7.54, 'rot1': 40, 'rot0': 41, 'rot3': 64, 'rot2': 47, 'state': 'normal', 'yaw': -13.43, 'datetime': '2018-10-05 20:10:04.080714', 'mgs': 0, 'volt': 0.9229, 'depth': 1.92, 'time': 11, 'pitch': 2.02, 'roll': -2.89, 'pres': 189}
{'lipoC2': 7.73, 'lipoC3S1': 3.77, 'temp': 28.5, 'lipoC3S3': 11.38, 'lipoC3S2': 7.41, 'rot1': 41, 'rot0': 42, 'rot3': 64, 'rot2': 48, 'state': 'normal', 'yaw': -13.25, 'datetime': '2018-10-05 20:10:04.189464', 'mgs': 0, 'volt': 0.8887, 'depth': 1.385, 'time': 12, 'pitch': 1.76, 'roll': -3.19, 'pres': 182}
{'lipoC2': 7.75, 'lipoC3S1': 3.72, 'temp': 28.5, 'lipoC3S3': 11.51, 'lipoC3S2': 7.55, 'rot1': 43, 'rot0': 44, 'rot3': 65, 'rot2': 49, 'state': 'normal', 'yaw': -12.94, 'datetime': '2018-10-05 20:10:04.293369', 'mgs': 0, 'volt': 0.9082, 'depth': 1.691, 'time': 12, 'pitch': 1.62, 'roll': -3.36, 'pres': 186}
{'lipoC2': 7.72, 'lipoC3S1': 3.81, 'temp': 28.5, 'lipoC3S3': 11.43, 'lipoC3S2': 7.6, 'rot1': 44, 'rot0': 45, 'rot3': 66, 'rot2': 50, 'state': 'normal', 'yaw': -12.6, 'datetime': '2018-10-05 20:10:04.397494', 'mgs': 0, 'volt': 0.957, 'depth': 2.454, 'time': 12, 'pitch': 1.6, 'roll': -3.49, 'pres': 196}
{'lipoC2': 7.72, 'lipoC3S1': 3.78, 'temp': 28.5, 'lipoC3S3': 11.4, 'lipoC3S2': 7.45, 'rot1': 45, 'rot0': 46, 'rot3': 67, 'rot2': 50, 'state': 'normal', 'yaw': -12.16, 'datetime': '2018-10-05 20:10:04.501488', 'mgs': 0, 'volt': 0.9033, 'depth': 1.614, 'time': 12, 'pitch': 1.73, 'roll': -3.59, 'pres': 185}
{'lipoC2': 7.75, 'lipoC3S1': 3.76, 'temp': 28.5, 'lipoC3S3': 11.51, 'lipoC3S2': 7.5, 'rot1': 47, 'rot0': 48, 'rot3': 68, 'rot2': 51, 'state': 'normal', 'yaw': -11.74, 'datetime': '2018-10-05 20:10:04.605375', 'mgs': 0, 'volt': 0.9277, 'depth': 1.996, 'time': 12, 'pitch': 1.92, 'roll': -3.7, 'pres': 190}
{'lipoC2': 7.72, 'lipoC3S1': 3.81, 'temp': 28.5, 'lipoC3S3': 11.26, 'lipoC3S2': 7.61, 'rot1': 48, 'rot0': 49, 'rot3': 69, 'rot2': 52, 'state': 'normal', 'yaw': -11.35, 'datetime': '2018-10-05 20:10:04.712478', 'mgs': 0, 'volt': 0.9082, 'depth': 1.691, 'time': 12, 'pitch': 2.15, 'roll': -3.75, 'pres': 186}
{'lipoC2': 7.73, 'lipoC3S1': 3.8, 'temp': 28.5, 'lipoC3S3': 11.46, 'lipoC3S2': 7.44, 'rot1': 50, 'rot0': 51, 'rot3': 70, 'rot2': 53, 'state': 'normal', 'yaw': -10.93, 'datetime': '2018-10-05 20:10:04.814159', 'mgs': 0, 'volt': 0.9131, 'depth': 1.767, 'time': 12, 'pitch': 2.51, 'roll': -3.71, 'pres': 187}
{'lipoC2': 7.73, 'lipoC3S1': 3.79, 'temp': 28.5, 'lipoC3S3': 11.43, 'lipoC3S2': 7.42, 'rot1': 51, 'rot0': 52, 'rot3': 71, 'rot2': 53, 'state': 'normal', 'yaw': -10.58, 'datetime': '2018-10-05 20:10:04.912888', 'mgs': 0, 'volt': 0.9131, 'depth': 1.767, 'time': 12, 'pitch': 2.93, 'roll': -3.62, 'pres': 187}
{'lipoC2': 7.73, 'lipoC3S1': 3.73, 'temp': 28.5, 'lipoC3S3': 11.5, 'lipoC3S2': 7.6, 'rot1': 53, 'rot0': 54, 'rot3': 71, 'rot2': 54, 'state': 'normal', 'yaw': -10.21, 'datetime': '2018-10-05 20:10:05.023845', 'mgs': 0, 'volt': 1.0352, 'depth': 3.674, 'time': 12, 'pitch': 3.45, 'roll': -3.54, 'pres': 212}
{'lipoC2': 7.73, 'lipoC3S1': 3.74, 'temp': 28.5, 'lipoC3S3': 11.5, 'lipoC3S2': 7.6, 'rot1': 54, 'rot0': 55, 'rot3': 72, 'rot2': 55, 'state': 'normal', 'yaw': -9.92, 'datetime': '2018-10-05 20:10:05.128752', 'mgs': 0, 'volt': 1.0498, 'depth': 3.903, 'time': 12, 'pitch': 3.92, 'roll': -3.54, 'pres': 215}
{'lipoC2': 7.71, 'lipoC3S1': 3.8, 'temp': 28.5, 'lipoC3S3': 11.31, 'lipoC3S2': 7.53, 'rot1': 56, 'rot0': 57, 'rot3': 73, 'rot2': 55, 'state': 'normal', 'yaw': -9.66, 'datetime': '2018-10-05 20:10:05.232654', 'mgs': 0, 'volt': 0.9619, 'depth': 2.53, 'time': 13, 'pitch': 4.43, 'roll': -3.54, 'pres': 197}
{'lipoC2': 7.73, 'lipoC3S1': 3.81, 'temp': 28.5, 'lipoC3S3': 11.4, 'lipoC3S2': 7.46, 'rot1': 57, 'rot0': 59, 'rot3': 74, 'rot2': 56, 'state': 'normal', 'yaw': -9.4, 'datetime': '2018-10-05 20:10:05.336717', 'mgs': 0, 'volt': 0.9277, 'depth': 1.996, 'time': 13, 'pitch': 4.91, 'roll': -3.53, 'pres': 190}
{'lipoC2': 7.73, 'lipoC3S1': 3.71, 'temp': 28.5, 'lipoC3S3': 11.54, 'lipoC3S2': 7.59, 'rot1': 59, 'rot0': 60, 'rot3': 74, 'rot2': 56, 'state': 'normal', 'yaw': -9.16, 'datetime': '2018-10-05 20:10:05.440682', 'mgs': 0, 'volt': 0.9717, 'depth': 2.682, 'time': 13, 'pitch': 5.55, 'roll': -3.39, 'pres': 199}
{'lipoC2': 7.71, 'lipoC3S1': 3.82, 'temp': 28.5, 'lipoC3S3': 11.5, 'lipoC3S2': 7.61, 'rot1': 60, 'rot0': 62, 'rot3': 74, 'rot2': 57, 'state': 'normal', 'yaw': -8.83, 'datetime': '2018-10-05 20:10:05.544685', 'mgs': 0, 'volt': 0.9863, 'depth': 2.911, 'time': 13, 'pitch': 6.39, 'roll': -3.12, 'pres': 202}
{'lipoC2': 7.73, 'lipoC3S1': 3.81, 'temp': 28.5, 'lipoC3S3': 11.38, 'lipoC3S2': 7.66, 'rot1': 62, 'rot0': 63, 'rot3': 75, 'rot2': 57, 'state': 'normal', 'yaw': -8.49, 'datetime': '2018-10-05 20:10:05.648910', 'mgs': 0, 'volt': 0.9277, 'depth': 1.996, 'time': 13, 'pitch': 7.17, 'roll': -2.88, 'pres': 190}
{'lipoC2': 7.73, 'lipoC3S1': 3.81, 'temp': 28.5, 'lipoC3S3': 11.4, 'lipoC3S2': 7.5, 'rot1': 64, 'rot0': 65, 'rot3': 75, 'rot2': 57, 'state': 'normal', 'yaw': -8.08, 'datetime': '2018-10-05 20:10:05.753095', 'mgs': 0, 'volt': 0.9326, 'depth': 2.072, 'time': 13, 'pitch': 7.95, 'roll': -2.62, 'pres': 191}
{'lipoC2': 7.73, 'lipoC3S1': 3.74, 'temp': 28.5, 'lipoC3S3': 11.54, 'lipoC3S2': 7.58, 'rot1': 65, 'rot0': 66, 'rot3': 75, 'rot2': 57, 'state': 'normal', 'yaw': -7.56, 'datetime': '2018-10-05 20:10:05.857024', 'mgs': 0, 'volt': 0.9277, 'depth': 1.996, 'time': 13, 'pitch': 8.77, 'roll': -2.35, 'pres': 190}
{'lipoC2': 7.75, 'lipoC3S1': 3.81, 'temp': 28.5, 'lipoC3S3': 11.47, 'lipoC3S2': 7.59, 'rot1': 67, 'rot0': 67, 'rot3': 75, 'rot2': 57, 'state': 'normal', 'yaw': -7.08, 'datetime': '2018-10-05 20:10:05.961137', 'mgs': 0, 'volt': 1.001, 'depth': 3.14, 'time': 13, 'pitch': 9.42, 'roll': -2.1, 'pres': 205}
{'lipoC2': 7.72, 'lipoC3S1': 3.8, 'temp': 28.5, 'lipoC3S3': 11.23, 'lipoC3S2': 7.53, 'rot1': 68, 'rot0': 69, 'rot3': 76, 'rot2': 58, 'state': 'normal', 'yaw': -6.55, 'datetime': '2018-10-05 20:10:06.065137', 'mgs': 0, 'volt': 0.9277, 'depth': 1.996, 'time': 13, 'pitch': 9.9, 'roll': -1.94, 'pres': 190}
{'lipoC2': 7.73, 'lipoC3S1': 3.7, 'temp': 28.5, 'lipoC3S3': 11.43, 'lipoC3S2': 7.43, 'rot1': 69, 'rot0': 71, 'rot3': 76, 'rot2': 58, 'state': 'normal', 'yaw': -6.13, 'datetime': '2018-10-05 20:10:06.165444', 'mgs': 0, 'volt': 0.9229, 'depth': 1.92, 'time': 14, 'pitch': 10.16, 'roll': -1.86, 'pres': 189}
{'lipoC2': 7.73, 'lipoC3S1': 3.73, 'temp': 28.5, 'lipoC3S3': 11.5, 'lipoC3S2': 7.59, 'rot1': 71, 'rot0': 72, 'rot3': 77, 'rot2': 59, 'state': 'normal', 'yaw': -5.78, 'datetime': '2018-10-05 20:10:06.270198', 'mgs': 0, 'volt': 0.9521, 'depth': 2.377, 'time': 14, 'pitch': 10.38, 'roll': -1.8, 'pres': 195}
{'lipoC2': 7.7, 'lipoC3S1': 3.81, 'temp': 28.5, 'lipoC3S3': 11.42, 'lipoC3S2': 7.59, 'rot1': 73, 'rot0': 74, 'rot3': 78, 'rot2': 60, 'state': 'normal', 'yaw': -5.47, 'datetime': '2018-10-05 20:10:06.374297', 'mgs': 0, 'volt': 0.9766, 'depth': 2.759, 'time': 14, 'pitch': 10.46, 'roll': -1.75, 'pres': 200}
{'lipoC2': 7.7, 'lipoC3S1': 3.81, 'temp': 28.5, 'lipoC3S3': 11.48, 'lipoC3S2': 7.59, 'rot1': 75, 'rot0': 75, 'rot3': 79, 'rot2': 60, 'state': 'normal', 'yaw': -5.21, 'datetime': '2018-10-05 20:10:06.479708', 'mgs': 0, 'volt': 0.9863, 'depth': 2.911, 'time': 14, 'pitch': 10.38, 'roll': -1.7, 'pres': 202}
{'lipoC2': 7.72, 'lipoC3S1': 3.81, 'temp': 28.5, 'lipoC3S3': 11.34, 'lipoC3S2': 7.6, 'rot1': 76, 'rot0': 77, 'rot3': 79, 'rot2': 61, 'state': 'normal', 'yaw': -5.03, 'datetime': '2018-10-05 20:10:06.583540', 'mgs': 0, 'volt': 0.9131, 'depth': 1.767, 'time': 14, 'pitch': 10.13, 'roll': -1.8, 'pres': 187}
{'lipoC2': 7.73, 'lipoC3S1': 3.7, 'temp': 28.5, 'lipoC3S3': 11.5, 'lipoC3S2': 7.52, 'rot1': 78, 'rot0': 78, 'rot3': 79, 'rot2': 61, 'state': 'normal', 'yaw': -4.96, 'datetime': '2018-10-05 20:10:06.687564', 'mgs': 0, 'volt': 0.9082, 'depth': 1.691, 'time': 14, 'pitch': 9.93, 'roll': -1.93, 'pres': 186}
{'lipoC2': 7.73, 'lipoC3S1': 3.71, 'temp': 28.5, 'lipoC3S3': 11.54, 'lipoC3S2': 7.53, 'rot1': 79, 'rot0': 80, 'rot3': 79, 'rot2': 61, 'state': 'normal', 'yaw': -4.84, 'datetime': '2018-10-05 20:10:06.791793', 'mgs': 0, 'volt': 0.9033, 'depth': 1.614, 'time': 14, 'pitch': 9.76, 'roll': -2.08, 'pres': 185}
{'lipoC2': 7.73, 'lipoC3S1': 3.75, 'temp': 28.5, 'lipoC3S3': 11.38, 'lipoC3S2': 7.56, 'rot1': 80, 'rot0': 82, 'rot3': 80, 'rot2': 61, 'state': 'normal', 'yaw': -4.69, 'datetime': '2018-10-05 20:10:06.895820', 'mgs': 0, 'volt': 0.9863, 'depth': 2.911, 'time': 14, 'pitch': 9.57, 'roll': -2.2, 'pres': 202}
{'lipoC2': 7.71, 'lipoC3S1': 3.8, 'temp': 28.56, 'lipoC3S3': 11.48, 'lipoC3S2': 7.53, 'rot1': 82, 'rot0': 83, 'rot3': 80, 'rot2': 62, 'state': 'normal', 'yaw': -4.61, 'datetime': '2018-10-05 20:10:06.999919', 'mgs': 0, 'volt': 0.9229, 'depth': 1.92, 'time': 14, 'pitch': 9.11, 'roll': -2.38, 'pres': 189}
{'lipoC2': 7.73, 'lipoC3S1': 3.77, 'temp': 28.56, 'lipoC3S3': 11.34, 'lipoC3S2': 7.48, 'rot1': 83, 'rot0': 85, 'rot3': 81, 'rot2': 63, 'state': 'normal', 'yaw': -4.55, 'datetime': '2018-10-05 20:10:07.101679', 'mgs': 0, 'volt': 0.8936, 'depth': 1.462, 'time': 14, 'pitch': 8.52, 'roll': -2.63, 'pres': 183}
{'lipoC2': 7.73, 'lipoC3S1': 3.7, 'temp': 28.56, 'lipoC3S3': 11.47, 'lipoC3S2': 7.5, 'rot1': 85, 'rot0': 86, 'rot3': 82, 'rot2': 63, 'state': 'normal', 'yaw': -4.58, 'datetime': '2018-10-05 20:10:07.207908', 'mgs': 0, 'volt': 0.9033, 'depth': 1.614, 'time': 15, 'pitch': 8.0, 'roll': -2.87, 'pres': 185}
{'lipoC2': 7.73, 'lipoC3S1': 3.72, 'temp': 28.56, 'lipoC3S3': 11.44, 'lipoC3S2': 7.58, 'rot1': 86, 'rot0': 88, 'rot3': 84, 'rot2': 64, 'state': 'normal', 'yaw': -4.7, 'datetime': '2018-10-05 20:10:07.313065', 'mgs': 0, 'volt': 0.9814, 'depth': 2.835, 'time': 15, 'pitch': 7.41, 'roll': -3.09, 'pres': 201}
{'lipoC2': 7.72, 'lipoC3S1': 3.8, 'temp': 28.56, 'lipoC3S3': 11.4, 'lipoC3S2': 7.52, 'rot1': 88, 'rot0': 89, 'rot3': 85, 'rot2': 65, 'state': 'normal', 'yaw': -4.86, 'datetime': '2018-10-05 20:10:07.417148', 'mgs': 0, 'volt': 0.9424, 'depth': 2.225, 'time': 15, 'pitch': 6.72, 'roll': -3.26, 'pres': 193}
{'lipoC2': 7.73, 'lipoC3S1': 3.81, 'temp': 28.56, 'lipoC3S3': 11.5, 'lipoC3S2': 7.6, 'rot1': 89, 'rot0': 91, 'rot3': 86, 'rot2': 66, 'state': 'normal', 'yaw': -5.06, 'datetime': '2018-10-05 20:10:07.522386', 'mgs': 0, 'volt': 0.9473, 'depth': 2.301, 'time': 15, 'pitch': 6.04, 'roll': -3.38, 'pres': 194}
{'lipoC2': 7.72, 'lipoC3S1': 3.8, 'temp': 28.56, 'lipoC3S3': 11.23, 'lipoC3S2': 7.58, 'rot1': 90, 'rot0': 92, 'rot3': 86, 'rot2': 66, 'state': 'normal', 'yaw': -5.32, 'datetime': '2018-10-05 20:10:07.619817', 'mgs': 0, 'volt': 0.8838, 'depth': 1.309, 'time': 15, 'pitch': 5.48, 'roll': -3.31, 'pres': 181}
{'lipoC2': 7.73, 'lipoC3S1': 3.84, 'temp': 28.56, 'lipoC3S3': 11.6, 'lipoC3S2': 7.68, 'rot1': 91, 'rot0': 93, 'rot3': 87, 'rot2': 67, 'state': 'normal', 'yaw': -5.48, 'datetime': '2018-10-05 20:10:12.193332', 'mgs': 0, 'volt': 0.8838, 'depth': 1.309, 'time': 15, 'pitch': 5.0, 'roll': -3.12, 'pres': 181}
{'lipoC2': 7.73, 'lipoC3S1': 3.84, 'temp': 28.56, 'lipoC3S3': 11.6, 'lipoC3S2': 7.68, 'rot1': 91, 'rot0': 93, 'rot3': 87, 'rot2': 67, 'state': 'normal', 'yaw': -5.44, 'datetime': '2018-10-05 20:10:12.225029', 'mgs': 0, 'volt': 0.8789, 'depth': 1.233, 'time': 15, 'pitch': 3.61, 'roll': -2.9, 'pres': 180}
{'lipoC2': 7.73, 'lipoC3S1': 3.84, 'temp': 28.56, 'lipoC3S3': 11.6, 'lipoC3S2': 7.68, 'rot1': 91, 'rot0': 93, 'rot3': 87, 'rot2': 67, 'state': 'normal', 'yaw': -5.26, 'datetime': '2018-10-05 20:10:12.256698', 'mgs': 0, 'volt': 0.8789, 'depth': 1.233, 'time': 15, 'pitch': 1.74, 'roll': -2.63, 'pres': 180}
{'lipoC2': 7.73, 'lipoC3S1': 3.84, 'temp': 28.56, 'lipoC3S3': 11.6, 'lipoC3S2': 7.68, 'rot1': 91, 'rot0': 93, 'rot3': 87, 'rot2': 67, 'state': 'normal', 'yaw': -5.03, 'datetime': '2018-10-05 20:10:12.288305', 'mgs': 0, 'volt': 0.8789, 'depth': 1.233, 'time': 15, 'pitch': -0.38, 'roll': -2.27, 'pres': 180}
{'lipoC2': 7.73, 'lipoC3S1': 3.84, 'temp': 28.56, 'lipoC3S3': 11.61, 'lipoC3S2': 7.68, 'rot1': 91, 'rot0': 93, 'rot3': 87, 'rot2': 67, 'state': 'normal', 'yaw': -4.76, 'datetime': '2018-10-05 20:10:12.305469', 'mgs': 0, 'volt': 0.8789, 'depth': 1.233, 'time': 15, 'pitch': -2.78, 'roll': -1.78, 'pres': 180}
{'lipoC2': 7.73, 'lipoC3S1': 3.82, 'temp': 28.56, 'lipoC3S3': 11.58, 'lipoC3S2': 7.57, 'rot1': 92, 'rot0': 94, 'rot3': 87, 'rot2': 67, 'state': 'normal', 'yaw': -4.5, 'datetime': '2018-10-05 20:10:12.322039', 'mgs': 0, 'volt': 0.874, 'depth': 1.157, 'time': 16, 'pitch': -4.9, 'roll': -1.25, 'pres': 179}
