{'lipoC2': 7.34, 'lipoC3S1': 3.88, 'temp': 30.13, 'lipoC3S3': 11.72, 'lipoC3S2': 7.76, 'rot1': 0, 'rot0': 0, 'rot3': 0, 'rot2': 0, 'state': 'normal', 'yaw': 0.0, 'datetime': '2018-10-09 23:27:27.946616', 'mgs': 0, 'volt': 0.8496, 'depth': 0.775, 'time': 1, 'pitch': -5.11, 'roll': 3.95, 'pres': 174}
{'lipoC2': 7.34, 'lipoC3S1': 3.88, 'temp': 30.13, 'lipoC3S3': 11.72, 'lipoC3S2': 7.76, 'rot1': 0, 'rot0': 0, 'rot3': 0, 'rot2': 0, 'state': 'normal', 'yaw': -0.26, 'datetime': '2018-10-09 23:27:27.970253', 'mgs': 0, 'volt': 0.8496, 'depth': 0.775, 'time': 1, 'pitch': -5.9, 'roll': 3.44, 'pres': 174}
{'lipoC2': 7.34, 'lipoC3S1': 3.88, 'temp': 30.13, 'lipoC3S3': 11.72, 'lipoC3S2': 7.76, 'rot1': 0, 'rot0': 0, 'rot3': 0, 'rot2': 0, 'state': 'normal', 'yaw': -0.25, 'datetime': '2018-10-09 23:27:27.993620', 'mgs': 0, 'volt': 0.8496, 'depth': 0.775, 'time': 1, 'pitch': -6.37, 'roll': 2.61, 'pres': 174}
{'lipoC2': 7.34, 'lipoC3S1': 3.88, 'temp': 30.13, 'lipoC3S3': 11.72, 'lipoC3S2': 7.76, 'rot1': 0, 'rot0': 0, 'rot3': 0, 'rot2': 0, 'state': 'normal', 'yaw': -0.03, 'datetime': '2018-10-09 23:27:28.016939', 'mgs': 0, 'volt': 0.8496, 'depth': 0.775, 'time': 1, 'pitch': -6.24, 'roll': 1.8, 'pres': 174}
{'lipoC2': 7.34, 'lipoC3S1': 3.88, 'temp': 30.13, 'lipoC3S3': 11.72, 'lipoC3S2': 7.76, 'rot1': 0, 'rot0': 0, 'rot3': 0, 'rot2': 0, 'state': 'normal', 'yaw': 0.12, 'datetime': '2018-10-09 23:27:28.040246', 'mgs': 0, 'volt': 0.8496, 'depth': 0.775, 'time': 1, 'pitch': -5.65, 'roll': 1.27, 'pres': 174}
{'lipoC2': 7.34, 'lipoC3S1': 3.88, 'temp': 30.13, 'lipoC3S3': 11.72, 'lipoC3S2': 7.76, 'rot1': 0, 'rot0': 0, 'rot3': 0, 'rot2': 0, 'state': 'normal', 'yaw': -0.18, 'datetime': '2018-10-09 23:27:28.054162', 'mgs': 0, 'volt': 0.8496, 'depth': 0.775, 'time': 1, 'pitch': -5.5, 'roll': 1.38, 'pres': 174}
{'lipoC2': 7.34, 'lipoC3S1': 3.88, 'temp': 30.13, 'lipoC3S3': 11.72, 'lipoC3S2': 7.76, 'rot1': 0, 'rot0': 0, 'rot3': 0, 'rot2': 0, 'state': 'normal', 'yaw': -0.73, 'datetime': '2018-10-09 23:27:28.064225', 'mgs': 0, 'volt': 0.8496, 'depth': 0.775, 'time': 1, 'pitch': -5.86, 'roll': 1.93, 'pres': 174}
{'lipoC2': 7.34, 'lipoC3S1': 3.88, 'temp': 30.13, 'lipoC3S3': 11.72, 'lipoC3S2': 7.76, 'rot1': 0, 'rot0': 0, 'rot3': 0, 'rot2': 0, 'state': 'normal', 'yaw': -1.15, 'datetime': '2018-10-09 23:27:28.074351', 'mgs': 0, 'volt': 0.8496, 'depth': 0.775, 'time': 1, 'pitch': -6.15, 'roll': 2.35, 'pres': 174}
{'lipoC2': 7.34, 'lipoC3S1': 3.88, 'temp': 30.13, 'lipoC3S3': 11.72, 'lipoC3S2': 7.76, 'rot1': 0, 'rot0': 0, 'rot3': 0, 'rot2': 0, 'state': 'normal', 'yaw': -1.54, 'datetime': '2018-10-09 23:27:28.084394', 'mgs': 0, 'volt': 0.8447, 'depth': 0.699, 'time': 2, 'pitch': -6.6, 'roll': 2.62, 'pres': 173}
{'lipoC2': 7.34, 'lipoC3S1': 3.88, 'temp': 30.06, 'lipoC3S3': 11.72, 'lipoC3S2': 7.76, 'rot1': 0, 'rot0': 0, 'rot3': 0, 'rot2': 0, 'state': 'normal', 'yaw': -1.86, 'datetime': '2018-10-09 23:27:28.094421', 'mgs': 0, 'volt': 0.8496, 'depth': 0.775, 'time': 2, 'pitch': -7.22, 'roll': 2.8, 'pres': 174}
{'lipoC2': 7.34, 'lipoC3S1': 3.88, 'temp': 30.06, 'lipoC3S3': 11.72, 'lipoC3S2': 7.76, 'rot1': 0, 'rot0': 0, 'rot3': 0, 'rot2': 0, 'state': 'normal', 'yaw': -1.66, 'datetime': '2018-10-09 23:27:28.104422', 'mgs': 0, 'volt': 0.8496, 'depth': 0.775, 'time': 2, 'pitch': -7.88, 'roll': 2.58, 'pres': 174}
{'lipoC2': 7.34, 'lipoC3S1': 3.88, 'temp': 30.06, 'lipoC3S3': 11.72, 'lipoC3S2': 7.76, 'rot1': 0, 'rot0': 0, 'rot3': 0, 'rot2': 0, 'state': 'normal', 'yaw': -1.3, 'datetime': '2018-10-09 23:27:28.114458', 'mgs': 0, 'volt': 0.8496, 'depth': 0.775, 'time': 2, 'pitch': -8.36, 'roll': 2.26, 'pres': 174}
{'lipoC2': 7.34, 'lipoC3S1': 3.88, 'temp': 30.13, 'lipoC3S3': 11.72, 'lipoC3S2': 7.76, 'rot1': 0, 'rot0': 0, 'rot3': 0, 'rot2': 0, 'state': 'normal', 'yaw': -0.97, 'datetime': '2018-10-09 23:27:28.124482', 'mgs': 0, 'volt': 0.8496, 'depth': 0.775, 'time': 2, 'pitch': -8.9, 'roll': 2.11, 'pres': 174}
{'lipoC2': 7.34, 'lipoC3S1': 3.88, 'temp': 30.13, 'lipoC3S3': 11.72, 'lipoC3S2': 7.76, 'rot1': 0, 'rot0': 0, 'rot3': 0, 'rot2': 0, 'state': 'normal', 'yaw': -0.76, 'datetime': '2018-10-09 23:27:28.134499', 'mgs': 0, 'volt': 0.8496, 'depth': 0.775, 'time': 2, 'pitch': -9.69, 'roll': 2.15, 'pres': 174}
{'lipoC2': 7.34, 'lipoC3S1': 3.88, 'temp': 30.13, 'lipoC3S3': 11.72, 'lipoC3S2': 7.76, 'rot1': 0, 'rot0': 0, 'rot3': 0, 'rot2': 0, 'state': 'normal', 'yaw': -0.37, 'datetime': '2018-10-09 23:27:28.144715', 'mgs': 0, 'volt': 0.8496, 'depth': 0.775, 'time': 2, 'pitch': -10.35, 'roll': 2.24, 'pres': 174}
{'lipoC2': 7.34, 'lipoC3S1': 3.88, 'temp': 30.13, 'lipoC3S3': 11.72, 'lipoC3S2': 7.76, 'rot1': 0, 'rot0': 0, 'rot3': 0, 'rot2': 0, 'state': 'normal', 'yaw': 0.22, 'datetime': '2018-10-09 23:27:28.154782', 'mgs': 0, 'volt': 0.8496, 'depth': 0.775, 'time': 2, 'pitch': -11.01, 'roll': 2.38, 'pres': 174}
{'lipoC2': 7.34, 'lipoC3S1': 3.88, 'temp': 30.06, 'lipoC3S3': 11.72, 'lipoC3S2': 7.76, 'rot1': 0, 'rot0': 0, 'rot3': 0, 'rot2': 0, 'state': 'normal', 'yaw': 0.85, 'datetime': '2018-10-09 23:27:28.164824', 'mgs': 0, 'volt': 0.8496, 'depth': 0.775, 'time': 2, 'pitch': -11.77, 'roll': 2.51, 'pres': 174}
{'lipoC2': 7.34, 'lipoC3S1': 3.88, 'temp': 30.06, 'lipoC3S3': 11.72, 'lipoC3S2': 7.76, 'rot1': 0, 'rot0': 0, 'rot3': 0, 'rot2': 0, 'state': 'normal', 'yaw': 1.5, 'datetime': '2018-10-09 23:27:28.174824', 'mgs': 0, 'volt': 0.8496, 'depth': 0.775, 'time': 3, 'pitch': -12.32, 'roll': 2.57, 'pres': 174}
{'lipoC2': 7.34, 'lipoC3S1': 3.88, 'temp': 30.06, 'lipoC3S3': 11.72, 'lipoC3S2': 7.76, 'rot1': 0, 'rot0': 0, 'rot3': 0, 'rot2': 0, 'state': 'normal', 'yaw': 2.01, 'datetime': '2018-10-09 23:27:28.184837', 'mgs': 0, 'volt': 0.8545, 'depth': 0.851, 'time': 3, 'pitch': -12.68, 'roll': 2.63, 'pres': 175}
{'lipoC2': 7.34, 'lipoC3S1': 3.88, 'temp': 30.06, 'lipoC3S3': 11.72, 'lipoC3S2': 7.76, 'rot1': 0, 'rot0': 0, 'rot3': 0, 'rot2': 0, 'state': 'normal', 'yaw': 1.96, 'datetime': '2018-10-09 23:27:28.194894', 'mgs': 0, 'volt': 0.8594, 'depth': 0.928, 'time': 3, 'pitch': -12.87, 'roll': 3.05, 'pres': 176}
{'lipoC2': 7.34, 'lipoC3S1': 3.88, 'temp': 30.06, 'lipoC3S3': 11.72, 'lipoC3S2': 7.76, 'rot1': 0, 'rot0': 0, 'rot3': 0, 'rot2': 0, 'state': 'normal', 'yaw': 1.6, 'datetime': '2018-10-09 23:27:28.204896', 'mgs': 0, 'volt': 0.8594, 'depth': 0.928, 'time': 3, 'pitch': -13.14, 'roll': 3.76, 'pres': 176}
{'lipoC2': 7.34, 'lipoC3S1': 3.88, 'temp': 30.06, 'lipoC3S3': 11.72, 'lipoC3S2': 7.76, 'rot1': 0, 'rot0': 0, 'rot3': 0, 'rot2': 0, 'state': 'normal', 'yaw': 1.26, 'datetime': '2018-10-09 23:27:28.214899', 'mgs': 0, 'volt': 0.8643, 'depth': 1.004, 'time': 3, 'pitch': -13.64, 'roll': 4.47, 'pres': 177}
{'lipoC2': 7.34, 'lipoC3S1': 3.88, 'temp': 30.06, 'lipoC3S3': 11.72, 'lipoC3S2': 7.76, 'rot1': 0, 'rot0': 0, 'rot3': 0, 'rot2': 0, 'state': 'normal', 'yaw': 1.12, 'datetime': '2018-10-09 23:27:28.224941', 'mgs': 0, 'volt': 0.8691, 'depth': 1.08, 'time': 3, 'pitch': -14.15, 'roll': 4.98, 'pres': 178}
{'lipoC2': 7.34, 'lipoC3S1': 3.88, 'temp': 30.13, 'lipoC3S3': 11.72, 'lipoC3S2': 7.76, 'rot1': 0, 'rot0': 0, 'rot3': 0, 'rot2': 0, 'state': 'normal', 'yaw': 1.1, 'datetime': '2018-10-09 23:27:28.234961', 'mgs': 0, 'volt': 0.8691, 'depth': 1.08, 'time': 3, 'pitch': -14.46, 'roll': 5.25, 'pres': 178}
{'lipoC2': 7.34, 'lipoC3S1': 3.88, 'temp': 30.13, 'lipoC3S3': 11.72, 'lipoC3S2': 7.76, 'rot1': 0, 'rot0': 0, 'rot3': 0, 'rot2': 0, 'state': 'normal', 'yaw': 1.11, 'datetime': '2018-10-09 23:27:28.244998', 'mgs': 0, 'volt': 0.874, 'depth': 1.157, 'time': 3, 'pitch': -14.52, 'roll': 5.39, 'pres': 179}
{'lipoC2': 7.34, 'lipoC3S1': 3.88, 'temp': 30.13, 'lipoC3S3': 11.72, 'lipoC3S2': 7.76, 'rot1': 0, 'rot0': 0, 'rot3': 0, 'rot2': 0, 'state': 'normal', 'yaw': 1.04, 'datetime': '2018-10-09 23:27:28.255022', 'mgs': 0, 'volt': 0.8789, 'depth': 1.233, 'time': 3, 'pitch': -14.29, 'roll': 5.45, 'pres': 180}
{'lipoC2': 7.34, 'lipoC3S1': 3.88, 'temp': 30.13, 'lipoC3S3': 11.72, 'lipoC3S2': 7.76, 'rot1': 0, 'rot0': 0, 'rot3': 0, 'rot2': 0, 'state': 'normal', 'yaw': 0.77, 'datetime': '2018-10-09 23:27:28.265048', 'mgs': 0, 'volt': 0.8838, 'depth': 1.309, 'time': 3, 'pitch': -14.2, 'roll': 5.51, 'pres': 181}
{'lipoC2': 7.34, 'lipoC3S1': 3.88, 'temp': 30.13, 'lipoC3S3': 11.72, 'lipoC3S2': 7.76, 'rot1': 0, 'rot0': 0, 'rot3': 0, 'rot2': 0, 'state': 'normal', 'yaw': 0.49, 'datetime': '2018-10-09 23:27:28.275106', 'mgs': 0, 'volt': 0.8838, 'depth': 1.309, 'time': 4, 'pitch': -14.35, 'roll': 5.38, 'pres': 181}
{'lipoC2': 7.34, 'lipoC3S1': 3.88, 'temp': 30.06, 'lipoC3S3': 11.72, 'lipoC3S2': 7.76, 'rot1': 0, 'rot0': 0, 'rot3': 0, 'rot2': 0, 'state': 'normal', 'yaw': 0.43, 'datetime': '2018-10-09 23:27:28.285311', 'mgs': 0, 'volt': 0.8838, 'depth': 1.309, 'time': 4, 'pitch': -14.62, 'roll': 4.77, 'pres': 181}
{'lipoC2': 7.34, 'lipoC3S1': 3.88, 'temp': 30.06, 'lipoC3S3': 11.72, 'lipoC3S2': 7.76, 'rot1': 0, 'rot0': 0, 'rot3': 0, 'rot2': 0, 'state': 'normal', 'yaw': 0.63, 'datetime': '2018-10-09 23:27:28.295356', 'mgs': 0, 'volt': 0.8887, 'depth': 1.385, 'time': 4, 'pitch': -14.82, 'roll': 3.91, 'pres': 182}
{'lipoC2': 7.34, 'lipoC3S1': 3.88, 'temp': 30.13, 'lipoC3S3': 11.72, 'lipoC3S2': 7.76, 'rot1': 0, 'rot0': 0, 'rot3': 0, 'rot2': 0, 'state': 'normal', 'yaw': 1.06, 'datetime': '2018-10-09 23:27:28.305390', 'mgs': 0, 'volt': 0.8936, 'depth': 1.462, 'time': 4, 'pitch': -14.88, 'roll': 2.94, 'pres': 183}
{'lipoC2': 7.34, 'lipoC3S1': 3.88, 'temp': 30.13, 'lipoC3S3': 11.72, 'lipoC3S2': 7.76, 'rot1': 0, 'rot0': 0, 'rot3': 0, 'rot2': 0, 'state': 'normal', 'yaw': 1.61, 'datetime': '2018-10-09 23:27:28.315421', 'mgs': 0, 'volt': 0.8936, 'depth': 1.462, 'time': 4, 'pitch': -14.87, 'roll': 2.02, 'pres': 183}
{'lipoC2': 7.34, 'lipoC3S1': 3.88, 'temp': 30.13, 'lipoC3S3': 11.72, 'lipoC3S2': 7.76, 'rot1': 0, 'rot0': 0, 'rot3': 0, 'rot2': 0, 'state': 'normal', 'yaw': 2.05, 'datetime': '2018-10-09 23:27:28.325430', 'mgs': 0, 'volt': 0.8936, 'depth': 1.462, 'time': 4, 'pitch': -15.0, 'roll': 1.46, 'pres': 183}
{'lipoC2': 7.34, 'lipoC3S1': 3.88, 'temp': 30.19, 'lipoC3S3': 11.72, 'lipoC3S2': 7.76, 'rot1': 0, 'rot0': 0, 'rot3': 0, 'rot2': 0, 'state': 'normal', 'yaw': 2.2, 'datetime': '2018-10-09 23:27:28.335475', 'mgs': 0, 'volt': 0.8936, 'depth': 1.462, 'time': 4, 'pitch': -15.55, 'roll': 1.29, 'pres': 183}
{'lipoC2': 7.34, 'lipoC3S1': 3.88, 'temp': 30.19, 'lipoC3S3': 11.72, 'lipoC3S2': 7.76, 'rot1': 0, 'rot0': 0, 'rot3': 0, 'rot2': 0, 'state': 'normal', 'yaw': 2.03, 'datetime': '2018-10-09 23:27:28.345505', 'mgs': 0, 'volt': 0.8984, 'depth': 1.538, 'time': 4, 'pitch': -16.62, 'roll': 1.56, 'pres': 184}
{'lipoC2': 7.34, 'lipoC3S1': 3.88, 'temp': 30.19, 'lipoC3S3': 11.72, 'lipoC3S2': 7.76, 'rot1': 0, 'rot0': 0, 'rot3': 0, 'rot2': 0, 'state': 'normal', 'yaw': 1.78, 'datetime': '2018-10-09 23:27:28.355554', 'mgs': 0, 'volt': 0.9033, 'depth': 1.614, 'time': 4, 'pitch': -17.72, 'roll': 1.97, 'pres': 185}
{'lipoC2': 7.34, 'lipoC3S1': 3.88, 'temp': 30.19, 'lipoC3S3': 11.72, 'lipoC3S2': 7.76, 'rot1': 0, 'rot0': 0, 'rot3': 0, 'rot2': 0, 'state': 'normal', 'yaw': 1.59, 'datetime': '2018-10-09 23:27:28.365576', 'mgs': 0, 'volt': 0.9082, 'depth': 1.691, 'time': 4, 'pitch': -18.91, 'roll': 2.38, 'pres': 186}
{'lipoC2': 7.34, 'lipoC3S1': 3.88, 'temp': 30.13, 'lipoC3S3': 11.72, 'lipoC3S2': 7.76, 'rot1': 0, 'rot0': 0, 'rot3': 0, 'rot2': 0, 'state': 'normal', 'yaw': 1.77, 'datetime': '2018-10-09 23:27:28.375591', 'mgs': 0, 'volt': 0.9131, 'depth': 1.767, 'time': 5, 'pitch': -19.89, 'roll': 2.5, 'pres': 187}
{'lipoC2': 7.34, 'lipoC3S1': 3.88, 'temp': 30.13, 'lipoC3S3': 11.72, 'lipoC3S2': 7.76, 'rot1': 0, 'rot0': 0, 'rot3': 0, 'rot2': 0, 'state': 'normal', 'yaw': 2.33, 'datetime': '2018-10-09 23:27:28.385592', 'mgs': 0, 'volt': 0.918, 'depth': 1.843, 'time': 5, 'pitch': -20.37, 'roll': 2.27, 'pres': 188}
{'lipoC2': 7.34, 'lipoC3S1': 3.88, 'temp': 30.13, 'lipoC3S3': 11.72, 'lipoC3S2': 7.76, 'rot1': 0, 'rot0': 0, 'rot3': 0, 'rot2': 0, 'state': 'normal', 'yaw': 3.05, 'datetime': '2018-10-09 23:27:28.395659', 'mgs': 0, 'volt': 0.9229, 'depth': 1.92, 'time': 5, 'pitch': -20.5, 'roll': 1.91, 'pres': 189}
{'lipoC2': 7.34, 'lipoC3S1': 3.88, 'temp': 30.13, 'lipoC3S3': 11.72, 'lipoC3S2': 7.76, 'rot1': 0, 'rot0': 0, 'rot3': 0, 'rot2': 0, 'state': 'normal', 'yaw': 3.65, 'datetime': '2018-10-09 23:27:28.405699', 'mgs': 0, 'volt': 0.9277, 'depth': 1.996, 'time': 5, 'pitch': -20.08, 'roll': 1.72, 'pres': 190}
{'lipoC2': 7.34, 'lipoC3S1': 3.88, 'temp': 30.13, 'lipoC3S3': 11.72, 'lipoC3S2': 7.76, 'rot1': 0, 'rot0': 0, 'rot3': 0, 'rot2': 0, 'state': 'normal', 'yaw': 4.03, 'datetime': '2018-10-09 23:27:28.415878', 'mgs': 0, 'volt': 0.9277, 'depth': 1.996, 'time': 5, 'pitch': -19.48, 'roll': 1.82, 'pres': 190}
{'lipoC2': 7.34, 'lipoC3S1': 3.88, 'temp': 30.13, 'lipoC3S3': 11.72, 'lipoC3S2': 7.76, 'rot1': 0, 'rot0': 0, 'rot3': 0, 'rot2': 0, 'state': 'normal', 'yaw': 4.3, 'datetime': '2018-10-09 23:27:28.425916', 'mgs': 0, 'volt': 0.9326, 'depth': 2.072, 'time': 5, 'pitch': -19.7, 'roll': 1.95, 'pres': 191}
{'lipoC2': 7.34, 'lipoC3S1': 3.88, 'temp': 30.13, 'lipoC3S3': 11.72, 'lipoC3S2': 7.76, 'rot1': 0, 'rot0': 0, 'rot3': 0, 'rot2': 0, 'state': 'normal', 'yaw': 4.66, 'datetime': '2018-10-09 23:27:28.435954', 'mgs': 0, 'volt': 0.9375, 'depth': 2.148, 'time': 5, 'pitch': -20.61, 'roll': 1.88, 'pres': 192}
{'lipoC2': 7.34, 'lipoC3S1': 3.88, 'temp': 30.13, 'lipoC3S3': 11.72, 'lipoC3S2': 7.76, 'rot1': 0, 'rot0': 0, 'rot3': 0, 'rot2': 0, 'state': 'normal', 'yaw': 4.88, 'datetime': '2018-10-09 23:27:28.445976', 'mgs': 0, 'volt': 0.9473, 'depth': 2.301, 'time': 5, 'pitch': -21.43, 'roll': 2.0, 'pres': 194}
{'lipoC2': 7.34, 'lipoC3S1': 3.88, 'temp': 30.25, 'lipoC3S3': 11.72, 'lipoC3S2': 7.76, 'rot1': 0, 'rot0': 0, 'rot3': 0, 'rot2': 0, 'state': 'normal', 'yaw': 4.82, 'datetime': '2018-10-09 23:27:28.456024', 'mgs': 0, 'volt': 0.9521, 'depth': 2.377, 'time': 5, 'pitch': -21.18, 'roll': 2.39, 'pres': 195}
{'lipoC2': 7.34, 'lipoC3S1': 3.88, 'temp': 30.25, 'lipoC3S3': 11.72, 'lipoC3S2': 7.76, 'rot1': 0, 'rot0': 0, 'rot3': 0, 'rot2': 0, 'state': 'normal', 'yaw': 4.8, 'datetime': '2018-10-09 23:27:28.466037', 'mgs': 0, 'volt': 0.9619, 'depth': 2.53, 'time': 6, 'pitch': -20.67, 'roll': 2.75, 'pres': 197}
{'lipoC2': 7.34, 'lipoC3S1': 3.88, 'temp': 30.06, 'lipoC3S3': 11.72, 'lipoC3S2': 7.76, 'rot1': 0, 'rot0': 0, 'rot3': 0, 'rot2': 0, 'state': 'normal', 'yaw': 5.32, 'datetime': '2018-10-09 23:27:28.476051', 'mgs': 0, 'volt': 0.9619, 'depth': 2.53, 'time': 6, 'pitch': -20.67, 'roll': 2.59, 'pres': 197}
{'lipoC2': 7.34, 'lipoC3S1': 3.88, 'temp': 30.06, 'lipoC3S3': 11.72, 'lipoC3S2': 7.76, 'rot1': 0, 'rot0': 0, 'rot3': 0, 'rot2': 0, 'state': 'normal', 'yaw': 7.25, 'datetime': '2018-10-09 23:27:28.486035', 'mgs': 0, 'volt': 0.9619, 'depth': 2.53, 'time': 6, 'pitch': -21.28, 'roll': 0.92, 'pres': 197}
{'lipoC2': 7.34, 'lipoC3S1': 3.88, 'temp': 30.13, 'lipoC3S3': 11.72, 'lipoC3S2': 7.76, 'rot1': 0, 'rot0': 0, 'rot3': 0, 'rot2': 0, 'state': 'normal', 'yaw': 9.95, 'datetime': '2018-10-09 23:27:28.496055', 'mgs': 0, 'volt': 0.9619, 'depth': 2.53, 'time': 6, 'pitch': -22.94, 'roll': -1.66, 'pres': 197}
{'lipoC2': 7.34, 'lipoC3S1': 3.88, 'temp': 30.13, 'lipoC3S3': 11.72, 'lipoC3S2': 7.76, 'rot1': 0, 'rot0': 0, 'rot3': 0, 'rot2': 0, 'state': 'normal', 'yaw': 11.83, 'datetime': '2018-10-09 23:27:28.506054', 'mgs': 0, 'volt': 0.9619, 'depth': 2.53, 'time': 6, 'pitch': -25.24, 'roll': -3.3, 'pres': 197}
{'lipoC2': 7.34, 'lipoC3S1': 3.88, 'temp': 30.13, 'lipoC3S3': 11.72, 'lipoC3S2': 7.76, 'rot1': 0, 'rot0': 0, 'rot3': 0, 'rot2': 0, 'state': 'normal', 'yaw': 12.94, 'datetime': '2018-10-09 23:27:28.516089', 'mgs': 0, 'volt': 0.9619, 'depth': 2.53, 'time': 6, 'pitch': -27.58, 'roll': -4.0, 'pres': 197}
{'lipoC2': 7.34, 'lipoC3S1': 3.88, 'temp': 30.13, 'lipoC3S3': 11.72, 'lipoC3S2': 7.76, 'rot1': 0, 'rot0': 0, 'rot3': 0, 'rot2': 0, 'state': 'normal', 'yaw': 13.16, 'datetime': '2018-10-09 23:27:28.526113', 'mgs': 0, 'volt': 0.9668, 'depth': 2.606, 'time': 6, 'pitch': -29.07, 'roll': -3.43, 'pres': 198}
{'lipoC2': 7.34, 'lipoC3S1': 3.88, 'temp': 30.13, 'lipoC3S3': 11.72, 'lipoC3S2': 7.76, 'rot1': 0, 'rot0': 0, 'rot3': 0, 'rot2': 0, 'state': 'normal', 'yaw': 13.11, 'datetime': '2018-10-09 23:27:28.536146', 'mgs': 0, 'volt': 0.9668, 'depth': 2.606, 'time': 6, 'pitch': -29.29, 'roll': -2.23, 'pres': 198}
{'lipoC2': 7.34, 'lipoC3S1': 3.88, 'temp': 30.0, 'lipoC3S3': 11.72, 'lipoC3S2': 7.76, 'rot1': 0, 'rot0': 0, 'rot3': 0, 'rot2': 0, 'state': 'normal', 'yaw': 12.91, 'datetime': '2018-10-09 23:27:28.546173', 'mgs': 0, 'volt': 0.9717, 'depth': 2.682, 'time': 6, 'pitch': -28.69, 'roll': -0.8, 'pres': 199}
{'lipoC2': 7.34, 'lipoC3S1': 3.88, 'temp': 30.0, 'lipoC3S3': 11.72, 'lipoC3S2': 7.76, 'rot1': 0, 'rot0': 0, 'rot3': 0, 'rot2': 0, 'state': 'normal', 'yaw': 12.74, 'datetime': '2018-10-09 23:27:28.556379', 'mgs': 0, 'volt': 0.9717, 'depth': 2.682, 'time': 6, 'pitch': -27.84, 'roll': 0.72, 'pres': 199}
{'lipoC2': 7.34, 'lipoC3S1': 3.88, 'temp': 30.0, 'lipoC3S3': 11.72, 'lipoC3S2': 7.76, 'rot1': 0, 'rot0': 0, 'rot3': 0, 'rot2': 0, 'state': 'normal', 'yaw': 12.75, 'datetime': '2018-10-09 23:27:28.566439', 'mgs': 0, 'volt': 0.9766, 'depth': 2.759, 'time': 7, 'pitch': -26.65, 'roll': 2.17, 'pres': 200}
{'lipoC2': 7.34, 'lipoC3S1': 3.88, 'temp': 30.0, 'lipoC3S3': 11.72, 'lipoC3S2': 7.76, 'rot1': 0, 'rot0': 0, 'rot3': 0, 'rot2': 0, 'state': 'normal', 'yaw': 12.81, 'datetime': '2018-10-09 23:27:28.576497', 'mgs': 0, 'volt': 0.9766, 'depth': 2.759, 'time': 7, 'pitch': -25.47, 'roll': 3.3, 'pres': 200}
{'lipoC2': 7.34, 'lipoC3S1': 3.88, 'temp': 30.0, 'lipoC3S3': 11.72, 'lipoC3S2': 7.76, 'rot1': 0, 'rot0': 0, 'rot3': 0, 'rot2': 0, 'state': 'normal', 'yaw': 12.75, 'datetime': '2018-10-09 23:27:28.586563', 'mgs': 0, 'volt': 0.9766, 'depth': 2.759, 'time': 7, 'pitch': -24.3, 'roll': 4.38, 'pres': 200}
{'lipoC2': 7.34, 'lipoC3S1': 3.88, 'temp': 30.06, 'lipoC3S3': 11.72, 'lipoC3S2': 7.76, 'rot1': 0, 'rot0': 0, 'rot3': 0, 'rot2': 0, 'state': 'normal', 'yaw': 12.7, 'datetime': '2018-10-09 23:27:28.596617', 'mgs': 0, 'volt': 0.9766, 'depth': 2.759, 'time': 7, 'pitch': -23.26, 'roll': 5.32, 'pres': 200}
{'lipoC2': 7.34, 'lipoC3S1': 3.88, 'temp': 30.06, 'lipoC3S3': 11.72, 'lipoC3S2': 7.76, 'rot1': 0, 'rot0': 0, 'rot3': 0, 'rot2': 0, 'state': 'normal', 'yaw': 12.79, 'datetime': '2018-10-09 23:27:28.606824', 'mgs': 0, 'volt': 0.9766, 'depth': 2.759, 'time': 7, 'pitch': -22.65, 'roll': 5.82, 'pres': 200}
{'lipoC2': 7.34, 'lipoC3S1': 3.88, 'temp': 30.13, 'lipoC3S3': 11.72, 'lipoC3S2': 7.76, 'rot1': 0, 'rot0': 0, 'rot3': 0, 'rot2': 0, 'state': 'normal', 'yaw': 13.17, 'datetime': '2018-10-09 23:27:28.616959', 'mgs': 0, 'volt': 0.9766, 'depth': 2.759, 'time': 7, 'pitch': -22.43, 'roll': 5.91, 'pres': 200}
{'lipoC2': 7.34, 'lipoC3S1': 3.88, 'temp': 30.13, 'lipoC3S3': 11.72, 'lipoC3S2': 7.76, 'rot1': 0, 'rot0': 0, 'rot3': 0, 'rot2': 0, 'state': 'normal', 'yaw': 13.73, 'datetime': '2018-10-09 23:27:28.626990', 'mgs': 0, 'volt': 0.9717, 'depth': 2.682, 'time': 7, 'pitch': -22.18, 'roll': 5.72, 'pres': 199}
{'lipoC2': 7.34, 'lipoC3S1': 3.88, 'temp': 30.06, 'lipoC3S3': 11.72, 'lipoC3S2': 7.76, 'rot1': 0, 'rot0': 0, 'rot3': 0, 'rot2': 0, 'state': 'normal', 'yaw': 14.27, 'datetime': '2018-10-09 23:27:28.637015', 'mgs': 0, 'volt': 0.9717, 'depth': 2.682, 'time': 7, 'pitch': -21.71, 'roll': 5.51, 'pres': 199}
{'lipoC2': 7.34, 'lipoC3S1': 3.88, 'temp': 30.06, 'lipoC3S3': 11.72, 'lipoC3S2': 7.76, 'rot1': 0, 'rot0': 0, 'rot3': 0, 'rot2': 0, 'state': 'normal', 'yaw': 14.87, 'datetime': '2018-10-09 23:27:28.647087', 'mgs': 0, 'volt': 0.9717, 'depth': 2.682, 'time': 7, 'pitch': -20.88, 'roll': 5.15, 'pres': 199}
{'lipoC2': 7.34, 'lipoC3S1': 3.88, 'temp': 30.06, 'lipoC3S3': 11.72, 'lipoC3S2': 7.76, 'rot1': 0, 'rot0': 0, 'rot3': 0, 'rot2': 0, 'state': 'normal', 'yaw': 15.34, 'datetime': '2018-10-09 23:27:28.657191', 'mgs': 0, 'volt': 0.9668, 'depth': 2.606, 'time': 7, 'pitch': -19.74, 'roll': 4.76, 'pres': 198}
{'lipoC2': 7.34, 'lipoC3S1': 3.88, 'temp': 30.06, 'lipoC3S3': 11.72, 'lipoC3S2': 7.76, 'rot1': 0, 'rot0': 0, 'rot3': 0, 'rot2': 0, 'state': 'normal', 'yaw': 15.73, 'datetime': '2018-10-09 23:27:28.667269', 'mgs': 0, 'volt': 0.9668, 'depth': 2.606, 'time': 8, 'pitch': -18.21, 'roll': 4.32, 'pres': 198}
{'lipoC2': 7.34, 'lipoC3S1': 3.88, 'temp': 30.06, 'lipoC3S3': 11.72, 'lipoC3S2': 7.76, 'rot1': 0, 'rot0': 0, 'rot3': 0, 'rot2': 0, 'state': 'normal', 'yaw': 15.76, 'datetime': '2018-10-09 23:27:28.677329', 'mgs': 0, 'volt': 0.9619, 'depth': 2.53, 'time': 8, 'pitch': -17.07, 'roll': 4.14, 'pres': 197}
{'lipoC2': 7.34, 'lipoC3S1': 3.88, 'temp': 30.06, 'lipoC3S3': 11.72, 'lipoC3S2': 7.76, 'rot1': 0, 'rot0': 0, 'rot3': 0, 'rot2': 0, 'state': 'normal', 'yaw': 15.21, 'datetime': '2018-10-09 23:27:28.687465', 'mgs': 0, 'volt': 0.9619, 'depth': 2.53, 'time': 8, 'pitch': -16.66, 'roll': 4.45, 'pres': 197}
{'lipoC2': 7.34, 'lipoC3S1': 3.88, 'temp': 30.06, 'lipoC3S3': 11.72, 'lipoC3S2': 7.76, 'rot1': 0, 'rot0': 0, 'rot3': 0, 'rot2': 0, 'state': 'normal', 'yaw': 14.51, 'datetime': '2018-10-09 23:27:28.697508', 'mgs': 0, 'volt': 0.9619, 'depth': 2.53, 'time': 8, 'pitch': -16.85, 'roll': 4.98, 'pres': 197}
{'lipoC2': 7.34, 'lipoC3S1': 3.88, 'temp': 30.06, 'lipoC3S3': 11.72, 'lipoC3S2': 7.76, 'rot1': 0, 'rot0': 0, 'rot3': 0, 'rot2': 0, 'state': 'normal', 'yaw': 13.79, 'datetime': '2018-10-09 23:27:28.707556', 'mgs': 0, 'volt': 0.957, 'depth': 2.454, 'time': 8, 'pitch': -16.97, 'roll': 5.56, 'pres': 196}
{'lipoC2': 7.34, 'lipoC3S1': 3.88, 'temp': 30.06, 'lipoC3S3': 11.72, 'lipoC3S2': 7.76, 'rot1': 0, 'rot0': 0, 'rot3': 0, 'rot2': 0, 'state': 'normal', 'yaw': 13.1, 'datetime': '2018-10-09 23:27:28.717607', 'mgs': 0, 'volt': 0.957, 'depth': 2.454, 'time': 8, 'pitch': -16.66, 'roll': 6.07, 'pres': 196}
{'lipoC2': 7.34, 'lipoC3S1': 3.88, 'temp': 30.06, 'lipoC3S3': 11.72, 'lipoC3S2': 7.76, 'rot1': 0, 'rot0': 0, 'rot3': 0, 'rot2': 0, 'state': 'normal', 'yaw': 12.62, 'datetime': '2018-10-09 23:27:28.727575', 'mgs': 0, 'volt': 0.9521, 'depth': 2.377, 'time': 8, 'pitch': -15.94, 'roll': 6.29, 'pres': 195}
{'lipoC2': 7.34, 'lipoC3S1': 3.88, 'temp': 30.06, 'lipoC3S3': 11.72, 'lipoC3S2': 7.76, 'rot1': 0, 'rot0': 0, 'rot3': 0, 'rot2': 0, 'state': 'normal', 'yaw': 12.14, 'datetime': '2018-10-09 23:27:28.737605', 'mgs': 0, 'volt': 0.9521, 'depth': 2.377, 'time': 8, 'pitch': -15.23, 'roll': 6.34, 'pres': 195}
{'lipoC2': 7.34, 'lipoC3S1': 3.88, 'temp': 30.06, 'lipoC3S3': 11.72, 'lipoC3S2': 7.76, 'rot1': 0, 'rot0': 0, 'rot3': 0, 'rot2': 0, 'state': 'normal', 'yaw': 11.59, 'datetime': '2018-10-09 23:27:28.747598', 'mgs': 0, 'volt': 0.9521, 'depth': 2.377, 'time': 8, 'pitch': -14.66, 'roll': 6.17, 'pres': 195}
{'lipoC2': 7.34, 'lipoC3S1': 3.88, 'temp': 30.06, 'lipoC3S3': 11.72, 'lipoC3S2': 7.76, 'rot1': 0, 'rot0': 0, 'rot3': 0, 'rot2': 0, 'state': 'normal', 'yaw': 11.24, 'datetime': '2018-10-09 23:27:28.757639', 'mgs': 0, 'volt': 0.9521, 'depth': 2.377, 'time': 9, 'pitch': -14.05, 'roll': 5.76, 'pres': 195}
{'lipoC2': 7.34, 'lipoC3S1': 3.88, 'temp': 30.06, 'lipoC3S3': 11.72, 'lipoC3S2': 7.76, 'rot1': 0, 'rot0': 0, 'rot3': 0, 'rot2': 0, 'state': 'normal', 'yaw': 11.0, 'datetime': '2018-10-09 23:27:28.767683', 'mgs': 0, 'volt': 0.9521, 'depth': 2.377, 'time': 9, 'pitch': -13.29, 'roll': 5.24, 'pres': 195}
{'lipoC2': 7.34, 'lipoC3S1': 3.88, 'temp': 30.06, 'lipoC3S3': 11.72, 'lipoC3S2': 7.76, 'rot1': 0, 'rot0': 0, 'rot3': 0, 'rot2': 0, 'state': 'normal', 'yaw': 10.63, 'datetime': '2018-10-09 23:27:28.777695', 'mgs': 0, 'volt': 0.9521, 'depth': 2.377, 'time': 9, 'pitch': -12.38, 'roll': 4.86, 'pres': 195}
{'lipoC2': 7.33, 'lipoC3S1': 3.88, 'temp': 30.06, 'lipoC3S3': 11.72, 'lipoC3S2': 7.76, 'rot1': 0, 'rot0': 0, 'rot3': 0, 'rot2': 0, 'state': 'normal', 'yaw': 10.22, 'datetime': '2018-10-09 23:27:28.787693', 'mgs': 0, 'volt': 0.9521, 'depth': 2.377, 'time': 9, 'pitch': -11.79, 'roll': 4.71, 'pres': 195}
{'lipoC2': 7.34, 'lipoC3S1': 3.88, 'temp': 30.06, 'lipoC3S3': 11.72, 'lipoC3S2': 7.76, 'rot1': 0, 'rot0': 0, 'rot3': 0, 'rot2': 0, 'state': 'normal', 'yaw': 10.12, 'datetime': '2018-10-09 23:27:28.797701', 'mgs': 0, 'volt': 0.9521, 'depth': 2.377, 'time': 9, 'pitch': -11.91, 'roll': 4.35, 'pres': 195}
{'lipoC2': 7.34, 'lipoC3S1': 3.88, 'temp': 30.06, 'lipoC3S3': 11.72, 'lipoC3S2': 7.76, 'rot1': 0, 'rot0': 0, 'rot3': 0, 'rot2': 0, 'state': 'normal', 'yaw': 10.66, 'datetime': '2018-10-09 23:27:28.807741', 'mgs': 0, 'volt': 0.9521, 'depth': 2.377, 'time': 9, 'pitch': -12.47, 'roll': 3.4, 'pres': 195}
{'lipoC2': 7.34, 'lipoC3S1': 3.88, 'temp': 30.06, 'lipoC3S3': 11.72, 'lipoC3S2': 7.76, 'rot1': 0, 'rot0': 0, 'rot3': 0, 'rot2': 0, 'state': 'normal', 'yaw': 11.48, 'datetime': '2018-10-09 23:27:28.817789', 'mgs': 0, 'volt': 0.9521, 'depth': 2.377, 'time': 9, 'pitch': -12.86, 'roll': 2.18, 'pres': 195}
{'lipoC2': 7.34, 'lipoC3S1': 3.88, 'temp': 30.06, 'lipoC3S3': 11.72, 'lipoC3S2': 7.76, 'rot1': 0, 'rot0': 0, 'rot3': 0, 'rot2': 0, 'state': 'normal', 'yaw': 12.17, 'datetime': '2018-10-09 23:27:28.827964', 'mgs': 0, 'volt': 0.9521, 'depth': 2.377, 'time': 9, 'pitch': -12.9, 'roll': 1.09, 'pres': 195}
{'lipoC2': 7.34, 'lipoC3S1': 3.88, 'temp': 30.06, 'lipoC3S3': 11.72, 'lipoC3S2': 7.76, 'rot1': 0, 'rot0': 0, 'rot3': 0, 'rot2': 0, 'state': 'normal', 'yaw': 12.6, 'datetime': '2018-10-09 23:27:28.837993', 'mgs': 0, 'volt': 0.9521, 'depth': 2.377, 'time': 9, 'pitch': -12.34, 'roll': 0.38, 'pres': 195}
{'lipoC2': 7.34, 'lipoC3S1': 3.88, 'temp': 30.06, 'lipoC3S3': 11.72, 'lipoC3S2': 7.76, 'rot1': 0, 'rot0': 0, 'rot3': 0, 'rot2': 0, 'state': 'normal', 'yaw': 12.78, 'datetime': '2018-10-09 23:27:28.848015', 'mgs': 0, 'volt': 0.957, 'depth': 2.454, 'time': 9, 'pitch': -11.64, 'roll': 0.19, 'pres': 196}
{'lipoC2': 7.34, 'lipoC3S1': 3.88, 'temp': 30.06, 'lipoC3S3': 11.72, 'lipoC3S2': 7.76, 'rot1': 0, 'rot0': 0, 'rot3': 0, 'rot2': 0, 'state': 'normal', 'yaw': 12.98, 'datetime': '2018-10-09 23:27:28.858097', 'mgs': 0, 'volt': 0.9521, 'depth': 2.377, 'time': 10, 'pitch': -11.07, 'roll': 0.27, 'pres': 195}
{'lipoC2': 7.34, 'lipoC3S1': 3.88, 'temp': 30.06, 'lipoC3S3': 11.72, 'lipoC3S2': 7.76, 'rot1': 0, 'rot0': 0, 'rot3': 0, 'rot2': 0, 'state': 'normal', 'yaw': 13.41, 'datetime': '2018-10-09 23:27:28.868184', 'mgs': 0, 'volt': 0.9521, 'depth': 2.377, 'time': 10, 'pitch': -10.83, 'roll': 0.42, 'pres': 195}
{'lipoC2': 7.34, 'lipoC3S1': 3.88, 'temp': 30.06, 'lipoC3S3': 11.72, 'lipoC3S2': 7.76, 'rot1': 0, 'rot0': 0, 'rot3': 0, 'rot2': 0, 'state': 'normal', 'yaw': 13.9, 'datetime': '2018-10-09 23:27:28.878244', 'mgs': 0, 'volt': 0.957, 'depth': 2.454, 'time': 10, 'pitch': -11.03, 'roll': 0.6, 'pres': 196}
{'lipoC2': 7.34, 'lipoC3S1': 3.88, 'temp': 30.06, 'lipoC3S3': 11.72, 'lipoC3S2': 7.76, 'rot1': 0, 'rot0': 0, 'rot3': 0, 'rot2': 0, 'state': 'normal', 'yaw': 14.28, 'datetime': '2018-10-09 23:27:28.888311', 'mgs': 0, 'volt': 0.9521, 'depth': 2.377, 'time': 10, 'pitch': -10.98, 'roll': 0.93, 'pres': 195}
{'lipoC2': 7.34, 'lipoC3S1': 3.88, 'temp': 30.13, 'lipoC3S3': 11.72, 'lipoC3S2': 7.76, 'rot1': 0, 'rot0': 0, 'rot3': 0, 'rot2': 0, 'state': 'normal', 'yaw': 14.45, 'datetime': '2018-10-09 23:27:28.898789', 'mgs': 0, 'volt': 0.9521, 'depth': 2.377, 'time': 10, 'pitch': -10.77, 'roll': 1.56, 'pres': 195}
{'lipoC2': 7.34, 'lipoC3S1': 3.88, 'temp': 30.13, 'lipoC3S3': 11.72, 'lipoC3S2': 7.76, 'rot1': 0, 'rot0': 0, 'rot3': 0, 'rot2': 0, 'state': 'normal', 'yaw': 14.37, 'datetime': '2018-10-09 23:27:28.908997', 'mgs': 0, 'volt': 0.957, 'depth': 2.454, 'time': 10, 'pitch': -10.36, 'roll': 2.36, 'pres': 196}
{'lipoC2': 7.34, 'lipoC3S1': 3.88, 'temp': 30.13, 'lipoC3S3': 11.72, 'lipoC3S2': 7.76, 'rot1': 0, 'rot0': 0, 'rot3': 0, 'rot2': 0, 'state': 'normal', 'yaw': 14.12, 'datetime': '2018-10-09 23:27:28.919106', 'mgs': 0, 'volt': 0.957, 'depth': 2.454, 'time': 10, 'pitch': -9.9, 'roll': 3.25, 'pres': 196}
{'lipoC2': 7.34, 'lipoC3S1': 3.88, 'temp': 30.13, 'lipoC3S3': 11.72, 'lipoC3S2': 7.76, 'rot1': 0, 'rot0': 0, 'rot3': 0, 'rot2': 0, 'state': 'normal', 'yaw': 13.92, 'datetime': '2018-10-09 23:27:28.929162', 'mgs': 0, 'volt': 0.957, 'depth': 2.454, 'time': 10, 'pitch': -9.62, 'roll': 4.06, 'pres': 196}
{'lipoC2': 7.34, 'lipoC3S1': 3.88, 'temp': 30.13, 'lipoC3S3': 11.72, 'lipoC3S2': 7.76, 'rot1': 0, 'rot0': 0, 'rot3': 0, 'rot2': 0, 'state': 'normal', 'yaw': 13.76, 'datetime': '2018-10-09 23:27:28.939241', 'mgs': 0, 'volt': 0.957, 'depth': 2.454, 'time': 10, 'pitch': -9.75, 'roll': 4.64, 'pres': 196}
{'lipoC2': 7.34, 'lipoC3S1': 3.88, 'temp': 30.06, 'lipoC3S3': 11.72, 'lipoC3S2': 7.76, 'rot1': 0, 'rot0': 0, 'rot3': 0, 'rot2': 0, 'state': 'normal', 'yaw': 13.71, 'datetime': '2018-10-09 23:27:28.949337', 'mgs': 0, 'volt': 0.957, 'depth': 2.454, 'time': 10, 'pitch': -10.04, 'roll': 5.03, 'pres': 196}
{'lipoC2': 7.34, 'lipoC3S1': 3.88, 'temp': 30.06, 'lipoC3S3': 11.72, 'lipoC3S2': 7.76, 'rot1': 0, 'rot0': 0, 'rot3': 0, 'rot2': 0, 'state': 'normal', 'yaw': 13.97, 'datetime': '2018-10-09 23:27:28.959537', 'mgs': 0, 'volt': 0.957, 'depth': 2.454, 'time': 11, 'pitch': -10.14, 'roll': 5.04, 'pres': 196}
{'lipoC2': 7.34, 'lipoC3S1': 3.88, 'temp': 30.06, 'lipoC3S3': 11.72, 'lipoC3S2': 7.76, 'rot1': 0, 'rot0': 0, 'rot3': 0, 'rot2': 0, 'state': 'normal', 'yaw': 14.23, 'datetime': '2018-10-09 23:27:28.969613', 'mgs': 0, 'volt': 0.957, 'depth': 2.454, 'time': 11, 'pitch': -9.99, 'roll': 4.92, 'pres': 196}
{'lipoC2': 7.34, 'lipoC3S1': 3.88, 'temp': 30.06, 'lipoC3S3': 11.72, 'lipoC3S2': 7.76, 'rot1': 0, 'rot0': 0, 'rot3': 0, 'rot2': 0, 'state': 'normal', 'yaw': 14.74, 'datetime': '2018-10-09 23:27:28.979708', 'mgs': 0, 'volt': 0.957, 'depth': 2.454, 'time': 11, 'pitch': -9.66, 'roll': 4.46, 'pres': 196}
{'lipoC2': 7.34, 'lipoC3S1': 3.88, 'temp': 30.06, 'lipoC3S3': 11.72, 'lipoC3S2': 7.76, 'rot1': 0, 'rot0': 0, 'rot3': 0, 'rot2': 0, 'state': 'normal', 'yaw': 15.57, 'datetime': '2018-10-09 23:27:28.989758', 'mgs': 0, 'volt': 0.957, 'depth': 2.454, 'time': 11, 'pitch': -9.13, 'roll': 3.52, 'pres': 196}
{'lipoC2': 7.34, 'lipoC3S1': 3.88, 'temp': 30.06, 'lipoC3S3': 11.72, 'lipoC3S2': 7.76, 'rot1': 0, 'rot0': 0, 'rot3': 0, 'rot2': 0, 'state': 'normal', 'yaw': 16.35, 'datetime': '2018-10-09 23:27:28.999830', 'mgs': 0, 'volt': 0.957, 'depth': 2.454, 'time': 11, 'pitch': -9.25, 'roll': 2.51, 'pres': 196}
{'lipoC2': 7.34, 'lipoC3S1': 3.88, 'temp': 30.06, 'lipoC3S3': 11.72, 'lipoC3S2': 7.76, 'rot1': 0, 'rot0': 0, 'rot3': 0, 'rot2': 0, 'state': 'normal', 'yaw': 16.82, 'datetime': '2018-10-09 23:27:29.009921', 'mgs': 0, 'volt': 0.9521, 'depth': 2.377, 'time': 11, 'pitch': -10.37, 'roll': 1.72, 'pres': 195}
{'lipoC2': 7.34, 'lipoC3S1': 3.88, 'temp': 30.0, 'lipoC3S3': 11.72, 'lipoC3S2': 7.76, 'rot1': 0, 'rot0': 0, 'rot3': 0, 'rot2': 0, 'state': 'normal', 'yaw': 16.88, 'datetime': '2018-10-09 23:27:29.019995', 'mgs': 0, 'volt': 0.9521, 'depth': 2.377, 'time': 11, 'pitch': -12.25, 'roll': 1.4, 'pres': 195}
{'lipoC2': 7.34, 'lipoC3S1': 3.88, 'temp': 30.0, 'lipoC3S3': 11.72, 'lipoC3S2': 7.76, 'rot1': 0, 'rot0': 0, 'rot3': 0, 'rot2': 0, 'state': 'normal', 'yaw': 17.19, 'datetime': '2018-10-09 23:27:29.030054', 'mgs': 0, 'volt': 0.9521, 'depth': 2.377, 'time': 11, 'pitch': -14.25, 'roll': 1.17, 'pres': 195}
{'lipoC2': 7.34, 'lipoC3S1': 3.88, 'temp': 30.13, 'lipoC3S3': 11.72, 'lipoC3S2': 7.76, 'rot1': 0, 'rot0': 0, 'rot3': 0, 'rot2': 0, 'state': 'normal', 'yaw': 17.64, 'datetime': '2018-10-09 23:27:29.040144', 'mgs': 0, 'volt': 0.9521, 'depth': 2.377, 'time': 11, 'pitch': -15.6, 'roll': 0.97, 'pres': 195}
{'lipoC2': 7.34, 'lipoC3S1': 3.88, 'temp': 30.13, 'lipoC3S3': 11.72, 'lipoC3S2': 7.76, 'rot1': 0, 'rot0': 0, 'rot3': 0, 'rot2': 0, 'state': 'normal', 'yaw': 18.27, 'datetime': '2018-10-09 23:27:29.050228', 'mgs': 0, 'volt': 0.9521, 'depth': 2.377, 'time': 12, 'pitch': -15.88, 'roll': 0.74, 'pres': 195}
{'lipoC2': 7.34, 'lipoC3S1': 3.88, 'temp': 30.06, 'lipoC3S3': 11.72, 'lipoC3S2': 7.76, 'rot1': 0, 'rot0': 0, 'rot3': 0, 'rot2': 0, 'state': 'normal', 'yaw': 19.02, 'datetime': '2018-10-09 23:27:29.060323', 'mgs': 0, 'volt': 0.9521, 'depth': 2.377, 'time': 12, 'pitch': -15.24, 'roll': 0.5, 'pres': 195}
{'lipoC2': 7.34, 'lipoC3S1': 3.88, 'temp': 30.06, 'lipoC3S3': 11.72, 'lipoC3S2': 7.76, 'rot1': 0, 'rot0': 0, 'rot3': 0, 'rot2': 0, 'state': 'normal', 'yaw': 19.47, 'datetime': '2018-10-09 23:27:29.070407', 'mgs': 0, 'volt': 0.9521, 'depth': 2.377, 'time': 12, 'pitch': -14.23, 'roll': 0.48, 'pres': 195}
{'lipoC2': 7.34, 'lipoC3S1': 3.88, 'temp': 30.06, 'lipoC3S3': 11.73, 'lipoC3S2': 7.76, 'rot1': 0, 'rot0': 0, 'rot3': 0, 'rot2': 0, 'state': 'normal', 'yaw': 19.78, 'datetime': '2018-10-09 23:27:29.080494', 'mgs': 0, 'volt': 0.9521, 'depth': 2.377, 'time': 12, 'pitch': -13.18, 'roll': 0.6, 'pres': 195}
{'lipoC2': 7.34, 'lipoC3S1': 3.88, 'temp': 30.06, 'lipoC3S3': 11.72, 'lipoC3S2': 7.76, 'rot1': 0, 'rot0': 0, 'rot3': 0, 'rot2': 0, 'state': 'normal', 'yaw': 20.06, 'datetime': '2018-10-09 23:27:29.090557', 'mgs': 0, 'volt': 0.9521, 'depth': 2.377, 'time': 12, 'pitch': -12.27, 'roll': 0.69, 'pres': 195}
{'lipoC2': 7.34, 'lipoC3S1': 3.88, 'temp': 30.06, 'lipoC3S3': 11.72, 'lipoC3S2': 7.76, 'rot1': 0, 'rot0': 0, 'rot3': 0, 'rot2': 0, 'state': 'normal', 'yaw': 20.38, 'datetime': '2018-10-09 23:27:29.100754', 'mgs': 0, 'volt': 0.9521, 'depth': 2.377, 'time': 12, 'pitch': -11.56, 'roll': 0.69, 'pres': 195}
{'lipoC2': 7.34, 'lipoC3S1': 3.88, 'temp': 30.0, 'lipoC3S3': 11.72, 'lipoC3S2': 7.76, 'rot1': 0, 'rot0': 0, 'rot3': 0, 'rot2': 0, 'state': 'normal', 'yaw': 20.5, 'datetime': '2018-10-09 23:27:29.110811', 'mgs': 0, 'volt': 0.9521, 'depth': 2.377, 'time': 12, 'pitch': -10.85, 'roll': 0.91, 'pres': 195}
{'lipoC2': 7.34, 'lipoC3S1': 3.88, 'temp': 30.0, 'lipoC3S3': 11.72, 'lipoC3S2': 7.76, 'rot1': 0, 'rot0': 0, 'rot3': 0, 'rot2': 0, 'state': 'normal', 'yaw': 20.41, 'datetime': '2018-10-09 23:27:29.120884', 'mgs': 0, 'volt': 0.9521, 'depth': 2.377, 'time': 12, 'pitch': -10.59, 'roll': 1.32, 'pres': 195}
{'lipoC2': 7.34, 'lipoC3S1': 3.88, 'temp': 30.13, 'lipoC3S3': 11.72, 'lipoC3S2': 7.76, 'rot1': 0, 'rot0': 0, 'rot3': 0, 'rot2': 0, 'state': 'normal', 'yaw': 20.4, 'datetime': '2018-10-09 23:27:29.130999', 'mgs': 0, 'volt': 0.9521, 'depth': 2.377, 'time': 12, 'pitch': -10.41, 'roll': 1.72, 'pres': 195}
{'lipoC2': 7.34, 'lipoC3S1': 3.88, 'temp': 30.13, 'lipoC3S3': 11.72, 'lipoC3S2': 7.76, 'rot1': 0, 'rot0': 0, 'rot3': 0, 'rot2': 0, 'state': 'normal', 'yaw': 20.49, 'datetime': '2018-10-09 23:27:29.141041', 'mgs': 0, 'volt': 0.9473, 'depth': 2.301, 'time': 12, 'pitch': -10.08, 'roll': 2.18, 'pres': 194}
{'lipoC2': 7.34, 'lipoC3S1': 3.88, 'temp': 30.13, 'lipoC3S3': 11.72, 'lipoC3S2': 7.76, 'rot1': 0, 'rot0': 0, 'rot3': 0, 'rot2': 0, 'state': 'normal', 'yaw': 20.73, 'datetime': '2018-10-09 23:27:29.151086', 'mgs': 0, 'volt': 0.9424, 'depth': 2.225, 'time': 13, 'pitch': -9.86, 'roll': 2.52, 'pres': 193}
{'lipoC2': 7.34, 'lipoC3S1': 3.88, 'temp': 30.06, 'lipoC3S3': 11.72, 'lipoC3S2': 7.76, 'rot1': 0, 'rot0': 0, 'rot3': 0, 'rot2': 0, 'state': 'normal', 'yaw': 20.95, 'datetime': '2018-10-09 23:27:29.161116', 'mgs': 0, 'volt': 0.9375, 'depth': 2.148, 'time': 13, 'pitch': -9.76, 'roll': 2.84, 'pres': 192}
{'lipoC2': 7.34, 'lipoC3S1': 3.88, 'temp': 30.06, 'lipoC3S3': 11.72, 'lipoC3S2': 7.76, 'rot1': 0, 'rot0': 0, 'rot3': 0, 'rot2': 0, 'state': 'normal', 'yaw': 21.29, 'datetime': '2018-10-09 23:27:29.171174', 'mgs': 0, 'volt': 0.9326, 'depth': 2.072, 'time': 13, 'pitch': -9.63, 'roll': 3.02, 'pres': 191}
{'lipoC2': 7.34, 'lipoC3S1': 3.88, 'temp': 30.06, 'lipoC3S3': 11.72, 'lipoC3S2': 7.76, 'rot1': 0, 'rot0': 0, 'rot3': 0, 'rot2': 0, 'state': 'normal', 'yaw': 21.86, 'datetime': '2018-10-09 23:27:29.181344', 'mgs': 0, 'volt': 0.9326, 'depth': 2.072, 'time': 13, 'pitch': -9.25, 'roll': 2.87, 'pres': 191}
{'lipoC2': 7.34, 'lipoC3S1': 3.88, 'temp': 30.06, 'lipoC3S3': 11.72, 'lipoC3S2': 7.76, 'rot1': 0, 'rot0': 0, 'rot3': 0, 'rot2': 0, 'state': 'normal', 'yaw': 22.64, 'datetime': '2018-10-09 23:27:29.191443', 'mgs': 0, 'volt': 0.9277, 'depth': 1.996, 'time': 13, 'pitch': -8.36, 'roll': 2.48, 'pres': 190}
{'lipoC2': 7.34, 'lipoC3S1': 3.88, 'temp': 30.06, 'lipoC3S3': 11.72, 'lipoC3S2': 7.76, 'rot1': 0, 'rot0': 0, 'rot3': 0, 'rot2': 0, 'state': 'normal', 'yaw': 23.28, 'datetime': '2018-10-09 23:27:29.201524', 'mgs': 0, 'volt': 0.9277, 'depth': 1.996, 'time': 13, 'pitch': -7.5, 'roll': 2.09, 'pres': 190}
{'lipoC2': 7.34, 'lipoC3S1': 3.88, 'temp': 30.06, 'lipoC3S3': 11.72, 'lipoC3S2': 7.76, 'rot1': 0, 'rot0': 0, 'rot3': 0, 'rot2': 0, 'state': 'normal', 'yaw': 24.09, 'datetime': '2018-10-09 23:27:29.211591', 'mgs': 0, 'volt': 0.9229, 'depth': 1.92, 'time': 13, 'pitch': -6.25, 'roll': 1.55, 'pres': 189}
{'lipoC2': 7.34, 'lipoC3S1': 3.88, 'temp': 30.06, 'lipoC3S3': 11.72, 'lipoC3S2': 7.76, 'rot1': 0, 'rot0': 0, 'rot3': 0, 'rot2': 0, 'state': 'normal', 'yaw': 24.67, 'datetime': '2018-10-09 23:27:29.221665', 'mgs': 0, 'volt': 0.918, 'depth': 1.843, 'time': 13, 'pitch': -4.58, 'roll': 1.25, 'pres': 188}
{'lipoC2': 7.34, 'lipoC3S1': 3.88, 'temp': 30.06, 'lipoC3S3': 11.72, 'lipoC3S2': 7.76, 'rot1': 0, 'rot0': 0, 'rot3': 0, 'rot2': 0, 'state': 'normal', 'yaw': 25.36, 'datetime': '2018-10-09 23:27:29.231722', 'mgs': 0, 'volt': 0.9131, 'depth': 1.767, 'time': 13, 'pitch': -2.3, 'roll': 1.07, 'pres': 187}
{'lipoC2': 7.34, 'lipoC3S1': 3.88, 'temp': 30.06, 'lipoC3S3': 11.72, 'lipoC3S2': 7.76, 'rot1': 0, 'rot0': 0, 'rot3': 0, 'rot2': 0, 'state': 'normal', 'yaw': 25.53, 'datetime': '2018-10-09 23:27:29.242037', 'mgs': 0, 'volt': 0.9082, 'depth': 1.691, 'time': 13, 'pitch': -0.55, 'roll': 1.22, 'pres': 186}
{'lipoC2': 7.34, 'lipoC3S1': 3.88, 'temp': 30.13, 'lipoC3S3': 11.72, 'lipoC3S2': 7.76, 'rot1': 0, 'rot0': 0, 'rot3': 0, 'rot2': 0, 'state': 'normal', 'yaw': 25.67, 'datetime': '2018-10-09 23:27:29.252125', 'mgs': 0, 'volt': 0.9082, 'depth': 1.691, 'time': 14, 'pitch': 0.06, 'roll': 1.52, 'pres': 186}
{'lipoC2': 7.34, 'lipoC3S1': 3.88, 'temp': 30.13, 'lipoC3S3': 11.72, 'lipoC3S2': 7.76, 'rot1': 0, 'rot0': 0, 'rot3': 0, 'rot2': 0, 'state': 'normal', 'yaw': 26.44, 'datetime': '2018-10-09 23:27:29.262207', 'mgs': 0, 'volt': 0.9033, 'depth': 1.614, 'time': 14, 'pitch': 0.52, 'roll': 1.4, 'pres': 185}
{'lipoC2': 7.34, 'lipoC3S1': 3.88, 'temp': 30.06, 'lipoC3S3': 11.72, 'lipoC3S2': 7.76, 'rot1': 0, 'rot0': 0, 'rot3': 0, 'rot2': 0, 'state': 'normal', 'yaw': 27.2, 'datetime': '2018-10-09 23:27:29.272332', 'mgs': 0, 'volt': 0.8984, 'depth': 1.538, 'time': 14, 'pitch': 0.8, 'roll': 1.29, 'pres': 184}
{'lipoC2': 7.34, 'lipoC3S1': 3.88, 'temp': 30.06, 'lipoC3S3': 11.72, 'lipoC3S2': 7.76, 'rot1': 0, 'rot0': 0, 'rot3': 0, 'rot2': 0, 'state': 'normal', 'yaw': 28.13, 'datetime': '2018-10-09 23:27:29.282424', 'mgs': 0, 'volt': 0.8936, 'depth': 1.462, 'time': 14, 'pitch': 1.24, 'roll': 1.05, 'pres': 183}
{'lipoC2': 7.34, 'lipoC3S1': 3.88, 'temp': 30.06, 'lipoC3S3': 11.72, 'lipoC3S2': 7.76, 'rot1': 0, 'rot0': 0, 'rot3': 0, 'rot2': 0, 'state': 'normal', 'yaw': 29.24, 'datetime': '2018-10-09 23:27:29.292485', 'mgs': 0, 'volt': 0.8887, 'depth': 1.385, 'time': 14, 'pitch': 1.63, 'roll': 0.64, 'pres': 182}
{'lipoC2': 7.34, 'lipoC3S1': 3.88, 'temp': 30.06, 'lipoC3S3': 11.72, 'lipoC3S2': 7.76, 'rot1': 0, 'rot0': 0, 'rot3': 0, 'rot2': 0, 'state': 'normal', 'yaw': 30.08, 'datetime': '2018-10-09 23:27:29.302574', 'mgs': 0, 'volt': 0.8838, 'depth': 1.309, 'time': 14, 'pitch': 1.39, 'roll': 0.29, 'pres': 181}
{'lipoC2': 7.34, 'lipoC3S1': 3.88, 'temp': 30.06, 'lipoC3S3': 11.72, 'lipoC3S2': 7.76, 'rot1': 0, 'rot0': 0, 'rot3': 0, 'rot2': 0, 'state': 'normal', 'yaw': 30.63, 'datetime': '2018-10-09 23:27:29.312658', 'mgs': 0, 'volt': 0.8789, 'depth': 1.233, 'time': 14, 'pitch': 0.95, 'roll': 0.16, 'pres': 180}
{'lipoC2': 7.34, 'lipoC3S1': 3.88, 'temp': 30.06, 'lipoC3S3': 11.72, 'lipoC3S2': 7.76, 'rot1': 0, 'rot0': 0, 'rot3': 0, 'rot2': 0, 'state': 'normal', 'yaw': 30.81, 'datetime': '2018-10-09 23:27:29.322764', 'mgs': 0, 'volt': 0.874, 'depth': 1.157, 'time': 14, 'pitch': 0.5, 'roll': 0.34, 'pres': 179}
{'lipoC2': 7.34, 'lipoC3S1': 3.88, 'temp': 30.06, 'lipoC3S3': 11.72, 'lipoC3S2': 7.76, 'rot1': 0, 'rot0': 0, 'rot3': 0, 'rot2': 0, 'state': 'normal', 'yaw': 30.31, 'datetime': '2018-10-09 23:27:29.332840', 'mgs': 0, 'volt': 0.8691, 'depth': 1.08, 'time': 14, 'pitch': -0.17, 'roll': 1.03, 'pres': 178}
{'lipoC2': 7.34, 'lipoC3S1': 3.88, 'temp': 30.06, 'lipoC3S3': 11.72, 'lipoC3S2': 7.76, 'rot1': 0, 'rot0': 0, 'rot3': 0, 'rot2': 0, 'state': 'normal', 'yaw': 29.57, 'datetime': '2018-10-09 23:27:29.342927', 'mgs': 0, 'volt': 0.8643, 'depth': 1.004, 'time': 15, 'pitch': -0.72, 'roll': 1.87, 'pres': 177}
{'lipoC2': 7.34, 'lipoC3S1': 3.88, 'temp': 30.06, 'lipoC3S3': 11.72, 'lipoC3S2': 7.76, 'rot1': 0, 'rot0': 0, 'rot3': 0, 'rot2': 0, 'state': 'normal', 'yaw': 28.86, 'datetime': '2018-10-09 23:27:29.353014', 'mgs': 0, 'volt': 0.8594, 'depth': 0.928, 'time': 15, 'pitch': -0.77, 'roll': 2.6, 'pres': 176}
{'lipoC2': 7.34, 'lipoC3S1': 3.88, 'temp': 30.06, 'lipoC3S3': 11.72, 'lipoC3S2': 7.76, 'rot1': 0, 'rot0': 0, 'rot3': 0, 'rot2': 0, 'state': 'normal', 'yaw': 27.92, 'datetime': '2018-10-09 23:27:29.363114', 'mgs': 0, 'volt': 0.8545, 'depth': 0.851, 'time': 15, 'pitch': -1.28, 'roll': 3.19, 'pres': 175}
{'lipoC2': 7.34, 'lipoC3S1': 3.88, 'temp': 30.19, 'lipoC3S3': 11.72, 'lipoC3S2': 7.76, 'rot1': 0, 'rot0': 0, 'rot3': 0, 'rot2': 0, 'state': 'normal', 'yaw': 27.21, 'datetime': '2018-10-09 23:27:29.373343', 'mgs': 0, 'volt': 0.8496, 'depth': 0.775, 'time': 15, 'pitch': -1.39, 'roll': 3.38, 'pres': 174}
{'lipoC2': 7.34, 'lipoC3S1': 3.88, 'temp': 30.19, 'lipoC3S3': 11.72, 'lipoC3S2': 7.76, 'rot1': 0, 'rot0': 0, 'rot3': 0, 'rot2': 0, 'state': 'normal', 'yaw': 26.89, 'datetime': '2018-10-09 23:27:29.383463', 'mgs': 0, 'volt': 0.8447, 'depth': 0.699, 'time': 15, 'pitch': -1.16, 'roll': 3.07, 'pres': 173}
{'lipoC2': 7.34, 'lipoC3S1': 3.88, 'temp': 30.06, 'lipoC3S3': 11.72, 'lipoC3S2': 7.76, 'rot1': 0, 'rot0': 0, 'rot3': 0, 'rot2': 0, 'state': 'normal', 'yaw': 26.7, 'datetime': '2018-10-09 23:27:29.393529', 'mgs': 0, 'volt': 0.8398, 'depth': 0.623, 'time': 15, 'pitch': -0.16, 'roll': 2.5, 'pres': 172}
{'lipoC2': 7.34, 'lipoC3S1': 3.88, 'temp': 30.06, 'lipoC3S3': 11.72, 'lipoC3S2': 7.76, 'rot1': 0, 'rot0': 0, 'rot3': 0, 'rot2': 0, 'state': 'normal', 'yaw': 26.81, 'datetime': '2018-10-09 23:27:29.403530', 'mgs': 0, 'volt': 0.8398, 'depth': 0.623, 'time': 15, 'pitch': 1.74, 'roll': 1.86, 'pres': 172}
{'lipoC2': 7.34, 'lipoC3S1': 3.88, 'temp': 30.06, 'lipoC3S3': 11.72, 'lipoC3S2': 7.76, 'rot1': 0, 'rot0': 0, 'rot3': 0, 'rot2': 0, 'state': 'normal', 'yaw': 27.03, 'datetime': '2018-10-09 23:27:29.413576', 'mgs': 0, 'volt': 0.835, 'depth': 0.546, 'time': 15, 'pitch': 4.1, 'roll': 1.27, 'pres': 171}
{'lipoC2': 7.34, 'lipoC3S1': 3.88, 'temp': 30.06, 'lipoC3S3': 11.72, 'lipoC3S2': 7.76, 'rot1': 0, 'rot0': 0, 'rot3': 0, 'rot2': 0, 'state': 'normal', 'yaw': 27.08, 'datetime': '2018-10-09 23:27:29.423650', 'mgs': 0, 'volt': 0.835, 'depth': 0.546, 'time': 15, 'pitch': 5.88, 'roll': 1.16, 'pres': 171}
{'lipoC2': 7.34, 'lipoC3S1': 3.88, 'temp': 30.06, 'lipoC3S3': 11.72, 'lipoC3S2': 7.76, 'rot1': 0, 'rot0': 0, 'rot3': 0, 'rot2': 0, 'state': 'normal', 'yaw': 27.26, 'datetime': '2018-10-09 23:27:29.433714', 'mgs': 0, 'volt': 0.835, 'depth': 0.546, 'time': 15, 'pitch': 7.08, 'roll': 1.31, 'pres': 171}
{'lipoC2': 7.34, 'lipoC3S1': 3.88, 'temp': 30.06, 'lipoC3S3': 11.72, 'lipoC3S2': 7.76, 'rot1': 0, 'rot0': 0, 'rot3': 0, 'rot2': 0, 'state': 'normal', 'yaw': 27.62, 'datetime': '2018-10-09 23:27:29.443760', 'mgs': 0, 'volt': 0.835, 'depth': 0.546, 'time': 16, 'pitch': 7.71, 'roll': 1.39, 'pres': 171}
{'lipoC2': 7.34, 'lipoC3S1': 3.88, 'temp': 30.06, 'lipoC3S3': 11.72, 'lipoC3S2': 7.76, 'rot1': 0, 'rot0': 0, 'rot3': 0, 'rot2': 0, 'state': 'normal', 'yaw': 27.93, 'datetime': '2018-10-09 23:27:29.453766', 'mgs': 0, 'volt': 0.835, 'depth': 0.546, 'time': 16, 'pitch': 7.77, 'roll': 1.2, 'pres': 171}
{'lipoC2': 7.34, 'lipoC3S1': 3.88, 'temp': 30.06, 'lipoC3S3': 11.72, 'lipoC3S2': 7.76, 'rot1': 0, 'rot0': 0, 'rot3': 0, 'rot2': 0, 'state': 'normal', 'yaw': 28.16, 'datetime': '2018-10-09 23:27:29.463826', 'mgs': 0, 'volt': 0.835, 'depth': 0.546, 'time': 16, 'pitch': 7.58, 'roll': 0.75, 'pres': 171}
{'lipoC2': 7.34, 'lipoC3S1': 3.88, 'temp': 30.06, 'lipoC3S3': 11.72, 'lipoC3S2': 7.76, 'rot1': 0, 'rot0': 0, 'rot3': 0, 'rot2': 0, 'state': 'normal', 'yaw': 28.3, 'datetime': '2018-10-09 23:27:29.473904', 'mgs': 0, 'volt': 0.835, 'depth': 0.546, 'time': 16, 'pitch': 7.37, 'roll': 0.24, 'pres': 171}
{'lipoC2': 7.34, 'lipoC3S1': 3.88, 'temp': 30.06, 'lipoC3S3': 11.72, 'lipoC3S2': 7.76, 'rot1': 0, 'rot0': 0, 'rot3': 0, 'rot2': 0, 'state': 'normal', 'yaw': 28.32, 'datetime': '2018-10-09 23:27:29.483967', 'mgs': 0, 'volt': 0.8398, 'depth': 0.623, 'time': 16, 'pitch': 7.37, 'roll': 0.1, 'pres': 172}
{'lipoC2': 7.34, 'lipoC3S1': 3.88, 'temp': 30.06, 'lipoC3S3': 11.72, 'lipoC3S2': 7.76, 'rot1': 0, 'rot0': 0, 'rot3': 0, 'rot2': 0, 'state': 'normal', 'yaw': 28.21, 'datetime': '2018-10-09 23:27:29.494020', 'mgs': 0, 'volt': 0.8398, 'depth': 0.623, 'time': 16, 'pitch': 7.6, 'roll': 0.46, 'pres': 172}
{'lipoC2': 7.34, 'lipoC3S1': 3.88, 'temp': 30.06, 'lipoC3S3': 11.72, 'lipoC3S2': 7.76, 'rot1': 0, 'rot0': 0, 'rot3': 0, 'rot2': 0, 'state': 'normal', 'yaw': 28.11, 'datetime': '2018-10-09 23:27:29.504055', 'mgs': 0, 'volt': 0.8447, 'depth': 0.699, 'time': 16, 'pitch': 7.93, 'roll': 1.1, 'pres': 173}
{'lipoC2': 7.34, 'lipoC3S1': 3.88, 'temp': 30.06, 'lipoC3S3': 11.72, 'lipoC3S2': 7.76, 'rot1': 0, 'rot0': 0, 'rot3': 0, 'rot2': 0, 'state': 'normal', 'yaw': 28.11, 'datetime': '2018-10-09 23:27:29.514245', 'mgs': 0, 'volt': 0.8447, 'depth': 0.699, 'time': 16, 'pitch': 8.3, 'roll': 1.81, 'pres': 173}
{'lipoC2': 7.34, 'lipoC3S1': 3.88, 'temp': 30.06, 'lipoC3S3': 11.72, 'lipoC3S2': 7.76, 'rot1': 0, 'rot0': 0, 'rot3': 0, 'rot2': 0, 'state': 'normal', 'yaw': 28.13, 'datetime': '2018-10-09 23:27:29.524315', 'mgs': 0, 'volt': 0.8447, 'depth': 0.699, 'time': 16, 'pitch': 8.09, 'roll': 2.14, 'pres': 173}
{'lipoC2': 7.34, 'lipoC3S1': 3.88, 'temp': 30.13, 'lipoC3S3': 11.72, 'lipoC3S2': 7.76, 'rot1': 0, 'rot0': 0, 'rot3': 0, 'rot2': 0, 'state': 'normal', 'yaw': 28.15, 'datetime': '2018-10-09 23:27:29.534415', 'mgs': 0, 'volt': 0.8447, 'depth': 0.699, 'time': 16, 'pitch': 7.28, 'roll': 2.15, 'pres': 173}
{'lipoC2': 7.34, 'lipoC3S1': 3.88, 'temp': 30.13, 'lipoC3S3': 11.72, 'lipoC3S2': 7.76, 'rot1': 0, 'rot0': 0, 'rot3': 0, 'rot2': 0, 'state': 'normal', 'yaw': 28.12, 'datetime': '2018-10-09 23:27:29.544455', 'mgs': 0, 'volt': 0.8496, 'depth': 0.775, 'time': 17, 'pitch': 6.4, 'roll': 2.08, 'pres': 174}
{'lipoC2': 7.34, 'lipoC3S1': 3.88, 'temp': 30.06, 'lipoC3S3': 11.72, 'lipoC3S2': 7.76, 'rot1': 0, 'rot0': 0, 'rot3': 0, 'rot2': 0, 'state': 'normal', 'yaw': 28.08, 'datetime': '2018-10-09 23:27:29.554514', 'mgs': 0, 'volt': 0.8496, 'depth': 0.775, 'time': 17, 'pitch': 5.69, 'roll': 2.07, 'pres': 174}
{'lipoC2': 7.34, 'lipoC3S1': 3.88, 'temp': 30.06, 'lipoC3S3': 11.72, 'lipoC3S2': 7.76, 'rot1': 0, 'rot0': 0, 'rot3': 0, 'rot2': 0, 'state': 'normal', 'yaw': 27.92, 'datetime': '2018-10-09 23:27:29.564584', 'mgs': 0, 'volt': 0.8496, 'depth': 0.775, 'time': 17, 'pitch': 4.75, 'roll': 2.32, 'pres': 174}
{'lipoC2': 7.34, 'lipoC3S1': 3.88, 'temp': 30.06, 'lipoC3S3': 11.72, 'lipoC3S2': 7.76, 'rot1': 0, 'rot0': 0, 'rot3': 0, 'rot2': 0, 'state': 'normal', 'yaw': 27.75, 'datetime': '2018-10-09 23:27:29.574674', 'mgs': 0, 'volt': 0.8496, 'depth': 0.775, 'time': 17, 'pitch': 3.8, 'roll': 2.77, 'pres': 174}
{'lipoC2': 7.34, 'lipoC3S1': 3.88, 'temp': 30.06, 'lipoC3S3': 11.72, 'lipoC3S2': 7.76, 'rot1': 0, 'rot0': 0, 'rot3': 0, 'rot2': 0, 'state': 'normal', 'yaw': 27.33, 'datetime': '2018-10-09 23:27:29.584731', 'mgs': 0, 'volt': 0.8496, 'depth': 0.775, 'time': 17, 'pitch': 2.79, 'roll': 3.37, 'pres': 174}
{'lipoC2': 7.34, 'lipoC3S1': 3.88, 'temp': 30.06, 'lipoC3S3': 11.72, 'lipoC3S2': 7.76, 'rot1': 0, 'rot0': 0, 'rot3': 0, 'rot2': 0, 'state': 'normal', 'yaw': 26.69, 'datetime': '2018-10-09 23:27:29.594790', 'mgs': 0, 'volt': 0.8496, 'depth': 0.775, 'time': 17, 'pitch': 1.86, 'roll': 3.88, 'pres': 174}
{'lipoC2': 7.34, 'lipoC3S1': 3.88, 'temp': 30.06, 'lipoC3S3': 11.72, 'lipoC3S2': 7.76, 'rot1': 0, 'rot0': 0, 'rot3': 0, 'rot2': 0, 'state': 'normal', 'yaw': 25.9, 'datetime': '2018-10-09 23:27:29.604877', 'mgs': 0, 'volt': 0.8496, 'depth': 0.775, 'time': 17, 'pitch': 1.23, 'roll': 3.98, 'pres': 174}
{'lipoC2': 7.34, 'lipoC3S1': 3.88, 'temp': 30.06, 'lipoC3S3': 11.72, 'lipoC3S2': 7.76, 'rot1': 0, 'rot0': 0, 'rot3': 0, 'rot2': 0, 'state': 'normal', 'yaw': 25.25, 'datetime': '2018-10-09 23:27:29.614963', 'mgs': 0, 'volt': 0.8496, 'depth': 0.775, 'time': 17, 'pitch': 1.24, 'roll': 3.65, 'pres': 174}
{'lipoC2': 7.34, 'lipoC3S1': 3.88, 'temp': 30.0, 'lipoC3S3': 11.72, 'lipoC3S2': 7.76, 'rot1': 0, 'rot0': 0, 'rot3': 0, 'rot2': 0, 'state': 'normal', 'yaw': 24.49, 'datetime': '2018-10-09 23:27:29.625177', 'mgs': 0, 'volt': 0.8545, 'depth': 0.851, 'time': 17, 'pitch': 1.56, 'roll': 3.22, 'pres': 175}
{'lipoC2': 7.34, 'lipoC3S1': 3.88, 'temp': 30.0, 'lipoC3S3': 11.72, 'lipoC3S2': 7.76, 'rot1': 0, 'rot0': 0, 'rot3': 0, 'rot2': 0, 'state': 'normal', 'yaw': 23.7, 'datetime': '2018-10-09 23:27:29.635397', 'mgs': 0, 'volt': 0.8594, 'depth': 0.928, 'time': 18, 'pitch': 1.78, 'roll': 2.89, 'pres': 176}
{'lipoC2': 7.34, 'lipoC3S1': 3.88, 'temp': 30.0, 'lipoC3S3': 11.72, 'lipoC3S2': 7.76, 'rot1': 0, 'rot0': 0, 'rot3': 0, 'rot2': 0, 'state': 'normal', 'yaw': 23.09, 'datetime': '2018-10-09 23:27:29.645635', 'mgs': 0, 'volt': 0.8545, 'depth': 0.851, 'time': 18, 'pitch': 1.51, 'roll': 2.74, 'pres': 175}
{'lipoC2': 7.34, 'lipoC3S1': 3.88, 'temp': 30.06, 'lipoC3S3': 11.72, 'lipoC3S2': 7.76, 'rot1': 0, 'rot0': 0, 'rot3': 0, 'rot2': 0, 'state': 'normal', 'yaw': 22.46, 'datetime': '2018-10-09 23:27:29.655849', 'mgs': 0, 'volt': 0.8545, 'depth': 0.851, 'time': 18, 'pitch': 0.98, 'roll': 2.75, 'pres': 175}
{'lipoC2': 7.34, 'lipoC3S1': 3.88, 'temp': 30.06, 'lipoC3S3': 11.72, 'lipoC3S2': 7.76, 'rot1': 0, 'rot0': 0, 'rot3': 0, 'rot2': 0, 'state': 'normal', 'yaw': 21.85, 'datetime': '2018-10-09 23:27:29.665960', 'mgs': 0, 'volt': 0.8545, 'depth': 0.851, 'time': 18, 'pitch': 0.78, 'roll': 2.66, 'pres': 175}
{'lipoC2': 7.34, 'lipoC3S1': 3.88, 'temp': 30.13, 'lipoC3S3': 11.72, 'lipoC3S2': 7.76, 'rot1': 0, 'rot0': 0, 'rot3': 0, 'rot2': 0, 'state': 'normal', 'yaw': 21.48, 'datetime': '2018-10-09 23:27:29.676148', 'mgs': 0, 'volt': 0.8545, 'depth': 0.851, 'time': 18, 'pitch': 1.16, 'roll': 2.32, 'pres': 175}
{'lipoC2': 7.34, 'lipoC3S1': 3.88, 'temp': 30.13, 'lipoC3S3': 11.72, 'lipoC3S2': 7.76, 'rot1': 0, 'rot0': 0, 'rot3': 0, 'rot2': 0, 'state': 'normal', 'yaw': 21.36, 'datetime': '2018-10-09 23:27:29.686229', 'mgs': 0, 'volt': 0.8545, 'depth': 0.851, 'time': 18, 'pitch': 1.85, 'roll': 1.66, 'pres': 175}
{'lipoC2': 7.34, 'lipoC3S1': 3.88, 'temp': 30.06, 'lipoC3S3': 11.72, 'lipoC3S2': 7.76, 'rot1': 0, 'rot0': 0, 'rot3': 0, 'rot2': 0, 'state': 'normal', 'yaw': 21.91, 'datetime': '2018-10-09 23:27:29.696409', 'mgs': 0, 'volt': 0.8594, 'depth': 0.928, 'time': 18, 'pitch': 3.05, 'roll': 0.47, 'pres': 176}
{'lipoC2': 7.34, 'lipoC3S1': 3.88, 'temp': 30.06, 'lipoC3S3': 11.72, 'lipoC3S2': 7.76, 'rot1': 0, 'rot0': 0, 'rot3': 0, 'rot2': 0, 'state': 'normal', 'yaw': 23.33, 'datetime': '2018-10-09 23:27:29.706484', 'mgs': 0, 'volt': 0.8594, 'depth': 0.928, 'time': 18, 'pitch': 4.65, 'roll': -0.93, 'pres': 176}
{'lipoC2': 7.34, 'lipoC3S1': 3.88, 'temp': 30.06, 'lipoC3S3': 11.72, 'lipoC3S2': 7.76, 'rot1': 0, 'rot0': 0, 'rot3': 0, 'rot2': 0, 'state': 'normal', 'yaw': 25.87, 'datetime': '2018-10-09 23:27:29.716679', 'mgs': 0, 'volt': 0.8594, 'depth': 0.928, 'time': 18, 'pitch': 6.57, 'roll': -2.43, 'pres': 176}
{'lipoC2': 7.34, 'lipoC3S1': 3.88, 'temp': 30.06, 'lipoC3S3': 11.72, 'lipoC3S2': 7.76, 'rot1': 0, 'rot0': 0, 'rot3': 0, 'rot2': 0, 'state': 'normal', 'yaw': 28.24, 'datetime': '2018-10-09 23:27:29.726763', 'mgs': 0, 'volt': 0.8643, 'depth': 1.004, 'time': 18, 'pitch': 8.05, 'roll': -3.28, 'pres': 177}
{'lipoC2': 7.34, 'lipoC3S1': 3.88, 'temp': 30.06, 'lipoC3S3': 11.72, 'lipoC3S2': 7.76, 'rot1': 0, 'rot0': 0, 'rot3': 0, 'rot2': 0, 'state': 'normal', 'yaw': 29.94, 'datetime': '2018-10-09 23:27:29.736929', 'mgs': 0, 'volt': 0.8643, 'depth': 1.004, 'time': 19, 'pitch': 9.31, 'roll': -3.34, 'pres': 177}
{'lipoC2': 7.34, 'lipoC3S1': 3.88, 'temp': 30.19, 'lipoC3S3': 11.72, 'lipoC3S2': 7.76, 'rot1': 0, 'rot0': 0, 'rot3': 0, 'rot2': 0, 'state': 'normal', 'yaw': 31.12, 'datetime': '2018-10-09 23:27:29.747000', 'mgs': 0, 'volt': 0.8643, 'depth': 1.004, 'time': 19, 'pitch': 9.22, 'roll': -2.37, 'pres': 177}
{'lipoC2': 7.34, 'lipoC3S1': 3.88, 'temp': 30.19, 'lipoC3S3': 11.72, 'lipoC3S2': 7.76, 'rot1': 0, 'rot0': 0, 'rot3': 0, 'rot2': 0, 'state': 'normal', 'yaw': 32.55, 'datetime': '2018-10-09 23:27:29.757209', 'mgs': 0, 'volt': 0.8643, 'depth': 1.004, 'time': 19, 'pitch': 9.05, 'roll': -1.03, 'pres': 177}
{'lipoC2': 7.34, 'lipoC3S1': 3.88, 'temp': 30.06, 'lipoC3S3': 11.72, 'lipoC3S2': 7.76, 'rot1': 0, 'rot0': 0, 'rot3': 0, 'rot2': 0, 'state': 'normal', 'yaw': 33.89, 'datetime': '2018-10-09 23:27:29.767281', 'mgs': 0, 'volt': 0.8643, 'depth': 1.004, 'time': 19, 'pitch': 8.91, 'roll': 0.18, 'pres': 177}
{'lipoC2': 7.34, 'lipoC3S1': 3.88, 'temp': 30.06, 'lipoC3S3': 11.72, 'lipoC3S2': 7.76, 'rot1': 0, 'rot0': 0, 'rot3': 0, 'rot2': 0, 'state': 'normal', 'yaw': 34.84, 'datetime': '2018-10-09 23:27:29.777460', 'mgs': 0, 'volt': 0.8643, 'depth': 1.004, 'time': 19, 'pitch': 8.38, 'roll': 1.54, 'pres': 177}
{'lipoC2': 7.34, 'lipoC3S1': 3.88, 'temp': 30.06, 'lipoC3S3': 11.72, 'lipoC3S2': 7.76, 'rot1': 0, 'rot0': 0, 'rot3': 0, 'rot2': 0, 'state': 'normal', 'yaw': 35.87, 'datetime': '2018-10-09 23:27:29.787680', 'mgs': 0, 'volt': 0.8643, 'depth': 1.004, 'time': 19, 'pitch': 7.5, 'roll': 3.0, 'pres': 177}
{'lipoC2': 7.34, 'lipoC3S1': 3.88, 'temp': 30.06, 'lipoC3S3': 11.72, 'lipoC3S2': 7.76, 'rot1': 0, 'rot0': 0, 'rot3': 0, 'rot2': 0, 'state': 'normal', 'yaw': 36.73, 'datetime': '2018-10-09 23:27:29.797746', 'mgs': 0, 'volt': 0.8691, 'depth': 1.08, 'time': 19, 'pitch': 6.61, 'roll': 4.13, 'pres': 178}
{'lipoC2': 7.34, 'lipoC3S1': 3.88, 'temp': 30.06, 'lipoC3S3': 11.72, 'lipoC3S2': 7.76, 'rot1': 0, 'rot0': 0, 'rot3': 0, 'rot2': 0, 'state': 'normal', 'yaw': 37.44, 'datetime': '2018-10-09 23:27:29.807800', 'mgs': 0, 'volt': 0.8691, 'depth': 1.08, 'time': 19, 'pitch': 5.58, 'roll': 5.09, 'pres': 178}
{'lipoC2': 7.34, 'lipoC3S1': 3.88, 'temp': 30.06, 'lipoC3S3': 11.72, 'lipoC3S2': 7.76, 'rot1': 0, 'rot0': 0, 'rot3': 0, 'rot2': 0, 'state': 'normal', 'yaw': 38.04, 'datetime': '2018-10-09 23:27:29.817871', 'mgs': 0, 'volt': 0.8691, 'depth': 1.08, 'time': 19, 'pitch': 4.69, 'roll': 5.97, 'pres': 178}
{'lipoC2': 7.34, 'lipoC3S1': 3.88, 'temp': 30.06, 'lipoC3S3': 11.72, 'lipoC3S2': 7.76, 'rot1': 0, 'rot0': 0, 'rot3': 0, 'rot2': 0, 'state': 'normal', 'yaw': 38.39, 'datetime': '2018-10-09 23:27:29.827925', 'mgs': 0, 'volt': 0.8691, 'depth': 1.08, 'time': 19, 'pitch': 4.33, 'roll': 6.63, 'pres': 178}
{'lipoC2': 7.34, 'lipoC3S1': 3.88, 'temp': 30.06, 'lipoC3S3': 11.72, 'lipoC3S2': 7.76, 'rot1': 0, 'rot0': 0, 'rot3': 0, 'rot2': 0, 'state': 'normal', 'yaw': 38.96, 'datetime': '2018-10-09 23:27:29.838007', 'mgs': 0, 'volt': 0.874, 'depth': 1.157, 'time': 20, 'pitch': 4.86, 'roll': 6.93, 'pres': 179}
{'lipoC2': 7.34, 'lipoC3S1': 3.88, 'temp': 30.06, 'lipoC3S3': 11.72, 'lipoC3S2': 7.76, 'rot1': 0, 'rot0': 0, 'rot3': 0, 'rot2': 0, 'state': 'normal', 'yaw': 39.9, 'datetime': '2018-10-09 23:27:29.848099', 'mgs': 0, 'volt': 0.8691, 'depth': 1.08, 'time': 20, 'pitch': 6.08, 'roll': 6.51, 'pres': 178}
{'lipoC2': 7.34, 'lipoC3S1': 3.88, 'temp': 30.06, 'lipoC3S3': 11.72, 'lipoC3S2': 7.76, 'rot1': 0, 'rot0': 0, 'rot3': 0, 'rot2': 0, 'state': 'normal', 'yaw': 40.42, 'datetime': '2018-10-09 23:27:29.858169', 'mgs': 0, 'volt': 0.874, 'depth': 1.157, 'time': 20, 'pitch': 7.22, 'roll': 5.64, 'pres': 179}
{'lipoC2': 7.34, 'lipoC3S1': 3.88, 'temp': 30.13, 'lipoC3S3': 11.72, 'lipoC3S2': 7.76, 'rot1': 0, 'rot0': 0, 'rot3': 0, 'rot2': 0, 'state': 'normal', 'yaw': 40.63, 'datetime': '2018-10-09 23:27:29.868250', 'mgs': 0, 'volt': 0.874, 'depth': 1.157, 'time': 20, 'pitch': 8.07, 'roll': 4.33, 'pres': 179}
{'lipoC2': 7.34, 'lipoC3S1': 3.88, 'temp': 30.13, 'lipoC3S3': 11.72, 'lipoC3S2': 7.76, 'rot1': 0, 'rot0': 0, 'rot3': 0, 'rot2': 0, 'state': 'normal', 'yaw': 40.12, 'datetime': '2018-10-09 23:27:29.878332', 'mgs': 0, 'volt': 0.8789, 'depth': 1.233, 'time': 20, 'pitch': 8.39, 'roll': 3.4, 'pres': 180}
{'lipoC2': 7.34, 'lipoC3S1': 3.88, 'temp': 30.0, 'lipoC3S3': 11.72, 'lipoC3S2': 7.76, 'rot1': 0, 'rot0': 0, 'rot3': 0, 'rot2': 0, 'state': 'normal', 'yaw': 38.53, 'datetime': '2018-10-09 23:27:29.888394', 'mgs': 0, 'volt': 0.8789, 'depth': 1.233, 'time': 20, 'pitch': 8.31, 'roll': 3.31, 'pres': 180}
{'lipoC2': 7.34, 'lipoC3S1': 3.88, 'temp': 30.0, 'lipoC3S3': 11.72, 'lipoC3S2': 7.76, 'rot1': 0, 'rot0': 0, 'rot3': 0, 'rot2': 0, 'state': 'normal', 'yaw': 36.46, 'datetime': '2018-10-09 23:27:29.898481', 'mgs': 0, 'volt': 0.8789, 'depth': 1.233, 'time': 20, 'pitch': 7.54, 'roll': 3.85, 'pres': 180}
{'lipoC2': 7.34, 'lipoC3S1': 3.88, 'temp': 30.0, 'lipoC3S3': 11.72, 'lipoC3S2': 7.76, 'rot1': 0, 'rot0': 0, 'rot3': 0, 'rot2': 0, 'state': 'normal', 'yaw': 34.56, 'datetime': '2018-10-09 23:27:29.908558', 'mgs': 0, 'volt': 0.874, 'depth': 1.157, 'time': 20, 'pitch': 6.41, 'roll': 4.63, 'pres': 179}
{'lipoC2': 7.34, 'lipoC3S1': 3.88, 'temp': 30.06, 'lipoC3S3': 11.72, 'lipoC3S2': 7.76, 'rot1': 0, 'rot0': 0, 'rot3': 0, 'rot2': 0, 'state': 'normal', 'yaw': 33.59, 'datetime': '2018-10-09 23:27:29.918795', 'mgs': 0, 'volt': 0.874, 'depth': 1.157, 'time': 20, 'pitch': 5.61, 'roll': 4.91, 'pres': 179}
{'lipoC2': 7.34, 'lipoC3S1': 3.88, 'temp': 30.06, 'lipoC3S3': 11.72, 'lipoC3S2': 7.76, 'rot1': 0, 'rot0': 0, 'rot3': 0, 'rot2': 0, 'state': 'normal', 'yaw': 33.53, 'datetime': '2018-10-09 23:27:29.928853', 'mgs': 0, 'volt': 0.874, 'depth': 1.157, 'time': 21, 'pitch': 4.91, 'roll': 4.28, 'pres': 179}
{'lipoC2': 7.34, 'lipoC3S1': 3.88, 'temp': 30.06, 'lipoC3S3': 11.72, 'lipoC3S2': 7.76, 'rot1': 0, 'rot0': 0, 'rot3': 0, 'rot2': 0, 'state': 'normal', 'yaw': 34.23, 'datetime': '2018-10-09 23:27:29.938881', 'mgs': 0, 'volt': 0.874, 'depth': 1.157, 'time': 21, 'pitch': 4.68, 'roll': 2.78, 'pres': 179}
{'lipoC2': 7.34, 'lipoC3S1': 3.88, 'temp': 30.06, 'lipoC3S3': 11.72, 'lipoC3S2': 7.76, 'rot1': 0, 'rot0': 0, 'rot3': 0, 'rot2': 0, 'state': 'normal', 'yaw': 34.95, 'datetime': '2018-10-09 23:27:29.948973', 'mgs': 0, 'volt': 0.874, 'depth': 1.157, 'time': 21, 'pitch': 4.73, 'roll': 1.15, 'pres': 179}
{'lipoC2': 7.34, 'lipoC3S1': 3.88, 'temp': 30.0, 'lipoC3S3': 11.72, 'lipoC3S2': 7.76, 'rot1': 0, 'rot0': 0, 'rot3': 0, 'rot2': 0, 'state': 'normal', 'yaw': 35.39, 'datetime': '2018-10-09 23:27:29.959020', 'mgs': 0, 'volt': 0.874, 'depth': 1.157, 'time': 21, 'pitch': 5.04, 'roll': 0.02, 'pres': 179}
{'lipoC2': 7.34, 'lipoC3S1': 3.88, 'temp': 30.0, 'lipoC3S3': 11.72, 'lipoC3S2': 7.76, 'rot1': 0, 'rot0': 0, 'rot3': 0, 'rot2': 0, 'state': 'normal', 'yaw': 35.22, 'datetime': '2018-10-09 23:27:29.969080', 'mgs': 0, 'volt': 0.874, 'depth': 1.157, 'time': 21, 'pitch': 5.71, 'roll': -0.1, 'pres': 179}
{'lipoC2': 7.34, 'lipoC3S1': 3.88, 'temp': 30.0, 'lipoC3S3': 11.72, 'lipoC3S2': 7.76, 'rot1': 0, 'rot0': 0, 'rot3': 0, 'rot2': 0, 'state': 'normal', 'yaw': 34.68, 'datetime': '2018-10-09 23:27:29.979124', 'mgs': 0, 'volt': 0.8789, 'depth': 1.233, 'time': 21, 'pitch': 6.5, 'roll': 0.8, 'pres': 180}
{'lipoC2': 7.34, 'lipoC3S1': 3.88, 'temp': 30.06, 'lipoC3S3': 11.72, 'lipoC3S2': 7.76, 'rot1': 0, 'rot0': 0, 'rot3': 0, 'rot2': 0, 'state': 'normal', 'yaw': 34.27, 'datetime': '2018-10-09 23:27:29.989175', 'mgs': 0, 'volt': 0.874, 'depth': 1.157, 'time': 21, 'pitch': 7.26, 'roll': 2.16, 'pres': 179}
