{'lipoC2': 7.76, 'lipoC3S1': 3.87, 'temp': 28.31, 'lipoC3S3': 11.71, 'lipoC3S2': 7.74, 'rot1': 280, 'rot0': 297, 'rot3': 289, 'rot2': 226, 'state': 'normal', 'yaw': 15.94, 'datetime': '2018-10-05 20:05:35.148515', 'mgs': 0, 'volt': 0.8203, 'depth': 0.317, 'time': 54, 'pitch': -17.78, 'roll': 0.47, 'pres': 168}
{'lipoC2': 7.76, 'lipoC3S1': 3.87, 'temp': 28.44, 'lipoC3S3': 11.71, 'lipoC3S2': 7.74, 'rot1': 280, 'rot0': 297, 'rot3': 289, 'rot2': 226, 'state': 'normal', 'yaw': 14.55, 'datetime': '2018-10-05 20:05:35.172040', 'mgs': 0, 'volt': 0.8203, 'depth': 0.317, 'time': 54, 'pitch': -17.04, 'roll': 0.35, 'pres': 168}
{'lipoC2': 7.76, 'lipoC3S1': 3.87, 'temp': 28.44, 'lipoC3S3': 11.71, 'lipoC3S2': 7.74, 'rot1': 280, 'rot0': 297, 'rot3': 289, 'rot2': 226, 'state': 'normal', 'yaw': 14.03, 'datetime': '2018-10-05 20:05:35.195608', 'mgs': 0, 'volt': 0.8203, 'depth': 0.317, 'time': 54, 'pitch': -16.3, 'roll': -0.26, 'pres': 168}
{'lipoC2': 7.76, 'lipoC3S1': 3.87, 'temp': 28.38, 'lipoC3S3': 11.71, 'lipoC3S2': 7.74, 'rot1': 280, 'rot0': 297, 'rot3': 289, 'rot2': 226, 'state': 'normal', 'yaw': 13.76, 'datetime': '2018-10-05 20:05:35.219194', 'mgs': 0, 'volt': 0.8203, 'depth': 0.317, 'time': 54, 'pitch': -15.65, 'roll': -0.91, 'pres': 168}
{'lipoC2': 7.76, 'lipoC3S1': 3.87, 'temp': 28.38, 'lipoC3S3': 11.71, 'lipoC3S2': 7.74, 'rot1': 280, 'rot0': 297, 'rot3': 289, 'rot2': 226, 'state': 'normal', 'yaw': 13.35, 'datetime': '2018-10-05 20:05:35.230728', 'mgs': 0, 'volt': 0.8154, 'depth': 0.241, 'time': 54, 'pitch': -14.94, 'roll': -1.23, 'pres': 167}
{'lipoC2': 7.76, 'lipoC3S1': 3.87, 'temp': 28.38, 'lipoC3S3': 11.71, 'lipoC3S2': 7.74, 'rot1': 280, 'rot0': 297, 'rot3': 289, 'rot2': 226, 'state': 'normal', 'yaw': 12.82, 'datetime': '2018-10-05 20:05:35.240951', 'mgs': 0, 'volt': 0.8154, 'depth': 0.241, 'time': 54, 'pitch': -14.27, 'roll': -1.08, 'pres': 167}
{'lipoC2': 7.76, 'lipoC3S1': 3.87, 'temp': 28.38, 'lipoC3S3': 11.71, 'lipoC3S2': 7.74, 'rot1': 280, 'rot0': 297, 'rot3': 289, 'rot2': 226, 'state': 'normal', 'yaw': 12.29, 'datetime': '2018-10-05 20:05:35.251167', 'mgs': 0, 'volt': 0.8154, 'depth': 0.241, 'time': 54, 'pitch': -13.53, 'roll': -0.67, 'pres': 167}
{'lipoC2': 7.76, 'lipoC3S1': 3.87, 'temp': 28.38, 'lipoC3S3': 11.71, 'lipoC3S2': 7.74, 'rot1': 280, 'rot0': 297, 'rot3': 289, 'rot2': 226, 'state': 'normal', 'yaw': 12.05, 'datetime': '2018-10-05 20:05:35.261387', 'mgs': 0, 'volt': 0.8105, 'depth': 0.165, 'time': 55, 'pitch': -12.89, 'roll': -0.39, 'pres': 166}
{'lipoC2': 7.76, 'lipoC3S1': 3.87, 'temp': 28.38, 'lipoC3S3': 11.71, 'lipoC3S2': 7.74, 'rot1': 280, 'rot0': 297, 'rot3': 289, 'rot2': 226, 'state': 'normal', 'yaw': 11.94, 'datetime': '2018-10-05 20:05:35.271608', 'mgs': 0, 'volt': 0.8105, 'depth': 0.165, 'time': 55, 'pitch': -12.39, 'roll': -0.24, 'pres': 166}
{'lipoC2': 7.76, 'lipoC3S1': 3.87, 'temp': 28.38, 'lipoC3S3': 11.71, 'lipoC3S2': 7.74, 'rot1': 280, 'rot0': 297, 'rot3': 289, 'rot2': 226, 'state': 'normal', 'yaw': 11.83, 'datetime': '2018-10-05 20:05:35.281816', 'mgs': 0, 'volt': 0.8105, 'depth': 0.165, 'time': 55, 'pitch': -11.96, 'roll': -0.22, 'pres': 166}
{'lipoC2': 7.76, 'lipoC3S1': 3.87, 'temp': 28.38, 'lipoC3S3': 11.71, 'lipoC3S2': 7.74, 'rot1': 280, 'rot0': 297, 'rot3': 289, 'rot2': 226, 'state': 'normal', 'yaw': 11.7, 'datetime': '2018-10-05 20:05:35.291996', 'mgs': 0, 'volt': 0.8105, 'depth': 0.165, 'time': 55, 'pitch': -11.41, 'roll': -0.24, 'pres': 166}
{'lipoC2': 7.76, 'lipoC3S1': 3.87, 'temp': 28.38, 'lipoC3S3': 11.71, 'lipoC3S2': 7.74, 'rot1': 280, 'rot0': 297, 'rot3': 289, 'rot2': 226, 'state': 'normal', 'yaw': 11.6, 'datetime': '2018-10-05 20:05:35.302213', 'mgs': 0, 'volt': 0.8105, 'depth': 0.165, 'time': 55, 'pitch': -10.97, 'roll': -0.28, 'pres': 166}
{'lipoC2': 7.76, 'lipoC3S1': 3.87, 'temp': 28.38, 'lipoC3S3': 11.71, 'lipoC3S2': 7.74, 'rot1': 280, 'rot0': 297, 'rot3': 289, 'rot2': 226, 'state': 'normal', 'yaw': 11.5, 'datetime': '2018-10-05 20:05:35.312409', 'mgs': 0, 'volt': 0.8105, 'depth': 0.165, 'time': 55, 'pitch': -10.78, 'roll': -0.19, 'pres': 166}
{'lipoC2': 7.76, 'lipoC3S1': 3.87, 'temp': 28.44, 'lipoC3S3': 11.71, 'lipoC3S2': 7.74, 'rot1': 280, 'rot0': 297, 'rot3': 289, 'rot2': 226, 'state': 'normal', 'yaw': 11.39, 'datetime': '2018-10-05 20:05:35.322590', 'mgs': 0, 'volt': 0.8105, 'depth': 0.165, 'time': 55, 'pitch': -10.69, 'roll': 0.12, 'pres': 166}
{'lipoC2': 7.76, 'lipoC3S1': 3.87, 'temp': 28.44, 'lipoC3S3': 11.71, 'lipoC3S2': 7.74, 'rot1': 280, 'rot0': 297, 'rot3': 289, 'rot2': 226, 'state': 'normal', 'yaw': 11.15, 'datetime': '2018-10-05 20:05:35.332938', 'mgs': 0, 'volt': 0.8105, 'depth': 0.165, 'time': 55, 'pitch': -10.86, 'roll': 0.5, 'pres': 166}
{'lipoC2': 7.76, 'lipoC3S1': 3.87, 'temp': 28.44, 'lipoC3S3': 11.71, 'lipoC3S2': 7.74, 'rot1': 280, 'rot0': 297, 'rot3': 289, 'rot2': 226, 'state': 'normal', 'yaw': 10.96, 'datetime': '2018-10-05 20:05:35.343131', 'mgs': 0, 'volt': 0.8105, 'depth': 0.165, 'time': 55, 'pitch': -10.77, 'roll': 0.79, 'pres': 166}
{'lipoC2': 7.76, 'lipoC3S1': 3.87, 'temp': 28.44, 'lipoC3S3': 11.71, 'lipoC3S2': 7.74, 'rot1': 280, 'rot0': 297, 'rot3': 289, 'rot2': 226, 'state': 'normal', 'yaw': 10.82, 'datetime': '2018-10-05 20:05:35.353292', 'mgs': 0, 'volt': 0.8154, 'depth': 0.241, 'time': 56, 'pitch': -10.35, 'roll': 0.86, 'pres': 167}
{'lipoC2': 7.76, 'lipoC3S1': 3.87, 'temp': 28.44, 'lipoC3S3': 11.71, 'lipoC3S2': 7.74, 'rot1': 280, 'rot0': 297, 'rot3': 289, 'rot2': 226, 'state': 'normal', 'yaw': 10.69, 'datetime': '2018-10-05 20:05:35.363484', 'mgs': 0, 'volt': 0.8105, 'depth': 0.165, 'time': 56, 'pitch': -10.25, 'roll': 0.72, 'pres': 166}
{'lipoC2': 7.76, 'lipoC3S1': 3.87, 'temp': 28.44, 'lipoC3S3': 11.71, 'lipoC3S2': 7.74, 'rot1': 280, 'rot0': 297, 'rot3': 289, 'rot2': 226, 'state': 'normal', 'yaw': 10.41, 'datetime': '2018-10-05 20:05:35.373823', 'mgs': 0, 'volt': 0.8154, 'depth': 0.241, 'time': 56, 'pitch': -10.55, 'roll': 0.59, 'pres': 167}
{'lipoC2': 7.76, 'lipoC3S1': 3.87, 'temp': 28.44, 'lipoC3S3': 11.71, 'lipoC3S2': 7.74, 'rot1': 280, 'rot0': 297, 'rot3': 289, 'rot2': 226, 'state': 'normal', 'yaw': 10.04, 'datetime': '2018-10-05 20:05:35.384191', 'mgs': 0, 'volt': 0.8154, 'depth': 0.241, 'time': 56, 'pitch': -11.21, 'roll': 0.65, 'pres': 167}
{'lipoC2': 7.76, 'lipoC3S1': 3.87, 'temp': 28.44, 'lipoC3S3': 11.71, 'lipoC3S2': 7.74, 'rot1': 280, 'rot0': 297, 'rot3': 289, 'rot2': 226, 'state': 'normal', 'yaw': 9.94, 'datetime': '2018-10-05 20:05:35.394408', 'mgs': 0, 'volt': 0.8154, 'depth': 0.241, 'time': 56, 'pitch': -12.04, 'roll': 0.54, 'pres': 167}
{'lipoC2': 7.76, 'lipoC3S1': 3.87, 'temp': 28.44, 'lipoC3S3': 11.71, 'lipoC3S2': 7.74, 'rot1': 280, 'rot0': 297, 'rot3': 289, 'rot2': 226, 'state': 'normal', 'yaw': 9.96, 'datetime': '2018-10-05 20:05:35.404641', 'mgs': 0, 'volt': 0.8154, 'depth': 0.241, 'time': 56, 'pitch': -12.87, 'roll': 0.41, 'pres': 167}
{'lipoC2': 7.76, 'lipoC3S1': 3.87, 'temp': 28.38, 'lipoC3S3': 11.71, 'lipoC3S2': 7.74, 'rot1': 280, 'rot0': 297, 'rot3': 289, 'rot2': 226, 'state': 'normal', 'yaw': 9.98, 'datetime': '2018-10-05 20:05:35.414555', 'mgs': 0, 'volt': 0.8203, 'depth': 0.317, 'time': 56, 'pitch': -13.98, 'roll': 0.28, 'pres': 168}
{'lipoC2': 7.76, 'lipoC3S1': 3.87, 'temp': 28.38, 'lipoC3S3': 11.71, 'lipoC3S2': 7.74, 'rot1': 280, 'rot0': 297, 'rot3': 289, 'rot2': 226, 'state': 'normal', 'yaw': 10.23, 'datetime': '2018-10-05 20:05:35.424287', 'mgs': 0, 'volt': 0.8203, 'depth': 0.317, 'time': 56, 'pitch': -15.03, 'roll': -0.06, 'pres': 168}
{'lipoC2': 7.76, 'lipoC3S1': 3.87, 'temp': 28.38, 'lipoC3S3': 11.71, 'lipoC3S2': 7.74, 'rot1': 280, 'rot0': 297, 'rot3': 289, 'rot2': 226, 'state': 'normal', 'yaw': 10.4, 'datetime': '2018-10-05 20:05:35.434014', 'mgs': 0, 'volt': 0.8203, 'depth': 0.317, 'time': 56, 'pitch': -15.69, 'roll': -0.31, 'pres': 168}
{'lipoC2': 7.76, 'lipoC3S1': 3.87, 'temp': 28.38, 'lipoC3S3': 11.71, 'lipoC3S2': 7.74, 'rot1': 280, 'rot0': 297, 'rot3': 289, 'rot2': 226, 'state': 'normal', 'yaw': 10.58, 'datetime': '2018-10-05 20:05:35.443722', 'mgs': 0, 'volt': 0.8203, 'depth': 0.317, 'time': 56, 'pitch': -16.23, 'roll': -0.48, 'pres': 168}
{'lipoC2': 7.76, 'lipoC3S1': 3.87, 'temp': 28.38, 'lipoC3S3': 11.71, 'lipoC3S2': 7.74, 'rot1': 280, 'rot0': 297, 'rot3': 289, 'rot2': 226, 'state': 'normal', 'yaw': 10.6, 'datetime': '2018-10-05 20:05:35.453397', 'mgs': 0, 'volt': 0.8252, 'depth': 0.394, 'time': 57, 'pitch': -16.51, 'roll': -0.45, 'pres': 169}
{'lipoC2': 7.76, 'lipoC3S1': 3.87, 'temp': 28.38, 'lipoC3S3': 11.71, 'lipoC3S2': 7.74, 'rot1': 280, 'rot0': 297, 'rot3': 289, 'rot2': 226, 'state': 'normal', 'yaw': 10.56, 'datetime': '2018-10-05 20:05:35.463154', 'mgs': 0, 'volt': 0.8252, 'depth': 0.394, 'time': 57, 'pitch': -16.69, 'roll': -0.34, 'pres': 169}
{'lipoC2': 7.76, 'lipoC3S1': 3.87, 'temp': 28.38, 'lipoC3S3': 11.71, 'lipoC3S2': 7.74, 'rot1': 280, 'rot0': 297, 'rot3': 289, 'rot2': 226, 'state': 'normal', 'yaw': 10.51, 'datetime': '2018-10-05 20:05:35.472812', 'mgs': 0, 'volt': 0.8252, 'depth': 0.394, 'time': 57, 'pitch': -16.93, 'roll': -0.25, 'pres': 169}
{'lipoC2': 7.76, 'lipoC3S1': 3.87, 'temp': 28.38, 'lipoC3S3': 11.72, 'lipoC3S2': 7.74, 'rot1': 280, 'rot0': 297, 'rot3': 289, 'rot2': 226, 'state': 'normal', 'yaw': 10.42, 'datetime': '2018-10-05 20:05:35.482463', 'mgs': 0, 'volt': 0.8252, 'depth': 0.394, 'time': 57, 'pitch': -17.11, 'roll': -0.21, 'pres': 169}
{'lipoC2': 7.76, 'lipoC3S1': 3.87, 'temp': 28.38, 'lipoC3S3': 11.71, 'lipoC3S2': 7.74, 'rot1': 280, 'rot0': 297, 'rot3': 289, 'rot2': 226, 'state': 'normal', 'yaw': 10.06, 'datetime': '2018-10-05 20:05:35.492112', 'mgs': 0, 'volt': 0.8301, 'depth': 0.47, 'time': 57, 'pitch': -17.48, 'roll': 0.01, 'pres': 170}
{'lipoC2': 7.76, 'lipoC3S1': 3.87, 'temp': 28.38, 'lipoC3S3': 11.71, 'lipoC3S2': 7.74, 'rot1': 280, 'rot0': 297, 'rot3': 289, 'rot2': 226, 'state': 'normal', 'yaw': 9.7, 'datetime': '2018-10-05 20:05:35.501748', 'mgs': 0, 'volt': 0.8301, 'depth': 0.47, 'time': 57, 'pitch': -17.94, 'roll': 0.15, 'pres': 170}
{'lipoC2': 7.76, 'lipoC3S1': 3.87, 'temp': 28.38, 'lipoC3S3': 11.71, 'lipoC3S2': 7.74, 'rot1': 280, 'rot0': 297, 'rot3': 289, 'rot2': 226, 'state': 'normal', 'yaw': 9.58, 'datetime': '2018-10-05 20:05:35.511404', 'mgs': 0, 'volt': 0.8301, 'depth': 0.47, 'time': 57, 'pitch': -18.42, 'roll': 0.1, 'pres': 170}
{'lipoC2': 7.76, 'lipoC3S1': 3.87, 'temp': 28.38, 'lipoC3S3': 11.71, 'lipoC3S2': 7.74, 'rot1': 280, 'rot0': 297, 'rot3': 289, 'rot2': 226, 'state': 'normal', 'yaw': 9.74, 'datetime': '2018-10-05 20:05:35.521066', 'mgs': 0, 'volt': 0.835, 'depth': 0.546, 'time': 57, 'pitch': -18.51, 'roll': -0.2, 'pres': 171}
{'lipoC2': 7.76, 'lipoC3S1': 3.87, 'temp': 28.38, 'lipoC3S3': 11.71, 'lipoC3S2': 7.74, 'rot1': 280, 'rot0': 297, 'rot3': 289, 'rot2': 226, 'state': 'normal', 'yaw': 9.84, 'datetime': '2018-10-05 20:05:35.530705', 'mgs': 0, 'volt': 0.835, 'depth': 0.546, 'time': 57, 'pitch': -18.26, 'roll': -0.47, 'pres': 171}
{'lipoC2': 7.76, 'lipoC3S1': 3.87, 'temp': 28.38, 'lipoC3S3': 11.71, 'lipoC3S2': 7.74, 'rot1': 280, 'rot0': 297, 'rot3': 289, 'rot2': 226, 'state': 'normal', 'yaw': 9.51, 'datetime': '2018-10-05 20:05:35.540381', 'mgs': 0, 'volt': 0.835, 'depth': 0.546, 'time': 58, 'pitch': -18.15, 'roll': -0.37, 'pres': 171}
{'lipoC2': 7.76, 'lipoC3S1': 3.87, 'temp': 28.44, 'lipoC3S3': 11.71, 'lipoC3S2': 7.74, 'rot1': 280, 'rot0': 297, 'rot3': 289, 'rot2': 226, 'state': 'normal', 'yaw': 8.94, 'datetime': '2018-10-05 20:05:35.550236', 'mgs': 0, 'volt': 0.835, 'depth': 0.546, 'time': 58, 'pitch': -18.33, 'roll': -0.03, 'pres': 171}
{'lipoC2': 7.76, 'lipoC3S1': 3.87, 'temp': 28.44, 'lipoC3S3': 11.71, 'lipoC3S2': 7.74, 'rot1': 280, 'rot0': 297, 'rot3': 289, 'rot2': 226, 'state': 'normal', 'yaw': 8.76, 'datetime': '2018-10-05 20:05:35.559978', 'mgs': 0, 'volt': 0.8398, 'depth': 0.623, 'time': 58, 'pitch': -18.48, 'roll': 0.04, 'pres': 172}
{'lipoC2': 7.76, 'lipoC3S1': 3.87, 'temp': 28.31, 'lipoC3S3': 11.71, 'lipoC3S2': 7.74, 'rot1': 280, 'rot0': 297, 'rot3': 289, 'rot2': 226, 'state': 'normal', 'yaw': 9.24, 'datetime': '2018-10-05 20:05:35.569704', 'mgs': 0, 'volt': 0.835, 'depth': 0.546, 'time': 58, 'pitch': -18.26, 'roll': -0.34, 'pres': 171}
{'lipoC2': 7.76, 'lipoC3S1': 3.87, 'temp': 28.31, 'lipoC3S3': 11.71, 'lipoC3S2': 7.74, 'rot1': 280, 'rot0': 297, 'rot3': 289, 'rot2': 226, 'state': 'normal', 'yaw': 9.9, 'datetime': '2018-10-05 20:05:35.579382', 'mgs': 0, 'volt': 0.835, 'depth': 0.546, 'time': 58, 'pitch': -18.03, 'roll': -0.8, 'pres': 171}
{'lipoC2': 7.76, 'lipoC3S1': 3.87, 'temp': 28.31, 'lipoC3S3': 11.71, 'lipoC3S2': 7.74, 'rot1': 280, 'rot0': 297, 'rot3': 289, 'rot2': 226, 'state': 'normal', 'yaw': 10.46, 'datetime': '2018-10-05 20:05:35.662776', 'mgs': 0, 'volt': 0.835, 'depth': 0.546, 'time': 58, 'pitch': -17.73, 'roll': -1.07, 'pres': 171}
{'lipoC2': 7.76, 'lipoC3S1': 3.87, 'temp': 28.44, 'lipoC3S3': 11.71, 'lipoC3S2': 7.74, 'rot1': 280, 'rot0': 297, 'rot3': 289, 'rot2': 226, 'state': 'normal', 'yaw': 10.68, 'datetime': '2018-10-05 20:05:35.768276', 'mgs': 0, 'volt': 0.8398, 'depth': 0.623, 'time': 58, 'pitch': -17.52, 'roll': -1.02, 'pres': 172}
{'lipoC2': 7.76, 'lipoC3S1': 3.87, 'temp': 28.44, 'lipoC3S3': 11.71, 'lipoC3S2': 7.74, 'rot1': 280, 'rot0': 297, 'rot3': 289, 'rot2': 226, 'state': 'normal', 'yaw': 10.7, 'datetime': '2018-10-05 20:05:35.872455', 'mgs': 0, 'volt': 0.8398, 'depth': 0.623, 'time': 58, 'pitch': -17.32, 'roll': -0.7, 'pres': 172}
{'lipoC2': 7.76, 'lipoC3S1': 3.87, 'temp': 28.38, 'lipoC3S3': 11.72, 'lipoC3S2': 7.74, 'rot1': 280, 'rot0': 297, 'rot3': 289, 'rot2': 226, 'state': 'normal', 'yaw': 10.7, 'datetime': '2018-10-05 20:05:35.977943', 'mgs': 0, 'volt': 0.8398, 'depth': 0.623, 'time': 58, 'pitch': -16.96, 'roll': -0.36, 'pres': 172}
{'lipoC2': 7.76, 'lipoC3S1': 3.87, 'temp': 28.38, 'lipoC3S3': 11.72, 'lipoC3S2': 7.74, 'rot1': 280, 'rot0': 297, 'rot3': 289, 'rot2': 226, 'state': 'normal', 'yaw': 10.7, 'datetime': '2018-10-05 20:05:36.082161', 'mgs': 0, 'volt': 0.8398, 'depth': 0.623, 'time': 58, 'pitch': -16.45, 'roll': 0.01, 'pres': 172}
{'lipoC2': 7.76, 'lipoC3S1': 3.87, 'temp': 28.38, 'lipoC3S3': 11.71, 'lipoC3S2': 7.74, 'rot1': 280, 'rot0': 297, 'rot3': 289, 'rot2': 226, 'state': 'normal', 'yaw': 10.86, 'datetime': '2018-10-05 20:05:36.186419', 'mgs': 0, 'volt': 0.8398, 'depth': 0.623, 'time': 59, 'pitch': -16.15, 'roll': 0.16, 'pres': 172}
{'lipoC2': 7.76, 'lipoC3S1': 3.87, 'temp': 28.38, 'lipoC3S3': 11.71, 'lipoC3S2': 7.74, 'rot1': 280, 'rot0': 297, 'rot3': 289, 'rot2': 226, 'state': 'normal', 'yaw': 11.05, 'datetime': '2018-10-05 20:05:36.290591', 'mgs': 0, 'volt': 0.8398, 'depth': 0.623, 'time': 59, 'pitch': -16.01, 'roll': 0.21, 'pres': 172}
{'lipoC2': 7.76, 'lipoC3S1': 3.87, 'temp': 28.38, 'lipoC3S3': 11.71, 'lipoC3S2': 7.74, 'rot1': 280, 'rot0': 297, 'rot3': 289, 'rot2': 226, 'state': 'normal', 'yaw': 11.1, 'datetime': '2018-10-05 20:05:36.394785', 'mgs': 0, 'volt': 0.8398, 'depth': 0.623, 'time': 59, 'pitch': -16.02, 'roll': 0.21, 'pres': 172}
{'lipoC2': 7.76, 'lipoC3S1': 3.87, 'temp': 28.38, 'lipoC3S3': 11.71, 'lipoC3S2': 7.74, 'rot1': 280, 'rot0': 297, 'rot3': 289, 'rot2': 226, 'state': 'normal', 'yaw': 11.02, 'datetime': '2018-10-05 20:05:36.498983', 'mgs': 0, 'volt': 0.8398, 'depth': 0.623, 'time': 59, 'pitch': -16.3, 'roll': 0.23, 'pres': 172}
{'lipoC2': 7.76, 'lipoC3S1': 3.87, 'temp': 28.38, 'lipoC3S3': 11.71, 'lipoC3S2': 7.74, 'rot1': 280, 'rot0': 297, 'rot3': 289, 'rot2': 226, 'state': 'normal', 'yaw': 10.72, 'datetime': '2018-10-05 20:05:36.603207', 'mgs': 0, 'volt': 0.8398, 'depth': 0.623, 'time': 59, 'pitch': -16.67, 'roll': 0.41, 'pres': 172}
{'lipoC2': 7.76, 'lipoC3S1': 3.87, 'temp': 28.38, 'lipoC3S3': 11.72, 'lipoC3S2': 7.74, 'rot1': 280, 'rot0': 297, 'rot3': 289, 'rot2': 226, 'state': 'normal', 'yaw': 10.48, 'datetime': '2018-10-05 20:05:36.709454', 'mgs': 0, 'volt': 0.8398, 'depth': 0.623, 'time': 59, 'pitch': -16.95, 'roll': 0.59, 'pres': 172}
{'lipoC2': 7.76, 'lipoC3S1': 3.87, 'temp': 28.38, 'lipoC3S3': 11.71, 'lipoC3S2': 7.74, 'rot1': 280, 'rot0': 297, 'rot3': 289, 'rot2': 226, 'state': 'normal', 'yaw': 10.52, 'datetime': '2018-10-05 20:05:36.813662', 'mgs': 0, 'volt': 0.8398, 'depth': 0.623, 'time': 59, 'pitch': -16.75, 'roll': 0.58, 'pres': 172}
{'lipoC2': 7.76, 'lipoC3S1': 3.87, 'temp': 28.38, 'lipoC3S3': 11.72, 'lipoC3S2': 7.74, 'rot1': 280, 'rot0': 297, 'rot3': 289, 'rot2': 226, 'state': 'normal', 'yaw': 10.97, 'datetime': '2018-10-05 20:05:36.919297', 'mgs': 0, 'volt': 0.8398, 'depth': 0.623, 'time': 59, 'pitch': -16.16, 'roll': 0.35, 'pres': 172}
{'lipoC2': 7.76, 'lipoC3S1': 3.87, 'temp': 28.38, 'lipoC3S3': 11.72, 'lipoC3S2': 7.74, 'rot1': 280, 'rot0': 297, 'rot3': 289, 'rot2': 226, 'state': 'normal', 'yaw': 11.82, 'datetime': '2018-10-05 20:05:37.023443', 'mgs': 0, 'volt': 0.8398, 'depth': 0.623, 'time': 59, 'pitch': -15.77, 'roll': -0.16, 'pres': 172}
{'lipoC2': 7.76, 'lipoC3S1': 3.87, 'temp': 28.38, 'lipoC3S3': 11.72, 'lipoC3S2': 7.74, 'rot1': 280, 'rot0': 297, 'rot3': 289, 'rot2': 226, 'state': 'normal', 'yaw': 12.77, 'datetime': '2018-10-05 20:05:37.127927', 'mgs': 0, 'volt': 0.835, 'depth': 0.546, 'time': 60, 'pitch': -15.77, 'roll': -0.75, 'pres': 171}
{'lipoC2': 7.76, 'lipoC3S1': 3.87, 'temp': 28.38, 'lipoC3S3': 11.72, 'lipoC3S2': 7.74, 'rot1': 280, 'rot0': 297, 'rot3': 289, 'rot2': 226, 'state': 'normal', 'yaw': 13.65, 'datetime': '2018-10-05 20:05:37.233189', 'mgs': 0, 'volt': 0.8398, 'depth': 0.623, 'time': 60, 'pitch': -16.21, 'roll': -1.24, 'pres': 172}
{'lipoC2': 7.76, 'lipoC3S1': 3.87, 'temp': 28.38, 'lipoC3S3': 11.72, 'lipoC3S2': 7.74, 'rot1': 280, 'rot0': 297, 'rot3': 289, 'rot2': 226, 'state': 'normal', 'yaw': 13.99, 'datetime': '2018-10-05 20:05:37.337412', 'mgs': 0, 'volt': 0.835, 'depth': 0.546, 'time': 60, 'pitch': -16.8, 'roll': -1.18, 'pres': 171}
{'lipoC2': 7.76, 'lipoC3S1': 3.87, 'temp': 28.38, 'lipoC3S3': 11.72, 'lipoC3S2': 7.74, 'rot1': 280, 'rot0': 297, 'rot3': 289, 'rot2': 226, 'state': 'normal', 'yaw': 13.54, 'datetime': '2018-10-05 20:05:37.441600', 'mgs': 0, 'volt': 0.835, 'depth': 0.546, 'time': 60, 'pitch': -17.11, 'roll': -0.43, 'pres': 171}
{'lipoC2': 7.76, 'lipoC3S1': 3.87, 'temp': 28.38, 'lipoC3S3': 11.72, 'lipoC3S2': 7.74, 'rot1': 280, 'rot0': 297, 'rot3': 289, 'rot2': 226, 'state': 'normal', 'yaw': 12.81, 'datetime': '2018-10-05 20:05:37.545826', 'mgs': 0, 'volt': 0.8398, 'depth': 0.623, 'time': 60, 'pitch': -17.04, 'roll': 0.63, 'pres': 172}
{'lipoC2': 7.76, 'lipoC3S1': 3.87, 'temp': 28.38, 'lipoC3S3': 11.72, 'lipoC3S2': 7.74, 'rot1': 280, 'rot0': 297, 'rot3': 289, 'rot2': 226, 'state': 'normal', 'yaw': 12.45, 'datetime': '2018-10-05 20:05:37.650027', 'mgs': 0, 'volt': 0.8398, 'depth': 0.623, 'time': 60, 'pitch': -16.81, 'roll': 1.31, 'pres': 172}
{'lipoC2': 7.76, 'lipoC3S1': 3.87, 'temp': 28.38, 'lipoC3S3': 11.72, 'lipoC3S2': 7.74, 'rot1': 280, 'rot0': 297, 'rot3': 289, 'rot2': 226, 'state': 'normal', 'yaw': 12.49, 'datetime': '2018-10-05 20:05:37.754393', 'mgs': 0, 'volt': 0.8398, 'depth': 0.623, 'time': 60, 'pitch': -16.79, 'roll': 1.58, 'pres': 172}
{'lipoC2': 7.76, 'lipoC3S1': 3.87, 'temp': 28.38, 'lipoC3S3': 11.72, 'lipoC3S2': 7.75, 'rot1': 280, 'rot0': 297, 'rot3': 289, 'rot2': 226, 'state': 'normal', 'yaw': 12.48, 'datetime': '2018-10-05 20:05:37.858666', 'mgs': 0, 'volt': 0.8398, 'depth': 0.623, 'time': 60, 'pitch': -17.19, 'roll': 1.75, 'pres': 172}
{'lipoC2': 7.76, 'lipoC3S1': 3.87, 'temp': 28.38, 'lipoC3S3': 11.71, 'lipoC3S2': 7.74, 'rot1': 280, 'rot0': 297, 'rot3': 289, 'rot2': 226, 'state': 'normal', 'yaw': 12.26, 'datetime': '2018-10-05 20:05:37.964187', 'mgs': 0, 'volt': 0.8398, 'depth': 0.623, 'time': 60, 'pitch': -17.65, 'roll': 1.93, 'pres': 172}
{'lipoC2': 7.76, 'lipoC3S1': 3.87, 'temp': 28.38, 'lipoC3S3': 11.72, 'lipoC3S2': 7.74, 'rot1': 280, 'rot0': 297, 'rot3': 289, 'rot2': 226, 'state': 'normal', 'yaw': 11.73, 'datetime': '2018-10-05 20:05:38.068415', 'mgs': 0, 'volt': 0.8398, 'depth': 0.623, 'time': 60, 'pitch': -17.95, 'roll': 2.17, 'pres': 172}
{'lipoC2': 7.76, 'lipoC3S1': 3.87, 'temp': 28.38, 'lipoC3S3': 11.72, 'lipoC3S2': 7.74, 'rot1': 280, 'rot0': 297, 'rot3': 289, 'rot2': 226, 'state': 'normal', 'yaw': 11.18, 'datetime': '2018-10-05 20:05:38.173942', 'mgs': 0, 'volt': 0.8398, 'depth': 0.623, 'time': 61, 'pitch': -17.97, 'roll': 2.31, 'pres': 172}
{'lipoC2': 7.76, 'lipoC3S1': 3.87, 'temp': 28.38, 'lipoC3S3': 11.72, 'lipoC3S2': 7.74, 'rot1': 280, 'rot0': 297, 'rot3': 289, 'rot2': 226, 'state': 'normal', 'yaw': 10.55, 'datetime': '2018-10-05 20:05:38.278122', 'mgs': 0, 'volt': 0.8447, 'depth': 0.699, 'time': 61, 'pitch': -17.97, 'roll': 2.3, 'pres': 173}
{'lipoC2': 7.76, 'lipoC3S1': 3.87, 'temp': 28.38, 'lipoC3S3': 11.72, 'lipoC3S2': 7.74, 'rot1': 280, 'rot0': 297, 'rot3': 289, 'rot2': 226, 'state': 'normal', 'yaw': 10.04, 'datetime': '2018-10-05 20:05:38.383708', 'mgs': 0, 'volt': 0.8398, 'depth': 0.623, 'time': 61, 'pitch': -18.13, 'roll': 2.13, 'pres': 172}
{'lipoC2': 7.76, 'lipoC3S1': 3.87, 'temp': 28.38, 'lipoC3S3': 11.72, 'lipoC3S2': 7.74, 'rot1': 280, 'rot0': 297, 'rot3': 289, 'rot2': 226, 'state': 'normal', 'yaw': 9.65, 'datetime': '2018-10-05 20:05:38.487829', 'mgs': 0, 'volt': 0.8398, 'depth': 0.623, 'time': 61, 'pitch': -18.4, 'roll': 1.75, 'pres': 172}
{'lipoC2': 7.76, 'lipoC3S1': 3.87, 'temp': 28.38, 'lipoC3S3': 11.72, 'lipoC3S2': 7.75, 'rot1': 280, 'rot0': 297, 'rot3': 289, 'rot2': 226, 'state': 'normal', 'yaw': 9.36, 'datetime': '2018-10-05 20:05:38.592017', 'mgs': 0, 'volt': 0.8398, 'depth': 0.623, 'time': 61, 'pitch': -18.81, 'roll': 1.4, 'pres': 172}
{'lipoC2': 7.76, 'lipoC3S1': 3.87, 'temp': 28.38, 'lipoC3S3': 11.72, 'lipoC3S2': 7.74, 'rot1': 280, 'rot0': 297, 'rot3': 289, 'rot2': 226, 'state': 'normal', 'yaw': 8.7, 'datetime': '2018-10-05 20:05:38.696481', 'mgs': 0, 'volt': 0.8398, 'depth': 0.623, 'time': 61, 'pitch': -19.48, 'roll': 1.46, 'pres': 172}
{'lipoC2': 7.76, 'lipoC3S1': 3.87, 'temp': 28.38, 'lipoC3S3': 11.72, 'lipoC3S2': 7.74, 'rot1': 280, 'rot0': 297, 'rot3': 289, 'rot2': 226, 'state': 'normal', 'yaw': 7.62, 'datetime': '2018-10-05 20:05:38.800651', 'mgs': 0, 'volt': 0.8398, 'depth': 0.623, 'time': 61, 'pitch': -20.36, 'roll': 1.95, 'pres': 172}
{'lipoC2': 7.76, 'lipoC3S1': 3.87, 'temp': 28.38, 'lipoC3S3': 11.72, 'lipoC3S2': 7.74, 'rot1': 280, 'rot0': 297, 'rot3': 289, 'rot2': 226, 'state': 'normal', 'yaw': 7.18, 'datetime': '2018-10-05 20:05:38.904797', 'mgs': 0, 'volt': 0.8398, 'depth': 0.623, 'time': 61, 'pitch': -20.9, 'roll': 2.14, 'pres': 172}
{'lipoC2': 7.76, 'lipoC3S1': 3.87, 'temp': 28.38, 'lipoC3S3': 11.72, 'lipoC3S2': 7.74, 'rot1': 280, 'rot0': 297, 'rot3': 289, 'rot2': 226, 'state': 'normal', 'yaw': 7.75, 'datetime': '2018-10-05 20:05:39.009027', 'mgs': 0, 'volt': 0.8398, 'depth': 0.623, 'time': 61, 'pitch': -21.08, 'roll': 1.74, 'pres': 172}
{'lipoC2': 7.76, 'lipoC3S1': 3.87, 'temp': 28.38, 'lipoC3S3': 11.72, 'lipoC3S2': 7.75, 'rot1': 280, 'rot0': 297, 'rot3': 289, 'rot2': 226, 'state': 'normal', 'yaw': 8.73, 'datetime': '2018-10-05 20:05:39.113233', 'mgs': 0, 'volt': 0.835, 'depth': 0.546, 'time': 61, 'pitch': -20.85, 'roll': 1.23, 'pres': 171}
{'lipoC2': 7.76, 'lipoC3S1': 3.87, 'temp': 28.38, 'lipoC3S3': 11.72, 'lipoC3S2': 7.74, 'rot1': 280, 'rot0': 297, 'rot3': 289, 'rot2': 226, 'state': 'normal', 'yaw': 9.14, 'datetime': '2018-10-05 20:05:39.218100', 'mgs': 0, 'volt': 0.835, 'depth': 0.546, 'time': 62, 'pitch': -20.38, 'roll': 1.29, 'pres': 171}
{'lipoC2': 7.76, 'lipoC3S1': 3.87, 'temp': 28.38, 'lipoC3S3': 11.72, 'lipoC3S2': 7.74, 'rot1': 280, 'rot0': 297, 'rot3': 289, 'rot2': 226, 'state': 'normal', 'yaw': 9.3, 'datetime': '2018-10-05 20:05:39.322303', 'mgs': 0, 'volt': 0.835, 'depth': 0.546, 'time': 62, 'pitch': -20.05, 'roll': 1.75, 'pres': 171}
{'lipoC2': 7.76, 'lipoC3S1': 3.87, 'temp': 28.38, 'lipoC3S3': 11.72, 'lipoC3S2': 7.75, 'rot1': 280, 'rot0': 297, 'rot3': 289, 'rot2': 226, 'state': 'normal', 'yaw': 9.7, 'datetime': '2018-10-05 20:05:39.427774', 'mgs': 0, 'volt': 0.835, 'depth': 0.546, 'time': 62, 'pitch': -19.79, 'roll': 2.01, 'pres': 171}
{'lipoC2': 7.76, 'lipoC3S1': 3.87, 'temp': 28.38, 'lipoC3S3': 11.72, 'lipoC3S2': 7.74, 'rot1': 280, 'rot0': 297, 'rot3': 289, 'rot2': 226, 'state': 'normal', 'yaw': 10.46, 'datetime': '2018-10-05 20:05:39.531994', 'mgs': 0, 'volt': 0.835, 'depth': 0.546, 'time': 62, 'pitch': -19.22, 'roll': 2.09, 'pres': 171}
{'lipoC2': 7.76, 'lipoC3S1': 3.87, 'temp': 28.38, 'lipoC3S3': 11.72, 'lipoC3S2': 7.74, 'rot1': 280, 'rot0': 297, 'rot3': 289, 'rot2': 226, 'state': 'normal', 'yaw': 10.79, 'datetime': '2018-10-05 20:05:39.637439', 'mgs': 0, 'volt': 0.835, 'depth': 0.546, 'time': 62, 'pitch': -18.62, 'roll': 2.42, 'pres': 171}
{'lipoC2': 7.76, 'lipoC3S1': 3.87, 'temp': 28.38, 'lipoC3S3': 11.72, 'lipoC3S2': 7.74, 'rot1': 280, 'rot0': 297, 'rot3': 289, 'rot2': 226, 'state': 'normal', 'yaw': 10.31, 'datetime': '2018-10-05 20:05:39.741684', 'mgs': 0, 'volt': 0.835, 'depth': 0.546, 'time': 62, 'pitch': -18.16, 'roll': 3.37, 'pres': 171}
{'lipoC2': 7.76, 'lipoC3S1': 3.87, 'temp': 28.38, 'lipoC3S3': 11.72, 'lipoC3S2': 7.75, 'rot1': 280, 'rot0': 297, 'rot3': 289, 'rot2': 226, 'state': 'normal', 'yaw': 9.62, 'datetime': '2018-10-05 20:05:39.845857', 'mgs': 0, 'volt': 0.835, 'depth': 0.546, 'time': 62, 'pitch': -18.02, 'roll': 4.2, 'pres': 171}
{'lipoC2': 7.76, 'lipoC3S1': 3.87, 'temp': 28.38, 'lipoC3S3': 11.72, 'lipoC3S2': 7.75, 'rot1': 280, 'rot0': 297, 'rot3': 289, 'rot2': 226, 'state': 'normal', 'yaw': 9.44, 'datetime': '2018-10-05 20:05:39.950249', 'mgs': 0, 'volt': 0.835, 'depth': 0.546, 'time': 62, 'pitch': -18.03, 'roll': 4.29, 'pres': 171}
{'lipoC2': 7.76, 'lipoC3S1': 3.87, 'temp': 28.38, 'lipoC3S3': 11.72, 'lipoC3S2': 7.74, 'rot1': 280, 'rot0': 297, 'rot3': 289, 'rot2': 226, 'state': 'normal', 'yaw': 9.78, 'datetime': '2018-10-05 20:05:40.054358', 'mgs': 0, 'volt': 0.835, 'depth': 0.546, 'time': 62, 'pitch': -18.17, 'roll': 3.63, 'pres': 171}
{'lipoC2': 7.76, 'lipoC3S1': 3.87, 'temp': 28.38, 'lipoC3S3': 11.72, 'lipoC3S2': 7.75, 'rot1': 280, 'rot0': 297, 'rot3': 289, 'rot2': 226, 'state': 'normal', 'yaw': 10.04, 'datetime': '2018-10-05 20:05:40.158617', 'mgs': 0, 'volt': 0.8301, 'depth': 0.47, 'time': 63, 'pitch': -18.2, 'roll': 2.86, 'pres': 170}
{'lipoC2': 7.76, 'lipoC3S1': 3.87, 'temp': 28.38, 'lipoC3S3': 11.72, 'lipoC3S2': 7.75, 'rot1': 280, 'rot0': 297, 'rot3': 289, 'rot2': 226, 'state': 'normal', 'yaw': 9.89, 'datetime': '2018-10-05 20:05:40.262807', 'mgs': 0, 'volt': 0.8301, 'depth': 0.47, 'time': 63, 'pitch': -18.13, 'roll': 2.24, 'pres': 170}
{'lipoC2': 7.76, 'lipoC3S1': 3.87, 'temp': 28.38, 'lipoC3S3': 11.72, 'lipoC3S2': 7.74, 'rot1': 280, 'rot0': 297, 'rot3': 289, 'rot2': 226, 'state': 'normal', 'yaw': 9.69, 'datetime': '2018-10-05 20:05:40.367052', 'mgs': 0, 'volt': 0.8301, 'depth': 0.47, 'time': 63, 'pitch': -17.98, 'roll': 1.68, 'pres': 170}
{'lipoC2': 7.76, 'lipoC3S1': 3.87, 'temp': 28.38, 'lipoC3S3': 11.72, 'lipoC3S2': 7.74, 'rot1': 280, 'rot0': 297, 'rot3': 289, 'rot2': 226, 'state': 'normal', 'yaw': 9.81, 'datetime': '2018-10-05 20:05:40.471615', 'mgs': 0, 'volt': 0.8301, 'depth': 0.47, 'time': 63, 'pitch': -17.86, 'roll': 0.94, 'pres': 170}
{'lipoC2': 7.76, 'lipoC3S1': 3.87, 'temp': 28.38, 'lipoC3S3': 11.72, 'lipoC3S2': 7.74, 'rot1': 280, 'rot0': 297, 'rot3': 289, 'rot2': 226, 'state': 'normal', 'yaw': 10.14, 'datetime': '2018-10-05 20:05:40.575831', 'mgs': 0, 'volt': 0.8252, 'depth': 0.394, 'time': 63, 'pitch': -17.9, 'roll': 0.1, 'pres': 169}
{'lipoC2': 7.76, 'lipoC3S1': 3.87, 'temp': 28.38, 'lipoC3S3': 11.72, 'lipoC3S2': 7.74, 'rot1': 280, 'rot0': 297, 'rot3': 289, 'rot2': 226, 'state': 'normal', 'yaw': 10.36, 'datetime': '2018-10-05 20:05:40.681338', 'mgs': 0, 'volt': 0.8252, 'depth': 0.394, 'time': 63, 'pitch': -18.03, 'roll': -0.37, 'pres': 169}
{'lipoC2': 7.76, 'lipoC3S1': 3.87, 'temp': 28.38, 'lipoC3S3': 11.72, 'lipoC3S2': 7.75, 'rot1': 280, 'rot0': 297, 'rot3': 289, 'rot2': 226, 'state': 'normal', 'yaw': 10.5, 'datetime': '2018-10-05 20:05:40.785621', 'mgs': 0, 'volt': 0.8252, 'depth': 0.394, 'time': 63, 'pitch': -17.94, 'roll': -0.49, 'pres': 169}
{'lipoC2': 7.76, 'lipoC3S1': 3.87, 'temp': 28.38, 'lipoC3S3': 11.72, 'lipoC3S2': 7.75, 'rot1': 280, 'rot0': 297, 'rot3': 289, 'rot2': 226, 'state': 'normal', 'yaw': 10.8, 'datetime': '2018-10-05 20:05:40.891075', 'mgs': 0, 'volt': 0.8203, 'depth': 0.317, 'time': 63, 'pitch': -17.58, 'roll': -0.43, 'pres': 168}
{'lipoC2': 7.76, 'lipoC3S1': 3.88, 'temp': 28.38, 'lipoC3S3': 11.72, 'lipoC3S2': 7.75, 'rot1': 280, 'rot0': 297, 'rot3': 289, 'rot2': 226, 'state': 'normal', 'yaw': 11.45, 'datetime': '2018-10-05 20:05:40.995230', 'mgs': 0, 'volt': 0.8203, 'depth': 0.317, 'time': 63, 'pitch': -17.26, 'roll': -0.34, 'pres': 168}
{'lipoC2': 7.76, 'lipoC3S1': 3.87, 'temp': 28.38, 'lipoC3S3': 11.72, 'lipoC3S2': 7.75, 'rot1': 280, 'rot0': 297, 'rot3': 289, 'rot2': 226, 'state': 'normal', 'yaw': 12.05, 'datetime': '2018-10-05 20:05:41.099428', 'mgs': 0, 'volt': 0.8252, 'depth': 0.394, 'time': 63, 'pitch': -17.23, 'roll': -0.03, 'pres': 169}
{'lipoC2': 7.76, 'lipoC3S1': 3.87, 'temp': 28.38, 'lipoC3S3': 11.72, 'lipoC3S2': 7.75, 'rot1': 280, 'rot0': 297, 'rot3': 289, 'rot2': 226, 'state': 'normal', 'yaw': 12.48, 'datetime': '2018-10-05 20:05:41.203672', 'mgs': 0, 'volt': 0.8203, 'depth': 0.317, 'time': 64, 'pitch': -17.24, 'roll': 0.52, 'pres': 168}
{'lipoC2': 7.76, 'lipoC3S1': 3.87, 'temp': 28.38, 'lipoC3S3': 11.72, 'lipoC3S2': 7.75, 'rot1': 280, 'rot0': 297, 'rot3': 289, 'rot2': 226, 'state': 'normal', 'yaw': 12.87, 'datetime': '2018-10-05 20:05:41.307884', 'mgs': 0, 'volt': 0.8252, 'depth': 0.394, 'time': 64, 'pitch': -17.0, 'roll': 1.21, 'pres': 169}
{'lipoC2': 7.76, 'lipoC3S1': 3.87, 'temp': 28.38, 'lipoC3S3': 11.72, 'lipoC3S2': 7.75, 'rot1': 280, 'rot0': 297, 'rot3': 289, 'rot2': 226, 'state': 'normal', 'yaw': 13.23, 'datetime': '2018-10-05 20:05:41.412134', 'mgs': 1, 'volt': 0.8252, 'depth': 0.394, 'time': 64, 'pitch': -16.62, 'roll': 1.69, 'pres': 169}
{'lipoC2': 7.76, 'lipoC3S1': 3.87, 'temp': 28.38, 'lipoC3S3': 11.72, 'lipoC3S2': 7.75, 'rot1': 0, 'rot0': 0, 'rot3': 0, 'rot2': 0, 'state': 'normal', 'yaw': 0.0, 'datetime': '2018-10-05 20:05:47.442583', 'mgs': 0, 'volt': 0.8203, 'depth': 0.317, 'time': 1, 'pitch': -16.15, 'roll': 0.84, 'pres': 168}
{'lipoC2': 7.76, 'lipoC3S1': 3.87, 'temp': 28.38, 'lipoC3S3': 11.72, 'lipoC3S2': 7.75, 'rot1': 0, 'rot0': 0, 'rot3': 0, 'rot2': 0, 'state': 'normal', 'yaw': 0.12, 'datetime': '2018-10-05 20:05:50.485160', 'mgs': 0, 'volt': 0.8203, 'depth': 0.317, 'time': 1, 'pitch': -16.52, 'roll': 1.44, 'pres': 168}
{'lipoC2': 7.76, 'lipoC3S1': 3.88, 'temp': 28.38, 'lipoC3S3': 11.72, 'lipoC3S2': 7.75, 'rot1': 0, 'rot0': 0, 'rot3': 0, 'rot2': 0, 'state': 'normal', 'yaw': 0.29, 'datetime': '2018-10-05 20:05:50.527795', 'mgs': 0, 'volt': 0.8252, 'depth': 0.394, 'time': 1, 'pitch': -16.7, 'roll': 2.14, 'pres': 169}
{'lipoC2': 7.76, 'lipoC3S1': 3.88, 'temp': 28.38, 'lipoC3S3': 11.72, 'lipoC3S2': 7.75, 'rot1': 0, 'rot0': 0, 'rot3': 0, 'rot2': 0, 'state': 'normal', 'yaw': 0.58, 'datetime': '2018-10-05 20:05:50.544293', 'mgs': 0, 'volt': 0.8203, 'depth': 0.317, 'time': 1, 'pitch': -16.68, 'roll': 2.88, 'pres': 168}
{'lipoC2': 7.76, 'lipoC3S1': 3.88, 'temp': 28.38, 'lipoC3S3': 11.72, 'lipoC3S2': 7.75, 'rot1': 0, 'rot0': 0, 'rot3': 0, 'rot2': 0, 'state': 'normal', 'yaw': 0.9, 'datetime': '2018-10-05 20:05:50.560068', 'mgs': 0, 'volt': 0.8252, 'depth': 0.394, 'time': 1, 'pitch': -16.68, 'roll': 3.66, 'pres': 169}
{'lipoC2': 7.76, 'lipoC3S1': 3.88, 'temp': 28.38, 'lipoC3S3': 11.72, 'lipoC3S2': 7.75, 'rot1': 0, 'rot0': 0, 'rot3': 0, 'rot2': 0, 'state': 'normal', 'yaw': 1.12, 'datetime': '2018-10-05 20:05:50.575742', 'mgs': 0, 'volt': 0.8252, 'depth': 0.394, 'time': 1, 'pitch': -16.75, 'roll': 4.26, 'pres': 169}
{'lipoC2': 7.76, 'lipoC3S1': 3.88, 'temp': 28.38, 'lipoC3S3': 11.72, 'lipoC3S2': 7.75, 'rot1': 0, 'rot0': 0, 'rot3': 0, 'rot2': 0, 'state': 'normal', 'yaw': 1.26, 'datetime': '2018-10-05 20:05:50.585586', 'mgs': 0, 'volt': 0.8252, 'depth': 0.394, 'time': 1, 'pitch': -16.86, 'roll': 4.7, 'pres': 169}
{'lipoC2': 7.76, 'lipoC3S1': 3.87, 'temp': 28.38, 'lipoC3S3': 11.72, 'lipoC3S2': 7.75, 'rot1': 0, 'rot0': 0, 'rot3': 0, 'rot2': 0, 'state': 'normal', 'yaw': 1.24, 'datetime': '2018-10-05 20:05:50.601172', 'mgs': 0, 'volt': 0.8203, 'depth': 0.317, 'time': 1, 'pitch': -16.94, 'roll': 4.97, 'pres': 168}
{'lipoC2': 7.76, 'lipoC3S1': 3.88, 'temp': 28.38, 'lipoC3S3': 11.72, 'lipoC3S2': 7.75, 'rot1': 0, 'rot0': 0, 'rot3': 0, 'rot2': 0, 'state': 'normal', 'yaw': 1.13, 'datetime': '2018-10-05 20:05:50.616820', 'mgs': 0, 'volt': 0.8203, 'depth': 0.317, 'time': 2, 'pitch': -16.95, 'roll': 4.97, 'pres': 168}
{'lipoC2': 7.76, 'lipoC3S1': 3.88, 'temp': 28.38, 'lipoC3S3': 11.72, 'lipoC3S2': 7.75, 'rot1': 0, 'rot0': 0, 'rot3': 0, 'rot2': 0, 'state': 'normal', 'yaw': 1.0, 'datetime': '2018-10-05 20:05:50.626612', 'mgs': 0, 'volt': 0.8203, 'depth': 0.317, 'time': 2, 'pitch': -17.05, 'roll': 4.71, 'pres': 168}
{'lipoC2': 7.76, 'lipoC3S1': 3.87, 'temp': 28.38, 'lipoC3S3': 11.72, 'lipoC3S2': 7.75, 'rot1': 0, 'rot0': 0, 'rot3': 0, 'rot2': 0, 'state': 'normal', 'yaw': 0.87, 'datetime': '2018-10-05 20:05:50.642386', 'mgs': 0, 'volt': 0.8203, 'depth': 0.317, 'time': 2, 'pitch': -17.22, 'roll': 4.19, 'pres': 168}
{'lipoC2': 7.76, 'lipoC3S1': 3.88, 'temp': 28.38, 'lipoC3S3': 11.72, 'lipoC3S2': 7.75, 'rot1': 0, 'rot0': 0, 'rot3': 0, 'rot2': 0, 'state': 'normal', 'yaw': 0.68, 'datetime': '2018-10-05 20:05:50.658057', 'mgs': 0, 'volt': 0.8203, 'depth': 0.317, 'time': 2, 'pitch': -17.36, 'roll': 3.7, 'pres': 168}
{'lipoC2': 7.76, 'lipoC3S1': 3.88, 'temp': 28.38, 'lipoC3S3': 11.73, 'lipoC3S2': 7.75, 'rot1': 0, 'rot0': 0, 'rot3': 0, 'rot2': 0, 'state': 'normal', 'yaw': 0.47, 'datetime': '2018-10-05 20:05:50.667879', 'mgs': 0, 'volt': 0.8252, 'depth': 0.394, 'time': 2, 'pitch': -17.33, 'roll': 3.29, 'pres': 169}
{'lipoC2': 7.76, 'lipoC3S1': 3.88, 'temp': 28.38, 'lipoC3S3': 11.72, 'lipoC3S2': 7.75, 'rot1': 0, 'rot0': 0, 'rot3': 0, 'rot2': 0, 'state': 'normal', 'yaw': 0.29, 'datetime': '2018-10-05 20:05:50.683525', 'mgs': 0, 'volt': 0.8203, 'depth': 0.317, 'time': 2, 'pitch': -17.15, 'roll': 3.01, 'pres': 168}
{'lipoC2': 7.76, 'lipoC3S1': 3.88, 'temp': 28.38, 'lipoC3S3': 11.72, 'lipoC3S2': 7.75, 'rot1': 0, 'rot0': 0, 'rot3': 0, 'rot2': 0, 'state': 'normal', 'yaw': 0.16, 'datetime': '2018-10-05 20:05:50.699176', 'mgs': 0, 'volt': 0.8252, 'depth': 0.394, 'time': 2, 'pitch': -16.98, 'roll': 2.85, 'pres': 169}
{'lipoC2': 7.76, 'lipoC3S1': 3.88, 'temp': 28.38, 'lipoC3S3': 11.72, 'lipoC3S2': 7.75, 'rot1': 0, 'rot0': 0, 'rot3': 0, 'rot2': 0, 'state': 'normal', 'yaw': 0.07, 'datetime': '2018-10-05 20:05:50.708957', 'mgs': 0, 'volt': 0.8203, 'depth': 0.317, 'time': 2, 'pitch': -17.0, 'roll': 2.85, 'pres': 168}
{'lipoC2': 7.76, 'lipoC3S1': 3.88, 'temp': 28.38, 'lipoC3S3': 11.72, 'lipoC3S2': 7.75, 'rot1': 0, 'rot0': 0, 'rot3': 0, 'rot2': 0, 'state': 'normal', 'yaw': -0.03, 'datetime': '2018-10-05 20:05:50.724576', 'mgs': 0, 'volt': 0.8203, 'depth': 0.317, 'time': 2, 'pitch': -17.21, 'roll': 2.93, 'pres': 168}
{'lipoC2': 7.76, 'lipoC3S1': 3.87, 'temp': 28.38, 'lipoC3S3': 11.72, 'lipoC3S2': 7.75, 'rot1': 0, 'rot0': 0, 'rot3': 0, 'rot2': 0, 'state': 'normal', 'yaw': -0.04, 'datetime': '2018-10-05 20:05:50.740218', 'mgs': 0, 'volt': 0.8203, 'depth': 0.317, 'time': 3, 'pitch': -17.43, 'roll': 3.05, 'pres': 168}
{'lipoC2': 7.76, 'lipoC3S1': 3.88, 'temp': 28.38, 'lipoC3S3': 11.72, 'lipoC3S2': 7.75, 'rot1': 0, 'rot0': 0, 'rot3': 0, 'rot2': 0, 'state': 'normal', 'yaw': 0.1, 'datetime': '2018-10-05 20:05:50.750022', 'mgs': 0, 'volt': 0.8203, 'depth': 0.317, 'time': 3, 'pitch': -17.53, 'roll': 3.15, 'pres': 168}
{'lipoC2': 7.76, 'lipoC3S1': 3.88, 'temp': 28.38, 'lipoC3S3': 11.72, 'lipoC3S2': 7.75, 'rot1': 0, 'rot0': 0, 'rot3': 0, 'rot2': 0, 'state': 'normal', 'yaw': 0.38, 'datetime': '2018-10-05 20:05:50.768079', 'mgs': 0, 'volt': 0.8203, 'depth': 0.317, 'time': 3, 'pitch': -17.5, 'roll': 3.23, 'pres': 168}
{'lipoC2': 7.76, 'lipoC3S1': 3.87, 'temp': 28.38, 'lipoC3S3': 11.72, 'lipoC3S2': 7.75, 'rot1': 0, 'rot0': 0, 'rot3': 0, 'rot2': 0, 'state': 'normal', 'yaw': 0.57, 'datetime': '2018-10-05 20:05:50.787017', 'mgs': 0, 'volt': 0.8203, 'depth': 0.317, 'time': 3, 'pitch': -17.38, 'roll': 3.37, 'pres': 168}
{'lipoC2': 7.76, 'lipoC3S1': 3.88, 'temp': 28.38, 'lipoC3S3': 11.72, 'lipoC3S2': 7.75, 'rot1': 0, 'rot0': 0, 'rot3': 0, 'rot2': 0, 'state': 'normal', 'yaw': 0.62, 'datetime': '2018-10-05 20:05:50.799946', 'mgs': 0, 'volt': 0.8252, 'depth': 0.394, 'time': 3, 'pitch': -17.32, 'roll': 3.61, 'pres': 169}
{'lipoC2': 7.76, 'lipoC3S1': 3.88, 'temp': 28.38, 'lipoC3S3': 11.72, 'lipoC3S2': 7.75, 'rot1': 0, 'rot0': 0, 'rot3': 0, 'rot2': 0, 'state': 'normal', 'yaw': 0.74, 'datetime': '2018-10-05 20:05:50.818822', 'mgs': 0, 'volt': 0.8252, 'depth': 0.394, 'time': 3, 'pitch': -17.32, 'roll': 3.83, 'pres': 169}
{'lipoC2': 7.76, 'lipoC3S1': 3.88, 'temp': 28.38, 'lipoC3S3': 11.72, 'lipoC3S2': 7.75, 'rot1': 0, 'rot0': 0, 'rot3': 0, 'rot2': 0, 'state': 'normal', 'yaw': 0.92, 'datetime': '2018-10-05 20:05:50.837714', 'mgs': 0, 'volt': 0.8203, 'depth': 0.317, 'time': 3, 'pitch': -17.34, 'roll': 3.96, 'pres': 168}
{'lipoC2': 7.76, 'lipoC3S1': 3.88, 'temp': 28.38, 'lipoC3S3': 11.72, 'lipoC3S2': 7.75, 'rot1': 0, 'rot0': 0, 'rot3': 0, 'rot2': 0, 'state': 'normal', 'yaw': 0.93, 'datetime': '2018-10-05 20:05:50.851041', 'mgs': 0, 'volt': 0.8252, 'depth': 0.394, 'time': 3, 'pitch': -17.39, 'roll': 4.15, 'pres': 169}
{'lipoC2': 7.76, 'lipoC3S1': 3.88, 'temp': 28.38, 'lipoC3S3': 11.73, 'lipoC3S2': 7.75, 'rot1': 0, 'rot0': 0, 'rot3': 0, 'rot2': 0, 'state': 'normal', 'yaw': 0.82, 'datetime': '2018-10-05 20:05:50.868343', 'mgs': 0, 'volt': 0.8203, 'depth': 0.317, 'time': 3, 'pitch': -17.38, 'roll': 4.31, 'pres': 168}
{'lipoC2': 7.76, 'lipoC3S1': 3.88, 'temp': 28.38, 'lipoC3S3': 11.72, 'lipoC3S2': 7.75, 'rot1': 0, 'rot0': 0, 'rot3': 0, 'rot2': 0, 'state': 'normal', 'yaw': 0.76, 'datetime': '2018-10-05 20:05:50.884406', 'mgs': 0, 'volt': 0.8252, 'depth': 0.394, 'time': 3, 'pitch': -17.36, 'roll': 4.27, 'pres': 169}
{'lipoC2': 7.76, 'lipoC3S1': 3.88, 'temp': 28.38, 'lipoC3S3': 11.72, 'lipoC3S2': 7.75, 'rot1': 0, 'rot0': 0, 'rot3': 0, 'rot2': 0, 'state': 'normal', 'yaw': 0.75, 'datetime': '2018-10-05 20:05:50.894435', 'mgs': 0, 'volt': 0.8203, 'depth': 0.317, 'time': 4, 'pitch': -17.37, 'roll': 4.11, 'pres': 168}
{'lipoC2': 7.76, 'lipoC3S1': 3.87, 'temp': 28.38, 'lipoC3S3': 11.72, 'lipoC3S2': 7.75, 'rot1': 0, 'rot0': 0, 'rot3': 0, 'rot2': 0, 'state': 'normal', 'yaw': 0.62, 'datetime': '2018-10-05 20:05:50.910386', 'mgs': 0, 'volt': 0.8203, 'depth': 0.317, 'time': 4, 'pitch': -17.36, 'roll': 3.9, 'pres': 168}
{'lipoC2': 7.76, 'lipoC3S1': 3.87, 'temp': 28.38, 'lipoC3S3': 11.72, 'lipoC3S2': 7.75, 'rot1': 0, 'rot0': 0, 'rot3': 0, 'rot2': 0, 'state': 'normal', 'yaw': 0.41, 'datetime': '2018-10-05 20:05:50.926115', 'mgs': 0, 'volt': 0.8203, 'depth': 0.317, 'time': 4, 'pitch': -17.34, 'roll': 3.75, 'pres': 168}
{'lipoC2': 7.76, 'lipoC3S1': 3.87, 'temp': 28.31, 'lipoC3S3': 11.72, 'lipoC3S2': 7.75, 'rot1': 0, 'rot0': 0, 'rot3': 0, 'rot2': 0, 'state': 'normal', 'yaw': 0.18, 'datetime': '2018-10-05 20:05:50.936294', 'mgs': 0, 'volt': 0.8203, 'depth': 0.317, 'time': 4, 'pitch': -17.33, 'roll': 3.59, 'pres': 168}
{'lipoC2': 7.76, 'lipoC3S1': 3.88, 'temp': 28.31, 'lipoC3S3': 11.73, 'lipoC3S2': 7.75, 'rot1': 0, 'rot0': 0, 'rot3': 0, 'rot2': 0, 'state': 'normal', 'yaw': 0.04, 'datetime': '2018-10-05 20:05:50.952260', 'mgs': 0, 'volt': 0.8203, 'depth': 0.317, 'time': 4, 'pitch': -17.32, 'roll': 3.39, 'pres': 168}
{'lipoC2': 7.76, 'lipoC3S1': 3.88, 'temp': 28.31, 'lipoC3S3': 11.73, 'lipoC3S2': 7.75, 'rot1': 0, 'rot0': 0, 'rot3': 0, 'rot2': 0, 'state': 'normal', 'yaw': 0.02, 'datetime': '2018-10-05 20:05:50.970409', 'mgs': 0, 'volt': 0.8203, 'depth': 0.317, 'time': 4, 'pitch': -17.28, 'roll': 3.23, 'pres': 168}
{'lipoC2': 7.76, 'lipoC3S1': 3.88, 'temp': 28.38, 'lipoC3S3': 11.72, 'lipoC3S2': 7.75, 'rot1': 0, 'rot0': 0, 'rot3': 0, 'rot2': 0, 'state': 'normal', 'yaw': 0.02, 'datetime': '2018-10-05 20:05:50.983560', 'mgs': 0, 'volt': 0.8203, 'depth': 0.317, 'time': 4, 'pitch': -17.16, 'roll': 3.19, 'pres': 168}
{'lipoC2': 7.76, 'lipoC3S1': 3.88, 'temp': 28.38, 'lipoC3S3': 11.72, 'lipoC3S2': 7.75, 'rot1': 0, 'rot0': 0, 'rot3': 0, 'rot2': 0, 'state': 'normal', 'yaw': -0.02, 'datetime': '2018-10-05 20:05:51.002363', 'mgs': 0, 'volt': 0.8252, 'depth': 0.394, 'time': 4, 'pitch': -17.03, 'roll': 3.25, 'pres': 169}
{'lipoC2': 7.76, 'lipoC3S1': 3.88, 'temp': 28.38, 'lipoC3S3': 11.72, 'lipoC3S2': 7.75, 'rot1': 0, 'rot0': 0, 'rot3': 0, 'rot2': 0, 'state': 'normal', 'yaw': -0.15, 'datetime': '2018-10-05 20:05:51.021125', 'mgs': 0, 'volt': 0.8252, 'depth': 0.394, 'time': 4, 'pitch': -17.01, 'roll': 3.44, 'pres': 169}
{'lipoC2': 7.76, 'lipoC3S1': 3.88, 'temp': 28.38, 'lipoC3S3': 11.72, 'lipoC3S2': 7.75, 'rot1': 0, 'rot0': 0, 'rot3': 0, 'rot2': 0, 'state': 'normal', 'yaw': -0.14, 'datetime': '2018-10-05 20:05:51.033919', 'mgs': 0, 'volt': 0.8203, 'depth': 0.317, 'time': 4, 'pitch': -17.08, 'roll': 3.56, 'pres': 168}
{'lipoC2': 7.76, 'lipoC3S1': 3.88, 'temp': 28.38, 'lipoC3S3': 11.72, 'lipoC3S2': 7.75, 'rot1': 0, 'rot0': 0, 'rot3': 0, 'rot2': 0, 'state': 'normal', 'yaw': 0.01, 'datetime': '2018-10-05 20:05:51.052802', 'mgs': 0, 'volt': 0.8203, 'depth': 0.317, 'time': 5, 'pitch': -17.2, 'roll': 3.53, 'pres': 168}
{'lipoC2': 7.76, 'lipoC3S1': 3.88, 'temp': 28.38, 'lipoC3S3': 11.72, 'lipoC3S2': 7.75, 'rot1': 0, 'rot0': 0, 'rot3': 0, 'rot2': 0, 'state': 'normal', 'yaw': 0.15, 'datetime': '2018-10-05 20:05:51.072259', 'mgs': 0, 'volt': 0.8203, 'depth': 0.317, 'time': 5, 'pitch': -17.24, 'roll': 3.55, 'pres': 168}
{'lipoC2': 7.76, 'lipoC3S1': 3.88, 'temp': 28.38, 'lipoC3S3': 11.72, 'lipoC3S2': 7.75, 'rot1': 0, 'rot0': 0, 'rot3': 0, 'rot2': 0, 'state': 'normal', 'yaw': 0.16, 'datetime': '2018-10-05 20:05:51.085602', 'mgs': 0, 'volt': 0.8203, 'depth': 0.317, 'time': 5, 'pitch': -17.23, 'roll': 3.67, 'pres': 168}
{'lipoC2': 7.76, 'lipoC3S1': 3.88, 'temp': 28.38, 'lipoC3S3': 11.72, 'lipoC3S2': 7.75, 'rot1': 0, 'rot0': 0, 'rot3': 0, 'rot2': 0, 'state': 'normal', 'yaw': 0.16, 'datetime': '2018-10-05 20:05:51.104464', 'mgs': 0, 'volt': 0.8203, 'depth': 0.317, 'time': 5, 'pitch': -17.2, 'roll': 3.81, 'pres': 168}
{'lipoC2': 7.76, 'lipoC3S1': 3.88, 'temp': 28.38, 'lipoC3S3': 11.73, 'lipoC3S2': 7.75, 'rot1': 0, 'rot0': 0, 'rot3': 0, 'rot2': 0, 'state': 'normal', 'yaw': 0.23, 'datetime': '2018-10-05 20:05:51.123291', 'mgs': 0, 'volt': 0.8203, 'depth': 0.317, 'time': 5, 'pitch': -17.13, 'roll': 3.95, 'pres': 168}
{'lipoC2': 7.76, 'lipoC3S1': 3.88, 'temp': 28.38, 'lipoC3S3': 11.73, 'lipoC3S2': 7.75, 'rot1': 0, 'rot0': 0, 'rot3': 0, 'rot2': 0, 'state': 'normal', 'yaw': 0.3, 'datetime': '2018-10-05 20:05:51.136131', 'mgs': 0, 'volt': 0.8252, 'depth': 0.394, 'time': 5, 'pitch': -17.05, 'roll': 4.05, 'pres': 169}
{'lipoC2': 7.76, 'lipoC3S1': 3.88, 'temp': 28.38, 'lipoC3S3': 11.73, 'lipoC3S2': 7.75, 'rot1': 0, 'rot0': 0, 'rot3': 0, 'rot2': 0, 'state': 'normal', 'yaw': 0.25, 'datetime': '2018-10-05 20:05:51.155008', 'mgs': 0, 'volt': 0.8203, 'depth': 0.317, 'time': 5, 'pitch': -17.07, 'roll': 4.19, 'pres': 168}
{'lipoC2': 7.76, 'lipoC3S1': 3.88, 'temp': 28.38, 'lipoC3S3': 11.73, 'lipoC3S2': 7.75, 'rot1': 0, 'rot0': 0, 'rot3': 0, 'rot2': 0, 'state': 'normal', 'yaw': 0.16, 'datetime': '2018-10-05 20:05:51.173947', 'mgs': 0, 'volt': 0.8203, 'depth': 0.317, 'time': 5, 'pitch': -17.23, 'roll': 4.22, 'pres': 168}
{'lipoC2': 7.76, 'lipoC3S1': 3.88, 'temp': 28.38, 'lipoC3S3': 11.73, 'lipoC3S2': 7.75, 'rot1': 0, 'rot0': 0, 'rot3': 0, 'rot2': 0, 'state': 'normal', 'yaw': 0.21, 'datetime': '2018-10-05 20:05:51.185127', 'mgs': 0, 'volt': 0.8203, 'depth': 0.317, 'time': 5, 'pitch': -17.32, 'roll': 4.03, 'pres': 168}
{'lipoC2': 7.76, 'lipoC3S1': 3.83, 'temp': 28.38, 'lipoC3S3': 11.65, 'lipoC3S2': 7.68, 'rot1': 0, 'rot0': 0, 'rot3': 0, 'rot2': 0, 'state': 'normal', 'yaw': 0.36, 'datetime': '2018-10-05 20:05:51.200758', 'mgs': 0, 'volt': 0.8447, 'depth': 0.699, 'time': 6, 'pitch': -17.2, 'roll': 3.69, 'pres': 173}
{'lipoC2': 7.75, 'lipoC3S1': 3.83, 'temp': 28.38, 'lipoC3S3': 11.67, 'lipoC3S2': 7.69, 'rot1': 0, 'rot0': 0, 'rot3': 1, 'rot2': 1, 'state': 'normal', 'yaw': 0.39, 'datetime': '2018-10-05 20:05:51.219522', 'mgs': 0, 'volt': 0.8398, 'depth': 0.623, 'time': 6, 'pitch': -16.74, 'roll': 3.59, 'pres': 172}
{'lipoC2': 7.76, 'lipoC3S1': 3.82, 'temp': 28.38, 'lipoC3S3': 11.64, 'lipoC3S2': 7.67, 'rot1': 0, 'rot0': 0, 'rot3': 2, 'rot2': 2, 'state': 'normal', 'yaw': 0.43, 'datetime': '2018-10-05 20:05:51.232320', 'mgs': 0, 'volt': 0.8203, 'depth': 0.317, 'time': 6, 'pitch': -16.08, 'roll': 3.61, 'pres': 168}
{'lipoC2': 7.76, 'lipoC3S1': 3.84, 'temp': 28.38, 'lipoC3S3': 11.64, 'lipoC3S2': 7.7, 'rot1': 0, 'rot0': 0, 'rot3': 3, 'rot2': 2, 'state': 'normal', 'yaw': 0.73, 'datetime': '2018-10-05 20:05:51.251093', 'mgs': 0, 'volt': 0.8398, 'depth': 0.623, 'time': 6, 'pitch': -15.57, 'roll': 3.62, 'pres': 172}
{'lipoC2': 7.76, 'lipoC3S1': 3.83, 'temp': 28.38, 'lipoC3S3': 11.65, 'lipoC3S2': 7.68, 'rot1': 0, 'rot0': 0, 'rot3': 4, 'rot2': 3, 'state': 'normal', 'yaw': 1.09, 'datetime': '2018-10-05 20:05:51.269339', 'mgs': 0, 'volt': 0.835, 'depth': 0.546, 'time': 6, 'pitch': -15.4, 'roll': 3.73, 'pres': 171}
{'lipoC2': 7.76, 'lipoC3S1': 3.83, 'temp': 28.31, 'lipoC3S3': 11.67, 'lipoC3S2': 7.69, 'rot1': 0, 'rot0': 0, 'rot3': 5, 'rot2': 4, 'state': 'normal', 'yaw': 1.36, 'datetime': '2018-10-05 20:05:51.281727', 'mgs': 0, 'volt': 0.8301, 'depth': 0.47, 'time': 6, 'pitch': -15.26, 'roll': 4.06, 'pres': 170}
{'lipoC2': 7.76, 'lipoC3S1': 3.84, 'temp': 28.31, 'lipoC3S3': 11.65, 'lipoC3S2': 7.69, 'rot1': 0, 'rot0': 0, 'rot3': 6, 'rot2': 5, 'state': 'normal', 'yaw': 1.58, 'datetime': '2018-10-05 20:05:51.300652', 'mgs': 0, 'volt': 0.8252, 'depth': 0.394, 'time': 6, 'pitch': -14.8, 'roll': 4.55, 'pres': 169}
{'lipoC2': 7.75, 'lipoC3S1': 3.84, 'temp': 28.31, 'lipoC3S3': 11.67, 'lipoC3S2': 7.7, 'rot1': 0, 'rot0': 0, 'rot3': 7, 'rot2': 6, 'state': 'normal', 'yaw': 1.95, 'datetime': '2018-10-05 20:05:51.319513', 'mgs': 0, 'volt': 0.8252, 'depth': 0.394, 'time': 6, 'pitch': -13.91, 'roll': 4.74, 'pres': 169}
{'lipoC2': 7.76, 'lipoC3S1': 3.85, 'temp': 28.38, 'lipoC3S3': 11.68, 'lipoC3S2': 7.71, 'rot1': 0, 'rot0': 0, 'rot3': 9, 'rot2': 7, 'state': 'normal', 'yaw': 2.38, 'datetime': '2018-10-05 20:05:51.332329', 'mgs': 0, 'volt': 0.8203, 'depth': 0.317, 'time': 6, 'pitch': -12.97, 'roll': 4.62, 'pres': 168}
{'lipoC2': 7.76, 'lipoC3S1': 3.85, 'temp': 28.38, 'lipoC3S3': 11.68, 'lipoC3S2': 7.73, 'rot1': 0, 'rot0': 0, 'rot3': 10, 'rot2': 8, 'state': 'normal', 'yaw': 2.82, 'datetime': '2018-10-05 20:05:51.351206', 'mgs': 0, 'volt': 0.8203, 'depth': 0.317, 'time': 6, 'pitch': -12.1, 'roll': 4.42, 'pres': 168}
{'lipoC2': 7.75, 'lipoC3S1': 3.85, 'temp': 28.31, 'lipoC3S3': 11.67, 'lipoC3S2': 7.72, 'rot1': 0, 'rot0': 0, 'rot3': 11, 'rot2': 8, 'state': 'normal', 'yaw': 3.28, 'datetime': '2018-10-05 20:05:51.370416', 'mgs': 0, 'volt': 0.8203, 'depth': 0.317, 'time': 7, 'pitch': -11.38, 'roll': 4.29, 'pres': 168}
{'lipoC2': 7.76, 'lipoC3S1': 3.86, 'temp': 28.31, 'lipoC3S3': 11.63, 'lipoC3S2': 7.71, 'rot1': 0, 'rot0': 0, 'rot3': 12, 'rot2': 9, 'state': 'normal', 'yaw': 3.65, 'datetime': '2018-10-05 20:05:51.380881', 'mgs': 0, 'volt': 0.8154, 'depth': 0.241, 'time': 7, 'pitch': -10.91, 'roll': 4.2, 'pres': 167}
{'lipoC2': 7.76, 'lipoC3S1': 3.84, 'temp': 28.38, 'lipoC3S3': 11.65, 'lipoC3S2': 7.69, 'rot1': 0, 'rot0': 0, 'rot3': 13, 'rot2': 10, 'state': 'normal', 'yaw': 4.05, 'datetime': '2018-10-05 20:05:51.399888', 'mgs': 0, 'volt': 0.8105, 'depth': 0.165, 'time': 7, 'pitch': -10.51, 'roll': 4.13, 'pres': 166}
{'lipoC2': 7.76, 'lipoC3S1': 3.88, 'temp': 28.38, 'lipoC3S3': 11.64, 'lipoC3S2': 7.69, 'rot1': 0, 'rot0': 0, 'rot3': 15, 'rot2': 11, 'state': 'normal', 'yaw': 4.51, 'datetime': '2018-10-05 20:05:51.418875', 'mgs': 0, 'volt': 0.8105, 'depth': 0.165, 'time': 7, 'pitch': -10.07, 'roll': 4.05, 'pres': 166}
{'lipoC2': 7.76, 'lipoC3S1': 3.85, 'temp': 28.38, 'lipoC3S3': 11.68, 'lipoC3S2': 7.71, 'rot1': 0, 'rot0': 0, 'rot3': 16, 'rot2': 12, 'state': 'normal', 'yaw': 4.95, 'datetime': '2018-10-05 20:05:51.431793', 'mgs': 0, 'volt': 0.8252, 'depth': 0.394, 'time': 7, 'pitch': -9.67, 'roll': 3.97, 'pres': 169}
{'lipoC2': 7.76, 'lipoC3S1': 3.84, 'temp': 28.38, 'lipoC3S3': 11.67, 'lipoC3S2': 7.7, 'rot1': 0, 'rot0': 0, 'rot3': 17, 'rot2': 13, 'state': 'normal', 'yaw': 5.33, 'datetime': '2018-10-05 20:05:51.450715', 'mgs': 0, 'volt': 0.7959, 'depth': -0.064, 'time': 7, 'pitch': -9.3, 'roll': 3.91, 'pres': 163}
{'lipoC2': 7.76, 'lipoC3S1': 3.86, 'temp': 28.38, 'lipoC3S3': 11.65, 'lipoC3S2': 7.69, 'rot1': 0, 'rot0': 0, 'rot3': 18, 'rot2': 14, 'state': 'normal', 'yaw': 5.66, 'datetime': '2018-10-05 20:05:51.469595', 'mgs': 0, 'volt': 0.8105, 'depth': 0.165, 'time': 7, 'pitch': -9.04, 'roll': 3.86, 'pres': 166}
{'lipoC2': 7.76, 'lipoC3S1': 3.86, 'temp': 28.38, 'lipoC3S3': 11.65, 'lipoC3S2': 7.69, 'rot1': 0, 'rot0': 0, 'rot3': 19, 'rot2': 15, 'state': 'normal', 'yaw': 6.04, 'datetime': '2018-10-05 20:05:51.482513', 'mgs': 0, 'volt': 0.8252, 'depth': 0.394, 'time': 7, 'pitch': -8.87, 'roll': 3.76, 'pres': 169}
{'lipoC2': 7.76, 'lipoC3S1': 3.85, 'temp': 28.38, 'lipoC3S3': 11.67, 'lipoC3S2': 7.72, 'rot1': 0, 'rot0': 0, 'rot3': 21, 'rot2': 16, 'state': 'normal', 'yaw': 6.45, 'datetime': '2018-10-05 20:05:51.499217', 'mgs': 0, 'volt': 0.8301, 'depth': 0.47, 'time': 7, 'pitch': -8.75, 'roll': 3.54, 'pres': 170}
{'lipoC2': 7.76, 'lipoC3S1': 3.84, 'temp': 28.31, 'lipoC3S3': 11.68, 'lipoC3S2': 7.71, 'rot1': 0, 'rot0': 0, 'rot3': 22, 'rot2': 17, 'state': 'normal', 'yaw': 6.81, 'datetime': '2018-10-05 20:05:51.518101', 'mgs': 0, 'volt': 0.8252, 'depth': 0.394, 'time': 7, 'pitch': -8.72, 'roll': 3.3, 'pres': 169}
{'lipoC2': 7.76, 'lipoC3S1': 3.86, 'temp': 28.31, 'lipoC3S3': 11.63, 'lipoC3S2': 7.68, 'rot1': 0, 'rot0': 0, 'rot3': 23, 'rot2': 17, 'state': 'normal', 'yaw': 7.16, 'datetime': '2018-10-05 20:05:51.531001', 'mgs': 0, 'volt': 0.8154, 'depth': 0.241, 'time': 8, 'pitch': -8.76, 'roll': 3.15, 'pres': 167}
{'lipoC2': 7.76, 'lipoC3S1': 3.86, 'temp': 28.31, 'lipoC3S3': 11.63, 'lipoC3S2': 7.71, 'rot1': 0, 'rot0': 0, 'rot3': 24, 'rot2': 18, 'state': 'normal', 'yaw': 7.46, 'datetime': '2018-10-05 20:05:51.549907', 'mgs': 0, 'volt': 0.8203, 'depth': 0.317, 'time': 8, 'pitch': -8.95, 'roll': 3.13, 'pres': 168}
{'lipoC2': 7.76, 'lipoC3S1': 3.85, 'temp': 28.38, 'lipoC3S3': 11.67, 'lipoC3S2': 7.71, 'rot1': 0, 'rot0': 0, 'rot3': 25, 'rot2': 19, 'state': 'normal', 'yaw': 7.68, 'datetime': '2018-10-05 20:05:51.568783', 'mgs': 0, 'volt': 0.8301, 'depth': 0.47, 'time': 8, 'pitch': -9.19, 'roll': 3.28, 'pres': 170}
{'lipoC2': 7.76, 'lipoC3S1': 3.84, 'temp': 28.38, 'lipoC3S3': 11.65, 'lipoC3S2': 7.7, 'rot1': 0, 'rot0': 0, 'rot3': 27, 'rot2': 20, 'state': 'normal', 'yaw': 7.93, 'datetime': '2018-10-05 20:05:51.578952', 'mgs': 0, 'volt': 0.8105, 'depth': 0.165, 'time': 8, 'pitch': -9.41, 'roll': 3.45, 'pres': 166}
{'lipoC2': 7.76, 'lipoC3S1': 3.86, 'temp': 28.38, 'lipoC3S3': 11.63, 'lipoC3S2': 7.68, 'rot1': 0, 'rot0': 0, 'rot3': 28, 'rot2': 21, 'state': 'normal', 'yaw': 8.25, 'datetime': '2018-10-05 20:05:51.594363', 'mgs': 0, 'volt': 0.8203, 'depth': 0.317, 'time': 8, 'pitch': -9.58, 'roll': 3.6, 'pres': 168}
{'lipoC2': 7.76, 'lipoC3S1': 3.84, 'temp': 28.38, 'lipoC3S3': 11.68, 'lipoC3S2': 7.7, 'rot1': 0, 'rot0': 0, 'rot3': 29, 'rot2': 22, 'state': 'normal', 'yaw': 8.55, 'datetime': '2018-10-05 20:05:51.609714', 'mgs': 0, 'volt': 0.8252, 'depth': 0.394, 'time': 8, 'pitch': -9.69, 'roll': 3.68, 'pres': 169}
{'lipoC2': 7.76, 'lipoC3S1': 3.84, 'temp': 28.38, 'lipoC3S3': 11.65, 'lipoC3S2': 7.69, 'rot1': 0, 'rot0': 0, 'rot3': 30, 'rot2': 23, 'state': 'normal', 'yaw': 8.9, 'datetime': '2018-10-05 20:05:51.619050', 'mgs': 0, 'volt': 0.8154, 'depth': 0.241, 'time': 8, 'pitch': -9.88, 'roll': 3.65, 'pres': 167}
{'lipoC2': 7.76, 'lipoC3S1': 3.83, 'temp': 28.38, 'lipoC3S3': 11.65, 'lipoC3S2': 7.69, 'rot1': 0, 'rot0': 0, 'rot3': 31, 'rot2': 24, 'state': 'normal', 'yaw': 9.24, 'datetime': '2018-10-05 20:05:51.634357', 'mgs': 0, 'volt': 0.8301, 'depth': 0.47, 'time': 8, 'pitch': -10.2, 'roll': 3.59, 'pres': 170}
{'lipoC2': 7.76, 'lipoC3S1': 3.83, 'temp': 28.38, 'lipoC3S3': 11.64, 'lipoC3S2': 7.68, 'rot1': 0, 'rot0': 0, 'rot3': 33, 'rot2': 25, 'state': 'normal', 'yaw': 9.54, 'datetime': '2018-10-05 20:05:51.649620', 'mgs': 0, 'volt': 0.8154, 'depth': 0.241, 'time': 8, 'pitch': -10.58, 'roll': 3.52, 'pres': 167}
{'lipoC2': 7.76, 'lipoC3S1': 3.87, 'temp': 28.38, 'lipoC3S3': 11.64, 'lipoC3S2': 7.71, 'rot1': 0, 'rot0': 0, 'rot3': 34, 'rot2': 25, 'state': 'normal', 'yaw': 9.89, 'datetime': '2018-10-05 20:05:51.658916', 'mgs': 0, 'volt': 0.8203, 'depth': 0.317, 'time': 9, 'pitch': -11.0, 'roll': 3.39, 'pres': 168}
{'lipoC2': 7.75, 'lipoC3S1': 3.81, 'temp': 28.38, 'lipoC3S3': 11.36, 'lipoC3S2': 7.59, 'rot1': 0, 'rot0': 0, 'rot3': 34, 'rot2': 27, 'state': 'normal', 'yaw': 10.22, 'datetime': '2018-10-05 20:05:51.674211', 'mgs': 0, 'volt': 0.8301, 'depth': 0.47, 'time': 9, 'pitch': -11.33, 'roll': 3.23, 'pres': 170}
{'lipoC2': 7.73, 'lipoC3S1': 3.83, 'temp': 28.31, 'lipoC3S3': 11.56, 'lipoC3S2': 7.63, 'rot1': 1, 'rot0': 1, 'rot3': 36, 'rot2': 27, 'state': 'normal', 'yaw': 10.6, 'datetime': '2018-10-05 20:05:51.691254', 'mgs': 0, 'volt': 0.8496, 'depth': 0.775, 'time': 9, 'pitch': -11.26, 'roll': 3.02, 'pres': 174}
{'lipoC2': 7.76, 'lipoC3S1': 3.8, 'temp': 28.31, 'lipoC3S3': 11.59, 'lipoC3S2': 7.64, 'rot1': 2, 'rot0': 2, 'rot3': 37, 'rot2': 28, 'state': 'normal', 'yaw': 10.96, 'datetime': '2018-10-05 20:05:51.702389', 'mgs': 0, 'volt': 0.8936, 'depth': 1.462, 'time': 9, 'pitch': -10.66, 'roll': 2.98, 'pres': 183}
{'lipoC2': 7.75, 'lipoC3S1': 3.74, 'temp': 28.31, 'lipoC3S3': 11.56, 'lipoC3S2': 7.6, 'rot1': 3, 'rot0': 3, 'rot3': 39, 'rot2': 29, 'state': 'normal', 'yaw': 11.28, 'datetime': '2018-10-05 20:05:51.717709', 'mgs': 0, 'volt': 0.835, 'depth': 0.546, 'time': 9, 'pitch': -9.83, 'roll': 3.03, 'pres': 171}
{'lipoC2': 7.75, 'lipoC3S1': 3.82, 'temp': 28.31, 'lipoC3S3': 11.54, 'lipoC3S2': 7.52, 'rot1': 4, 'rot0': 4, 'rot3': 40, 'rot2': 30, 'state': 'normal', 'yaw': 11.53, 'datetime': '2018-10-05 20:05:51.732995', 'mgs': 0, 'volt': 0.8398, 'depth': 0.623, 'time': 9, 'pitch': -9.02, 'roll': 3.14, 'pres': 172}
{'lipoC2': 7.75, 'lipoC3S1': 3.81, 'temp': 28.31, 'lipoC3S3': 11.59, 'lipoC3S2': 7.61, 'rot1': 5, 'rot0': 5, 'rot3': 41, 'rot2': 31, 'state': 'normal', 'yaw': 11.76, 'datetime': '2018-10-05 20:05:51.742317', 'mgs': 0, 'volt': 0.8447, 'depth': 0.699, 'time': 9, 'pitch': -8.31, 'roll': 3.14, 'pres': 173}
{'lipoC2': 7.75, 'lipoC3S1': 3.81, 'temp': 28.25, 'lipoC3S3': 11.55, 'lipoC3S2': 7.62, 'rot1': 6, 'rot0': 7, 'rot3': 42, 'rot2': 32, 'state': 'normal', 'yaw': 11.9, 'datetime': '2018-10-05 20:05:51.757641', 'mgs': 0, 'volt': 0.8838, 'depth': 1.309, 'time': 9, 'pitch': -7.69, 'roll': 3.01, 'pres': 181}
{'lipoC2': 7.75, 'lipoC3S1': 3.77, 'temp': 28.25, 'lipoC3S3': 11.55, 'lipoC3S2': 7.64, 'rot1': 8, 'rot0': 8, 'rot3': 44, 'rot2': 33, 'state': 'normal', 'yaw': 12.06, 'datetime': '2018-10-05 20:05:51.772929', 'mgs': 0, 'volt': 0.8545, 'depth': 0.851, 'time': 9, 'pitch': -7.1, 'roll': 2.83, 'pres': 175}
{'lipoC2': 7.75, 'lipoC3S1': 3.8, 'temp': 28.25, 'lipoC3S3': 11.55, 'lipoC3S2': 7.56, 'rot1': 9, 'rot0': 9, 'rot3': 45, 'rot2': 34, 'state': 'normal', 'yaw': 12.2, 'datetime': '2018-10-05 20:05:51.782273', 'mgs': 0, 'volt': 0.8594, 'depth': 0.928, 'time': 9, 'pitch': -6.62, 'roll': 2.59, 'pres': 176}
{'lipoC2': 7.76, 'lipoC3S1': 3.81, 'temp': 28.25, 'lipoC3S3': 11.54, 'lipoC3S2': 7.61, 'rot1': 10, 'rot0': 10, 'rot3': 46, 'rot2': 35, 'state': 'normal', 'yaw': 12.25, 'datetime': '2018-10-05 20:05:51.799493', 'mgs': 0, 'volt': 0.8936, 'depth': 1.462, 'time': 10, 'pitch': -6.22, 'roll': 2.26, 'pres': 183}
{'lipoC2': 7.75, 'lipoC3S1': 3.81, 'temp': 28.25, 'lipoC3S3': 11.44, 'lipoC3S2': 7.61, 'rot1': 11, 'rot0': 11, 'rot3': 47, 'rot2': 36, 'state': 'normal', 'yaw': 12.08, 'datetime': '2018-10-05 20:05:51.815214', 'mgs': 0, 'volt': 0.8643, 'depth': 1.004, 'time': 10, 'pitch': -5.95, 'roll': 1.88, 'pres': 177}
{'lipoC2': 7.76, 'lipoC3S1': 3.81, 'temp': 28.25, 'lipoC3S3': 11.46, 'lipoC3S2': 7.62, 'rot1': 11, 'rot0': 12, 'rot3': 49, 'rot2': 36, 'state': 'normal', 'yaw': 11.77, 'datetime': '2018-10-05 20:05:51.824663', 'mgs': 0, 'volt': 0.874, 'depth': 1.157, 'time': 10, 'pitch': -5.78, 'roll': 1.6, 'pres': 179}
{'lipoC2': 7.76, 'lipoC3S1': 3.78, 'temp': 28.25, 'lipoC3S3': 11.55, 'lipoC3S2': 7.61, 'rot1': 12, 'rot0': 13, 'rot3': 50, 'rot2': 37, 'state': 'normal', 'yaw': 11.26, 'datetime': '2018-10-05 20:05:51.911438', 'mgs': 0, 'volt': 0.874, 'depth': 1.157, 'time': 10, 'pitch': -5.72, 'roll': 1.38, 'pres': 179}
{'lipoC2': 7.73, 'lipoC3S1': 3.81, 'temp': 28.31, 'lipoC3S3': 11.52, 'lipoC3S2': 7.61, 'rot1': 13, 'rot0': 14, 'rot3': 51, 'rot2': 38, 'state': 'normal', 'yaw': 10.6, 'datetime': '2018-10-05 20:05:52.016232', 'mgs': 0, 'volt': 0.8447, 'depth': 0.699, 'time': 10, 'pitch': -5.83, 'roll': 1.26, 'pres': 173}
{'lipoC2': 7.75, 'lipoC3S1': 3.75, 'temp': 28.31, 'lipoC3S3': 11.54, 'lipoC3S2': 7.67, 'rot1': 14, 'rot0': 15, 'rot3': 52, 'rot2': 39, 'state': 'normal', 'yaw': 9.9, 'datetime': '2018-10-05 20:05:52.120927', 'mgs': 0, 'volt': 0.8887, 'depth': 1.385, 'time': 10, 'pitch': -6.08, 'roll': 1.18, 'pres': 182}
{'lipoC2': 7.73, 'lipoC3S1': 3.81, 'temp': 28.38, 'lipoC3S3': 11.54, 'lipoC3S2': 7.62, 'rot1': 15, 'rot0': 17, 'rot3': 53, 'rot2': 40, 'state': 'normal', 'yaw': 9.14, 'datetime': '2018-10-05 20:05:52.225030', 'mgs': 0, 'volt': 0.918, 'depth': 1.843, 'time': 10, 'pitch': -6.51, 'roll': 1.09, 'pres': 188}
{'lipoC2': 7.76, 'lipoC3S1': 3.81, 'temp': 28.38, 'lipoC3S3': 11.47, 'lipoC3S2': 7.61, 'rot1': 16, 'rot0': 18, 'rot3': 55, 'rot2': 41, 'state': 'normal', 'yaw': 8.39, 'datetime': '2018-10-05 20:05:52.329046', 'mgs': 0, 'volt': 0.8936, 'depth': 1.462, 'time': 10, 'pitch': -6.96, 'roll': 1.08, 'pres': 183}
{'lipoC2': 7.75, 'lipoC3S1': 3.75, 'temp': 28.31, 'lipoC3S3': 11.54, 'lipoC3S2': 7.62, 'rot1': 17, 'rot0': 19, 'rot3': 56, 'rot2': 42, 'state': 'normal', 'yaw': 7.54, 'datetime': '2018-10-05 20:05:52.433006', 'mgs': 0, 'volt': 0.9033, 'depth': 1.614, 'time': 10, 'pitch': -7.49, 'roll': 1.18, 'pres': 185}
{'lipoC2': 7.76, 'lipoC3S1': 3.84, 'temp': 28.31, 'lipoC3S3': 11.55, 'lipoC3S2': 7.62, 'rot1': 18, 'rot0': 20, 'rot3': 57, 'rot2': 43, 'state': 'normal', 'yaw': 6.72, 'datetime': '2018-10-05 20:05:52.537048', 'mgs': 0, 'volt': 0.9277, 'depth': 1.996, 'time': 10, 'pitch': -7.94, 'roll': 1.29, 'pres': 190}
{'lipoC2': 7.73, 'lipoC3S1': 3.81, 'temp': 28.31, 'lipoC3S3': 11.55, 'lipoC3S2': 7.62, 'rot1': 19, 'rot0': 21, 'rot3': 58, 'rot2': 44, 'state': 'normal', 'yaw': 5.9, 'datetime': '2018-10-05 20:05:52.641247', 'mgs': 0, 'volt': 0.8887, 'depth': 1.385, 'time': 11, 'pitch': -8.28, 'roll': 1.41, 'pres': 182}
{'lipoC2': 7.76, 'lipoC3S1': 3.81, 'temp': 28.31, 'lipoC3S3': 11.6, 'lipoC3S2': 7.55, 'rot1': 20, 'rot0': 22, 'rot3': 59, 'rot2': 44, 'state': 'normal', 'yaw': 5.03, 'datetime': '2018-10-05 20:05:52.751240', 'mgs': 0, 'volt': 0.918, 'depth': 1.843, 'time': 11, 'pitch': -8.59, 'roll': 1.54, 'pres': 188}
{'lipoC2': 7.73, 'lipoC3S1': 3.84, 'temp': 28.31, 'lipoC3S3': 11.55, 'lipoC3S2': 7.62, 'rot1': 21, 'rot0': 23, 'rot3': 60, 'rot2': 45, 'state': 'normal', 'yaw': 4.27, 'datetime': '2018-10-05 20:05:52.856361', 'mgs': 0, 'volt': 0.9082, 'depth': 1.691, 'time': 11, 'pitch': -8.77, 'roll': 1.65, 'pres': 186}
{'lipoC2': 7.76, 'lipoC3S1': 3.82, 'temp': 28.31, 'lipoC3S3': 11.56, 'lipoC3S2': 7.61, 'rot1': 22, 'rot0': 24, 'rot3': 61, 'rot2': 46, 'state': 'normal', 'yaw': 3.38, 'datetime': '2018-10-05 20:05:52.960336', 'mgs': 0, 'volt': 0.9082, 'depth': 1.691, 'time': 11, 'pitch': -8.79, 'roll': 1.83, 'pres': 186}
