{'lipoC2': 7.91, 'lipoC3S1': 4.16, 'temp': 25.81, 'lipoC3S3': 12.58, 'lipoC3S2': 8.32, 'rot1': 0, 'rot0': 0, 'rot3': 0, 'rot2': 0, 'state': 'normal', 'yaw': 6.17, 'datetime': '2018-10-05 15:32:18.872726', 'mgs': 1, 'volt': 0.7813, 'depth': -0.293, 'time': 1, 'pitch': -4.97, 'roll': -1.31, 'pres': 160}
{'lipoC2': 7.91, 'lipoC3S1': 4.16, 'temp': 25.81, 'lipoC3S3': 12.58, 'lipoC3S2': 8.32, 'rot1': 0, 'rot0': 0, 'rot3': 0, 'rot2': 0, 'state': 'normal', 'yaw': 9.6, 'datetime': '2018-10-05 15:32:24.905542', 'mgs': 1, 'volt': 0.7813, 'depth': -0.293, 'time': 1, 'pitch': -5.0, 'roll': -1.24, 'pres': 160}
{'lipoC2': 7.91, 'lipoC3S1': 4.16, 'temp': 25.81, 'lipoC3S3': 12.58, 'lipoC3S2': 8.32, 'rot1': 0, 'rot0': 0, 'rot3': 0, 'rot2': 0, 'state': 'normal', 'yaw': 13.69, 'datetime': '2018-10-05 15:32:24.929857', 'mgs': 1, 'volt': 0.7813, 'depth': -0.293, 'time': 1, 'pitch': -4.96, 'roll': -1.15, 'pres': 160}
{'lipoC2': 7.91, 'lipoC3S1': 4.16, 'temp': 25.81, 'lipoC3S3': 12.58, 'lipoC3S2': 8.32, 'rot1': 0, 'rot0': 0, 'rot3': 0, 'rot2': 0, 'state': 'normal', 'yaw': 17.7, 'datetime': '2018-10-05 15:32:24.953962', 'mgs': 1, 'volt': 0.7813, 'depth': -0.293, 'time': 1, 'pitch': -4.94, 'roll': -1.1, 'pres': 160}
{'lipoC2': 7.91, 'lipoC3S1': 4.16, 'temp': 25.81, 'lipoC3S3': 12.58, 'lipoC3S2': 8.32, 'rot1': 0, 'rot0': 0, 'rot3': 0, 'rot2': 0, 'state': 'normal', 'yaw': 22.0, 'datetime': '2018-10-05 15:32:24.972136', 'mgs': 1, 'volt': 0.7813, 'depth': -0.293, 'time': 1, 'pitch': -4.98, 'roll': -1.01, 'pres': 160}
{'lipoC2': 7.91, 'lipoC3S1': 4.16, 'temp': 25.81, 'lipoC3S3': 12.56, 'lipoC3S2': 8.32, 'rot1': 0, 'rot0': 0, 'rot3': 0, 'rot2': 0, 'state': 'normal', 'yaw': 26.96, 'datetime': '2018-10-05 15:32:24.991721', 'mgs': 1, 'volt': 0.7813, 'depth': -0.293, 'time': 1, 'pitch': -4.95, 'roll': -0.9, 'pres': 160}
{'lipoC2': 7.9, 'lipoC3S1': 4.16, 'temp': 25.81, 'lipoC3S3': 12.58, 'lipoC3S2': 8.31, 'rot1': 0, 'rot0': 0, 'rot3': 0, 'rot2': 0, 'state': 'normal', 'yaw': 31.62, 'datetime': '2018-10-05 15:32:25.011949', 'mgs': 1, 'volt': 0.7813, 'depth': -0.293, 'time': 2, 'pitch': -4.89, 'roll': -0.8, 'pres': 160}
{'lipoC2': 7.91, 'lipoC3S1': 4.16, 'temp': 25.81, 'lipoC3S3': 12.58, 'lipoC3S2': 8.31, 'rot1': 0, 'rot0': 0, 'rot3': 0, 'rot2': 0, 'state': 'normal', 'yaw': 36.42, 'datetime': '2018-10-05 15:32:25.032000', 'mgs': 1, 'volt': 0.7813, 'depth': -0.293, 'time': 2, 'pitch': -4.94, 'roll': -0.72, 'pres': 160}
{'lipoC2': 7.91, 'lipoC3S1': 4.16, 'temp': 25.81, 'lipoC3S3': 12.58, 'lipoC3S2': 8.32, 'rot1': 0, 'rot0': 0, 'rot3': 0, 'rot2': 0, 'state': 'normal', 'yaw': 41.85, 'datetime': '2018-10-05 15:32:25.052051', 'mgs': 1, 'volt': 0.7813, 'depth': -0.293, 'time': 2, 'pitch': -5.02, 'roll': -0.65, 'pres': 160}
{'lipoC2': 7.91, 'lipoC3S1': 4.16, 'temp': 25.81, 'lipoC3S3': 12.58, 'lipoC3S2': 8.32, 'rot1': 0, 'rot0': 0, 'rot3': 0, 'rot2': 0, 'state': 'normal', 'yaw': 46.91, 'datetime': '2018-10-05 15:32:25.071037', 'mgs': 1, 'volt': 0.7813, 'depth': -0.293, 'time': 2, 'pitch': -5.06, 'roll': -0.56, 'pres': 160}
{'lipoC2': 7.91, 'lipoC3S1': 4.16, 'temp': 25.81, 'lipoC3S3': 12.58, 'lipoC3S2': 8.31, 'rot1': 0, 'rot0': 0, 'rot3': 0, 'rot2': 0, 'state': 'normal', 'yaw': 52.06, 'datetime': '2018-10-05 15:32:25.090840', 'mgs': 1, 'volt': 0.7813, 'depth': -0.293, 'time': 2, 'pitch': -5.09, 'roll': -0.5, 'pres': 160}
{'lipoC2': 7.91, 'lipoC3S1': 4.16, 'temp': 25.81, 'lipoC3S3': 12.58, 'lipoC3S2': 8.32, 'rot1': 0, 'rot0': 0, 'rot3': 0, 'rot2': 0, 'state': 'normal', 'yaw': 57.82, 'datetime': '2018-10-05 15:32:25.111128', 'mgs': 1, 'volt': 0.7813, 'depth': -0.293, 'time': 2, 'pitch': -5.17, 'roll': -0.43, 'pres': 160}
{'lipoC2': 7.91, 'lipoC3S1': 4.16, 'temp': 25.81, 'lipoC3S3': 12.58, 'lipoC3S2': 8.32, 'rot1': 0, 'rot0': 0, 'rot3': 0, 'rot2': 0, 'state': 'normal', 'yaw': 63.11, 'datetime': '2018-10-05 15:32:25.131328', 'mgs': 1, 'volt': 0.7813, 'depth': -0.293, 'time': 2, 'pitch': -5.24, 'roll': -0.35, 'pres': 160}
{'lipoC2': 7.91, 'lipoC3S1': 4.16, 'temp': 25.81, 'lipoC3S3': 12.58, 'lipoC3S2': 8.32, 'rot1': 0, 'rot0': 0, 'rot3': 0, 'rot2': 0, 'state': 'normal', 'yaw': 68.42, 'datetime': '2018-10-05 15:32:25.151327', 'mgs': 1, 'volt': 0.7813, 'depth': -0.293, 'time': 2, 'pitch': -5.3, 'roll': -0.31, 'pres': 160}
{'lipoC2': 7.91, 'lipoC3S1': 4.16, 'temp': 25.81, 'lipoC3S3': 12.58, 'lipoC3S2': 8.32, 'rot1': 0, 'rot0': 0, 'rot3': 0, 'rot2': 0, 'state': 'normal', 'yaw': 74.27, 'datetime': '2018-10-05 15:32:25.171109', 'mgs': 1, 'volt': 0.7813, 'depth': -0.293, 'time': 2, 'pitch': -5.4, 'roll': -0.27, 'pres': 160}
{'lipoC2': 7.91, 'lipoC3S1': 4.16, 'temp': 25.81, 'lipoC3S3': 12.58, 'lipoC3S2': 8.31, 'rot1': 0, 'rot0': 0, 'rot3': 0, 'rot2': 0, 'state': 'normal', 'yaw': 79.6, 'datetime': '2018-10-05 15:32:25.188225', 'mgs': 1, 'volt': 0.7813, 'depth': -0.293, 'time': 3, 'pitch': -5.48, 'roll': -0.25, 'pres': 160}
{'lipoC2': 7.91, 'lipoC3S1': 4.16, 'temp': 25.81, 'lipoC3S3': 12.58, 'lipoC3S2': 8.32, 'rot1': 0, 'rot0': 0, 'rot3': 0, 'rot2': 0, 'state': 'normal', 'yaw': 84.96, 'datetime': '2018-10-05 15:32:25.204790', 'mgs': 1, 'volt': 0.7813, 'depth': -0.293, 'time': 3, 'pitch': -5.54, 'roll': -0.23, 'pres': 160}
{'lipoC2': 7.91, 'lipoC3S1': 4.16, 'temp': 25.81, 'lipoC3S3': 12.58, 'lipoC3S2': 8.32, 'rot1': 0, 'rot0': 0, 'rot3': 0, 'rot2': 0, 'state': 'normal', 'yaw': 90.87, 'datetime': '2018-10-05 15:32:25.221134', 'mgs': 1, 'volt': 0.7861, 'depth': -0.217, 'time': 3, 'pitch': -5.63, 'roll': -0.24, 'pres': 161}
{'lipoC2': 7.91, 'lipoC3S1': 4.16, 'temp': 25.81, 'lipoC3S3': 12.58, 'lipoC3S2': 8.32, 'rot1': 0, 'rot0': 0, 'rot3': 0, 'rot2': 0, 'state': 'normal', 'yaw': 96.26, 'datetime': '2018-10-05 15:32:25.237527', 'mgs': 1, 'volt': 0.7813, 'depth': -0.293, 'time': 3, 'pitch': -5.71, 'roll': -0.23, 'pres': 160}
{'lipoC2': 7.91, 'lipoC3S1': 4.16, 'temp': 25.81, 'lipoC3S3': 12.58, 'lipoC3S2': 8.32, 'rot1': 0, 'rot0': 0, 'rot3': 0, 'rot2': 0, 'state': 'normal', 'yaw': 101.67, 'datetime': '2018-10-05 15:32:25.253986', 'mgs': 1, 'volt': 0.7813, 'depth': -0.293, 'time': 3, 'pitch': -5.79, 'roll': -0.21, 'pres': 160}
{'lipoC2': 7.91, 'lipoC3S1': 4.16, 'temp': 25.81, 'lipoC3S3': 12.58, 'lipoC3S2': 8.32, 'rot1': 0, 'rot0': 0, 'rot3': 0, 'rot2': 0, 'state': 'normal', 'yaw': 107.05, 'datetime': '2018-10-05 15:32:25.271106', 'mgs': 1, 'volt': 0.7813, 'depth': -0.293, 'time': 3, 'pitch': -5.86, 'roll': -0.23, 'pres': 160}
{'lipoC2': 7.9, 'lipoC3S1': 4.16, 'temp': 25.81, 'lipoC3S3': 12.58, 'lipoC3S2': 8.32, 'rot1': 0, 'rot0': 0, 'rot3': 0, 'rot2': 0, 'state': 'normal', 'yaw': 0.51, 'datetime': '2018-10-05 15:32:25.288026', 'mgs': 1, 'volt': 0.7813, 'depth': -0.293, 'time': 1, 'pitch': -6.45, 'roll': -0.53, 'pres': 160}
{'lipoC2': 7.91, 'lipoC3S1': 4.16, 'temp': 25.81, 'lipoC3S3': 12.58, 'lipoC3S2': 8.32, 'rot1': 0, 'rot0': 0, 'rot3': 0, 'rot2': 0, 'state': 'normal', 'yaw': 5.5, 'datetime': '2018-10-05 15:32:25.308609', 'mgs': 1, 'volt': 0.7813, 'depth': -0.293, 'time': 1, 'pitch': -6.38, 'roll': -0.58, 'pres': 160}
{'lipoC2': 7.91, 'lipoC3S1': 4.16, 'temp': 25.81, 'lipoC3S3': 12.58, 'lipoC3S2': 8.32, 'rot1': 0, 'rot0': 0, 'rot3': 0, 'rot2': 0, 'state': 'normal', 'yaw': 10.33, 'datetime': '2018-10-05 15:32:25.318848', 'mgs': 1, 'volt': 0.7813, 'depth': -0.293, 'time': 1, 'pitch': -6.32, 'roll': -0.66, 'pres': 160}
{'lipoC2': 7.91, 'lipoC3S1': 4.16, 'temp': 25.81, 'lipoC3S3': 12.58, 'lipoC3S2': 8.32, 'rot1': 0, 'rot0': 0, 'rot3': 0, 'rot2': 0, 'state': 'normal', 'yaw': 15.02, 'datetime': '2018-10-05 15:32:25.335211', 'mgs': 1, 'volt': 0.7813, 'depth': -0.293, 'time': 1, 'pitch': -6.36, 'roll': -0.72, 'pres': 160}
{'lipoC2': 7.91, 'lipoC3S1': 4.16, 'temp': 25.81, 'lipoC3S3': 12.58, 'lipoC3S2': 8.32, 'rot1': 0, 'rot0': 0, 'rot3': 0, 'rot2': 0, 'state': 'normal', 'yaw': 20.02, 'datetime': '2018-10-05 15:32:25.351650', 'mgs': 1, 'volt': 0.7861, 'depth': -0.217, 'time': 1, 'pitch': -6.4, 'roll': -0.79, 'pres': 161}
{'lipoC2': 7.91, 'lipoC3S1': 4.17, 'temp': 25.81, 'lipoC3S3': 12.58, 'lipoC3S2': 8.32, 'rot1': 0, 'rot0': 0, 'rot3': 0, 'rot2': 0, 'state': 'normal', 'yaw': 24.44, 'datetime': '2018-10-05 15:32:25.368345', 'mgs': 1, 'volt': 0.7861, 'depth': -0.217, 'time': 1, 'pitch': -6.34, 'roll': -0.84, 'pres': 161}
{'lipoC2': 7.91, 'lipoC3S1': 4.17, 'temp': 25.81, 'lipoC3S3': 12.58, 'lipoC3S2': 8.32, 'rot1': 0, 'rot0': 0, 'rot3': 0, 'rot2': 0, 'state': 'normal', 'yaw': 28.79, 'datetime': '2018-10-05 15:32:25.386891', 'mgs': 1, 'volt': 0.7813, 'depth': -0.293, 'time': 1, 'pitch': -6.29, 'roll': -0.92, 'pres': 160}
{'lipoC2': 7.91, 'lipoC3S1': 4.16, 'temp': 25.88, 'lipoC3S3': 12.58, 'lipoC3S2': 8.32, 'rot1': 0, 'rot0': 0, 'rot3': 0, 'rot2': 0, 'state': 'normal', 'yaw': 33.56, 'datetime': '2018-10-05 15:32:25.407182', 'mgs': 1, 'volt': 0.7813, 'depth': -0.293, 'time': 1, 'pitch': -6.29, 'roll': -0.99, 'pres': 160}
{'lipoC2': 7.91, 'lipoC3S1': 4.16, 'temp': 25.88, 'lipoC3S3': 12.58, 'lipoC3S2': 8.32, 'rot1': 0, 'rot0': 0, 'rot3': 0, 'rot2': 0, 'state': 'normal', 'yaw': 37.89, 'datetime': '2018-10-05 15:32:25.427469', 'mgs': 1, 'volt': 0.7813, 'depth': -0.293, 'time': 2, 'pitch': -6.26, 'roll': -1.03, 'pres': 160}
{'lipoC2': 7.9, 'lipoC3S1': 4.16, 'temp': 25.81, 'lipoC3S3': 12.58, 'lipoC3S2': 8.32, 'rot1': 0, 'rot0': 0, 'rot3': 0, 'rot2': 0, 'state': 'normal', 'yaw': 42.21, 'datetime': '2018-10-05 15:32:25.447720', 'mgs': 1, 'volt': 0.7813, 'depth': -0.293, 'time': 2, 'pitch': -6.16, 'roll': -1.07, 'pres': 160}
{'lipoC2': 7.91, 'lipoC3S1': 4.16, 'temp': 25.81, 'lipoC3S3': 12.58, 'lipoC3S2': 8.32, 'rot1': 0, 'rot0': 0, 'rot3': 0, 'rot2': 0, 'state': 'normal', 'yaw': 46.97, 'datetime': '2018-10-05 15:32:25.467844', 'mgs': 1, 'volt': 0.7813, 'depth': -0.293, 'time': 2, 'pitch': -6.11, 'roll': -1.1, 'pres': 160}
{'lipoC2': 7.91, 'lipoC3S1': 4.16, 'temp': 25.81, 'lipoC3S3': 12.58, 'lipoC3S2': 8.32, 'rot1': 0, 'rot0': 0, 'rot3': 0, 'rot2': 0, 'state': 'normal', 'yaw': 51.28, 'datetime': '2018-10-05 15:32:25.486015', 'mgs': 1, 'volt': 0.7813, 'depth': -0.293, 'time': 2, 'pitch': -6.1, 'roll': -1.13, 'pres': 160}
{'lipoC2': 7.91, 'lipoC3S1': 4.17, 'temp': 25.81, 'lipoC3S3': 12.58, 'lipoC3S2': 8.32, 'rot1': 0, 'rot0': 0, 'rot3': 0, 'rot2': 0, 'state': 'normal', 'yaw': 55.59, 'datetime': '2018-10-05 15:32:25.505932', 'mgs': 1, 'volt': 0.7813, 'depth': -0.293, 'time': 2, 'pitch': -6.02, 'roll': -1.17, 'pres': 160}
{'lipoC2': 7.91, 'lipoC3S1': 4.17, 'temp': 25.81, 'lipoC3S3': 12.58, 'lipoC3S2': 8.32, 'rot1': 0, 'rot0': 0, 'rot3': 0, 'rot2': 0, 'state': 'normal', 'yaw': 60.4, 'datetime': '2018-10-05 15:32:25.526122', 'mgs': 1, 'volt': 0.7861, 'depth': -0.217, 'time': 2, 'pitch': -5.98, 'roll': -1.21, 'pres': 161}
{'lipoC2': 7.91, 'lipoC3S1': 4.16, 'temp': 25.81, 'lipoC3S3': 12.58, 'lipoC3S2': 8.32, 'rot1': 0, 'rot0': 0, 'rot3': 0, 'rot2': 0, 'state': 'normal', 'yaw': 64.8, 'datetime': '2018-10-05 15:32:25.546269', 'mgs': 1, 'volt': 0.7813, 'depth': -0.293, 'time': 2, 'pitch': -5.97, 'roll': -1.21, 'pres': 160}
{'lipoC2': 7.91, 'lipoC3S1': 4.16, 'temp': 25.81, 'lipoC3S3': 12.58, 'lipoC3S2': 8.32, 'rot1': 0, 'rot0': 0, 'rot3': 0, 'rot2': 0, 'state': 'normal', 'yaw': 69.21, 'datetime': '2018-10-05 15:32:25.566418', 'mgs': 1, 'volt': 0.7813, 'depth': -0.293, 'time': 2, 'pitch': -5.96, 'roll': -1.21, 'pres': 160}
{'lipoC2': 7.91, 'lipoC3S1': 4.16, 'temp': 25.81, 'lipoC3S3': 12.58, 'lipoC3S2': 8.32, 'rot1': 0, 'rot0': 0, 'rot3': 0, 'rot2': 0, 'state': 'normal', 'yaw': 74.01, 'datetime': '2018-10-05 15:32:25.585653', 'mgs': 1, 'volt': 0.7813, 'depth': -0.293, 'time': 2, 'pitch': -5.93, 'roll': -1.23, 'pres': 160}
{'lipoC2': 7.91, 'lipoC3S1': 4.16, 'temp': 25.81, 'lipoC3S3': 12.58, 'lipoC3S2': 8.31, 'rot1': 0, 'rot0': 0, 'rot3': 0, 'rot2': 0, 'state': 'normal', 'yaw': 78.32, 'datetime': '2018-10-05 15:32:25.605938', 'mgs': 1, 'volt': 0.7813, 'depth': -0.293, 'time': 3, 'pitch': -5.88, 'roll': -1.23, 'pres': 160}
{'lipoC2': 7.9, 'lipoC3S1': 4.16, 'temp': 25.81, 'lipoC3S3': 12.58, 'lipoC3S2': 8.31, 'rot1': 0, 'rot0': 0, 'rot3': 0, 'rot2': 0, 'state': 'normal', 'yaw': 82.56, 'datetime': '2018-10-05 15:32:25.626228', 'mgs': 1, 'volt': 0.7861, 'depth': -0.217, 'time': 3, 'pitch': -5.86, 'roll': -1.24, 'pres': 161}
{'lipoC2': 7.9, 'lipoC3S1': 4.16, 'temp': 25.81, 'lipoC3S3': 12.58, 'lipoC3S2': 8.32, 'rot1': 0, 'rot0': 0, 'rot3': 0, 'rot2': 0, 'state': 'normal', 'yaw': 86.74, 'datetime': '2018-10-05 15:32:25.646320', 'mgs': 1, 'volt': 0.7813, 'depth': -0.293, 'time': 3, 'pitch': -5.83, 'roll': -1.27, 'pres': 160}
{'lipoC2': 7.9, 'lipoC3S1': 4.16, 'temp': 25.81, 'lipoC3S3': 12.58, 'lipoC3S2': 8.32, 'rot1': 0, 'rot0': 0, 'rot3': 0, 'rot2': 0, 'state': 'normal', 'yaw': 91.25, 'datetime': '2018-10-05 15:32:25.666683', 'mgs': 1, 'volt': 0.7813, 'depth': -0.293, 'time': 3, 'pitch': -5.78, 'roll': -1.26, 'pres': 160}
{'lipoC2': 7.91, 'lipoC3S1': 4.16, 'temp': 25.81, 'lipoC3S3': 12.58, 'lipoC3S2': 8.31, 'rot1': 0, 'rot0': 0, 'rot3': 0, 'rot2': 0, 'state': 'normal', 'yaw': 95.29, 'datetime': '2018-10-05 15:32:25.685548', 'mgs': 1, 'volt': 0.7813, 'depth': -0.293, 'time': 3, 'pitch': -5.75, 'roll': -1.28, 'pres': 160}
{'lipoC2': 7.91, 'lipoC3S1': 4.16, 'temp': 25.81, 'lipoC3S3': 12.58, 'lipoC3S2': 8.32, 'rot1': 0, 'rot0': 0, 'rot3': 0, 'rot2': 0, 'state': 'normal', 'yaw': 99.29, 'datetime': '2018-10-05 15:32:25.702913', 'mgs': 1, 'volt': 0.7813, 'depth': -0.293, 'time': 3, 'pitch': -5.71, 'roll': -1.28, 'pres': 160}
{'lipoC2': 7.91, 'lipoC3S1': 4.16, 'temp': 25.81, 'lipoC3S3': 12.58, 'lipoC3S2': 8.32, 'rot1': 0, 'rot0': 0, 'rot3': 0, 'rot2': 0, 'state': 'normal', 'yaw': 103.64, 'datetime': '2018-10-05 15:32:25.722814', 'mgs': 1, 'volt': 0.7861, 'depth': -0.217, 'time': 3, 'pitch': -5.62, 'roll': -1.29, 'pres': 161}
{'lipoC2': 7.91, 'lipoC3S1': 4.16, 'temp': 25.81, 'lipoC3S3': 12.58, 'lipoC3S2': 8.32, 'rot1': 0, 'rot0': 0, 'rot3': 0, 'rot2': 0, 'state': 'normal', 'yaw': 107.58, 'datetime': '2018-10-05 15:32:25.742883', 'mgs': 1, 'volt': 0.7813, 'depth': -0.293, 'time': 3, 'pitch': -5.58, 'roll': -1.29, 'pres': 160}
{'lipoC2': 7.91, 'lipoC3S1': 4.17, 'temp': 25.81, 'lipoC3S3': 12.58, 'lipoC3S2': 8.32, 'rot1': 0, 'rot0': 0, 'rot3': 0, 'rot2': 0, 'state': 'normal', 'yaw': 111.51, 'datetime': '2018-10-05 15:32:25.763083', 'mgs': 1, 'volt': 0.7813, 'depth': -0.293, 'time': 3, 'pitch': -5.57, 'roll': -1.26, 'pres': 160}
{'lipoC2': 7.91, 'lipoC3S1': 4.17, 'temp': 25.81, 'lipoC3S3': 12.58, 'lipoC3S2': 8.32, 'rot1': 0, 'rot0': 0, 'rot3': 0, 'rot2': 0, 'state': 'normal', 'yaw': 115.79, 'datetime': '2018-10-05 15:32:25.782832', 'mgs': 1, 'volt': 0.7861, 'depth': -0.217, 'time': 3, 'pitch': -5.58, 'roll': -1.26, 'pres': 161}
{'lipoC2': 7.91, 'lipoC3S1': 4.16, 'temp': 25.81, 'lipoC3S3': 12.58, 'lipoC3S2': 8.32, 'rot1': 0, 'rot0': 0, 'rot3': 0, 'rot2': 0, 'state': 'normal', 'yaw': 119.62, 'datetime': '2018-10-05 15:32:25.802159', 'mgs': 1, 'volt': 0.7813, 'depth': -0.293, 'time': 4, 'pitch': -5.58, 'roll': -1.25, 'pres': 160}
{'lipoC2': 7.9, 'lipoC3S1': 4.16, 'temp': 25.81, 'lipoC3S3': 12.58, 'lipoC3S2': 8.32, 'rot1': 0, 'rot0': 0, 'rot3': 0, 'rot2': 0, 'state': 'normal', 'yaw': 123.4, 'datetime': '2018-10-05 15:32:25.822347', 'mgs': 1, 'volt': 0.7813, 'depth': -0.293, 'time': 4, 'pitch': -5.49, 'roll': -1.24, 'pres': 160}
{'lipoC2': 7.91, 'lipoC3S1': 4.16, 'temp': 25.81, 'lipoC3S3': 12.58, 'lipoC3S2': 8.31, 'rot1': 0, 'rot0': 0, 'rot3': 0, 'rot2': 0, 'state': 'normal', 'yaw': 127.53, 'datetime': '2018-10-05 15:32:25.842455', 'mgs': 1, 'volt': 0.7813, 'depth': -0.293, 'time': 4, 'pitch': -5.39, 'roll': -1.23, 'pres': 160}
{'lipoC2': 7.91, 'lipoC3S1': 4.16, 'temp': 25.81, 'lipoC3S3': 12.58, 'lipoC3S2': 8.32, 'rot1': 0, 'rot0': 0, 'rot3': 0, 'rot2': 0, 'state': 'normal', 'yaw': 131.25, 'datetime': '2018-10-05 15:32:25.862565', 'mgs': 1, 'volt': 0.7813, 'depth': -0.293, 'time': 4, 'pitch': -5.35, 'roll': -1.24, 'pres': 160}
{'lipoC2': 7.91, 'lipoC3S1': 4.17, 'temp': 25.81, 'lipoC3S3': 12.58, 'lipoC3S2': 8.32, 'rot1': 0, 'rot0': 0, 'rot3': 0, 'rot2': 0, 'state': 'normal', 'yaw': 134.96, 'datetime': '2018-10-05 15:32:25.882984', 'mgs': 1, 'volt': 0.7861, 'depth': -0.217, 'time': 4, 'pitch': -5.36, 'roll': -1.21, 'pres': 161}
{'lipoC2': 7.91, 'lipoC3S1': 4.16, 'temp': 25.81, 'lipoC3S3': 12.58, 'lipoC3S2': 8.32, 'rot1': 0, 'rot0': 0, 'rot3': 0, 'rot2': 0, 'state': 'normal', 'yaw': 139.0, 'datetime': '2018-10-05 15:32:25.903421', 'mgs': 1, 'volt': 0.7813, 'depth': -0.293, 'time': 4, 'pitch': -5.28, 'roll': -1.18, 'pres': 160}
{'lipoC2': 7.91, 'lipoC3S1': 4.17, 'temp': 25.88, 'lipoC3S3': 12.58, 'lipoC3S2': 8.32, 'rot1': 0, 'rot0': 0, 'rot3': 0, 'rot2': 0, 'state': 'normal', 'yaw': 142.66, 'datetime': '2018-10-05 15:32:25.923515', 'mgs': 1, 'volt': 0.7861, 'depth': -0.217, 'time': 4, 'pitch': -5.29, 'roll': -1.18, 'pres': 161}
{'lipoC2': 7.91, 'lipoC3S1': 4.16, 'temp': 25.88, 'lipoC3S3': 12.58, 'lipoC3S2': 8.32, 'rot1': 0, 'rot0': 0, 'rot3': 0, 'rot2': 0, 'state': 'normal', 'yaw': 146.26, 'datetime': '2018-10-05 15:32:25.943703', 'mgs': 1, 'volt': 0.7813, 'depth': -0.293, 'time': 4, 'pitch': -5.34, 'roll': -1.16, 'pres': 160}
{'lipoC2': 7.91, 'lipoC3S1': 4.17, 'temp': 25.88, 'lipoC3S3': 12.58, 'lipoC3S2': 8.32, 'rot1': 0, 'rot0': 0, 'rot3': 0, 'rot2': 0, 'state': 'normal', 'yaw': 149.81, 'datetime': '2018-10-05 15:32:25.963812', 'mgs': 1, 'volt': 0.7813, 'depth': -0.293, 'time': 4, 'pitch': -5.26, 'roll': -1.13, 'pres': 160}
{'lipoC2': 7.91, 'lipoC3S1': 4.16, 'temp': 25.88, 'lipoC3S3': 12.58, 'lipoC3S2': 8.32, 'rot1': 0, 'rot0': 0, 'rot3': 0, 'rot2': 0, 'state': 'normal', 'yaw': 153.66, 'datetime': '2018-10-05 15:32:25.983954', 'mgs': 1, 'volt': 0.7813, 'depth': -0.293, 'time': 4, 'pitch': -5.17, 'roll': -1.12, 'pres': 160}
{'lipoC2': 7.91, 'lipoC3S1': 4.16, 'temp': 25.88, 'lipoC3S3': 12.58, 'lipoC3S2': 8.32, 'rot1': 0, 'rot0': 0, 'rot3': 0, 'rot2': 0, 'state': 'normal', 'yaw': 157.11, 'datetime': '2018-10-05 15:32:26.003632', 'mgs': 1, 'volt': 0.7813, 'depth': -0.293, 'time': 5, 'pitch': -5.13, 'roll': -1.08, 'pres': 160}
{'lipoC2': 7.9, 'lipoC3S1': 4.16, 'temp': 25.88, 'lipoC3S3': 12.58, 'lipoC3S2': 8.32, 'rot1': 0, 'rot0': 0, 'rot3': 0, 'rot2': 0, 'state': 'normal', 'yaw': 160.52, 'datetime': '2018-10-05 15:32:26.023342', 'mgs': 1, 'volt': 0.7813, 'depth': -0.293, 'time': 5, 'pitch': -5.07, 'roll': -1.05, 'pres': 160}
{'lipoC2': 7.91, 'lipoC3S1': 4.16, 'temp': 25.88, 'lipoC3S3': 12.58, 'lipoC3S2': 8.32, 'rot1': 0, 'rot0': 0, 'rot3': 0, 'rot2': 0, 'state': 'normal', 'yaw': 164.21, 'datetime': '2018-10-05 15:32:26.043576', 'mgs': 1, 'volt': 0.7813, 'depth': -0.293, 'time': 5, 'pitch': -5.04, 'roll': -1.0, 'pres': 160}
{'lipoC2': 7.91, 'lipoC3S1': 4.16, 'temp': 25.81, 'lipoC3S3': 12.58, 'lipoC3S2': 8.32, 'rot1': 0, 'rot0': 0, 'rot3': 0, 'rot2': 0, 'state': 'normal', 'yaw': 167.54, 'datetime': '2018-10-05 15:32:26.063761', 'mgs': 1, 'volt': 0.7813, 'depth': -0.293, 'time': 5, 'pitch': -5.06, 'roll': -0.99, 'pres': 160}
{'lipoC2': 7.91, 'lipoC3S1': 4.16, 'temp': 25.81, 'lipoC3S3': 12.58, 'lipoC3S2': 8.32, 'rot1': 0, 'rot0': 0, 'rot3': 0, 'rot2': 0, 'state': 'normal', 'yaw': 170.82, 'datetime': '2018-10-05 15:32:26.080555', 'mgs': 1, 'volt': 0.7861, 'depth': -0.217, 'time': 5, 'pitch': -5.03, 'roll': -0.96, 'pres': 161}
{'lipoC2': 7.91, 'lipoC3S1': 4.16, 'temp': 25.81, 'lipoC3S3': 12.58, 'lipoC3S2': 8.32, 'rot1': 0, 'rot0': 0, 'rot3': 0, 'rot2': 0, 'state': 'normal', 'yaw': 174.4, 'datetime': '2018-10-05 15:32:26.097530', 'mgs': 1, 'volt': 0.7861, 'depth': -0.217, 'time': 5, 'pitch': -4.97, 'roll': -0.94, 'pres': 161}
{'lipoC2': 7.91, 'lipoC3S1': 4.17, 'temp': 25.81, 'lipoC3S3': 12.58, 'lipoC3S2': 8.32, 'rot1': 0, 'rot0': 0, 'rot3': 0, 'rot2': 0, 'state': 'normal', 'yaw': 177.65, 'datetime': '2018-10-05 15:32:26.114167', 'mgs': 1, 'volt': 0.7813, 'depth': -0.293, 'time': 5, 'pitch': -4.92, 'roll': -0.94, 'pres': 160}
{'lipoC2': 7.91, 'lipoC3S1': 4.17, 'temp': 25.81, 'lipoC3S3': 12.58, 'lipoC3S2': 8.32, 'rot1': 0, 'rot0': 0, 'rot3': 0, 'rot2': 0, 'state': 'normal', 'yaw': -179.09, 'datetime': '2018-10-05 15:32:26.130078', 'mgs': 1, 'volt': 0.7813, 'depth': -0.293, 'time': 5, 'pitch': -4.92, 'roll': -0.88, 'pres': 160}
{'lipoC2': 7.91, 'lipoC3S1': 4.17, 'temp': 25.81, 'lipoC3S3': 12.58, 'lipoC3S2': 8.32, 'rot1': 0, 'rot0': 0, 'rot3': 0, 'rot2': 0, 'state': 'normal', 'yaw': -175.53, 'datetime': '2018-10-05 15:32:26.145958', 'mgs': 1, 'volt': 0.7813, 'depth': -0.293, 'time': 5, 'pitch': -4.88, 'roll': -0.85, 'pres': 160}
{'lipoC2': 7.9, 'lipoC3S1': 4.16, 'temp': 25.81, 'lipoC3S3': 12.56, 'lipoC3S2': 8.31, 'rot1': 0, 'rot0': 0, 'rot3': 0, 'rot2': 0, 'state': 'normal', 'yaw': -172.32, 'datetime': '2018-10-05 15:32:26.161885', 'mgs': 1, 'volt': 0.7813, 'depth': -0.293, 'time': 6, 'pitch': -4.83, 'roll': -0.77, 'pres': 160}
{'lipoC2': 7.88, 'lipoC3S1': 4.15, 'temp': 25.88, 'lipoC3S3': 12.54, 'lipoC3S2': 8.29, 'rot1': 0, 'rot0': 0, 'rot3': 0, 'rot2': 0, 'state': 'normal', 'yaw': -169.15, 'datetime': '2018-10-05 15:32:26.177899', 'mgs': 1, 'volt': 0.7813, 'depth': -0.293, 'time': 6, 'pitch': -4.8, 'roll': -0.71, 'pres': 160}
{'lipoC2': 7.9, 'lipoC3S1': 4.14, 'temp': 25.88, 'lipoC3S3': 12.39, 'lipoC3S2': 8.26, 'rot1': 1, 'rot0': 2, 'rot3': 0, 'rot2': 0, 'state': 'normal', 'yaw': -165.7, 'datetime': '2018-10-05 15:32:26.193759', 'mgs': 1, 'volt': 0.7813, 'depth': -0.293, 'time': 6, 'pitch': -4.77, 'roll': -0.69, 'pres': 160}
{'lipoC2': 7.91, 'lipoC3S1': 4.13, 'temp': 25.81, 'lipoC3S3': 12.46, 'lipoC3S2': 8.14, 'rot1': 4, 'rot0': 4, 'rot3': 0, 'rot2': 0, 'state': 'normal', 'yaw': -162.62, 'datetime': '2018-10-05 15:32:26.210548', 'mgs': 1, 'volt': 0.7813, 'depth': -0.293, 'time': 6, 'pitch': -4.76, 'roll': -0.65, 'pres': 160}
{'lipoC2': 7.9, 'lipoC3S1': 4.16, 'temp': 25.81, 'lipoC3S3': 12.56, 'lipoC3S2': 8.31, 'rot1': 6, 'rot0': 6, 'rot3': 0, 'rot2': 0, 'state': 'normal', 'yaw': -159.6, 'datetime': '2018-10-05 15:32:26.226571', 'mgs': 1, 'volt': 0.7715, 'depth': -0.446, 'time': 6, 'pitch': -4.75, 'roll': -0.66, 'pres': 158}
{'lipoC2': 7.88, 'lipoC3S1': 4.15, 'temp': 25.81, 'lipoC3S3': 12.52, 'lipoC3S2': 8.28, 'rot1': 7, 'rot0': 7, 'rot3': 0, 'rot2': 0, 'state': 'normal', 'yaw': -156.37, 'datetime': '2018-10-05 15:32:26.242469', 'mgs': 1, 'volt': 0.7813, 'depth': -0.293, 'time': 6, 'pitch': -4.74, 'roll': -0.65, 'pres': 160}
{'lipoC2': 7.91, 'lipoC3S1': 4.14, 'temp': 25.81, 'lipoC3S3': 12.43, 'lipoC3S2': 8.26, 'rot1': 8, 'rot0': 9, 'rot3': 0, 'rot2': 0, 'state': 'normal', 'yaw': -153.51, 'datetime': '2018-10-05 15:32:26.258374', 'mgs': 1, 'volt': 0.7813, 'depth': -0.293, 'time': 6, 'pitch': -4.73, 'roll': -0.58, 'pres': 160}
{'lipoC2': 7.9, 'lipoC3S1': 4.08, 'temp': 25.81, 'lipoC3S3': 12.48, 'lipoC3S2': 8.17, 'rot1': 11, 'rot0': 11, 'rot3': 0, 'rot2': 0, 'state': 'normal', 'yaw': -150.72, 'datetime': '2018-10-05 15:32:26.274232', 'mgs': 1, 'volt': 0.7813, 'depth': -0.293, 'time': 6, 'pitch': -4.71, 'roll': -0.61, 'pres': 160}
{'lipoC2': 7.9, 'lipoC3S1': 4.13, 'temp': 25.81, 'lipoC3S3': 12.38, 'lipoC3S2': 8.13, 'rot1': 14, 'rot0': 14, 'rot3': 0, 'rot2': 0, 'state': 'normal', 'yaw': -147.76, 'datetime': '2018-10-05 15:32:26.290210', 'mgs': 1, 'volt': 0.7813, 'depth': -0.293, 'time': 6, 'pitch': -4.68, 'roll': -0.54, 'pres': 160}
{'lipoC2': 7.88, 'lipoC3S1': 4.11, 'temp': 25.81, 'lipoC3S3': 12.46, 'lipoC3S2': 8.24, 'rot1': 18, 'rot0': 18, 'rot3': 0, 'rot2': 0, 'state': 'normal', 'yaw': -145.26, 'datetime': '2018-10-05 15:32:26.306892', 'mgs': 1, 'volt': 0.8203, 'depth': 0.317, 'time': 6, 'pitch': -4.7, 'roll': -0.45, 'pres': 168}
{'lipoC2': 7.88, 'lipoC3S1': 4.14, 'temp': 25.81, 'lipoC3S3': 12.37, 'lipoC3S2': 8.23, 'rot1': 22, 'rot0': 23, 'rot3': 0, 'rot2': 0, 'state': 'normal', 'yaw': -143.16, 'datetime': '2018-10-05 15:32:26.323538', 'mgs': 1, 'volt': 0.8008, 'depth': 0.012, 'time': 7, 'pitch': -4.55, 'roll': -0.34, 'pres': 164}
{'lipoC2': 7.9, 'lipoC3S1': 4.1, 'temp': 25.81, 'lipoC3S3': 12.39, 'lipoC3S2': 8.22, 'rot1': 27, 'rot0': 28, 'rot3': 0, 'rot2': 0, 'state': 'normal', 'yaw': -141.45, 'datetime': '2018-10-05 15:32:26.339537', 'mgs': 1, 'volt': 0.8057, 'depth': 0.089, 'time': 7, 'pitch': -4.5, 'roll': -0.4, 'pres': 165}
{'lipoC2': 7.86, 'lipoC3S1': 4.04, 'temp': 25.81, 'lipoC3S3': 12.46, 'lipoC3S2': 8.26, 'rot1': 61, 'rot0': 36, 'rot3': 0, 'rot2': 1, 'state': 'normal', 'yaw': -140.38, 'datetime': '2018-10-05 15:32:26.355478', 'mgs': 1, 'volt': 0.7568, 'depth': -0.674, 'time': 7, 'pitch': -4.59, 'roll': -0.39, 'pres': 155}
{'lipoC2': 7.88, 'lipoC3S1': 4.05, 'temp': 25.81, 'lipoC3S3': 12.3, 'lipoC3S2': 8.15, 'rot1': 80, 'rot0': 39, 'rot3': 0, 'rot2': 1, 'state': 'normal', 'yaw': -139.75, 'datetime': '2018-10-05 15:32:26.371463', 'mgs': 1, 'volt': 0.835, 'depth': 0.546, 'time': 7, 'pitch': -4.65, 'roll': -0.39, 'pres': 171}
{'lipoC2': 7.88, 'lipoC3S1': 4.11, 'temp': 25.81, 'lipoC3S3': 12.48, 'lipoC3S2': 8.27, 'rot1': 84, 'rot0': 44, 'rot3': 0, 'rot2': 1, 'state': 'normal', 'yaw': -139.63, 'datetime': '2018-10-05 15:32:26.425183', 'mgs': 1, 'volt': 0.8154, 'depth': 0.241, 'time': 7, 'pitch': -4.6, 'roll': -0.34, 'pres': 167}
{'lipoC2': 7.9, 'lipoC3S1': 4.13, 'temp': 25.81, 'lipoC3S3': 12.45, 'lipoC3S2': 8.19, 'rot1': 89, 'rot0': 49, 'rot3': 0, 'rot2': 1, 'state': 'normal', 'yaw': -139.75, 'datetime': '2018-10-05 15:32:26.530192', 'mgs': 1, 'volt': 0.7666, 'depth': -0.522, 'time': 7, 'pitch': -4.59, 'roll': -0.38, 'pres': 157}
{'lipoC2': 7.9, 'lipoC3S1': 4.16, 'temp': 25.81, 'lipoC3S3': 12.39, 'lipoC3S2': 8.26, 'rot1': 94, 'rot0': 53, 'rot3': 0, 'rot2': 1, 'state': 'normal', 'yaw': -139.98, 'datetime': '2018-10-05 15:32:26.633944', 'mgs': 1, 'volt': 0.7959, 'depth': -0.064, 'time': 7, 'pitch': -4.61, 'roll': -0.36, 'pres': 163}
{'lipoC2': 7.9, 'lipoC3S1': 4.11, 'temp': 25.81, 'lipoC3S3': 12.5, 'lipoC3S2': 8.27, 'rot1': 99, 'rot0': 58, 'rot3': 0, 'rot2': 1, 'state': 'normal', 'yaw': -140.29, 'datetime': '2018-10-05 15:32:26.737568', 'mgs': 1, 'volt': 0.8154, 'depth': 0.241, 'time': 7, 'pitch': -4.56, 'roll': -0.34, 'pres': 167}
{'lipoC2': 7.9, 'lipoC3S1': 4.1, 'temp': 25.81, 'lipoC3S3': 12.52, 'lipoC3S2': 8.23, 'rot1': 104, 'rot0': 63, 'rot3': 0, 'rot2': 1, 'state': 'normal', 'yaw': -140.69, 'datetime': '2018-10-05 15:32:26.841393', 'mgs': 1, 'volt': 0.7861, 'depth': -0.217, 'time': 7, 'pitch': -4.5, 'roll': -0.32, 'pres': 161}
{'lipoC2': 7.9, 'lipoC3S1': 4.14, 'temp': 25.81, 'lipoC3S3': 12.43, 'lipoC3S2': 8.18, 'rot1': 108, 'rot0': 68, 'rot3': 0, 'rot2': 1, 'state': 'normal', 'yaw': -141.2, 'datetime': '2018-10-05 15:32:26.945235', 'mgs': 1, 'volt': 0.7813, 'depth': -0.293, 'time': 7, 'pitch': -4.47, 'roll': -0.33, 'pres': 160}
{'lipoC2': 7.88, 'lipoC3S1': 4.12, 'temp': 25.81, 'lipoC3S3': 12.5, 'lipoC3S2': 8.28, 'rot1': 114, 'rot0': 73, 'rot3': 0, 'rot2': 1, 'state': 'normal', 'yaw': -141.67, 'datetime': '2018-10-05 15:32:27.048963', 'mgs': 1, 'volt': 0.8105, 'depth': 0.165, 'time': 8, 'pitch': -4.53, 'roll': -0.3, 'pres': 166}
{'lipoC2': 7.9, 'lipoC3S1': 4.13, 'temp': 25.81, 'lipoC3S3': 12.46, 'lipoC3S2': 8.19, 'rot1': 118, 'rot0': 78, 'rot3': 0, 'rot2': 1, 'state': 'normal', 'yaw': -142.11, 'datetime': '2018-10-05 15:32:27.157059', 'mgs': 1, 'volt': 0.7666, 'depth': -0.522, 'time': 8, 'pitch': -4.51, 'roll': -0.31, 'pres': 157}
{'lipoC2': 7.9, 'lipoC3S1': 4.14, 'temp': 25.88, 'lipoC3S3': 12.48, 'lipoC3S2': 8.32, 'rot1': 123, 'rot0': 83, 'rot3': 0, 'rot2': 1, 'state': 'normal', 'yaw': -142.53, 'datetime': '2018-10-05 15:32:27.260772', 'mgs': 1, 'volt': 0.8008, 'depth': 0.012, 'time': 8, 'pitch': -4.46, 'roll': -0.3, 'pres': 164}
{'lipoC2': 7.9, 'lipoC3S1': 4.13, 'temp': 25.88, 'lipoC3S3': 12.46, 'lipoC3S2': 8.2, 'rot1': 128, 'rot0': 87, 'rot3': 0, 'rot2': 1, 'state': 'normal', 'yaw': -142.84, 'datetime': '2018-10-05 15:32:27.365890', 'mgs': 1, 'volt': 0.7666, 'depth': -0.522, 'time': 8, 'pitch': -4.46, 'roll': -0.27, 'pres': 157}
{'lipoC2': 7.88, 'lipoC3S1': 4.15, 'temp': 25.88, 'lipoC3S3': 12.5, 'lipoC3S2': 8.26, 'rot1': 133, 'rot0': 92, 'rot3': 0, 'rot2': 1, 'state': 'normal', 'yaw': -143.11, 'datetime': '2018-10-05 15:32:27.469577', 'mgs': 1, 'volt': 0.8008, 'depth': 0.012, 'time': 8, 'pitch': -4.45, 'roll': -0.26, 'pres': 164}
{'lipoC2': 7.9, 'lipoC3S1': 4.14, 'temp': 25.88, 'lipoC3S3': 12.48, 'lipoC3S2': 8.26, 'rot1': 138, 'rot0': 97, 'rot3': 0, 'rot2': 1, 'state': 'normal', 'yaw': -143.35, 'datetime': '2018-10-05 15:32:27.574051', 'mgs': 1, 'volt': 0.8008, 'depth': 0.012, 'time': 8, 'pitch': -4.41, 'roll': -0.24, 'pres': 164}
{'lipoC2': 7.91, 'lipoC3S1': 4.12, 'temp': 25.88, 'lipoC3S3': 12.5, 'lipoC3S2': 8.28, 'rot1': 143, 'rot0': 102, 'rot3': 0, 'rot2': 1, 'state': 'normal', 'yaw': -143.61, 'datetime': '2018-10-05 15:32:27.678711', 'mgs': 1, 'volt': 0.8154, 'depth': 0.241, 'time': 8, 'pitch': -4.38, 'roll': -0.22, 'pres': 167}
{'lipoC2': 7.9, 'lipoC3S1': 4.09, 'temp': 25.81, 'lipoC3S3': 12.48, 'lipoC3S2': 8.21, 'rot1': 148, 'rot0': 107, 'rot3': 0, 'rot2': 1, 'state': 'normal', 'yaw': -143.93, 'datetime': '2018-10-05 15:32:27.782630', 'mgs': 1, 'volt': 0.7813, 'depth': -0.293, 'time': 8, 'pitch': -4.36, 'roll': -0.19, 'pres': 160}
{'lipoC2': 7.9, 'lipoC3S1': 4.11, 'temp': 25.81, 'lipoC3S3': 12.52, 'lipoC3S2': 8.25, 'rot1': 153, 'rot0': 112, 'rot3': 0, 'rot2': 1, 'state': 'normal', 'yaw': -144.26, 'datetime': '2018-10-05 15:32:27.887831', 'mgs': 1, 'volt': 0.7715, 'depth': -0.446, 'time': 8, 'pitch': -4.35, 'roll': -0.16, 'pres': 158}
{'lipoC2': 7.9, 'lipoC3S1': 4.14, 'temp': 25.88, 'lipoC3S3': 12.42, 'lipoC3S2': 8.25, 'rot1': 158, 'rot0': 117, 'rot3': 0, 'rot2': 1, 'state': 'normal', 'yaw': -144.69, 'datetime': '2018-10-05 15:32:27.991787', 'mgs': 1, 'volt': 0.7861, 'depth': -0.217, 'time': 9, 'pitch': -4.33, 'roll': -0.15, 'pres': 161}
{'lipoC2': 7.9, 'lipoC3S1': 4.11, 'temp': 25.88, 'lipoC3S3': 12.54, 'lipoC3S2': 8.25, 'rot1': 163, 'rot0': 122, 'rot3': 0, 'rot2': 1, 'state': 'normal', 'yaw': -145.13, 'datetime': '2018-10-05 15:32:28.095642', 'mgs': 1, 'volt': 0.8105, 'depth': 0.165, 'time': 9, 'pitch': -4.29, 'roll': -0.14, 'pres': 166}
{'lipoC2': 7.9, 'lipoC3S1': 4.13, 'temp': 25.88, 'lipoC3S3': 12.46, 'lipoC3S2': 8.19, 'rot1': 168, 'rot0': 127, 'rot3': 0, 'rot2': 1, 'state': 'normal', 'yaw': -145.6, 'datetime': '2018-10-05 15:32:28.199795', 'mgs': 1, 'volt': 0.7666, 'depth': -0.522, 'time': 9, 'pitch': -4.3, 'roll': -0.12, 'pres': 157}
{'lipoC2': 7.88, 'lipoC3S1': 4.13, 'temp': 25.88, 'lipoC3S3': 12.5, 'lipoC3S2': 8.28, 'rot1': 173, 'rot0': 132, 'rot3': 0, 'rot2': 1, 'state': 'normal', 'yaw': -146.14, 'datetime': '2018-10-05 15:32:28.303319', 'mgs': 1, 'volt': 0.8105, 'depth': 0.165, 'time': 9, 'pitch': -4.37, 'roll': -0.17, 'pres': 166}
{'lipoC2': 7.9, 'lipoC3S1': 4.09, 'temp': 25.88, 'lipoC3S3': 12.48, 'lipoC3S2': 8.22, 'rot1': 178, 'rot0': 137, 'rot3': 0, 'rot2': 1, 'state': 'normal', 'yaw': -146.68, 'datetime': '2018-10-05 15:32:28.407409', 'mgs': 1, 'volt': 0.7861, 'depth': -0.217, 'time': 9, 'pitch': -4.33, 'roll': -0.18, 'pres': 161}
{'lipoC2': 7.91, 'lipoC3S1': 4.12, 'temp': 25.88, 'lipoC3S3': 12.5, 'lipoC3S2': 8.26, 'rot1': 183, 'rot0': 142, 'rot3': 0, 'rot2': 1, 'state': 'normal', 'yaw': -147.23, 'datetime': '2018-10-05 15:32:28.511288', 'mgs': 1, 'volt': 0.8057, 'depth': 0.089, 'time': 9, 'pitch': -4.3, 'roll': -0.17, 'pres': 165}
{'lipoC2': 7.9, 'lipoC3S1': 4.09, 'temp': 25.88, 'lipoC3S3': 12.48, 'lipoC3S2': 8.21, 'rot1': 188, 'rot0': 147, 'rot3': 0, 'rot2': 1, 'state': 'normal', 'yaw': -147.84, 'datetime': '2018-10-05 15:32:28.615401', 'mgs': 1, 'volt': 0.7813, 'depth': -0.293, 'time': 9, 'pitch': -4.29, 'roll': -0.17, 'pres': 160}
{'lipoC2': 7.9, 'lipoC3S1': 4.15, 'temp': 25.88, 'lipoC3S3': 12.42, 'lipoC3S2': 8.25, 'rot1': 193, 'rot0': 152, 'rot3': 0, 'rot2': 1, 'state': 'normal', 'yaw': -148.4, 'datetime': '2018-10-05 15:32:28.719999', 'mgs': 1, 'volt': 0.7959, 'depth': -0.064, 'time': 9, 'pitch': -4.3, 'roll': -0.18, 'pres': 163}
{'lipoC2': 7.91, 'lipoC3S1': 4.09, 'temp': 25.88, 'lipoC3S3': 12.5, 'lipoC3S2': 8.23, 'rot1': 198, 'rot0': 157, 'rot3': 0, 'rot2': 1, 'state': 'normal', 'yaw': -149.04, 'datetime': '2018-10-05 15:32:28.823964', 'mgs': 1, 'volt': 0.7861, 'depth': -0.217, 'time': 9, 'pitch': -4.28, 'roll': -0.21, 'pres': 161}
{'lipoC2': 7.9, 'lipoC3S1': 4.19, 'temp': 25.88, 'lipoC3S3': 12.43, 'lipoC3S2': 8.26, 'rot1': 203, 'rot0': 162, 'rot3': 0, 'rot2': 1, 'state': 'normal', 'yaw': -149.66, 'datetime': '2018-10-05 15:32:28.928798', 'mgs': 1, 'volt': 0.7861, 'depth': -0.217, 'time': 9, 'pitch': -4.27, 'roll': -0.2, 'pres': 161}
{'lipoC2': 7.9, 'lipoC3S1': 4.14, 'temp': 25.88, 'lipoC3S3': 12.42, 'lipoC3S2': 8.25, 'rot1': 209, 'rot0': 167, 'rot3': 0, 'rot2': 2, 'state': 'normal', 'yaw': -150.28, 'datetime': '2018-10-05 15:32:29.033431', 'mgs': 1, 'volt': 0.7959, 'depth': -0.064, 'time': 10, 'pitch': -4.27, 'roll': -0.21, 'pres': 163}
{'lipoC2': 7.91, 'lipoC3S1': 4.09, 'temp': 25.88, 'lipoC3S3': 12.48, 'lipoC3S2': 8.22, 'rot1': 214, 'rot0': 172, 'rot3': 0, 'rot2': 2, 'state': 'normal', 'yaw': -150.95, 'datetime': '2018-10-05 15:32:29.137405', 'mgs': 1, 'volt': 0.7813, 'depth': -0.293, 'time': 10, 'pitch': -4.27, 'roll': -0.23, 'pres': 160}
{'lipoC2': 7.91, 'lipoC3S1': 4.1, 'temp': 25.88, 'lipoC3S3': 12.5, 'lipoC3S2': 8.22, 'rot1': 219, 'rot0': 177, 'rot3': 0, 'rot2': 2, 'state': 'normal', 'yaw': -151.58, 'datetime': '2018-10-05 15:32:29.242901', 'mgs': 1, 'volt': 0.7861, 'depth': -0.217, 'time': 10, 'pitch': -4.22, 'roll': -0.24, 'pres': 161}
{'lipoC2': 7.9, 'lipoC3S1': 4.14, 'temp': 25.88, 'lipoC3S3': 12.52, 'lipoC3S2': 8.3, 'rot1': 224, 'rot0': 183, 'rot3': 0, 'rot2': 2, 'state': 'normal', 'yaw': -152.26, 'datetime': '2018-10-05 15:32:29.346651', 'mgs': 1, 'volt': 0.8008, 'depth': 0.012, 'time': 10, 'pitch': -4.22, 'roll': -0.25, 'pres': 164}
{'lipoC2': 7.91, 'lipoC3S1': 4.09, 'temp': 25.88, 'lipoC3S3': 12.48, 'lipoC3S2': 8.22, 'rot1': 229, 'rot0': 188, 'rot3': 0, 'rot2': 2, 'state': 'normal', 'yaw': -152.86, 'datetime': '2018-10-05 15:32:29.450752', 'mgs': 1, 'volt': 0.7813, 'depth': -0.293, 'time': 10, 'pitch': -4.21, 'roll': -0.26, 'pres': 160}
{'lipoC2': 7.9, 'lipoC3S1': 4.11, 'temp': 25.88, 'lipoC3S3': 12.52, 'lipoC3S2': 8.25, 'rot1': 235, 'rot0': 193, 'rot3': 0, 'rot2': 2, 'state': 'normal', 'yaw': -153.47, 'datetime': '2018-10-05 15:32:29.554755', 'mgs': 1, 'volt': 0.8105, 'depth': 0.165, 'time': 10, 'pitch': -4.19, 'roll': -0.25, 'pres': 166}
{'lipoC2': 7.9, 'lipoC3S1': 4.13, 'temp': 25.88, 'lipoC3S3': 12.43, 'lipoC3S2': 8.18, 'rot1': 240, 'rot0': 198, 'rot3': 0, 'rot2': 2, 'state': 'normal', 'yaw': -154.13, 'datetime': '2018-10-05 15:32:29.658960', 'mgs': 1, 'volt': 0.7861, 'depth': -0.217, 'time': 10, 'pitch': -4.14, 'roll': -0.25, 'pres': 161}
{'lipoC2': 7.9, 'lipoC3S1': 4.1, 'temp': 25.88, 'lipoC3S3': 12.5, 'lipoC3S2': 8.23, 'rot1': 245, 'rot0': 203, 'rot3': 0, 'rot2': 2, 'state': 'normal', 'yaw': -154.71, 'datetime': '2018-10-05 15:32:29.762904', 'mgs': 1, 'volt': 0.8154, 'depth': 0.241, 'time': 10, 'pitch': -4.1, 'roll': -0.26, 'pres': 167}
{'lipoC2': 7.9, 'lipoC3S1': 4.16, 'temp': 25.88, 'lipoC3S3': 12.42, 'lipoC3S2': 8.24, 'rot1': 251, 'rot0': 209, 'rot3': 0, 'rot2': 2, 'state': 'normal', 'yaw': -155.51, 'datetime': '2018-10-05 15:32:29.866904', 'mgs': 1, 'volt': 0.791, 'depth': -0.14, 'time': 10, 'pitch': -4.03, 'roll': -0.23, 'pres': 162}
{'lipoC2': 7.91, 'lipoC3S1': 4.1, 'temp': 25.88, 'lipoC3S3': 12.48, 'lipoC3S2': 8.23, 'rot1': 256, 'rot0': 214, 'rot3': 0, 'rot2': 2, 'state': 'normal', 'yaw': -156.87, 'datetime': '2018-10-05 15:32:29.971051', 'mgs': 1, 'volt': 0.7861, 'depth': -0.217, 'time': 10, 'pitch': -3.9, 'roll': -0.26, 'pres': 161}
{'lipoC2': 7.9, 'lipoC3S1': 4.11, 'temp': 25.88, 'lipoC3S3': 12.51, 'lipoC3S2': 8.24, 'rot1': 261, 'rot0': 220, 'rot3': 0, 'rot2': 2, 'state': 'normal', 'yaw': -159.01, 'datetime': '2018-10-05 15:32:30.076130', 'mgs': 1, 'volt': 0.8057, 'depth': 0.089, 'time': 11, 'pitch': -3.87, 'roll': -0.36, 'pres': 165}
{'lipoC2': 7.9, 'lipoC3S1': 4.13, 'temp': 25.88, 'lipoC3S3': 12.43, 'lipoC3S2': 8.2, 'rot1': 267, 'rot0': 225, 'rot3': 0, 'rot2': 2, 'state': 'normal', 'yaw': -162.04, 'datetime': '2018-10-05 15:32:30.180338', 'mgs': 1, 'volt': 0.7861, 'depth': -0.217, 'time': 11, 'pitch': -3.99, 'roll': -0.46, 'pres': 161}
{'lipoC2': 7.9, 'lipoC3S1': 4.13, 'temp': 25.88, 'lipoC3S3': 12.45, 'lipoC3S2': 8.21, 'rot1': 273, 'rot0': 231, 'rot3': 0, 'rot2': 2, 'state': 'normal', 'yaw': -165.24, 'datetime': '2018-10-05 15:32:30.285449', 'mgs': 1, 'volt': 0.7813, 'depth': -0.293, 'time': 11, 'pitch': -3.93, 'roll': -0.59, 'pres': 160}
{'lipoC2': 7.9, 'lipoC3S1': 4.11, 'temp': 25.88, 'lipoC3S3': 12.5, 'lipoC3S2': 8.24, 'rot1': 278, 'rot0': 236, 'rot3': 0, 'rot2': 2, 'state': 'normal', 'yaw': -169.08, 'datetime': '2018-10-05 15:32:30.389626', 'mgs': 1, 'volt': 0.8057, 'depth': 0.089, 'time': 11, 'pitch': -4.09, 'roll': -0.84, 'pres': 165}
{'lipoC2': 7.9, 'lipoC3S1': 4.12, 'temp': 25.88, 'lipoC3S3': 12.51, 'lipoC3S2': 8.24, 'rot1': 284, 'rot0': 242, 'rot3': 0, 'rot2': 2, 'state': 'normal', 'yaw': -172.7, 'datetime': '2018-10-05 15:32:30.494918', 'mgs': 1, 'volt': 0.8008, 'depth': 0.012, 'time': 11, 'pitch': -3.97, 'roll': -0.98, 'pres': 164}
{'lipoC2': 7.9, 'lipoC3S1': 4.13, 'temp': 25.88, 'lipoC3S3': 12.45, 'lipoC3S2': 8.25, 'rot1': 290, 'rot0': 248, 'rot3': 0, 'rot2': 2, 'state': 'normal', 'yaw': -176.55, 'datetime': '2018-10-05 15:32:30.599056', 'mgs': 1, 'volt': 0.791, 'depth': -0.14, 'time': 11, 'pitch': -3.81, 'roll': -1.35, 'pres': 162}
{'lipoC2': 7.9, 'lipoC3S1': 4.11, 'temp': 25.88, 'lipoC3S3': 12.46, 'lipoC3S2': 8.21, 'rot1': 296, 'rot0': 254, 'rot3': 0, 'rot2': 2, 'state': 'normal', 'yaw': -179.87, 'datetime': '2018-10-05 15:32:30.702965', 'mgs': 1, 'volt': 0.8008, 'depth': 0.012, 'time': 11, 'pitch': -3.89, 'roll': -1.47, 'pres': 164}
{'lipoC2': 7.9, 'lipoC3S1': 4.12, 'temp': 25.88, 'lipoC3S3': 12.45, 'lipoC3S2': 8.24, 'rot1': 302, 'rot0': 260, 'rot3': 0, 'rot2': 2, 'state': 'normal', 'yaw': 177.07, 'datetime': '2018-10-05 15:32:30.806828', 'mgs': 1, 'volt': 0.7959, 'depth': -0.064, 'time': 11, 'pitch': -3.86, 'roll': -1.58, 'pres': 163}
{'lipoC2': 7.9, 'lipoC3S1': 4.11, 'temp': 25.88, 'lipoC3S3': 12.46, 'lipoC3S2': 8.22, 'rot1': 308, 'rot0': 266, 'rot3': 0, 'rot2': 2, 'state': 'normal', 'yaw': 174.29, 'datetime': '2018-10-05 15:32:30.910829', 'mgs': 1, 'volt': 0.7764, 'depth': -0.369, 'time': 11, 'pitch': -3.8, 'roll': -1.71, 'pres': 159}
{'lipoC2': 7.9, 'lipoC3S1': 4.17, 'temp': 25.88, 'lipoC3S3': 12.18, 'lipoC3S2': 8.16, 'rot1': 335, 'rot0': 294, 'rot3': 0, 'rot2': 2, 'state': 'normal', 'yaw': 172.71, 'datetime': '2018-10-05 15:32:31.014812', 'mgs': 1, 'volt': 0.9033, 'depth': 1.614, 'time': 12, 'pitch': -3.79, 'roll': -1.73, 'pres': 185}
{'lipoC2': 7.88, 'lipoC3S1': 3.96, 'temp': 25.88, 'lipoC3S3': 12.1, 'lipoC3S2': 7.96, 'rot1': 352, 'rot0': 313, 'rot3': 0, 'rot2': 2, 'state': 'normal', 'yaw': 172.16, 'datetime': '2018-10-05 15:32:31.120020', 'mgs': 1, 'volt': 0.8643, 'depth': 1.004, 'time': 12, 'pitch': -3.77, 'roll': -1.71, 'pres': 177}
{'lipoC2': 7.9, 'lipoC3S1': 4.12, 'temp': 25.88, 'lipoC3S3': 12.39, 'lipoC3S2': 8.17, 'rot1': 357, 'rot0': 318, 'rot3': 0, 'rot2': 2, 'state': 'normal', 'yaw': 172.4, 'datetime': '2018-10-05 15:32:31.223514', 'mgs': 1, 'volt': 0.7959, 'depth': -0.064, 'time': 12, 'pitch': -3.73, 'roll': -1.72, 'pres': 163}
{'lipoC2': 7.9, 'lipoC3S1': 4.1, 'temp': 25.94, 'lipoC3S3': 12.43, 'lipoC3S2': 8.2, 'rot1': 363, 'rot0': 324, 'rot3': 0, 'rot2': 2, 'state': 'normal', 'yaw': 172.76, 'datetime': '2018-10-05 15:32:31.328711', 'mgs': 1, 'volt': 0.7861, 'depth': -0.217, 'time': 12, 'pitch': -3.74, 'roll': -1.68, 'pres': 161}
{'lipoC2': 7.9, 'lipoC3S1': 4.11, 'temp': 25.94, 'lipoC3S3': 12.48, 'lipoC3S2': 8.24, 'rot1': 369, 'rot0': 330, 'rot3': 0, 'rot2': 2, 'state': 'normal', 'yaw': 172.9, 'datetime': '2018-10-05 15:32:31.432501', 'mgs': 1, 'volt': 0.8008, 'depth': 0.012, 'time': 12, 'pitch': -3.71, 'roll': -1.66, 'pres': 164}
{'lipoC2': 7.9, 'lipoC3S1': 4.12, 'temp': 25.94, 'lipoC3S3': 12.43, 'lipoC3S2': 8.24, 'rot1': 375, 'rot0': 336, 'rot3': 0, 'rot2': 2, 'state': 'normal', 'yaw': 172.33, 'datetime': '2018-10-05 15:32:31.538092', 'mgs': 1, 'volt': 0.791, 'depth': -0.14, 'time': 12, 'pitch': -3.71, 'roll': -1.62, 'pres': 162}
{'lipoC2': 7.9, 'lipoC3S1': 4.11, 'temp': 25.94, 'lipoC3S3': 12.47, 'lipoC3S2': 8.22, 'rot1': 381, 'rot0': 342, 'rot3': 0, 'rot2': 2, 'state': 'normal', 'yaw': 170.31, 'datetime': '2018-10-05 15:32:31.641792', 'mgs': 1, 'volt': 0.7813, 'depth': -0.293, 'time': 12, 'pitch': -3.79, 'roll': -1.68, 'pres': 160}
{'lipoC2': 7.9, 'lipoC3S1': 4.12, 'temp': 25.94, 'lipoC3S3': 12.43, 'lipoC3S2': 8.25, 'rot1': 387, 'rot0': 348, 'rot3': 0, 'rot2': 2, 'state': 'normal', 'yaw': 167.44, 'datetime': '2018-10-05 15:32:31.745911', 'mgs': 1, 'volt': 0.7959, 'depth': -0.064, 'time': 12, 'pitch': -3.89, 'roll': -1.86, 'pres': 163}
{'lipoC2': 7.9, 'lipoC3S1': 4.14, 'temp': 25.94, 'lipoC3S3': 12.45, 'lipoC3S2': 8.21, 'rot1': 393, 'rot0': 354, 'rot3': 0, 'rot2': 2, 'state': 'normal', 'yaw': 164.22, 'datetime': '2018-10-05 15:32:31.851201', 'mgs': 1, 'volt': 0.791, 'depth': -0.14, 'time': 12, 'pitch': -3.86, 'roll': -1.97, 'pres': 162}
{'lipoC2': 7.91, 'lipoC3S1': 4.11, 'temp': 25.94, 'lipoC3S3': 12.5, 'lipoC3S2': 8.24, 'rot1': 399, 'rot0': 360, 'rot3': 0, 'rot2': 2, 'state': 'normal', 'yaw': 160.63, 'datetime': '2018-10-05 15:32:31.954829', 'mgs': 1, 'volt': 0.8057, 'depth': 0.089, 'time': 12, 'pitch': -3.85, 'roll': -2.07, 'pres': 165}
{'lipoC2': 7.9, 'lipoC3S1': 4.18, 'temp': 25.94, 'lipoC3S3': 12.45, 'lipoC3S2': 8.2, 'rot1': 405, 'rot0': 366, 'rot3': 0, 'rot2': 2, 'state': 'normal', 'yaw': 157.32, 'datetime': '2018-10-05 15:32:32.058937', 'mgs': 1, 'volt': 0.7861, 'depth': -0.217, 'time': 13, 'pitch': -4.0, 'roll': -2.18, 'pres': 161}
{'lipoC2': 7.9, 'lipoC3S1': 4.09, 'temp': 25.94, 'lipoC3S3': 12.46, 'lipoC3S2': 8.21, 'rot1': 411, 'rot0': 371, 'rot3': 0, 'rot2': 2, 'state': 'normal', 'yaw': 153.93, 'datetime': '2018-10-05 15:32:32.163234', 'mgs': 1, 'volt': 0.7227, 'depth': -1.208, 'time': 13, 'pitch': -4.14, 'roll': -2.29, 'pres': 148}
{'lipoC2': 7.9, 'lipoC3S1': 4.13, 'temp': 25.94, 'lipoC3S3': 12.48, 'lipoC3S2': 8.28, 'rot1': 416, 'rot0': 377, 'rot3': 0, 'rot2': 2, 'state': 'normal', 'yaw': 150.21, 'datetime': '2018-10-05 15:32:32.267037', 'mgs': 1, 'volt': 0.8008, 'depth': 0.012, 'time': 13, 'pitch': -4.18, 'roll': -2.42, 'pres': 164}
{'lipoC2': 7.91, 'lipoC3S1': 4.1, 'temp': 25.94, 'lipoC3S3': 12.48, 'lipoC3S2': 8.23, 'rot1': 422, 'rot0': 382, 'rot3': 0, 'rot2': 2, 'state': 'normal', 'yaw': 146.85, 'datetime': '2018-10-05 15:32:32.371100', 'mgs': 1, 'volt': 0.7813, 'depth': -0.293, 'time': 13, 'pitch': -4.54, 'roll': -2.5, 'pres': 160}
{'lipoC2': 7.88, 'lipoC3S1': 4.14, 'temp': 25.94, 'lipoC3S3': 12.47, 'lipoC3S2': 8.34, 'rot1': 427, 'rot0': 387, 'rot3': 0, 'rot2': 2, 'state': 'normal', 'yaw': 142.97, 'datetime': '2018-10-05 15:32:32.474741', 'mgs': 1, 'volt': 0.8008, 'depth': 0.012, 'time': 13, 'pitch': -4.93, 'roll': -2.53, 'pres': 164}
{'lipoC2': 7.91, 'lipoC3S1': 4.1, 'temp': 25.94, 'lipoC3S3': 12.5, 'lipoC3S2': 8.23, 'rot1': 432, 'rot0': 393, 'rot3': 0, 'rot2': 2, 'state': 'normal', 'yaw': 139.28, 'datetime': '2018-10-05 15:32:32.578801', 'mgs': 1, 'volt': 0.7813, 'depth': -0.293, 'time': 13, 'pitch': -5.04, 'roll': -2.63, 'pres': 160}
{'lipoC2': 7.9, 'lipoC3S1': 4.1, 'temp': 25.94, 'lipoC3S3': 12.51, 'lipoC3S2': 8.24, 'rot1': 437, 'rot0': 398, 'rot3': 0, 'rot2': 2, 'state': 'normal', 'yaw': 135.62, 'datetime': '2018-10-05 15:32:32.684524', 'mgs': 1, 'volt': 0.7813, 'depth': -0.293, 'time': 13, 'pitch': -5.11, 'roll': -2.67, 'pres': 160}
{'lipoC2': 7.88, 'lipoC3S1': 4.16, 'temp': 25.94, 'lipoC3S3': 12.41, 'lipoC3S2': 8.25, 'rot1': 442, 'rot0': 403, 'rot3': 0, 'rot2': 2, 'state': 'normal', 'yaw': 131.54, 'datetime': '2018-10-05 15:32:32.794774', 'mgs': 1, 'volt': 0.791, 'depth': -0.14, 'time': 13, 'pitch': -5.24, 'roll': -2.7, 'pres': 162}
{'lipoC2': 7.9, 'lipoC3S1': 4.13, 'temp': 25.94, 'lipoC3S3': 12.42, 'lipoC3S2': 8.17, 'rot1': 447, 'rot0': 407, 'rot3': 0, 'rot2': 2, 'state': 'normal', 'yaw': 127.87, 'datetime': '2018-10-05 15:32:32.900006', 'mgs': 1, 'volt': 0.7764, 'depth': -0.369, 'time': 13, 'pitch': -5.36, 'roll': -2.78, 'pres': 159}
{'lipoC2': 7.9, 'lipoC3S1': 4.1, 'temp': 25.94, 'lipoC3S3': 12.56, 'lipoC3S2': 8.26, 'rot1': 452, 'rot0': 412, 'rot3': 0, 'rot2': 2, 'state': 'normal', 'yaw': 123.93, 'datetime': '2018-10-05 15:32:33.003721', 'mgs': 1, 'volt': 0.8252, 'depth': 0.394, 'time': 14, 'pitch': -5.41, 'roll': -2.79, 'pres': 169}
{'lipoC2': 7.9, 'lipoC3S1': 4.13, 'temp': 25.94, 'lipoC3S3': 12.39, 'lipoC3S2': 8.24, 'rot1': 456, 'rot0': 417, 'rot3': 0, 'rot2': 2, 'state': 'normal', 'yaw': 120.49, 'datetime': '2018-10-05 15:32:33.102328', 'mgs': 1, 'volt': 0.7861, 'depth': -0.217, 'time': 14, 'pitch': -5.49, 'roll': -2.82, 'pres': 161}
{'lipoC2': 7.9, 'lipoC3S1': 4.13, 'temp': 25.94, 'lipoC3S3': 12.38, 'lipoC3S2': 8.24, 'rot1': 461, 'rot0': 422, 'rot3': 0, 'rot2': 2, 'state': 'normal', 'yaw': 116.84, 'datetime': '2018-10-05 15:32:33.206906', 'mgs': 1, 'volt': 0.791, 'depth': -0.14, 'time': 14, 'pitch': -5.63, 'roll': -2.86, 'pres': 162}
{'lipoC2': 7.9, 'lipoC3S1': 4.1, 'temp': 25.94, 'lipoC3S3': 12.55, 'lipoC3S2': 8.25, 'rot1': 465, 'rot0': 426, 'rot3': 0, 'rot2': 2, 'state': 'normal', 'yaw': 113.62, 'datetime': '2018-10-05 15:32:33.310982', 'mgs': 1, 'volt': 0.7813, 'depth': -0.293, 'time': 14, 'pitch': -5.71, 'roll': -2.86, 'pres': 160}
{'lipoC2': 7.9, 'lipoC3S1': 4.14, 'temp': 25.94, 'lipoC3S3': 12.38, 'lipoC3S2': 8.25, 'rot1': 469, 'rot0': 430, 'rot3': 0, 'rot2': 2, 'state': 'normal', 'yaw': 110.46, 'datetime': '2018-10-05 15:32:33.414692', 'mgs': 1, 'volt': 0.7813, 'depth': -0.293, 'time': 14, 'pitch': -5.78, 'roll': -2.88, 'pres': 160}
{'lipoC2': 7.9, 'lipoC3S1': 4.08, 'temp': 25.94, 'lipoC3S3': 12.55, 'lipoC3S2': 8.23, 'rot1': 473, 'rot0': 434, 'rot3': 0, 'rot2': 2, 'state': 'normal', 'yaw': 107.08, 'datetime': '2018-10-05 15:32:33.518631', 'mgs': 1, 'volt': 0.7813, 'depth': -0.293, 'time': 14, 'pitch': -5.94, 'roll': -2.89, 'pres': 160}
{'lipoC2': 7.88, 'lipoC3S1': 4.14, 'temp': 25.94, 'lipoC3S3': 12.47, 'lipoC3S2': 8.25, 'rot1': 477, 'rot0': 438, 'rot3': 0, 'rot2': 2, 'state': 'normal', 'yaw': 104.08, 'datetime': '2018-10-05 15:32:33.622686', 'mgs': 1, 'volt': 0.7959, 'depth': -0.064, 'time': 14, 'pitch': -6.04, 'roll': -2.89, 'pres': 163}
{'lipoC2': 7.9, 'lipoC3S1': 4.07, 'temp': 25.94, 'lipoC3S3': 12.51, 'lipoC3S2': 8.21, 'rot1': 481, 'rot0': 442, 'rot3': 0, 'rot2': 2, 'state': 'normal', 'yaw': 101.05, 'datetime': '2018-10-05 15:32:33.726680', 'mgs': 1, 'volt': 0.7813, 'depth': -0.293, 'time': 14, 'pitch': -6.1, 'roll': -2.94, 'pres': 160}
{'lipoC2': 7.88, 'lipoC3S1': 4.2, 'temp': 25.94, 'lipoC3S3': 12.47, 'lipoC3S2': 8.25, 'rot1': 485, 'rot0': 445, 'rot3': 0, 'rot2': 2, 'state': 'normal', 'yaw': 97.46, 'datetime': '2018-10-05 15:32:33.830423', 'mgs': 1, 'volt': 0.8008, 'depth': 0.012, 'time': 14, 'pitch': -6.18, 'roll': -2.91, 'pres': 164}
{'lipoC2': 7.88, 'lipoC3S1': 4.14, 'temp': 25.94, 'lipoC3S3': 12.48, 'lipoC3S2': 8.26, 'rot1': 488, 'rot0': 449, 'rot3': 0, 'rot2': 2, 'state': 'normal', 'yaw': 94.04, 'datetime': '2018-10-05 15:32:33.935030', 'mgs': 1, 'volt': 0.791, 'depth': -0.14, 'time': 14, 'pitch': -6.32, 'roll': -2.89, 'pres': 162}
{'lipoC2': 7.9, 'lipoC3S1': 4.13, 'temp': 25.94, 'lipoC3S3': 12.45, 'lipoC3S2': 8.15, 'rot1': 492, 'rot0': 452, 'rot3': 0, 'rot2': 2, 'state': 'normal', 'yaw': 90.25, 'datetime': '2018-10-05 15:32:34.039071', 'mgs': 1, 'volt': 0.7813, 'depth': -0.293, 'time': 15, 'pitch': -6.41, 'roll': -2.85, 'pres': 160}
{'lipoC2': 7.9, 'lipoC3S1': 4.13, 'temp': 25.94, 'lipoC3S3': 12.5, 'lipoC3S2': 8.26, 'rot1': 495, 'rot0': 456, 'rot3': 0, 'rot2': 2, 'state': 'normal', 'yaw': 86.93, 'datetime': '2018-10-05 15:32:34.143030', 'mgs': 1, 'volt': 0.8252, 'depth': 0.394, 'time': 15, 'pitch': -6.43, 'roll': -2.81, 'pres': 169}
{'lipoC2': 7.88, 'lipoC3S1': 4.14, 'temp': 25.94, 'lipoC3S3': 12.47, 'lipoC3S2': 8.25, 'rot1': 498, 'rot0': 459, 'rot3': 0, 'rot2': 2, 'state': 'normal', 'yaw': 83.7, 'datetime': '2018-10-05 15:32:34.248513', 'mgs': 1, 'volt': 0.8105, 'depth': 0.165, 'time': 15, 'pitch': -6.48, 'roll': -2.73, 'pres': 166}
{'lipoC2': 7.9, 'lipoC3S1': 4.07, 'temp': 25.94, 'lipoC3S3': 12.58, 'lipoC3S2': 8.23, 'rot1': 501, 'rot0': 462, 'rot3': 0, 'rot2': 2, 'state': 'normal', 'yaw': 80.04, 'datetime': '2018-10-05 15:32:34.352167', 'mgs': 1, 'volt': 0.7813, 'depth': -0.293, 'time': 15, 'pitch': -6.56, 'roll': -2.65, 'pres': 160}
{'lipoC2': 7.9, 'lipoC3S1': 4.11, 'temp': 25.94, 'lipoC3S3': 12.51, 'lipoC3S2': 8.3, 'rot1': 504, 'rot0': 465, 'rot3': 0, 'rot2': 2, 'state': 'normal', 'yaw': 76.59, 'datetime': '2018-10-05 15:32:34.456325', 'mgs': 1, 'volt': 0.7861, 'depth': -0.217, 'time': 15, 'pitch': -6.49, 'roll': -2.5, 'pres': 161}
{'lipoC2': 7.9, 'lipoC3S1': 4.11, 'temp': 25.94, 'lipoC3S3': 12.5, 'lipoC3S2': 8.31, 'rot1': 507, 'rot0': 468, 'rot3': 0, 'rot2': 2, 'state': 'normal', 'yaw': 72.67, 'datetime': '2018-10-05 15:32:34.560769', 'mgs': 1, 'volt': 0.7813, 'depth': -0.293, 'time': 15, 'pitch': -6.36, 'roll': -2.38, 'pres': 160}
{'lipoC2': 7.9, 'lipoC3S1': 4.14, 'temp': 25.94, 'lipoC3S3': 12.38, 'lipoC3S2': 8.26, 'rot1': 510, 'rot0': 471, 'rot3': 0, 'rot2': 2, 'state': 'normal', 'yaw': 69.06, 'datetime': '2018-10-05 15:32:34.664588', 'mgs': 1, 'volt': 0.7813, 'depth': -0.293, 'time': 15, 'pitch': -6.23, 'roll': -2.29, 'pres': 160}
{'lipoC2': 7.9, 'lipoC3S1': 4.1, 'temp': 26.0, 'lipoC3S3': 12.51, 'lipoC3S2': 8.3, 'rot1': 512, 'rot0': 473, 'rot3': 0, 'rot2': 2, 'state': 'normal', 'yaw': 65.4, 'datetime': '2018-10-05 15:32:34.768641', 'mgs': 1, 'volt': 0.7813, 'depth': -0.293, 'time': 15, 'pitch': -6.22, 'roll': -2.26, 'pres': 160}
{'lipoC2': 7.9, 'lipoC3S1': 4.14, 'temp': 26.0, 'lipoC3S3': 12.5, 'lipoC3S2': 8.27, 'rot1': 515, 'rot0': 476, 'rot3': 0, 'rot2': 2, 'state': 'normal', 'yaw': 61.4, 'datetime': '2018-10-05 15:32:34.872450', 'mgs': 1, 'volt': 0.7275, 'depth': -1.132, 'time': 15, 'pitch': -6.26, 'roll': -2.24, 'pres': 149}
{'lipoC2': 7.9, 'lipoC3S1': 4.09, 'temp': 25.94, 'lipoC3S3': 12.51, 'lipoC3S2': 8.3, 'rot1': 517, 'rot0': 478, 'rot3': 0, 'rot2': 2, 'state': 'normal', 'yaw': 57.82, 'datetime': '2018-10-05 15:32:34.976438', 'mgs': 1, 'volt': 0.7813, 'depth': -0.293, 'time': 15, 'pitch': -6.25, 'roll': -2.22, 'pres': 160}
{'lipoC2': 7.9, 'lipoC3S1': 4.14, 'temp': 25.94, 'lipoC3S3': 12.5, 'lipoC3S2': 8.27, 'rot1': 519, 'rot0': 480, 'rot3': 0, 'rot2': 2, 'state': 'normal', 'yaw': 54.47, 'datetime': '2018-10-05 15:32:35.080502', 'mgs': 1, 'volt': 0.7813, 'depth': -0.293, 'time': 16, 'pitch': -6.29, 'roll': -2.19, 'pres': 160}
{'lipoC2': 7.9, 'lipoC3S1': 4.08, 'temp': 25.94, 'lipoC3S3': 12.51, 'lipoC3S2': 8.27, 'rot1': 521, 'rot0': 482, 'rot3': 0, 'rot2': 2, 'state': 'normal', 'yaw': 51.25, 'datetime': '2018-10-05 15:32:35.184570', 'mgs': 1, 'volt': 0.7813, 'depth': -0.293, 'time': 16, 'pitch': -6.34, 'roll': -2.17, 'pres': 160}
{'lipoC2': 7.9, 'lipoC3S1': 4.14, 'temp': 26.0, 'lipoC3S3': 12.51, 'lipoC3S2': 8.27, 'rot1': 523, 'rot0': 484, 'rot3': 0, 'rot2': 2, 'state': 'normal', 'yaw': 48.78, 'datetime': '2018-10-05 15:32:35.288286', 'mgs': 1, 'volt': 0.7422, 'depth': -0.903, 'time': 16, 'pitch': -6.34, 'roll': -2.17, 'pres': 152}
{'lipoC2': 7.9, 'lipoC3S1': 4.14, 'temp': 26.0, 'lipoC3S3': 12.51, 'lipoC3S2': 8.27, 'rot1': 525, 'rot0': 485, 'rot3': 0, 'rot2': 2, 'state': 'normal', 'yaw': 46.61, 'datetime': '2018-10-05 15:32:35.392643', 'mgs': 1, 'volt': 0.8008, 'depth': 0.012, 'time': 16, 'pitch': -6.28, 'roll': -2.18, 'pres': 164}
{'lipoC2': 7.9, 'lipoC3S1': 4.14, 'temp': 25.94, 'lipoC3S3': 12.52, 'lipoC3S2': 8.26, 'rot1': 526, 'rot0': 487, 'rot3': 0, 'rot2': 2, 'state': 'normal', 'yaw': 44.58, 'datetime': '2018-10-05 15:32:35.496601', 'mgs': 1, 'volt': 0.7813, 'depth': -0.293, 'time': 16, 'pitch': -6.27, 'roll': -2.13, 'pres': 160}
{'lipoC2': 7.9, 'lipoC3S1': 4.1, 'temp': 25.94, 'lipoC3S3': 12.52, 'lipoC3S2': 8.28, 'rot1': 528, 'rot0': 489, 'rot3': 0, 'rot2': 2, 'state': 'normal', 'yaw': 42.9, 'datetime': '2018-10-05 15:32:35.601940', 'mgs': 1, 'volt': 0.7813, 'depth': -0.293, 'time': 16, 'pitch': -6.36, 'roll': -2.07, 'pres': 160}
{'lipoC2': 7.9, 'lipoC3S1': 4.14, 'temp': 26.0, 'lipoC3S3': 12.51, 'lipoC3S2': 8.28, 'rot1': 529, 'rot0': 490, 'rot3': 0, 'rot2': 2, 'state': 'normal', 'yaw': 41.0, 'datetime': '2018-10-05 15:32:35.709638', 'mgs': 1, 'volt': 0.7813, 'depth': -0.293, 'time': 16, 'pitch': -6.4, 'roll': -2.06, 'pres': 160}
{'lipoC2': 7.9, 'lipoC3S1': 4.14, 'temp': 26.0, 'lipoC3S3': 12.51, 'lipoC3S2': 8.28, 'rot1': 531, 'rot0': 492, 'rot3': 0, 'rot2': 2, 'state': 'normal', 'yaw': 39.21, 'datetime': '2018-10-05 15:32:35.810416', 'mgs': 1, 'volt': 0.8008, 'depth': 0.012, 'time': 16, 'pitch': -6.35, 'roll': -2.04, 'pres': 164}
{'lipoC2': 7.91, 'lipoC3S1': 4.15, 'temp': 26.0, 'lipoC3S3': 12.52, 'lipoC3S2': 8.28, 'rot1': 532, 'rot0': 493, 'rot3': 0, 'rot2': 2, 'state': 'normal', 'yaw': 37.25, 'datetime': '2018-10-05 15:32:35.914814', 'mgs': 1, 'volt': 0.7813, 'depth': -0.293, 'time': 16, 'pitch': -6.34, 'roll': -2.02, 'pres': 160}
{'lipoC2': 7.9, 'lipoC3S1': 4.14, 'temp': 26.0, 'lipoC3S3': 12.52, 'lipoC3S2': 8.25, 'rot1': 533, 'rot0': 494, 'rot3': 0, 'rot2': 2, 'state': 'normal', 'yaw': 35.46, 'datetime': '2018-10-05 15:32:36.018749', 'mgs': 1, 'volt': 0.7813, 'depth': -0.293, 'time': 17, 'pitch': -6.39, 'roll': -1.99, 'pres': 160}
{'lipoC2': 7.9, 'lipoC3S1': 4.14, 'temp': 26.0, 'lipoC3S3': 12.52, 'lipoC3S2': 8.28, 'rot1': 535, 'rot0': 496, 'rot3': 0, 'rot2': 2, 'state': 'normal', 'yaw': 33.62, 'datetime': '2018-10-05 15:32:36.122747', 'mgs': 1, 'volt': 0.7813, 'depth': -0.293, 'time': 17, 'pitch': -6.42, 'roll': -1.97, 'pres': 160}
{'lipoC2': 7.9, 'lipoC3S1': 4.14, 'temp': 26.0, 'lipoC3S3': 12.52, 'lipoC3S2': 8.24, 'rot1': 536, 'rot0': 497, 'rot3': 0, 'rot2': 2, 'state': 'normal', 'yaw': 31.59, 'datetime': '2018-10-05 15:32:36.226632', 'mgs': 1, 'volt': 0.7813, 'depth': -0.293, 'time': 17, 'pitch': -6.37, 'roll': -2.0, 'pres': 160}
{'lipoC2': 7.9, 'lipoC3S1': 4.15, 'temp': 26.0, 'lipoC3S3': 12.52, 'lipoC3S2': 8.28, 'rot1': 537, 'rot0': 498, 'rot3': 0, 'rot2': 2, 'state': 'normal', 'yaw': 29.83, 'datetime': '2018-10-05 15:32:36.330572', 'mgs': 1, 'volt': 0.7959, 'depth': -0.064, 'time': 17, 'pitch': -6.4, 'roll': -1.96, 'pres': 163}
{'lipoC2': 7.9, 'lipoC3S1': 4.14, 'temp': 26.06, 'lipoC3S3': 12.52, 'lipoC3S2': 8.23, 'rot1': 538, 'rot0': 499, 'rot3': 0, 'rot2': 2, 'state': 'normal', 'yaw': 28.24, 'datetime': '2018-10-05 15:32:36.434533', 'mgs': 1, 'volt': 0.7813, 'depth': -0.293, 'time': 17, 'pitch': -6.43, 'roll': -1.97, 'pres': 160}
{'lipoC2': 7.9, 'lipoC3S1': 4.15, 'temp': 26.06, 'lipoC3S3': 12.52, 'lipoC3S2': 8.28, 'rot1': 539, 'rot0': 500, 'rot3': 0, 'rot2': 2, 'state': 'normal', 'yaw': 26.65, 'datetime': '2018-10-05 15:32:36.538413', 'mgs': 1, 'volt': 0.7959, 'depth': -0.064, 'time': 17, 'pitch': -6.48, 'roll': -1.94, 'pres': 163}
{'lipoC2': 7.9, 'lipoC3S1': 4.15, 'temp': 26.06, 'lipoC3S3': 12.52, 'lipoC3S2': 8.21, 'rot1': 540, 'rot0': 501, 'rot3': 0, 'rot2': 2, 'state': 'normal', 'yaw': 25.35, 'datetime': '2018-10-05 15:32:36.642396', 'mgs': 1, 'volt': 0.7813, 'depth': -0.293, 'time': 17, 'pitch': -6.47, 'roll': -1.9, 'pres': 160}
{'lipoC2': 7.9, 'lipoC3S1': 4.15, 'temp': 26.0, 'lipoC3S3': 12.47, 'lipoC3S2': 8.28, 'rot1': 541, 'rot0': 502, 'rot3': 0, 'rot2': 2, 'state': 'normal', 'yaw': 24.18, 'datetime': '2018-10-05 15:32:36.746896', 'mgs': 1, 'volt': 0.7813, 'depth': -0.293, 'time': 17, 'pitch': -6.49, 'roll': -1.91, 'pres': 160}
{'lipoC2': 7.9, 'lipoC3S1': 4.15, 'temp': 26.0, 'lipoC3S3': 12.54, 'lipoC3S2': 8.29, 'rot1': 542, 'rot0': 503, 'rot3': 0, 'rot2': 2, 'state': 'normal', 'yaw': 22.87, 'datetime': '2018-10-05 15:32:36.850780', 'mgs': 1, 'volt': 0.7813, 'depth': -0.293, 'time': 17, 'pitch': -6.45, 'roll': -1.91, 'pres': 160}
{'lipoC2': 7.9, 'lipoC3S1': 4.15, 'temp': 25.94, 'lipoC3S3': 12.54, 'lipoC3S2': 8.29, 'rot1': 542, 'rot0': 503, 'rot3': 0, 'rot2': 2, 'state': 'normal', 'yaw': 21.62, 'datetime': '2018-10-05 15:32:36.956059', 'mgs': 1, 'volt': 0.7959, 'depth': -0.064, 'time': 17, 'pitch': -6.49, 'roll': -1.91, 'pres': 163}
{'lipoC2': 7.9, 'lipoC3S1': 4.15, 'temp': 25.94, 'lipoC3S3': 12.54, 'lipoC3S2': 8.23, 'rot1': 543, 'rot0': 504, 'rot3': 0, 'rot2': 2, 'state': 'normal', 'yaw': 20.2, 'datetime': '2018-10-05 15:32:37.059996', 'mgs': 1, 'volt': 0.7813, 'depth': -0.293, 'time': 18, 'pitch': -6.54, 'roll': -1.89, 'pres': 160}
{'lipoC2': 7.9, 'lipoC3S1': 4.11, 'temp': 25.94, 'lipoC3S3': 12.54, 'lipoC3S2': 8.29, 'rot1': 544, 'rot0': 505, 'rot3': 0, 'rot2': 2, 'state': 'normal', 'yaw': 18.92, 'datetime': '2018-10-05 15:32:37.164083', 'mgs': 1, 'volt': 0.7813, 'depth': -0.293, 'time': 18, 'pitch': -6.58, 'roll': -1.91, 'pres': 160}
{'lipoC2': 7.9, 'lipoC3S1': 4.15, 'temp': 25.94, 'lipoC3S3': 12.52, 'lipoC3S2': 8.29, 'rot1': 544, 'rot0': 505, 'rot3': 0, 'rot2': 2, 'state': 'normal', 'yaw': 17.71, 'datetime': '2018-10-05 15:32:37.269040', 'mgs': 1, 'volt': 0.7813, 'depth': -0.293, 'time': 18, 'pitch': -6.62, 'roll': -1.91, 'pres': 160}
{'lipoC2': 7.9, 'lipoC3S1': 4.15, 'temp': 25.94, 'lipoC3S3': 12.54, 'lipoC3S2': 8.29, 'rot1': 545, 'rot0': 506, 'rot3': 0, 'rot2': 2, 'state': 'normal', 'yaw': 16.37, 'datetime': '2018-10-05 15:32:37.372780', 'mgs': 1, 'volt': 0.7813, 'depth': -0.293, 'time': 18, 'pitch': -6.59, 'roll': -1.92, 'pres': 160}
{'lipoC2': 7.9, 'lipoC3S1': 4.15, 'temp': 26.0, 'lipoC3S3': 12.52, 'lipoC3S2': 8.29, 'rot1': 545, 'rot0': 507, 'rot3': 0, 'rot2': 2, 'state': 'normal', 'yaw': 15.1, 'datetime': '2018-10-05 15:32:37.476679', 'mgs': 1, 'volt': 0.7813, 'depth': -0.293, 'time': 18, 'pitch': -6.57, 'roll': -1.92, 'pres': 160}
{'lipoC2': 7.9, 'lipoC3S1': 4.15, 'temp': 26.0, 'lipoC3S3': 12.54, 'lipoC3S2': 8.29, 'rot1': 546, 'rot0': 507, 'rot3': 0, 'rot2': 2, 'state': 'normal', 'yaw': 13.62, 'datetime': '2018-10-05 15:32:37.580830', 'mgs': 1, 'volt': 0.7813, 'depth': -0.293, 'time': 18, 'pitch': -6.62, 'roll': -1.92, 'pres': 160}
{'lipoC2': 7.9, 'lipoC3S1': 4.15, 'temp': 26.0, 'lipoC3S3': 12.54, 'lipoC3S2': 8.29, 'rot1': 546, 'rot0': 507, 'rot3': 0, 'rot2': 2, 'state': 'normal', 'yaw': 12.0, 'datetime': '2018-10-05 15:32:37.684564', 'mgs': 1, 'volt': 0.7813, 'depth': -0.293, 'time': 18, 'pitch': -6.54, 'roll': -1.9, 'pres': 160}
{'lipoC2': 7.9, 'lipoC3S1': 4.15, 'temp': 26.0, 'lipoC3S3': 12.54, 'lipoC3S2': 8.29, 'rot1': 547, 'rot0': 508, 'rot3': 0, 'rot2': 2, 'state': 'normal', 'yaw': 10.25, 'datetime': '2018-10-05 15:32:37.788426', 'mgs': 1, 'volt': 0.7813, 'depth': -0.293, 'time': 18, 'pitch': -6.45, 'roll': -1.9, 'pres': 160}
{'lipoC2': 7.9, 'lipoC3S1': 4.15, 'temp': 26.0, 'lipoC3S3': 12.54, 'lipoC3S2': 8.29, 'rot1': 547, 'rot0': 508, 'rot3': 0, 'rot2': 2, 'state': 'normal', 'yaw': 8.3, 'datetime': '2018-10-05 15:32:37.892368', 'mgs': 1, 'volt': 0.7813, 'depth': -0.293, 'time': 18, 'pitch': -6.61, 'roll': -1.86, 'pres': 160}
{'lipoC2': 7.9, 'lipoC3S1': 4.15, 'temp': 26.0, 'lipoC3S3': 12.54, 'lipoC3S2': 8.29, 'rot1': 547, 'rot0': 508, 'rot3': 0, 'rot2': 2, 'state': 'normal', 'yaw': 6.48, 'datetime': '2018-10-05 15:32:37.996312', 'mgs': 1, 'volt': 0.7813, 'depth': -0.293, 'time': 19, 'pitch': -6.54, 'roll': -1.81, 'pres': 160}
{'lipoC2': 7.9, 'lipoC3S1': 4.16, 'temp': 26.0, 'lipoC3S3': 12.54, 'lipoC3S2': 8.29, 'rot1': 547, 'rot0': 509, 'rot3': 0, 'rot2': 2, 'state': 'normal', 'yaw': 4.47, 'datetime': '2018-10-05 15:32:38.100963', 'mgs': 1, 'volt': 0.7813, 'depth': -0.293, 'time': 19, 'pitch': -6.39, 'roll': -1.77, 'pres': 160}
{'lipoC2': 7.9, 'lipoC3S1': 4.15, 'temp': 25.94, 'lipoC3S3': 12.54, 'lipoC3S2': 8.29, 'rot1': 547, 'rot0': 509, 'rot3': 0, 'rot2': 2, 'state': 'normal', 'yaw': 2.22, 'datetime': '2018-10-05 15:32:38.204860', 'mgs': 1, 'volt': 0.7813, 'depth': -0.293, 'time': 19, 'pitch': -6.45, 'roll': -1.8, 'pres': 160}
