{'lipoC2': 7.55, 'lipoC3S1': 4.14, 'temp': 30.94, 'lipoC3S3': 12.51, 'lipoC3S2': 8.27, 'rot1': 0, 'rot0': 0, 'rot3': 0, 'rot2': 0, 'state': 'normal', 'yaw': -122.22, 'datetime': '2018-10-09 12:04:30.242098', 'mgs': 0, 'volt': 0.9082, 'depth': 1.691, 'time': 344, 'pitch': 4.2, 'roll': -0.02, 'pres': 186}
{'lipoC2': 7.55, 'lipoC3S1': 4.14, 'temp': 30.94, 'lipoC3S3': 12.51, 'lipoC3S2': 8.28, 'rot1': 0, 'rot0': 0, 'rot3': 0, 'rot2': 0, 'state': 'normal', 'yaw': -121.87, 'datetime': '2018-10-09 12:04:30.273641', 'mgs': 0, 'volt': 0.9033, 'depth': 1.614, 'time': 344, 'pitch': 5.16, 'roll': -0.14, 'pres': 185}
{'lipoC2': 7.55, 'lipoC3S1': 4.14, 'temp': 30.94, 'lipoC3S3': 12.51, 'lipoC3S2': 8.27, 'rot1': 0, 'rot0': 0, 'rot3': 0, 'rot2': 0, 'state': 'normal', 'yaw': -121.46, 'datetime': '2018-10-09 12:04:30.305489', 'mgs': 0, 'volt': 0.9082, 'depth': 1.691, 'time': 344, 'pitch': 5.7, 'roll': -0.39, 'pres': 186}
{'lipoC2': 7.55, 'lipoC3S1': 4.14, 'temp': 31.0, 'lipoC3S3': 12.51, 'lipoC3S2': 8.27, 'rot1': 0, 'rot0': 0, 'rot3': 0, 'rot2': 0, 'state': 'normal', 'yaw': -120.99, 'datetime': '2018-10-09 12:04:30.328036', 'mgs': 0, 'volt': 0.9082, 'depth': 1.691, 'time': 344, 'pitch': 5.64, 'roll': -0.46, 'pres': 186}
{'lipoC2': 7.55, 'lipoC3S1': 4.14, 'temp': 31.0, 'lipoC3S3': 12.51, 'lipoC3S2': 8.27, 'rot1': 0, 'rot0': 0, 'rot3': 0, 'rot2': 0, 'state': 'normal', 'yaw': -120.47, 'datetime': '2018-10-09 12:04:30.342941', 'mgs': 0, 'volt': 0.9082, 'depth': 1.691, 'time': 344, 'pitch': 5.01, 'roll': -0.5, 'pres': 186}
{'lipoC2': 7.55, 'lipoC3S1': 4.14, 'temp': 31.0, 'lipoC3S3': 12.51, 'lipoC3S2': 8.28, 'rot1': 0, 'rot0': 0, 'rot3': 0, 'rot2': 0, 'state': 'normal', 'yaw': -119.99, 'datetime': '2018-10-09 12:04:30.357032', 'mgs': 0, 'volt': 0.9082, 'depth': 1.691, 'time': 344, 'pitch': 4.52, 'roll': -0.32, 'pres': 186}
{'lipoC2': 7.55, 'lipoC3S1': 4.14, 'temp': 31.0, 'lipoC3S3': 12.51, 'lipoC3S2': 8.28, 'rot1': 0, 'rot0': 0, 'rot3': 0, 'rot2': 0, 'state': 'normal', 'yaw': -119.32, 'datetime': '2018-10-09 12:04:30.370781', 'mgs': 0, 'volt': 0.9033, 'depth': 1.614, 'time': 345, 'pitch': 4.38, 'roll': -0.09, 'pres': 185}
{'lipoC2': 7.55, 'lipoC3S1': 4.14, 'temp': 31.0, 'lipoC3S3': 12.51, 'lipoC3S2': 8.27, 'rot1': 0, 'rot0': 0, 'rot3': 0, 'rot2': 0, 'state': 'normal', 'yaw': -118.64, 'datetime': '2018-10-09 12:04:30.384493', 'mgs': 0, 'volt': 0.9082, 'depth': 1.691, 'time': 345, 'pitch': 4.33, 'roll': -0.17, 'pres': 186}
{'lipoC2': 7.55, 'lipoC3S1': 4.14, 'temp': 31.0, 'lipoC3S3': 12.51, 'lipoC3S2': 8.27, 'rot1': 0, 'rot0': 0, 'rot3': 0, 'rot2': 0, 'state': 'normal', 'yaw': -117.98, 'datetime': '2018-10-09 12:04:30.398290', 'mgs': 0, 'volt': 0.9082, 'depth': 1.691, 'time': 345, 'pitch': 4.41, 'roll': -0.57, 'pres': 186}
{'lipoC2': 7.56, 'lipoC3S1': 4.14, 'temp': 31.0, 'lipoC3S3': 12.51, 'lipoC3S2': 8.27, 'rot1': 0, 'rot0': 0, 'rot3': 0, 'rot2': 0, 'state': 'normal', 'yaw': -117.35, 'datetime': '2018-10-09 12:04:30.412027', 'mgs': 0, 'volt': 0.9082, 'depth': 1.691, 'time': 345, 'pitch': 4.54, 'roll': -1.18, 'pres': 186}
{'lipoC2': 7.55, 'lipoC3S1': 4.14, 'temp': 31.0, 'lipoC3S3': 12.51, 'lipoC3S2': 8.27, 'rot1': 0, 'rot0': 0, 'rot3': 0, 'rot2': 0, 'state': 'normal', 'yaw': -116.88, 'datetime': '2018-10-09 12:04:30.425799', 'mgs': 0, 'volt': 0.9033, 'depth': 1.614, 'time': 345, 'pitch': 4.57, 'roll': -1.84, 'pres': 185}
{'lipoC2': 7.55, 'lipoC3S1': 4.14, 'temp': 31.0, 'lipoC3S3': 12.51, 'lipoC3S2': 8.27, 'rot1': 0, 'rot0': 0, 'rot3': 0, 'rot2': 0, 'state': 'normal', 'yaw': -116.74, 'datetime': '2018-10-09 12:04:30.440107', 'mgs': 0, 'volt': 0.9033, 'depth': 1.614, 'time': 345, 'pitch': 4.15, 'roll': -2.35, 'pres': 185}
{'lipoC2': 7.55, 'lipoC3S1': 4.14, 'temp': 30.94, 'lipoC3S3': 12.51, 'lipoC3S2': 8.27, 'rot1': 0, 'rot0': 0, 'rot3': 0, 'rot2': 0, 'state': 'normal', 'yaw': -116.91, 'datetime': '2018-10-09 12:04:30.454530', 'mgs': 0, 'volt': 0.8984, 'depth': 1.538, 'time': 345, 'pitch': 3.44, 'roll': -2.69, 'pres': 184}
{'lipoC2': 7.55, 'lipoC3S1': 4.14, 'temp': 30.94, 'lipoC3S3': 12.51, 'lipoC3S2': 8.27, 'rot1': 0, 'rot0': 0, 'rot3': 0, 'rot2': 0, 'state': 'normal', 'yaw': -117.3, 'datetime': '2018-10-09 12:04:30.468277', 'mgs': 0, 'volt': 0.8984, 'depth': 1.538, 'time': 345, 'pitch': 2.75, 'roll': -2.61, 'pres': 184}
{'lipoC2': 7.55, 'lipoC3S1': 4.14, 'temp': 30.94, 'lipoC3S3': 12.51, 'lipoC3S2': 8.27, 'rot1': 0, 'rot0': 0, 'rot3': 0, 'rot2': 0, 'state': 'normal', 'yaw': -117.61, 'datetime': '2018-10-09 12:04:30.484517', 'mgs': 0, 'volt': 0.8984, 'depth': 1.538, 'time': 345, 'pitch': 2.44, 'roll': -2.23, 'pres': 184}
{'lipoC2': 7.55, 'lipoC3S1': 4.14, 'temp': 30.94, 'lipoC3S3': 12.51, 'lipoC3S2': 8.27, 'rot1': 0, 'rot0': 0, 'rot3': 0, 'rot2': 0, 'state': 'normal', 'yaw': -117.76, 'datetime': '2018-10-09 12:04:30.494806', 'mgs': 0, 'volt': 0.8984, 'depth': 1.538, 'time': 346, 'pitch': 2.17, 'roll': -1.68, 'pres': 184}
{'lipoC2': 7.55, 'lipoC3S1': 4.14, 'temp': 30.94, 'lipoC3S3': 12.51, 'lipoC3S2': 8.27, 'rot1': 0, 'rot0': 0, 'rot3': 0, 'rot2': 0, 'state': 'normal', 'yaw': -117.63, 'datetime': '2018-10-09 12:04:30.504966', 'mgs': 0, 'volt': 0.8984, 'depth': 1.538, 'time': 346, 'pitch': 1.71, 'roll': -1.01, 'pres': 184}
{'lipoC2': 7.55, 'lipoC3S1': 4.14, 'temp': 30.94, 'lipoC3S3': 12.51, 'lipoC3S2': 8.27, 'rot1': 0, 'rot0': 0, 'rot3': 0, 'rot2': 0, 'state': 'normal', 'yaw': -117.35, 'datetime': '2018-10-09 12:04:30.515135', 'mgs': 0, 'volt': 0.9033, 'depth': 1.614, 'time': 346, 'pitch': 1.4, 'roll': -0.36, 'pres': 185}
{'lipoC2': 7.55, 'lipoC3S1': 4.14, 'temp': 30.94, 'lipoC3S3': 12.51, 'lipoC3S2': 8.27, 'rot1': 0, 'rot0': 0, 'rot3': 0, 'rot2': 0, 'state': 'normal', 'yaw': -116.97, 'datetime': '2018-10-09 12:04:30.525284', 'mgs': 0, 'volt': 0.9033, 'depth': 1.614, 'time': 346, 'pitch': 1.46, 'roll': 0.32, 'pres': 185}
{'lipoC2': 7.55, 'lipoC3S1': 4.14, 'temp': 30.94, 'lipoC3S3': 12.51, 'lipoC3S2': 8.27, 'rot1': 0, 'rot0': 0, 'rot3': 0, 'rot2': 0, 'state': 'normal', 'yaw': -116.49, 'datetime': '2018-10-09 12:04:30.535403', 'mgs': 0, 'volt': 0.9033, 'depth': 1.614, 'time': 346, 'pitch': 2.05, 'roll': 1.11, 'pres': 185}
{'lipoC2': 7.55, 'lipoC3S1': 4.14, 'temp': 30.94, 'lipoC3S3': 12.51, 'lipoC3S2': 8.27, 'rot1': 0, 'rot0': 0, 'rot3': 0, 'rot2': 0, 'state': 'normal', 'yaw': -116.02, 'datetime': '2018-10-09 12:04:30.545544', 'mgs': 0, 'volt': 0.9033, 'depth': 1.614, 'time': 346, 'pitch': 2.96, 'roll': 1.82, 'pres': 185}
{'lipoC2': 7.55, 'lipoC3S1': 4.14, 'temp': 30.94, 'lipoC3S3': 12.51, 'lipoC3S2': 8.27, 'rot1': 0, 'rot0': 0, 'rot3': 0, 'rot2': 0, 'state': 'normal', 'yaw': -115.59, 'datetime': '2018-10-09 12:04:30.555685', 'mgs': 0, 'volt': 0.9082, 'depth': 1.691, 'time': 346, 'pitch': 4.07, 'roll': 2.47, 'pres': 186}
{'lipoC2': 7.55, 'lipoC3S1': 4.14, 'temp': 31.0, 'lipoC3S3': 12.51, 'lipoC3S2': 8.27, 'rot1': 0, 'rot0': 0, 'rot3': 0, 'rot2': 0, 'state': 'normal', 'yaw': -115.32, 'datetime': '2018-10-09 12:04:30.565817', 'mgs': 0, 'volt': 0.9082, 'depth': 1.691, 'time': 346, 'pitch': 5.27, 'roll': 3.13, 'pres': 186}
{'lipoC2': 7.55, 'lipoC3S1': 4.14, 'temp': 31.0, 'lipoC3S3': 12.51, 'lipoC3S2': 8.27, 'rot1': 0, 'rot0': 0, 'rot3': 0, 'rot2': 0, 'state': 'normal', 'yaw': -115.5, 'datetime': '2018-10-09 12:04:30.575968', 'mgs': 0, 'volt': 0.9082, 'depth': 1.691, 'time': 346, 'pitch': 6.2, 'roll': 3.42, 'pres': 186}
{'lipoC2': 7.55, 'lipoC3S1': 4.14, 'temp': 30.94, 'lipoC3S3': 12.51, 'lipoC3S2': 8.27, 'rot1': 0, 'rot0': 0, 'rot3': 0, 'rot2': 0, 'state': 'normal', 'yaw': -116.71, 'datetime': '2018-10-09 12:04:30.586135', 'mgs': 0, 'volt': 0.9131, 'depth': 1.767, 'time': 346, 'pitch': 7.11, 'roll': 2.89, 'pres': 187}
{'lipoC2': 7.55, 'lipoC3S1': 4.14, 'temp': 30.94, 'lipoC3S3': 12.51, 'lipoC3S2': 8.27, 'rot1': 0, 'rot0': 0, 'rot3': 0, 'rot2': 0, 'state': 'normal', 'yaw': -118.7, 'datetime': '2018-10-09 12:04:30.596309', 'mgs': 0, 'volt': 0.9131, 'depth': 1.767, 'time': 347, 'pitch': 7.47, 'roll': 2.27, 'pres': 187}
{'lipoC2': 7.55, 'lipoC3S1': 4.14, 'temp': 30.94, 'lipoC3S3': 12.51, 'lipoC3S2': 8.27, 'rot1': 0, 'rot0': 0, 'rot3': 0, 'rot2': 0, 'state': 'normal', 'yaw': -121.15, 'datetime': '2018-10-09 12:04:30.606450', 'mgs': 0, 'volt': 0.9082, 'depth': 1.691, 'time': 347, 'pitch': 7.16, 'roll': 1.23, 'pres': 186}
{'lipoC2': 7.55, 'lipoC3S1': 4.14, 'temp': 30.94, 'lipoC3S3': 12.51, 'lipoC3S2': 8.27, 'rot1': 0, 'rot0': 0, 'rot3': 0, 'rot2': 0, 'state': 'normal', 'yaw': -123.94, 'datetime': '2018-10-09 12:04:30.616776', 'mgs': 0, 'volt': 0.9082, 'depth': 1.691, 'time': 347, 'pitch': 6.72, 'roll': -0.25, 'pres': 186}
{'lipoC2': 7.55, 'lipoC3S1': 4.14, 'temp': 30.94, 'lipoC3S3': 12.51, 'lipoC3S2': 8.27, 'rot1': 0, 'rot0': 0, 'rot3': 0, 'rot2': 0, 'state': 'normal', 'yaw': -126.78, 'datetime': '2018-10-09 12:04:30.626976', 'mgs': 0, 'volt': 0.9082, 'depth': 1.691, 'time': 347, 'pitch': 6.45, 'roll': -1.48, 'pres': 186}
{'lipoC2': 7.55, 'lipoC3S1': 4.14, 'temp': 31.0, 'lipoC3S3': 12.51, 'lipoC3S2': 8.27, 'rot1': 0, 'rot0': 0, 'rot3': 0, 'rot2': 0, 'state': 'normal', 'yaw': -129.69, 'datetime': '2018-10-09 12:04:30.637182', 'mgs': 0, 'volt': 0.9033, 'depth': 1.614, 'time': 347, 'pitch': 6.2, 'roll': -2.24, 'pres': 185}
{'lipoC2': 7.55, 'lipoC3S1': 4.14, 'temp': 31.0, 'lipoC3S3': 12.51, 'lipoC3S2': 8.27, 'rot1': 0, 'rot0': 0, 'rot3': 0, 'rot2': 0, 'state': 'normal', 'yaw': -132.07, 'datetime': '2018-10-09 12:04:30.647314', 'mgs': 0, 'volt': 0.9033, 'depth': 1.614, 'time': 347, 'pitch': 5.67, 'roll': -2.23, 'pres': 185}
{'lipoC2': 7.55, 'lipoC3S1': 4.14, 'temp': 31.0, 'lipoC3S3': 12.51, 'lipoC3S2': 8.27, 'rot1': 0, 'rot0': 0, 'rot3': 0, 'rot2': 0, 'state': 'normal', 'yaw': -134.38, 'datetime': '2018-10-09 12:04:30.657473', 'mgs': 0, 'volt': 0.9082, 'depth': 1.691, 'time': 347, 'pitch': 4.45, 'roll': -1.66, 'pres': 186}
{'lipoC2': 7.55, 'lipoC3S1': 4.14, 'temp': 31.0, 'lipoC3S3': 12.51, 'lipoC3S2': 8.27, 'rot1': 0, 'rot0': 0, 'rot3': 0, 'rot2': 0, 'state': 'normal', 'yaw': -136.21, 'datetime': '2018-10-09 12:04:30.667638', 'mgs': 0, 'volt': 0.9033, 'depth': 1.614, 'time': 347, 'pitch': 2.79, 'roll': -0.82, 'pres': 185}
{'lipoC2': 7.55, 'lipoC3S1': 4.14, 'temp': 31.0, 'lipoC3S3': 12.51, 'lipoC3S2': 8.27, 'rot1': 0, 'rot0': 0, 'rot3': 0, 'rot2': 0, 'state': 'normal', 'yaw': -137.97, 'datetime': '2018-10-09 12:04:30.677820', 'mgs': 0, 'volt': 0.9082, 'depth': 1.691, 'time': 347, 'pitch': 0.83, 'roll': 0.09, 'pres': 186}
{'lipoC2': 7.55, 'lipoC3S1': 4.14, 'temp': 31.0, 'lipoC3S3': 12.51, 'lipoC3S2': 8.27, 'rot1': 0, 'rot0': 0, 'rot3': 0, 'rot2': 0, 'state': 'normal', 'yaw': -139.84, 'datetime': '2018-10-09 12:04:30.687967', 'mgs': 0, 'volt': 0.9082, 'depth': 1.691, 'time': 347, 'pitch': -1.37, 'roll': 1.01, 'pres': 186}
{'lipoC2': 7.55, 'lipoC3S1': 4.14, 'temp': 31.0, 'lipoC3S3': 12.51, 'lipoC3S2': 8.27, 'rot1': 0, 'rot0': 0, 'rot3': 0, 'rot2': 0, 'state': 'normal', 'yaw': -141.44, 'datetime': '2018-10-09 12:04:30.698114', 'mgs': 0, 'volt': 0.9082, 'depth': 1.691, 'time': 348, 'pitch': -3.1, 'roll': 1.78, 'pres': 186}
{'lipoC2': 7.55, 'lipoC3S1': 4.14, 'temp': 30.94, 'lipoC3S3': 12.51, 'lipoC3S2': 8.27, 'rot1': 0, 'rot0': 0, 'rot3': 0, 'rot2': 0, 'state': 'normal', 'yaw': -142.9, 'datetime': '2018-10-09 12:04:30.708244', 'mgs': 0, 'volt': 0.9082, 'depth': 1.691, 'time': 348, 'pitch': -4.27, 'roll': 2.44, 'pres': 186}
{'lipoC2': 7.55, 'lipoC3S1': 4.14, 'temp': 30.94, 'lipoC3S3': 12.51, 'lipoC3S2': 8.27, 'rot1': 0, 'rot0': 0, 'rot3': 0, 'rot2': 0, 'state': 'normal', 'yaw': -144.2, 'datetime': '2018-10-09 12:04:30.718363', 'mgs': 0, 'volt': 0.9082, 'depth': 1.691, 'time': 348, 'pitch': -4.77, 'roll': 2.88, 'pres': 186}
{'lipoC2': 7.55, 'lipoC3S1': 4.14, 'temp': 31.0, 'lipoC3S3': 12.51, 'lipoC3S2': 8.27, 'rot1': 0, 'rot0': 0, 'rot3': 0, 'rot2': 0, 'state': 'normal', 'yaw': -145.49, 'datetime': '2018-10-09 12:04:30.728494', 'mgs': 0, 'volt': 0.9082, 'depth': 1.691, 'time': 348, 'pitch': -4.83, 'roll': 3.03, 'pres': 186}
{'lipoC2': 7.55, 'lipoC3S1': 4.14, 'temp': 31.0, 'lipoC3S3': 12.51, 'lipoC3S2': 8.27, 'rot1': 0, 'rot0': 0, 'rot3': 0, 'rot2': 0, 'state': 'normal', 'yaw': -146.63, 'datetime': '2018-10-09 12:04:30.738646', 'mgs': 0, 'volt': 0.9082, 'depth': 1.691, 'time': 348, 'pitch': -4.69, 'roll': 2.86, 'pres': 186}
{'lipoC2': 7.55, 'lipoC3S1': 4.14, 'temp': 31.0, 'lipoC3S3': 12.51, 'lipoC3S2': 8.27, 'rot1': 0, 'rot0': 0, 'rot3': 0, 'rot2': 0, 'state': 'normal', 'yaw': -147.74, 'datetime': '2018-10-09 12:04:30.748820', 'mgs': 0, 'volt': 0.9082, 'depth': 1.691, 'time': 348, 'pitch': -4.41, 'roll': 2.48, 'pres': 186}
{'lipoC2': 7.55, 'lipoC3S1': 4.14, 'temp': 31.0, 'lipoC3S3': 12.51, 'lipoC3S2': 8.27, 'rot1': 0, 'rot0': 0, 'rot3': 0, 'rot2': 0, 'state': 'normal', 'yaw': -148.9, 'datetime': '2018-10-09 12:04:30.759127', 'mgs': 0, 'volt': 0.9082, 'depth': 1.691, 'time': 348, 'pitch': -3.91, 'roll': 2.16, 'pres': 186}
{'lipoC2': 7.55, 'lipoC3S1': 4.14, 'temp': 31.0, 'lipoC3S3': 12.51, 'lipoC3S2': 8.27, 'rot1': 0, 'rot0': 0, 'rot3': 0, 'rot2': 0, 'state': 'normal', 'yaw': -149.99, 'datetime': '2018-10-09 12:04:30.769328', 'mgs': 0, 'volt': 0.9131, 'depth': 1.767, 'time': 348, 'pitch': -3.23, 'roll': 2.26, 'pres': 187}
{'lipoC2': 7.55, 'lipoC3S1': 4.14, 'temp': 31.0, 'lipoC3S3': 12.51, 'lipoC3S2': 8.27, 'rot1': 0, 'rot0': 0, 'rot3': 0, 'rot2': 0, 'state': 'normal', 'yaw': -151.06, 'datetime': '2018-10-09 12:04:30.779463', 'mgs': 0, 'volt': 0.9131, 'depth': 1.767, 'time': 348, 'pitch': -2.4, 'roll': 3.0, 'pres': 187}
{'lipoC2': 7.55, 'lipoC3S1': 4.14, 'temp': 31.0, 'lipoC3S3': 12.51, 'lipoC3S2': 8.27, 'rot1': 0, 'rot0': 0, 'rot3': 0, 'rot2': 0, 'state': 'normal', 'yaw': -152.43, 'datetime': '2018-10-09 12:04:30.790511', 'mgs': 0, 'volt': 0.918, 'depth': 1.843, 'time': 349, 'pitch': -1.48, 'roll': 4.47, 'pres': 188}
{'lipoC2': 7.55, 'lipoC3S1': 4.14, 'temp': 31.0, 'lipoC3S3': 12.51, 'lipoC3S2': 8.27, 'rot1': 0, 'rot0': 0, 'rot3': 0, 'rot2': 0, 'state': 'normal', 'yaw': -154.06, 'datetime': '2018-10-09 12:04:30.800698', 'mgs': 0, 'volt': 0.9229, 'depth': 1.92, 'time': 349, 'pitch': -0.79, 'roll': 6.2, 'pres': 189}
{'lipoC2': 7.55, 'lipoC3S1': 4.14, 'temp': 31.0, 'lipoC3S3': 12.51, 'lipoC3S2': 8.27, 'rot1': 0, 'rot0': 0, 'rot3': 0, 'rot2': 0, 'state': 'normal', 'yaw': -155.59, 'datetime': '2018-10-09 12:04:30.810882', 'mgs': 0, 'volt': 0.9277, 'depth': 1.996, 'time': 349, 'pitch': -0.25, 'roll': 7.56, 'pres': 190}
{'lipoC2': 7.55, 'lipoC3S1': 4.14, 'temp': 31.0, 'lipoC3S3': 12.51, 'lipoC3S2': 8.27, 'rot1': 0, 'rot0': 0, 'rot3': 0, 'rot2': 0, 'state': 'normal', 'yaw': -157.38, 'datetime': '2018-10-09 12:04:30.821052', 'mgs': 0, 'volt': 0.9277, 'depth': 1.996, 'time': 349, 'pitch': 0.12, 'roll': 8.31, 'pres': 190}
{'lipoC2': 7.55, 'lipoC3S1': 4.14, 'temp': 30.94, 'lipoC3S3': 12.51, 'lipoC3S2': 8.27, 'rot1': 0, 'rot0': 0, 'rot3': 0, 'rot2': 0, 'state': 'normal', 'yaw': -159.12, 'datetime': '2018-10-09 12:04:30.831252', 'mgs': 0, 'volt': 0.9326, 'depth': 2.072, 'time': 349, 'pitch': 0.19, 'roll': 8.65, 'pres': 191}
{'lipoC2': 7.55, 'lipoC3S1': 4.14, 'temp': 30.94, 'lipoC3S3': 12.51, 'lipoC3S2': 8.27, 'rot1': 0, 'rot0': 0, 'rot3': 0, 'rot2': 0, 'state': 'normal', 'yaw': -160.87, 'datetime': '2018-10-09 12:04:30.841381', 'mgs': 0, 'volt': 0.9326, 'depth': 2.072, 'time': 349, 'pitch': 0.3, 'roll': 8.66, 'pres': 191}
{'lipoC2': 7.55, 'lipoC3S1': 4.14, 'temp': 31.0, 'lipoC3S3': 12.51, 'lipoC3S2': 8.27, 'rot1': 0, 'rot0': 0, 'rot3': 0, 'rot2': 0, 'state': 'normal', 'yaw': -162.69, 'datetime': '2018-10-09 12:04:30.851533', 'mgs': 0, 'volt': 0.9375, 'depth': 2.148, 'time': 349, 'pitch': 0.56, 'roll': 8.6, 'pres': 192}
{'lipoC2': 7.55, 'lipoC3S1': 4.14, 'temp': 31.0, 'lipoC3S3': 12.51, 'lipoC3S2': 8.27, 'rot1': 0, 'rot0': 0, 'rot3': 0, 'rot2': 0, 'state': 'normal', 'yaw': -164.19, 'datetime': '2018-10-09 12:04:30.861724', 'mgs': 0, 'volt': 0.9424, 'depth': 2.225, 'time': 349, 'pitch': 0.83, 'roll': 8.79, 'pres': 193}
{'lipoC2': 7.55, 'lipoC3S1': 4.14, 'temp': 30.94, 'lipoC3S3': 12.51, 'lipoC3S2': 8.27, 'rot1': 0, 'rot0': 0, 'rot3': 0, 'rot2': 0, 'state': 'normal', 'yaw': -165.52, 'datetime': '2018-10-09 12:04:30.871720', 'mgs': 0, 'volt': 0.9424, 'depth': 2.225, 'time': 349, 'pitch': 0.76, 'roll': 8.93, 'pres': 193}
{'lipoC2': 7.55, 'lipoC3S1': 4.14, 'temp': 30.94, 'lipoC3S3': 12.51, 'lipoC3S2': 8.27, 'rot1': 0, 'rot0': 0, 'rot3': 0, 'rot2': 0, 'state': 'normal', 'yaw': -166.82, 'datetime': '2018-10-09 12:04:30.881643', 'mgs': 0, 'volt': 0.9424, 'depth': 2.225, 'time': 349, 'pitch': 0.12, 'roll': 8.69, 'pres': 193}
{'lipoC2': 7.55, 'lipoC3S1': 4.14, 'temp': 30.94, 'lipoC3S3': 12.51, 'lipoC3S2': 8.27, 'rot1': 0, 'rot0': 0, 'rot3': 0, 'rot2': 0, 'state': 'normal', 'yaw': -167.8, 'datetime': '2018-10-09 12:04:30.892015', 'mgs': 0, 'volt': 0.9473, 'depth': 2.301, 'time': 350, 'pitch': -0.85, 'roll': 8.07, 'pres': 194}
{'lipoC2': 7.55, 'lipoC3S1': 4.14, 'temp': 31.0, 'lipoC3S3': 12.51, 'lipoC3S2': 8.27, 'rot1': 0, 'rot0': 0, 'rot3': 0, 'rot2': 0, 'state': 'normal', 'yaw': -168.52, 'datetime': '2018-10-09 12:04:30.902190', 'mgs': 0, 'volt': 0.9424, 'depth': 2.225, 'time': 350, 'pitch': -1.86, 'roll': 7.28, 'pres': 193}
{'lipoC2': 7.55, 'lipoC3S1': 4.14, 'temp': 31.0, 'lipoC3S3': 12.51, 'lipoC3S2': 8.27, 'rot1': 0, 'rot0': 0, 'rot3': 0, 'rot2': 0, 'state': 'normal', 'yaw': -169.02, 'datetime': '2018-10-09 12:04:30.912347', 'mgs': 0, 'volt': 0.9424, 'depth': 2.225, 'time': 350, 'pitch': -2.69, 'roll': 6.54, 'pres': 193}
{'lipoC2': 7.55, 'lipoC3S1': 4.14, 'temp': 31.0, 'lipoC3S3': 12.51, 'lipoC3S2': 8.27, 'rot1': 0, 'rot0': 0, 'rot3': 0, 'rot2': 0, 'state': 'normal', 'yaw': -169.5, 'datetime': '2018-10-09 12:04:30.922506', 'mgs': 0, 'volt': 0.9473, 'depth': 2.301, 'time': 350, 'pitch': -3.38, 'roll': 6.0, 'pres': 194}
{'lipoC2': 7.55, 'lipoC3S1': 4.14, 'temp': 31.0, 'lipoC3S3': 12.51, 'lipoC3S2': 8.27, 'rot1': 0, 'rot0': 0, 'rot3': 0, 'rot2': 0, 'state': 'normal', 'yaw': -169.91, 'datetime': '2018-10-09 12:04:30.932694', 'mgs': 0, 'volt': 0.9473, 'depth': 2.301, 'time': 350, 'pitch': -3.93, 'roll': 5.61, 'pres': 194}
{'lipoC2': 7.55, 'lipoC3S1': 4.14, 'temp': 31.0, 'lipoC3S3': 12.51, 'lipoC3S2': 8.27, 'rot1': 0, 'rot0': 0, 'rot3': 0, 'rot2': 0, 'state': 'normal', 'yaw': -170.37, 'datetime': '2018-10-09 12:04:30.942877', 'mgs': 0, 'volt': 0.9473, 'depth': 2.301, 'time': 350, 'pitch': -4.41, 'roll': 4.97, 'pres': 194}
{'lipoC2': 7.56, 'lipoC3S1': 4.14, 'temp': 31.0, 'lipoC3S3': 12.51, 'lipoC3S2': 8.27, 'rot1': 0, 'rot0': 0, 'rot3': 0, 'rot2': 0, 'state': 'normal', 'yaw': -170.8, 'datetime': '2018-10-09 12:04:30.952971', 'mgs': 0, 'volt': 0.9473, 'depth': 2.301, 'time': 350, 'pitch': -4.99, 'roll': 4.14, 'pres': 194}
{'lipoC2': 7.56, 'lipoC3S1': 4.14, 'temp': 31.0, 'lipoC3S3': 12.51, 'lipoC3S2': 8.27, 'rot1': 0, 'rot0': 0, 'rot3': 0, 'rot2': 0, 'state': 'normal', 'yaw': -171.13, 'datetime': '2018-10-09 12:04:30.963072', 'mgs': 0, 'volt': 0.9473, 'depth': 2.301, 'time': 350, 'pitch': -5.44, 'roll': 3.32, 'pres': 194}
{'lipoC2': 7.55, 'lipoC3S1': 4.14, 'temp': 31.0, 'lipoC3S3': 12.51, 'lipoC3S2': 8.27, 'rot1': 0, 'rot0': 0, 'rot3': 0, 'rot2': 0, 'state': 'normal', 'yaw': -171.45, 'datetime': '2018-10-09 12:04:30.973238', 'mgs': 0, 'volt': 0.9521, 'depth': 2.377, 'time': 350, 'pitch': -5.58, 'roll': 2.4, 'pres': 195}
{'lipoC2': 7.55, 'lipoC3S1': 4.14, 'temp': 31.0, 'lipoC3S3': 12.51, 'lipoC3S2': 8.27, 'rot1': 0, 'rot0': 0, 'rot3': 0, 'rot2': 0, 'state': 'normal', 'yaw': -171.83, 'datetime': '2018-10-09 12:04:30.983463', 'mgs': 0, 'volt': 0.9521, 'depth': 2.377, 'time': 350, 'pitch': -5.08, 'roll': 1.29, 'pres': 195}
{'lipoC2': 7.55, 'lipoC3S1': 4.14, 'temp': 30.94, 'lipoC3S3': 12.51, 'lipoC3S2': 8.27, 'rot1': 0, 'rot0': 0, 'rot3': 0, 'rot2': 0, 'state': 'normal', 'yaw': -172.17, 'datetime': '2018-10-09 12:04:30.993513', 'mgs': 0, 'volt': 0.9473, 'depth': 2.301, 'time': 351, 'pitch': -4.13, 'roll': 0.28, 'pres': 194}
{'lipoC2': 7.55, 'lipoC3S1': 4.14, 'temp': 30.94, 'lipoC3S3': 12.51, 'lipoC3S2': 8.27, 'rot1': 0, 'rot0': 0, 'rot3': 0, 'rot2': 0, 'state': 'normal', 'yaw': -172.46, 'datetime': '2018-10-09 12:04:31.003498', 'mgs': 0, 'volt': 0.9521, 'depth': 2.377, 'time': 351, 'pitch': -3.1, 'roll': -0.3, 'pres': 195}
{'lipoC2': 7.55, 'lipoC3S1': 4.14, 'temp': 30.94, 'lipoC3S3': 12.51, 'lipoC3S2': 8.27, 'rot1': 0, 'rot0': 0, 'rot3': 0, 'rot2': 0, 'state': 'normal', 'yaw': -172.75, 'datetime': '2018-10-09 12:04:31.013671', 'mgs': 0, 'volt': 0.957, 'depth': 2.454, 'time': 351, 'pitch': -2.11, 'roll': -0.46, 'pres': 196}
{'lipoC2': 7.55, 'lipoC3S1': 4.14, 'temp': 30.94, 'lipoC3S3': 12.51, 'lipoC3S2': 8.27, 'rot1': 0, 'rot0': 0, 'rot3': 0, 'rot2': 0, 'state': 'normal', 'yaw': -173.02, 'datetime': '2018-10-09 12:04:31.023834', 'mgs': 0, 'volt': 0.957, 'depth': 2.454, 'time': 351, 'pitch': -1.58, 'roll': -0.24, 'pres': 196}
{'lipoC2': 7.55, 'lipoC3S1': 4.14, 'temp': 30.94, 'lipoC3S3': 12.51, 'lipoC3S2': 8.27, 'rot1': 0, 'rot0': 0, 'rot3': 0, 'rot2': 0, 'state': 'normal', 'yaw': -173.26, 'datetime': '2018-10-09 12:04:31.034121', 'mgs': 0, 'volt': 0.9619, 'depth': 2.53, 'time': 351, 'pitch': -1.41, 'roll': 0.31, 'pres': 197}
{'lipoC2': 7.55, 'lipoC3S1': 4.14, 'temp': 31.0, 'lipoC3S3': 12.51, 'lipoC3S2': 8.27, 'rot1': 0, 'rot0': 0, 'rot3': 0, 'rot2': 0, 'state': 'normal', 'yaw': -173.56, 'datetime': '2018-10-09 12:04:31.044195', 'mgs': 0, 'volt': 0.957, 'depth': 2.454, 'time': 351, 'pitch': -1.37, 'roll': 1.22, 'pres': 196}
{'lipoC2': 7.55, 'lipoC3S1': 4.14, 'temp': 31.0, 'lipoC3S3': 12.51, 'lipoC3S2': 8.27, 'rot1': 0, 'rot0': 0, 'rot3': 0, 'rot2': 0, 'state': 'normal', 'yaw': -173.91, 'datetime': '2018-10-09 12:04:31.054369', 'mgs': 0, 'volt': 0.9619, 'depth': 2.53, 'time': 351, 'pitch': -1.2, 'roll': 1.98, 'pres': 197}
{'lipoC2': 7.55, 'lipoC3S1': 4.14, 'temp': 30.94, 'lipoC3S3': 12.51, 'lipoC3S2': 8.27, 'rot1': 0, 'rot0': 0, 'rot3': 0, 'rot2': 0, 'state': 'normal', 'yaw': -174.34, 'datetime': '2018-10-09 12:04:31.064545', 'mgs': 0, 'volt': 0.9619, 'depth': 2.53, 'time': 351, 'pitch': -0.87, 'roll': 2.55, 'pres': 197}
{'lipoC2': 7.55, 'lipoC3S1': 4.14, 'temp': 30.94, 'lipoC3S3': 12.51, 'lipoC3S2': 8.27, 'rot1': 0, 'rot0': 0, 'rot3': 0, 'rot2': 0, 'state': 'normal', 'yaw': -174.87, 'datetime': '2018-10-09 12:04:31.074643', 'mgs': 0, 'volt': 0.9619, 'depth': 2.53, 'time': 351, 'pitch': -0.51, 'roll': 2.96, 'pres': 197}
{'lipoC2': 7.55, 'lipoC3S1': 4.14, 'temp': 30.94, 'lipoC3S3': 12.51, 'lipoC3S2': 8.27, 'rot1': 0, 'rot0': 0, 'rot3': 0, 'rot2': 0, 'state': 'normal', 'yaw': -175.39, 'datetime': '2018-10-09 12:04:31.084819', 'mgs': 0, 'volt': 0.9619, 'depth': 2.53, 'time': 351, 'pitch': -0.39, 'roll': 3.24, 'pres': 197}
{'lipoC2': 7.55, 'lipoC3S1': 4.14, 'temp': 30.94, 'lipoC3S3': 12.51, 'lipoC3S2': 8.27, 'rot1': 0, 'rot0': 0, 'rot3': 0, 'rot2': 0, 'state': 'normal', 'yaw': -175.96, 'datetime': '2018-10-09 12:04:31.094991', 'mgs': 0, 'volt': 0.9619, 'depth': 2.53, 'time': 352, 'pitch': -0.5, 'roll': 3.43, 'pres': 197}
{'lipoC2': 7.55, 'lipoC3S1': 4.14, 'temp': 30.94, 'lipoC3S3': 12.51, 'lipoC3S2': 8.27, 'rot1': 0, 'rot0': 0, 'rot3': 0, 'rot2': 0, 'state': 'normal', 'yaw': -176.63, 'datetime': '2018-10-09 12:04:31.105169', 'mgs': 0, 'volt': 0.9619, 'depth': 2.53, 'time': 352, 'pitch': -0.88, 'roll': 3.64, 'pres': 197}
{'lipoC2': 7.55, 'lipoC3S1': 4.14, 'temp': 30.94, 'lipoC3S3': 12.51, 'lipoC3S2': 8.27, 'rot1': 0, 'rot0': 0, 'rot3': 0, 'rot2': 0, 'state': 'normal', 'yaw': -177.27, 'datetime': '2018-10-09 12:04:31.115311', 'mgs': 0, 'volt': 0.9619, 'depth': 2.53, 'time': 352, 'pitch': -1.35, 'roll': 3.77, 'pres': 197}
{'lipoC2': 7.55, 'lipoC3S1': 4.14, 'temp': 30.94, 'lipoC3S3': 12.51, 'lipoC3S2': 8.27, 'rot1': 0, 'rot0': 0, 'rot3': 0, 'rot2': 0, 'state': 'normal', 'yaw': -177.94, 'datetime': '2018-10-09 12:04:31.125373', 'mgs': 0, 'volt': 0.957, 'depth': 2.454, 'time': 352, 'pitch': -1.77, 'roll': 3.81, 'pres': 196}
{'lipoC2': 7.55, 'lipoC3S1': 4.14, 'temp': 30.94, 'lipoC3S3': 12.51, 'lipoC3S2': 8.27, 'rot1': 0, 'rot0': 0, 'rot3': 0, 'rot2': 0, 'state': 'normal', 'yaw': -178.64, 'datetime': '2018-10-09 12:04:31.135521', 'mgs': 0, 'volt': 0.9619, 'depth': 2.53, 'time': 352, 'pitch': -2.05, 'roll': 3.77, 'pres': 197}
{'lipoC2': 7.55, 'lipoC3S1': 4.14, 'temp': 30.94, 'lipoC3S3': 12.51, 'lipoC3S2': 8.27, 'rot1': 0, 'rot0': 0, 'rot3': 0, 'rot2': 0, 'state': 'normal', 'yaw': -179.23, 'datetime': '2018-10-09 12:04:31.145653', 'mgs': 0, 'volt': 0.957, 'depth': 2.454, 'time': 352, 'pitch': -2.0, 'roll': 3.6, 'pres': 196}
{'lipoC2': 7.55, 'lipoC3S1': 4.14, 'temp': 30.94, 'lipoC3S3': 12.51, 'lipoC3S2': 8.27, 'rot1': 0, 'rot0': 0, 'rot3': 0, 'rot2': 0, 'state': 'normal', 'yaw': -179.79, 'datetime': '2018-10-09 12:04:31.155380', 'mgs': 0, 'volt': 0.957, 'depth': 2.454, 'time': 352, 'pitch': -1.66, 'roll': 3.25, 'pres': 196}
{'lipoC2': 7.55, 'lipoC3S1': 4.14, 'temp': 30.94, 'lipoC3S3': 12.51, 'lipoC3S2': 8.27, 'rot1': 0, 'rot0': 0, 'rot3': 0, 'rot2': 0, 'state': 'normal', 'yaw': 179.69, 'datetime': '2018-10-09 12:04:31.165630', 'mgs': 0, 'volt': 0.9521, 'depth': 2.377, 'time': 352, 'pitch': -1.12, 'roll': 2.69, 'pres': 195}
{'lipoC2': 7.55, 'lipoC3S1': 4.14, 'temp': 30.94, 'lipoC3S3': 12.51, 'lipoC3S2': 8.27, 'rot1': 0, 'rot0': 0, 'rot3': 0, 'rot2': 0, 'state': 'normal', 'yaw': 179.29, 'datetime': '2018-10-09 12:04:31.175760', 'mgs': 0, 'volt': 0.9521, 'depth': 2.377, 'time': 352, 'pitch': -0.62, 'roll': 2.06, 'pres': 195}
{'lipoC2': 7.55, 'lipoC3S1': 4.14, 'temp': 31.0, 'lipoC3S3': 12.51, 'lipoC3S2': 8.27, 'rot1': 0, 'rot0': 0, 'rot3': 0, 'rot2': 0, 'state': 'normal', 'yaw': 178.93, 'datetime': '2018-10-09 12:04:31.185905', 'mgs': 0, 'volt': 0.9521, 'depth': 2.377, 'time': 353, 'pitch': -0.29, 'roll': 1.47, 'pres': 195}
{'lipoC2': 7.55, 'lipoC3S1': 4.14, 'temp': 31.0, 'lipoC3S3': 12.51, 'lipoC3S2': 8.27, 'rot1': 0, 'rot0': 0, 'rot3': 0, 'rot2': 0, 'state': 'normal', 'yaw': 178.63, 'datetime': '2018-10-09 12:04:31.196201', 'mgs': 0, 'volt': 0.9521, 'depth': 2.377, 'time': 353, 'pitch': -0.23, 'roll': 1.07, 'pres': 195}
{'lipoC2': 7.55, 'lipoC3S1': 4.14, 'temp': 30.94, 'lipoC3S3': 12.51, 'lipoC3S2': 8.27, 'rot1': 0, 'rot0': 0, 'rot3': 0, 'rot2': 0, 'state': 'normal', 'yaw': 178.32, 'datetime': '2018-10-09 12:04:31.206410', 'mgs': 0, 'volt': 0.9473, 'depth': 2.301, 'time': 353, 'pitch': -0.42, 'roll': 0.93, 'pres': 194}
{'lipoC2': 7.55, 'lipoC3S1': 4.14, 'temp': 30.94, 'lipoC3S3': 12.51, 'lipoC3S2': 8.27, 'rot1': 0, 'rot0': 0, 'rot3': 0, 'rot2': 0, 'state': 'normal', 'yaw': 178.02, 'datetime': '2018-10-09 12:04:31.216557', 'mgs': 0, 'volt': 0.9473, 'depth': 2.301, 'time': 353, 'pitch': -0.69, 'roll': 0.99, 'pres': 194}
{'lipoC2': 7.55, 'lipoC3S1': 4.14, 'temp': 31.0, 'lipoC3S3': 12.51, 'lipoC3S2': 8.27, 'rot1': 0, 'rot0': 0, 'rot3': 0, 'rot2': 0, 'state': 'normal', 'yaw': 177.7, 'datetime': '2018-10-09 12:04:31.226676', 'mgs': 0, 'volt': 0.9473, 'depth': 2.301, 'time': 353, 'pitch': -0.99, 'roll': 1.19, 'pres': 194}
{'lipoC2': 7.55, 'lipoC3S1': 4.14, 'temp': 31.0, 'lipoC3S3': 12.51, 'lipoC3S2': 8.27, 'rot1': 0, 'rot0': 0, 'rot3': 0, 'rot2': 0, 'state': 'normal', 'yaw': 177.36, 'datetime': '2018-10-09 12:04:31.236792', 'mgs': 0, 'volt': 0.9473, 'depth': 2.301, 'time': 353, 'pitch': -1.28, 'roll': 1.54, 'pres': 194}
{'lipoC2': 7.55, 'lipoC3S1': 4.14, 'temp': 31.0, 'lipoC3S3': 12.51, 'lipoC3S2': 8.27, 'rot1': 0, 'rot0': 0, 'rot3': 0, 'rot2': 0, 'state': 'normal', 'yaw': 177.06, 'datetime': '2018-10-09 12:04:31.246923', 'mgs': 0, 'volt': 0.9473, 'depth': 2.301, 'time': 353, 'pitch': -1.42, 'roll': 1.92, 'pres': 194}
{'lipoC2': 7.55, 'lipoC3S1': 4.14, 'temp': 30.94, 'lipoC3S3': 12.51, 'lipoC3S2': 8.27, 'rot1': 0, 'rot0': 0, 'rot3': 0, 'rot2': 0, 'state': 'normal', 'yaw': 176.75, 'datetime': '2018-10-09 12:04:31.257485', 'mgs': 0, 'volt': 0.9424, 'depth': 2.225, 'time': 353, 'pitch': -1.37, 'roll': 2.25, 'pres': 193}
{'lipoC2': 7.55, 'lipoC3S1': 4.14, 'temp': 30.94, 'lipoC3S3': 12.51, 'lipoC3S2': 8.27, 'rot1': 0, 'rot0': 0, 'rot3': 0, 'rot2': 0, 'state': 'normal', 'yaw': 176.4, 'datetime': '2018-10-09 12:04:31.267692', 'mgs': 0, 'volt': 0.9473, 'depth': 2.301, 'time': 353, 'pitch': -1.25, 'roll': 2.6, 'pres': 194}
{'lipoC2': 7.55, 'lipoC3S1': 4.14, 'temp': 30.94, 'lipoC3S3': 12.51, 'lipoC3S2': 8.27, 'rot1': 0, 'rot0': 0, 'rot3': 0, 'rot2': 0, 'state': 'normal', 'yaw': 176.11, 'datetime': '2018-10-09 12:04:31.277790', 'mgs': 0, 'volt': 0.9424, 'depth': 2.225, 'time': 353, 'pitch': -1.24, 'roll': 3.01, 'pres': 193}
{'lipoC2': 7.55, 'lipoC3S1': 4.14, 'temp': 30.94, 'lipoC3S3': 12.51, 'lipoC3S2': 8.27, 'rot1': 0, 'rot0': 0, 'rot3': 0, 'rot2': 0, 'state': 'normal', 'yaw': 175.87, 'datetime': '2018-10-09 12:04:31.287924', 'mgs': 0, 'volt': 0.9424, 'depth': 2.225, 'time': 354, 'pitch': -1.37, 'roll': 3.54, 'pres': 193}
{'lipoC2': 7.55, 'lipoC3S1': 4.14, 'temp': 31.0, 'lipoC3S3': 12.51, 'lipoC3S2': 8.27, 'rot1': 0, 'rot0': 0, 'rot3': 0, 'rot2': 0, 'state': 'normal', 'yaw': 175.67, 'datetime': '2018-10-09 12:04:31.298081', 'mgs': 0, 'volt': 0.9424, 'depth': 2.225, 'time': 354, 'pitch': -1.6, 'roll': 4.2, 'pres': 193}
{'lipoC2': 7.55, 'lipoC3S1': 4.14, 'temp': 31.0, 'lipoC3S3': 12.51, 'lipoC3S2': 8.27, 'rot1': 0, 'rot0': 0, 'rot3': 0, 'rot2': 0, 'state': 'normal', 'yaw': 175.51, 'datetime': '2018-10-09 12:04:31.308376', 'mgs': 0, 'volt': 0.9424, 'depth': 2.225, 'time': 354, 'pitch': -1.64, 'roll': 4.6, 'pres': 193}
{'lipoC2': 7.55, 'lipoC3S1': 4.14, 'temp': 31.0, 'lipoC3S3': 12.51, 'lipoC3S2': 8.27, 'rot1': 0, 'rot0': 0, 'rot3': 0, 'rot2': 0, 'state': 'normal', 'yaw': 175.36, 'datetime': '2018-10-09 12:04:31.318461', 'mgs': 0, 'volt': 0.9424, 'depth': 2.225, 'time': 354, 'pitch': -1.4, 'roll': 4.69, 'pres': 193}
{'lipoC2': 7.55, 'lipoC3S1': 4.14, 'temp': 31.0, 'lipoC3S3': 12.51, 'lipoC3S2': 8.27, 'rot1': 0, 'rot0': 0, 'rot3': 0, 'rot2': 0, 'state': 'normal', 'yaw': 175.23, 'datetime': '2018-10-09 12:04:31.328519', 'mgs': 0, 'volt': 0.9375, 'depth': 2.148, 'time': 354, 'pitch': -1.07, 'roll': 4.53, 'pres': 192}
{'lipoC2': 7.55, 'lipoC3S1': 4.14, 'temp': 31.0, 'lipoC3S3': 12.51, 'lipoC3S2': 8.27, 'rot1': 0, 'rot0': 0, 'rot3': 0, 'rot2': 0, 'state': 'normal', 'yaw': 175.16, 'datetime': '2018-10-09 12:04:31.338633', 'mgs': 0, 'volt': 0.9375, 'depth': 2.148, 'time': 354, 'pitch': -0.98, 'roll': 4.39, 'pres': 192}
{'lipoC2': 7.55, 'lipoC3S1': 4.14, 'temp': 31.0, 'lipoC3S3': 12.51, 'lipoC3S2': 8.27, 'rot1': 0, 'rot0': 0, 'rot3': 0, 'rot2': 0, 'state': 'normal', 'yaw': 175.14, 'datetime': '2018-10-09 12:04:31.348677', 'mgs': 0, 'volt': 0.9375, 'depth': 2.148, 'time': 354, 'pitch': -1.07, 'roll': 4.26, 'pres': 192}
{'lipoC2': 7.55, 'lipoC3S1': 4.14, 'temp': 31.0, 'lipoC3S3': 12.51, 'lipoC3S2': 8.27, 'rot1': 0, 'rot0': 0, 'rot3': 0, 'rot2': 0, 'state': 'normal', 'yaw': 175.13, 'datetime': '2018-10-09 12:04:31.358655', 'mgs': 0, 'volt': 0.9375, 'depth': 2.148, 'time': 354, 'pitch': -1.23, 'roll': 3.96, 'pres': 192}
{'lipoC2': 7.55, 'lipoC3S1': 4.14, 'temp': 31.0, 'lipoC3S3': 12.51, 'lipoC3S2': 8.27, 'rot1': 0, 'rot0': 0, 'rot3': 0, 'rot2': 0, 'state': 'normal', 'yaw': 175.14, 'datetime': '2018-10-09 12:04:31.368744', 'mgs': 0, 'volt': 0.9326, 'depth': 2.072, 'time': 354, 'pitch': -1.11, 'roll': 3.47, 'pres': 191}
{'lipoC2': 7.55, 'lipoC3S1': 4.14, 'temp': 31.0, 'lipoC3S3': 12.51, 'lipoC3S2': 8.27, 'rot1': 0, 'rot0': 0, 'rot3': 0, 'rot2': 0, 'state': 'normal', 'yaw': 175.16, 'datetime': '2018-10-09 12:04:31.378874', 'mgs': 0, 'volt': 0.9326, 'depth': 2.072, 'time': 354, 'pitch': -0.63, 'roll': 2.83, 'pres': 191}
{'lipoC2': 7.55, 'lipoC3S1': 4.14, 'temp': 31.0, 'lipoC3S3': 12.51, 'lipoC3S2': 8.27, 'rot1': 0, 'rot0': 0, 'rot3': 0, 'rot2': 0, 'state': 'normal', 'yaw': 175.24, 'datetime': '2018-10-09 12:04:31.388925', 'mgs': 0, 'volt': 0.9326, 'depth': 2.072, 'time': 355, 'pitch': 0.14, 'roll': 2.13, 'pres': 191}
{'lipoC2': 7.55, 'lipoC3S1': 4.14, 'temp': 31.0, 'lipoC3S3': 12.51, 'lipoC3S2': 8.27, 'rot1': 0, 'rot0': 0, 'rot3': 0, 'rot2': 0, 'state': 'normal', 'yaw': 175.34, 'datetime': '2018-10-09 12:04:31.399089', 'mgs': 0, 'volt': 0.9326, 'depth': 2.072, 'time': 355, 'pitch': 1.09, 'roll': 1.43, 'pres': 191}
{'lipoC2': 7.55, 'lipoC3S1': 4.14, 'temp': 31.0, 'lipoC3S3': 12.51, 'lipoC3S2': 8.27, 'rot1': 0, 'rot0': 0, 'rot3': 0, 'rot2': 0, 'state': 'normal', 'yaw': 175.45, 'datetime': '2018-10-09 12:04:31.409228', 'mgs': 0, 'volt': 0.9326, 'depth': 2.072, 'time': 355, 'pitch': 1.87, 'roll': 0.97, 'pres': 191}
{'lipoC2': 7.55, 'lipoC3S1': 4.14, 'temp': 31.0, 'lipoC3S3': 12.51, 'lipoC3S2': 8.27, 'rot1': 0, 'rot0': 0, 'rot3': 0, 'rot2': 0, 'state': 'normal', 'yaw': 175.55, 'datetime': '2018-10-09 12:04:31.419358', 'mgs': 0, 'volt': 0.9277, 'depth': 1.996, 'time': 355, 'pitch': 2.5, 'roll': 0.65, 'pres': 190}
{'lipoC2': 7.55, 'lipoC3S1': 4.14, 'temp': 31.0, 'lipoC3S3': 12.51, 'lipoC3S2': 8.27, 'rot1': 0, 'rot0': 0, 'rot3': 0, 'rot2': 0, 'state': 'normal', 'yaw': 175.64, 'datetime': '2018-10-09 12:04:31.429405', 'mgs': 0, 'volt': 0.9277, 'depth': 1.996, 'time': 355, 'pitch': 3.13, 'roll': 0.29, 'pres': 190}
{'lipoC2': 7.55, 'lipoC3S1': 4.14, 'temp': 31.0, 'lipoC3S3': 12.51, 'lipoC3S2': 8.27, 'rot1': 0, 'rot0': 0, 'rot3': 0, 'rot2': 0, 'state': 'normal', 'yaw': 175.74, 'datetime': '2018-10-09 12:04:31.439802', 'mgs': 0, 'volt': 0.9229, 'depth': 1.92, 'time': 355, 'pitch': 3.41, 'roll': 0.1, 'pres': 189}
{'lipoC2': 7.55, 'lipoC3S1': 4.14, 'temp': 31.0, 'lipoC3S3': 12.51, 'lipoC3S2': 8.27, 'rot1': 0, 'rot0': 0, 'rot3': 0, 'rot2': 0, 'state': 'normal', 'yaw': 175.78, 'datetime': '2018-10-09 12:04:31.449954', 'mgs': 0, 'volt': 0.9229, 'depth': 1.92, 'time': 355, 'pitch': 3.37, 'roll': 0.08, 'pres': 189}
{'lipoC2': 7.55, 'lipoC3S1': 4.14, 'temp': 31.0, 'lipoC3S3': 12.51, 'lipoC3S2': 8.27, 'rot1': 0, 'rot0': 0, 'rot3': 0, 'rot2': 0, 'state': 'normal', 'yaw': 175.76, 'datetime': '2018-10-09 12:04:31.460096', 'mgs': 0, 'volt': 0.9229, 'depth': 1.92, 'time': 355, 'pitch': 3.03, 'roll': 0.14, 'pres': 189}
{'lipoC2': 7.55, 'lipoC3S1': 4.14, 'temp': 31.0, 'lipoC3S3': 12.51, 'lipoC3S2': 8.27, 'rot1': 0, 'rot0': 0, 'rot3': 0, 'rot2': 0, 'state': 'normal', 'yaw': 175.56, 'datetime': '2018-10-09 12:04:31.470169', 'mgs': 0, 'volt': 0.9229, 'depth': 1.92, 'time': 355, 'pitch': 2.63, 'roll': 0.2, 'pres': 189}
{'lipoC2': 7.55, 'lipoC3S1': 4.14, 'temp': 31.0, 'lipoC3S3': 12.51, 'lipoC3S2': 8.27, 'rot1': 0, 'rot0': 0, 'rot3': 0, 'rot2': 0, 'state': 'normal', 'yaw': 175.31, 'datetime': '2018-10-09 12:04:31.480160', 'mgs': 0, 'volt': 0.918, 'depth': 1.843, 'time': 356, 'pitch': 2.35, 'roll': 0.19, 'pres': 188}
{'lipoC2': 7.55, 'lipoC3S1': 4.14, 'temp': 31.0, 'lipoC3S3': 12.51, 'lipoC3S2': 8.27, 'rot1': 0, 'rot0': 0, 'rot3': 0, 'rot2': 0, 'state': 'normal', 'yaw': 175.13, 'datetime': '2018-10-09 12:04:31.490274', 'mgs': 0, 'volt': 0.918, 'depth': 1.843, 'time': 356, 'pitch': 2.45, 'roll': 0.1, 'pres': 188}
{'lipoC2': 7.55, 'lipoC3S1': 4.14, 'temp': 31.0, 'lipoC3S3': 12.51, 'lipoC3S2': 8.27, 'rot1': 0, 'rot0': 0, 'rot3': 0, 'rot2': 0, 'state': 'normal', 'yaw': 175.0, 'datetime': '2018-10-09 12:04:31.500406', 'mgs': 0, 'volt': 0.918, 'depth': 1.843, 'time': 356, 'pitch': 3.0, 'roll': -0.05, 'pres': 188}
{'lipoC2': 7.55, 'lipoC3S1': 4.14, 'temp': 31.0, 'lipoC3S3': 12.51, 'lipoC3S2': 8.27, 'rot1': 0, 'rot0': 0, 'rot3': 0, 'rot2': 0, 'state': 'normal', 'yaw': 174.89, 'datetime': '2018-10-09 12:04:31.510510', 'mgs': 0, 'volt': 0.9131, 'depth': 1.767, 'time': 356, 'pitch': 3.7, 'roll': -0.19, 'pres': 187}
{'lipoC2': 7.55, 'lipoC3S1': 4.14, 'temp': 30.94, 'lipoC3S3': 12.51, 'lipoC3S2': 8.27, 'rot1': 0, 'rot0': 0, 'rot3': 0, 'rot2': 0, 'state': 'normal', 'yaw': 174.81, 'datetime': '2018-10-09 12:04:31.520456', 'mgs': 0, 'volt': 0.9131, 'depth': 1.767, 'time': 356, 'pitch': 4.22, 'roll': -0.3, 'pres': 187}
{'lipoC2': 7.55, 'lipoC3S1': 4.14, 'temp': 30.94, 'lipoC3S3': 12.51, 'lipoC3S2': 8.27, 'rot1': 0, 'rot0': 0, 'rot3': 0, 'rot2': 0, 'state': 'normal', 'yaw': 174.79, 'datetime': '2018-10-09 12:04:31.530602', 'mgs': 0, 'volt': 0.9131, 'depth': 1.767, 'time': 356, 'pitch': 4.42, 'roll': -0.31, 'pres': 187}
{'lipoC2': 7.55, 'lipoC3S1': 4.14, 'temp': 31.0, 'lipoC3S3': 12.51, 'lipoC3S2': 8.27, 'rot1': 0, 'rot0': 0, 'rot3': 0, 'rot2': 0, 'state': 'normal', 'yaw': 174.72, 'datetime': '2018-10-09 12:04:31.540751', 'mgs': 0, 'volt': 0.9082, 'depth': 1.691, 'time': 356, 'pitch': 4.26, 'roll': -0.19, 'pres': 186}
{'lipoC2': 7.55, 'lipoC3S1': 4.14, 'temp': 31.0, 'lipoC3S3': 12.51, 'lipoC3S2': 8.27, 'rot1': 0, 'rot0': 0, 'rot3': 0, 'rot2': 0, 'state': 'normal', 'yaw': 174.59, 'datetime': '2018-10-09 12:04:31.550900', 'mgs': 0, 'volt': 0.9082, 'depth': 1.691, 'time': 356, 'pitch': 3.88, 'roll': -0.07, 'pres': 186}
{'lipoC2': 7.55, 'lipoC3S1': 4.14, 'temp': 31.0, 'lipoC3S3': 12.51, 'lipoC3S2': 8.27, 'rot1': 0, 'rot0': 0, 'rot3': 0, 'rot2': 0, 'state': 'normal', 'yaw': 174.47, 'datetime': '2018-10-09 12:04:31.561038', 'mgs': 0, 'volt': 0.9082, 'depth': 1.691, 'time': 356, 'pitch': 3.45, 'roll': 0.05, 'pres': 186}
{'lipoC2': 7.55, 'lipoC3S1': 4.14, 'temp': 31.0, 'lipoC3S3': 12.51, 'lipoC3S2': 8.27, 'rot1': 0, 'rot0': 0, 'rot3': 0, 'rot2': 0, 'state': 'normal', 'yaw': 174.52, 'datetime': '2018-10-09 12:04:31.571151', 'mgs': 0, 'volt': 0.9033, 'depth': 1.614, 'time': 356, 'pitch': 3.22, 'roll': 0.12, 'pres': 185}
{'lipoC2': 7.55, 'lipoC3S1': 4.14, 'temp': 31.0, 'lipoC3S3': 12.51, 'lipoC3S2': 8.27, 'rot1': 0, 'rot0': 0, 'rot3': 0, 'rot2': 0, 'state': 'normal', 'yaw': 174.74, 'datetime': '2018-10-09 12:04:31.581490', 'mgs': 0, 'volt': 0.9033, 'depth': 1.614, 'time': 357, 'pitch': 3.29, 'roll': 0.19, 'pres': 185}
{'lipoC2': 7.55, 'lipoC3S1': 4.14, 'temp': 31.0, 'lipoC3S3': 12.51, 'lipoC3S2': 8.27, 'rot1': 0, 'rot0': 0, 'rot3': 0, 'rot2': 0, 'state': 'normal', 'yaw': 174.99, 'datetime': '2018-10-09 12:04:31.591469', 'mgs': 0, 'volt': 0.8984, 'depth': 1.538, 'time': 357, 'pitch': 3.73, 'roll': 0.25, 'pres': 184}
{'lipoC2': 7.55, 'lipoC3S1': 4.14, 'temp': 31.0, 'lipoC3S3': 12.51, 'lipoC3S2': 8.27, 'rot1': 0, 'rot0': 0, 'rot3': 0, 'rot2': 0, 'state': 'normal', 'yaw': 175.19, 'datetime': '2018-10-09 12:04:31.601390', 'mgs': 0, 'volt': 0.9033, 'depth': 1.614, 'time': 357, 'pitch': 4.24, 'roll': 0.32, 'pres': 185}
{'lipoC2': 7.55, 'lipoC3S1': 4.14, 'temp': 30.94, 'lipoC3S3': 12.51, 'lipoC3S2': 8.27, 'rot1': 0, 'rot0': 0, 'rot3': 0, 'rot2': 0, 'state': 'normal', 'yaw': 175.36, 'datetime': '2018-10-09 12:04:31.611518', 'mgs': 0, 'volt': 0.8984, 'depth': 1.538, 'time': 357, 'pitch': 4.42, 'roll': 0.37, 'pres': 184}
{'lipoC2': 7.55, 'lipoC3S1': 4.14, 'temp': 30.94, 'lipoC3S3': 12.51, 'lipoC3S2': 8.27, 'rot1': 0, 'rot0': 0, 'rot3': 0, 'rot2': 0, 'state': 'normal', 'yaw': 175.6, 'datetime': '2018-10-09 12:04:31.621638', 'mgs': 0, 'volt': 0.8984, 'depth': 1.538, 'time': 357, 'pitch': 4.29, 'roll': 0.37, 'pres': 184}
{'lipoC2': 7.55, 'lipoC3S1': 4.14, 'temp': 30.94, 'lipoC3S3': 12.51, 'lipoC3S2': 8.27, 'rot1': 0, 'rot0': 0, 'rot3': 0, 'rot2': 0, 'state': 'normal', 'yaw': 175.93, 'datetime': '2018-10-09 12:04:31.631782', 'mgs': 0, 'volt': 0.8984, 'depth': 1.538, 'time': 357, 'pitch': 4.01, 'roll': 0.27, 'pres': 184}
{'lipoC2': 7.55, 'lipoC3S1': 4.14, 'temp': 30.94, 'lipoC3S3': 12.51, 'lipoC3S2': 8.27, 'rot1': 0, 'rot0': 0, 'rot3': 0, 'rot2': 0, 'state': 'normal', 'yaw': 176.32, 'datetime': '2018-10-09 12:04:31.641899', 'mgs': 0, 'volt': 0.8984, 'depth': 1.538, 'time': 357, 'pitch': 3.85, 'roll': 0.11, 'pres': 184}
{'lipoC2': 7.55, 'lipoC3S1': 4.14, 'temp': 30.94, 'lipoC3S3': 12.51, 'lipoC3S2': 8.27, 'rot1': 0, 'rot0': 0, 'rot3': 0, 'rot2': 0, 'state': 'normal', 'yaw': 176.82, 'datetime': '2018-10-09 12:04:31.652005', 'mgs': 0, 'volt': 0.8984, 'depth': 1.538, 'time': 357, 'pitch': 3.95, 'roll': -0.03, 'pres': 184}
{'lipoC2': 7.55, 'lipoC3S1': 4.14, 'temp': 30.94, 'lipoC3S3': 12.51, 'lipoC3S2': 8.27, 'rot1': 0, 'rot0': 0, 'rot3': 0, 'rot2': 0, 'state': 'normal', 'yaw': 177.37, 'datetime': '2018-10-09 12:04:31.662144', 'mgs': 0, 'volt': 0.8984, 'depth': 1.538, 'time': 357, 'pitch': 4.31, 'roll': -0.07, 'pres': 184}
{'lipoC2': 7.55, 'lipoC3S1': 4.14, 'temp': 30.94, 'lipoC3S3': 12.51, 'lipoC3S2': 8.27, 'rot1': 0, 'rot0': 0, 'rot3': 0, 'rot2': 0, 'state': 'normal', 'yaw': 178.05, 'datetime': '2018-10-09 12:04:31.672109', 'mgs': 0, 'volt': 0.8984, 'depth': 1.538, 'time': 357, 'pitch': 4.68, 'roll': 0.03, 'pres': 184}
{'lipoC2': 7.55, 'lipoC3S1': 4.14, 'temp': 30.94, 'lipoC3S3': 12.51, 'lipoC3S2': 8.27, 'rot1': 0, 'rot0': 0, 'rot3': 0, 'rot2': 0, 'state': 'normal', 'yaw': 178.8, 'datetime': '2018-10-09 12:04:31.681993', 'mgs': 0, 'volt': 0.8984, 'depth': 1.538, 'time': 358, 'pitch': 4.88, 'roll': 0.26, 'pres': 184}
{'lipoC2': 7.55, 'lipoC3S1': 4.14, 'temp': 30.94, 'lipoC3S3': 12.51, 'lipoC3S2': 8.27, 'rot1': 0, 'rot0': 0, 'rot3': 0, 'rot2': 0, 'state': 'normal', 'yaw': 179.57, 'datetime': '2018-10-09 12:04:31.692120', 'mgs': 0, 'volt': 0.8984, 'depth': 1.538, 'time': 358, 'pitch': 4.89, 'roll': 0.47, 'pres': 184}
{'lipoC2': 7.55, 'lipoC3S1': 4.14, 'temp': 30.94, 'lipoC3S3': 12.51, 'lipoC3S2': 8.27, 'rot1': 0, 'rot0': 0, 'rot3': 0, 'rot2': 0, 'state': 'normal', 'yaw': -179.73, 'datetime': '2018-10-09 12:04:31.702286', 'mgs': 0, 'volt': 0.8984, 'depth': 1.538, 'time': 358, 'pitch': 4.84, 'roll': 0.43, 'pres': 184}
{'lipoC2': 7.55, 'lipoC3S1': 4.14, 'temp': 30.94, 'lipoC3S3': 12.51, 'lipoC3S2': 8.27, 'rot1': 0, 'rot0': 0, 'rot3': 0, 'rot2': 0, 'state': 'normal', 'yaw': -179.07, 'datetime': '2018-10-09 12:04:31.712473', 'mgs': 0, 'volt': 0.8984, 'depth': 1.538, 'time': 358, 'pitch': 4.83, 'roll': 0.13, 'pres': 184}
{'lipoC2': 7.55, 'lipoC3S1': 4.14, 'temp': 30.94, 'lipoC3S3': 12.51, 'lipoC3S2': 8.27, 'rot1': 0, 'rot0': 0, 'rot3': 0, 'rot2': 0, 'state': 'normal', 'yaw': -178.44, 'datetime': '2018-10-09 12:04:31.722159', 'mgs': 0, 'volt': 0.9033, 'depth': 1.614, 'time': 358, 'pitch': 4.98, 'roll': -0.36, 'pres': 185}
{'lipoC2': 7.55, 'lipoC3S1': 4.14, 'temp': 30.94, 'lipoC3S3': 12.51, 'lipoC3S2': 8.27, 'rot1': 0, 'rot0': 0, 'rot3': 0, 'rot2': 0, 'state': 'normal', 'yaw': -177.97, 'datetime': '2018-10-09 12:04:31.732323', 'mgs': 0, 'volt': 0.9033, 'depth': 1.614, 'time': 358, 'pitch': 5.41, 'roll': -0.68, 'pres': 185}
{'lipoC2': 7.55, 'lipoC3S1': 4.14, 'temp': 30.94, 'lipoC3S3': 12.51, 'lipoC3S2': 8.27, 'rot1': 0, 'rot0': 0, 'rot3': 0, 'rot2': 0, 'state': 'normal', 'yaw': -177.6, 'datetime': '2018-10-09 12:04:31.742442', 'mgs': 0, 'volt': 0.9033, 'depth': 1.614, 'time': 358, 'pitch': 6.14, 'roll': -0.68, 'pres': 185}
{'lipoC2': 7.55, 'lipoC3S1': 4.14, 'temp': 30.94, 'lipoC3S3': 12.51, 'lipoC3S2': 8.27, 'rot1': 0, 'rot0': 0, 'rot3': 0, 'rot2': 0, 'state': 'normal', 'yaw': -177.29, 'datetime': '2018-10-09 12:04:31.752547', 'mgs': 0, 'volt': 0.9033, 'depth': 1.614, 'time': 358, 'pitch': 7.09, 'roll': -0.37, 'pres': 185}
{'lipoC2': 7.55, 'lipoC3S1': 4.14, 'temp': 30.94, 'lipoC3S3': 12.51, 'lipoC3S2': 8.27, 'rot1': 0, 'rot0': 0, 'rot3': 0, 'rot2': 0, 'state': 'normal', 'yaw': -177.03, 'datetime': '2018-10-09 12:04:31.762515', 'mgs': 0, 'volt': 0.9033, 'depth': 1.614, 'time': 358, 'pitch': 7.69, 'roll': 0.0, 'pres': 185}
{'lipoC2': 7.55, 'lipoC3S1': 4.14, 'temp': 30.94, 'lipoC3S3': 12.51, 'lipoC3S2': 8.27, 'rot1': 0, 'rot0': 0, 'rot3': 0, 'rot2': 0, 'state': 'normal', 'yaw': -176.79, 'datetime': '2018-10-09 12:04:31.772699', 'mgs': 0, 'volt': 0.9033, 'depth': 1.614, 'time': 359, 'pitch': 7.69, 'roll': 0.27, 'pres': 185}
{'lipoC2': 7.55, 'lipoC3S1': 4.14, 'temp': 30.94, 'lipoC3S3': 12.51, 'lipoC3S2': 8.27, 'rot1': 0, 'rot0': 0, 'rot3': 0, 'rot2': 0, 'state': 'normal', 'yaw': -176.53, 'datetime': '2018-10-09 12:04:31.782838', 'mgs': 0, 'volt': 0.9033, 'depth': 1.614, 'time': 359, 'pitch': 7.05, 'roll': 0.45, 'pres': 185}
{'lipoC2': 7.55, 'lipoC3S1': 4.14, 'temp': 30.94, 'lipoC3S3': 12.51, 'lipoC3S2': 8.27, 'rot1': 0, 'rot0': 0, 'rot3': 0, 'rot2': 0, 'state': 'normal', 'yaw': -176.3, 'datetime': '2018-10-09 12:04:31.792911', 'mgs': 0, 'volt': 0.9033, 'depth': 1.614, 'time': 359, 'pitch': 6.45, 'roll': 0.49, 'pres': 185}
{'lipoC2': 7.55, 'lipoC3S1': 4.14, 'temp': 30.94, 'lipoC3S3': 12.51, 'lipoC3S2': 8.27, 'rot1': 0, 'rot0': 0, 'rot3': 0, 'rot2': 0, 'state': 'normal', 'yaw': -176.05, 'datetime': '2018-10-09 12:04:31.802929', 'mgs': 0, 'volt': 0.9082, 'depth': 1.691, 'time': 359, 'pitch': 6.0, 'roll': 0.38, 'pres': 186}
{'lipoC2': 7.55, 'lipoC3S1': 4.14, 'temp': 30.94, 'lipoC3S3': 12.51, 'lipoC3S2': 8.27, 'rot1': 0, 'rot0': 0, 'rot3': 0, 'rot2': 0, 'state': 'normal', 'yaw': -175.76, 'datetime': '2018-10-09 12:04:31.813132', 'mgs': 0, 'volt': 0.9082, 'depth': 1.691, 'time': 359, 'pitch': 5.74, 'roll': 0.12, 'pres': 186}
{'lipoC2': 7.55, 'lipoC3S1': 4.14, 'temp': 30.94, 'lipoC3S3': 12.51, 'lipoC3S2': 8.27, 'rot1': 0, 'rot0': 0, 'rot3': 0, 'rot2': 0, 'state': 'normal', 'yaw': -175.53, 'datetime': '2018-10-09 12:04:31.823265', 'mgs': 0, 'volt': 0.9082, 'depth': 1.691, 'time': 359, 'pitch': 5.85, 'roll': -0.11, 'pres': 186}
{'lipoC2': 7.55, 'lipoC3S1': 4.14, 'temp': 30.94, 'lipoC3S3': 12.51, 'lipoC3S2': 8.27, 'rot1': 0, 'rot0': 0, 'rot3': 0, 'rot2': 0, 'state': 'normal', 'yaw': -175.38, 'datetime': '2018-10-09 12:04:31.833286', 'mgs': 0, 'volt': 0.9082, 'depth': 1.691, 'time': 359, 'pitch': 6.31, 'roll': -0.18, 'pres': 186}
{'lipoC2': 7.55, 'lipoC3S1': 4.14, 'temp': 30.94, 'lipoC3S3': 12.51, 'lipoC3S2': 8.27, 'rot1': 0, 'rot0': 0, 'rot3': 0, 'rot2': 0, 'state': 'normal', 'yaw': -175.31, 'datetime': '2018-10-09 12:04:31.843430', 'mgs': 0, 'volt': 0.9082, 'depth': 1.691, 'time': 359, 'pitch': 7.05, 'roll': -0.06, 'pres': 186}
{'lipoC2': 7.55, 'lipoC3S1': 4.14, 'temp': 30.94, 'lipoC3S3': 12.51, 'lipoC3S2': 8.27, 'rot1': 0, 'rot0': 0, 'rot3': 0, 'rot2': 0, 'state': 'normal', 'yaw': -175.28, 'datetime': '2018-10-09 12:04:31.853784', 'mgs': 0, 'volt': 0.9082, 'depth': 1.691, 'time': 359, 'pitch': 7.7, 'roll': 0.21, 'pres': 186}
{'lipoC2': 7.55, 'lipoC3S1': 4.14, 'temp': 30.94, 'lipoC3S3': 12.51, 'lipoC3S2': 8.27, 'rot1': 0, 'rot0': 0, 'rot3': 0, 'rot2': 0, 'state': 'normal', 'yaw': -175.27, 'datetime': '2018-10-09 12:04:31.863993', 'mgs': 0, 'volt': 0.9131, 'depth': 1.767, 'time': 359, 'pitch': 7.84, 'roll': 0.49, 'pres': 187}
{'lipoC2': 7.55, 'lipoC3S1': 4.14, 'temp': 30.94, 'lipoC3S3': 12.51, 'lipoC3S2': 8.27, 'rot1': 0, 'rot0': 0, 'rot3': 0, 'rot2': 0, 'state': 'normal', 'yaw': -175.26, 'datetime': '2018-10-09 12:04:31.874052', 'mgs': 0, 'volt': 0.9082, 'depth': 1.691, 'time': 360, 'pitch': 7.65, 'roll': 0.66, 'pres': 186}
{'lipoC2': 7.55, 'lipoC3S1': 4.14, 'temp': 30.94, 'lipoC3S3': 12.51, 'lipoC3S2': 8.27, 'rot1': 0, 'rot0': 0, 'rot3': 0, 'rot2': 0, 'state': 'normal', 'yaw': -175.26, 'datetime': '2018-10-09 12:04:31.884230', 'mgs': 0, 'volt': 0.9082, 'depth': 1.691, 'time': 360, 'pitch': 7.15, 'roll': 0.6, 'pres': 186}
{'lipoC2': 7.55, 'lipoC3S1': 4.14, 'temp': 30.94, 'lipoC3S3': 12.51, 'lipoC3S2': 8.27, 'rot1': 0, 'rot0': 0, 'rot3': 0, 'rot2': 0, 'state': 'normal', 'yaw': -175.23, 'datetime': '2018-10-09 12:04:31.894433', 'mgs': 0, 'volt': 0.9082, 'depth': 1.691, 'time': 360, 'pitch': 6.72, 'roll': 0.39, 'pres': 186}
{'lipoC2': 7.55, 'lipoC3S1': 4.14, 'temp': 30.94, 'lipoC3S3': 12.51, 'lipoC3S2': 8.27, 'rot1': 0, 'rot0': 0, 'rot3': 0, 'rot2': 0, 'state': 'normal', 'yaw': -175.2, 'datetime': '2018-10-09 12:04:31.904585', 'mgs': 0, 'volt': 0.9082, 'depth': 1.691, 'time': 360, 'pitch': 6.44, 'roll': 0.17, 'pres': 186}
{'lipoC2': 7.55, 'lipoC3S1': 4.14, 'temp': 30.94, 'lipoC3S3': 12.51, 'lipoC3S2': 8.27, 'rot1': 0, 'rot0': 0, 'rot3': 0, 'rot2': 0, 'state': 'normal', 'yaw': -175.2, 'datetime': '2018-10-09 12:04:31.914643', 'mgs': 0, 'volt': 0.9082, 'depth': 1.691, 'time': 360, 'pitch': 6.12, 'roll': -0.02, 'pres': 186}
{'lipoC2': 7.55, 'lipoC3S1': 4.14, 'temp': 30.94, 'lipoC3S3': 12.51, 'lipoC3S2': 8.27, 'rot1': 0, 'rot0': 0, 'rot3': 0, 'rot2': 0, 'state': 'normal', 'yaw': -175.19, 'datetime': '2018-10-09 12:04:31.924847', 'mgs': 0, 'volt': 0.9033, 'depth': 1.614, 'time': 360, 'pitch': 5.65, 'roll': -0.1, 'pres': 185}
{'lipoC2': 7.55, 'lipoC3S1': 4.14, 'temp': 30.94, 'lipoC3S3': 12.51, 'lipoC3S2': 8.27, 'rot1': 0, 'rot0': 0, 'rot3': 0, 'rot2': 0, 'state': 'normal', 'yaw': -175.17, 'datetime': '2018-10-09 12:04:31.934989', 'mgs': 0, 'volt': 0.9033, 'depth': 1.614, 'time': 360, 'pitch': 5.08, 'roll': -0.11, 'pres': 185}
{'lipoC2': 7.55, 'lipoC3S1': 4.14, 'temp': 30.94, 'lipoC3S3': 12.51, 'lipoC3S2': 8.27, 'rot1': 0, 'rot0': 0, 'rot3': 0, 'rot2': 0, 'state': 'normal', 'yaw': -175.17, 'datetime': '2018-10-09 12:04:31.945175', 'mgs': 0, 'volt': 0.9033, 'depth': 1.614, 'time': 360, 'pitch': 4.61, 'roll': -0.14, 'pres': 185}
{'lipoC2': 7.55, 'lipoC3S1': 4.14, 'temp': 30.94, 'lipoC3S3': 12.51, 'lipoC3S2': 8.27, 'rot1': 0, 'rot0': 0, 'rot3': 0, 'rot2': 0, 'state': 'normal', 'yaw': -175.17, 'datetime': '2018-10-09 12:04:31.955353', 'mgs': 0, 'volt': 0.9033, 'depth': 1.614, 'time': 360, 'pitch': 4.33, 'roll': -0.19, 'pres': 185}
{'lipoC2': 7.55, 'lipoC3S1': 4.14, 'temp': 30.94, 'lipoC3S3': 12.5, 'lipoC3S2': 8.27, 'rot1': 0, 'rot0': 0, 'rot3': 0, 'rot2': 0, 'state': 'normal', 'yaw': -175.16, 'datetime': '2018-10-09 12:04:31.965377', 'mgs': 0, 'volt': 0.9033, 'depth': 1.614, 'time': 360, 'pitch': 4.12, 'roll': -0.28, 'pres': 185}
{'lipoC2': 7.55, 'lipoC3S1': 4.14, 'temp': 30.94, 'lipoC3S3': 12.51, 'lipoC3S2': 8.27, 'rot1': 0, 'rot0': 0, 'rot3': 0, 'rot2': 0, 'state': 'normal', 'yaw': -175.16, 'datetime': '2018-10-09 12:04:31.975508', 'mgs': 0, 'volt': 0.9033, 'depth': 1.614, 'time': 361, 'pitch': 3.89, 'roll': -0.45, 'pres': 185}
{'lipoC2': 7.55, 'lipoC3S1': 4.14, 'temp': 30.94, 'lipoC3S3': 12.51, 'lipoC3S2': 8.27, 'rot1': 0, 'rot0': 0, 'rot3': 0, 'rot2': 0, 'state': 'normal', 'yaw': -175.14, 'datetime': '2018-10-09 12:04:31.985828', 'mgs': 0, 'volt': 0.9033, 'depth': 1.614, 'time': 361, 'pitch': 3.65, 'roll': -0.59, 'pres': 185}
{'lipoC2': 7.55, 'lipoC3S1': 4.14, 'temp': 30.94, 'lipoC3S3': 12.51, 'lipoC3S2': 8.27, 'rot1': 0, 'rot0': 0, 'rot3': 0, 'rot2': 0, 'state': 'normal', 'yaw': -175.13, 'datetime': '2018-10-09 12:04:31.996122', 'mgs': 0, 'volt': 0.9033, 'depth': 1.614, 'time': 361, 'pitch': 3.51, 'roll': -0.67, 'pres': 185}
{'lipoC2': 7.55, 'lipoC3S1': 4.14, 'temp': 30.94, 'lipoC3S3': 12.51, 'lipoC3S2': 8.27, 'rot1': 0, 'rot0': 0, 'rot3': 0, 'rot2': 0, 'state': 'normal', 'yaw': -175.12, 'datetime': '2018-10-09 12:04:32.006379', 'mgs': 0, 'volt': 0.9033, 'depth': 1.614, 'time': 361, 'pitch': 3.52, 'roll': -0.64, 'pres': 185}
{'lipoC2': 7.55, 'lipoC3S1': 4.14, 'temp': 30.94, 'lipoC3S3': 12.51, 'lipoC3S2': 8.27, 'rot1': 0, 'rot0': 0, 'rot3': 0, 'rot2': 0, 'state': 'normal', 'yaw': -175.14, 'datetime': '2018-10-09 12:04:32.016535', 'mgs': 0, 'volt': 0.9033, 'depth': 1.614, 'time': 361, 'pitch': 3.79, 'roll': -0.47, 'pres': 185}
{'lipoC2': 7.55, 'lipoC3S1': 4.14, 'temp': 30.94, 'lipoC3S3': 12.51, 'lipoC3S2': 8.27, 'rot1': 0, 'rot0': 0, 'rot3': 0, 'rot2': 0, 'state': 'normal', 'yaw': -175.14, 'datetime': '2018-10-09 12:04:32.026793', 'mgs': 0, 'volt': 0.9033, 'depth': 1.614, 'time': 361, 'pitch': 4.2, 'roll': -0.21, 'pres': 185}
{'lipoC2': 7.55, 'lipoC3S1': 4.14, 'temp': 31.0, 'lipoC3S3': 12.51, 'lipoC3S2': 8.27, 'rot1': 0, 'rot0': 0, 'rot3': 0, 'rot2': 0, 'state': 'normal', 'yaw': -175.14, 'datetime': '2018-10-09 12:04:32.036983', 'mgs': 0, 'volt': 0.9033, 'depth': 1.614, 'time': 361, 'pitch': 4.67, 'roll': 0.13, 'pres': 185}
{'lipoC2': 7.55, 'lipoC3S1': 4.14, 'temp': 31.0, 'lipoC3S3': 12.51, 'lipoC3S2': 8.27, 'rot1': 0, 'rot0': 0, 'rot3': 0, 'rot2': 0, 'state': 'normal', 'yaw': -175.11, 'datetime': '2018-10-09 12:04:32.047229', 'mgs': 0, 'volt': 0.9033, 'depth': 1.614, 'time': 361, 'pitch': 5.08, 'roll': 0.46, 'pres': 185}
{'lipoC2': 7.55, 'lipoC3S1': 4.14, 'temp': 31.0, 'lipoC3S3': 12.51, 'lipoC3S2': 8.27, 'rot1': 0, 'rot0': 0, 'rot3': 0, 'rot2': 0, 'state': 'normal', 'yaw': -175.01, 'datetime': '2018-10-09 12:04:32.057410', 'mgs': 0, 'volt': 0.9033, 'depth': 1.614, 'time': 361, 'pitch': 5.19, 'roll': 0.56, 'pres': 185}
{'lipoC2': 7.55, 'lipoC3S1': 4.14, 'temp': 30.94, 'lipoC3S3': 12.51, 'lipoC3S2': 8.27, 'rot1': 0, 'rot0': 0, 'rot3': 0, 'rot2': 0, 'state': 'normal', 'yaw': -174.88, 'datetime': '2018-10-09 12:04:32.067672', 'mgs': 0, 'volt': 0.9033, 'depth': 1.614, 'time': 362, 'pitch': 5.07, 'roll': 0.45, 'pres': 185}
{'lipoC2': 7.55, 'lipoC3S1': 4.14, 'temp': 30.94, 'lipoC3S3': 12.51, 'lipoC3S2': 8.27, 'rot1': 0, 'rot0': 0, 'rot3': 0, 'rot2': 0, 'state': 'normal', 'yaw': -174.77, 'datetime': '2018-10-09 12:04:32.077873', 'mgs': 0, 'volt': 0.9033, 'depth': 1.614, 'time': 362, 'pitch': 4.85, 'roll': 0.19, 'pres': 185}
{'lipoC2': 7.55, 'lipoC3S1': 4.14, 'temp': 30.94, 'lipoC3S3': 12.51, 'lipoC3S2': 8.27, 'rot1': 0, 'rot0': 0, 'rot3': 0, 'rot2': 0, 'state': 'normal', 'yaw': -174.72, 'datetime': '2018-10-09 12:04:32.088137', 'mgs': 0, 'volt': 0.9033, 'depth': 1.614, 'time': 362, 'pitch': 4.73, 'roll': -0.05, 'pres': 185}
{'lipoC2': 7.55, 'lipoC3S1': 4.14, 'temp': 30.94, 'lipoC3S3': 12.51, 'lipoC3S2': 8.27, 'rot1': 0, 'rot0': 0, 'rot3': 0, 'rot2': 0, 'state': 'normal', 'yaw': -174.7, 'datetime': '2018-10-09 12:04:32.098294', 'mgs': 0, 'volt': 0.9082, 'depth': 1.691, 'time': 362, 'pitch': 4.81, 'roll': -0.15, 'pres': 186}
{'lipoC2': 7.55, 'lipoC3S1': 4.14, 'temp': 30.94, 'lipoC3S3': 12.51, 'lipoC3S2': 8.27, 'rot1': 0, 'rot0': 0, 'rot3': 0, 'rot2': 0, 'state': 'normal', 'yaw': -174.67, 'datetime': '2018-10-09 12:04:32.108549', 'mgs': 0, 'volt': 0.9033, 'depth': 1.614, 'time': 362, 'pitch': 5.29, 'roll': -0.02, 'pres': 185}
{'lipoC2': 7.55, 'lipoC3S1': 4.14, 'temp': 30.94, 'lipoC3S3': 12.51, 'lipoC3S2': 8.27, 'rot1': 0, 'rot0': 0, 'rot3': 0, 'rot2': 0, 'state': 'normal', 'yaw': -174.66, 'datetime': '2018-10-09 12:04:32.118817', 'mgs': 0, 'volt': 0.9033, 'depth': 1.614, 'time': 362, 'pitch': 5.84, 'roll': 0.28, 'pres': 185}
{'lipoC2': 7.55, 'lipoC3S1': 4.14, 'temp': 30.94, 'lipoC3S3': 12.51, 'lipoC3S2': 8.27, 'rot1': 0, 'rot0': 0, 'rot3': 0, 'rot2': 0, 'state': 'normal', 'yaw': -174.63, 'datetime': '2018-10-09 12:04:32.129047', 'mgs': 0, 'volt': 0.9033, 'depth': 1.614, 'time': 362, 'pitch': 6.08, 'roll': 0.74, 'pres': 185}
{'lipoC2': 7.55, 'lipoC3S1': 4.14, 'temp': 30.94, 'lipoC3S3': 12.51, 'lipoC3S2': 8.27, 'rot1': 0, 'rot0': 0, 'rot3': 0, 'rot2': 0, 'state': 'normal', 'yaw': -174.53, 'datetime': '2018-10-09 12:04:32.139194', 'mgs': 0, 'volt': 0.9033, 'depth': 1.614, 'time': 362, 'pitch': 5.77, 'roll': 1.18, 'pres': 185}
{'lipoC2': 7.55, 'lipoC3S1': 4.14, 'temp': 30.94, 'lipoC3S3': 12.51, 'lipoC3S2': 8.27, 'rot1': 0, 'rot0': 0, 'rot3': 0, 'rot2': 0, 'state': 'normal', 'yaw': -174.41, 'datetime': '2018-10-09 12:04:32.149356', 'mgs': 0, 'volt': 0.8984, 'depth': 1.538, 'time': 362, 'pitch': 5.12, 'roll': 1.29, 'pres': 184}
{'lipoC2': 7.55, 'lipoC3S1': 4.14, 'temp': 31.0, 'lipoC3S3': 12.51, 'lipoC3S2': 8.27, 'rot1': 0, 'rot0': 0, 'rot3': 0, 'rot2': 0, 'state': 'normal', 'yaw': -174.28, 'datetime': '2018-10-09 12:04:32.159426', 'mgs': 0, 'volt': 0.9033, 'depth': 1.614, 'time': 362, 'pitch': 4.39, 'roll': 1.07, 'pres': 185}
{'lipoC2': 7.55, 'lipoC3S1': 4.14, 'temp': 31.0, 'lipoC3S3': 12.51, 'lipoC3S2': 8.27, 'rot1': 0, 'rot0': 0, 'rot3': 0, 'rot2': 0, 'state': 'normal', 'yaw': -174.14, 'datetime': '2018-10-09 12:04:32.169528', 'mgs': 0, 'volt': 0.9033, 'depth': 1.614, 'time': 363, 'pitch': 3.9, 'roll': 0.5, 'pres': 185}
{'lipoC2': 7.55, 'lipoC3S1': 4.14, 'temp': 30.94, 'lipoC3S3': 12.51, 'lipoC3S2': 8.27, 'rot1': 0, 'rot0': 0, 'rot3': 0, 'rot2': 0, 'state': 'normal', 'yaw': -174.0, 'datetime': '2018-10-09 12:04:32.179694', 'mgs': 0, 'volt': 0.9033, 'depth': 1.614, 'time': 363, 'pitch': 3.94, 'roll': -0.04, 'pres': 185}
{'lipoC2': 7.55, 'lipoC3S1': 4.14, 'temp': 30.94, 'lipoC3S3': 12.51, 'lipoC3S2': 8.27, 'rot1': 0, 'rot0': 0, 'rot3': 0, 'rot2': 0, 'state': 'normal', 'yaw': -173.86, 'datetime': '2018-10-09 12:04:32.189849', 'mgs': 0, 'volt': 0.9033, 'depth': 1.614, 'time': 363, 'pitch': 4.47, 'roll': -0.34, 'pres': 185}
{'lipoC2': 7.55, 'lipoC3S1': 4.14, 'temp': 30.94, 'lipoC3S3': 12.51, 'lipoC3S2': 8.27, 'rot1': 0, 'rot0': 0, 'rot3': 0, 'rot2': 0, 'state': 'normal', 'yaw': -173.73, 'datetime': '2018-10-09 12:04:32.199758', 'mgs': 0, 'volt': 0.9033, 'depth': 1.614, 'time': 363, 'pitch': 5.41, 'roll': -0.33, 'pres': 185}
{'lipoC2': 7.55, 'lipoC3S1': 4.14, 'temp': 30.94, 'lipoC3S3': 12.51, 'lipoC3S2': 8.27, 'rot1': 0, 'rot0': 0, 'rot3': 0, 'rot2': 0, 'state': 'normal', 'yaw': -173.63, 'datetime': '2018-10-09 12:04:32.209874', 'mgs': 0, 'volt': 0.9033, 'depth': 1.614, 'time': 363, 'pitch': 6.28, 'roll': -0.11, 'pres': 185}
{'lipoC2': 7.55, 'lipoC3S1': 4.14, 'temp': 30.94, 'lipoC3S3': 12.51, 'lipoC3S2': 8.27, 'rot1': 0, 'rot0': 0, 'rot3': 0, 'rot2': 0, 'state': 'normal', 'yaw': -173.52, 'datetime': '2018-10-09 12:04:32.220046', 'mgs': 0, 'volt': 0.9033, 'depth': 1.614, 'time': 363, 'pitch': 6.76, 'roll': 0.17, 'pres': 185}
{'lipoC2': 7.55, 'lipoC3S1': 4.14, 'temp': 30.94, 'lipoC3S3': 12.51, 'lipoC3S2': 8.27, 'rot1': 0, 'rot0': 0, 'rot3': 0, 'rot2': 0, 'state': 'normal', 'yaw': -173.4, 'datetime': '2018-10-09 12:04:32.230185', 'mgs': 0, 'volt': 0.9033, 'depth': 1.614, 'time': 363, 'pitch': 6.65, 'roll': 0.33, 'pres': 185}
{'lipoC2': 7.55, 'lipoC3S1': 4.14, 'temp': 30.94, 'lipoC3S3': 12.51, 'lipoC3S2': 8.27, 'rot1': 0, 'rot0': 0, 'rot3': 0, 'rot2': 0, 'state': 'normal', 'yaw': -173.28, 'datetime': '2018-10-09 12:04:32.240095', 'mgs': 0, 'volt': 0.9033, 'depth': 1.614, 'time': 363, 'pitch': 5.89, 'roll': 0.37, 'pres': 185}
{'lipoC2': 7.55, 'lipoC3S1': 4.14, 'temp': 30.94, 'lipoC3S3': 12.51, 'lipoC3S2': 8.27, 'rot1': 0, 'rot0': 0, 'rot3': 0, 'rot2': 0, 'state': 'normal', 'yaw': -173.14, 'datetime': '2018-10-09 12:04:32.250242', 'mgs': 0, 'volt': 0.9033, 'depth': 1.614, 'time': 363, 'pitch': 4.96, 'roll': 0.36, 'pres': 185}
{'lipoC2': 7.55, 'lipoC3S1': 4.14, 'temp': 30.94, 'lipoC3S3': 12.51, 'lipoC3S2': 8.27, 'rot1': 0, 'rot0': 0, 'rot3': 0, 'rot2': 0, 'state': 'normal', 'yaw': -172.97, 'datetime': '2018-10-09 12:04:32.260591', 'mgs': 0, 'volt': 0.9033, 'depth': 1.614, 'time': 363, 'pitch': 4.21, 'roll': 0.26, 'pres': 185}
{'lipoC2': 7.55, 'lipoC3S1': 4.14, 'temp': 30.94, 'lipoC3S3': 12.51, 'lipoC3S2': 8.27, 'rot1': 0, 'rot0': 0, 'rot3': 0, 'rot2': 0, 'state': 'normal', 'yaw': -172.79, 'datetime': '2018-10-09 12:04:32.270747', 'mgs': 0, 'volt': 0.9033, 'depth': 1.614, 'time': 364, 'pitch': 4.04, 'roll': 0.1, 'pres': 185}
{'lipoC2': 7.55, 'lipoC3S1': 4.14, 'temp': 31.0, 'lipoC3S3': 12.51, 'lipoC3S2': 8.27, 'rot1': 0, 'rot0': 0, 'rot3': 0, 'rot2': 0, 'state': 'normal', 'yaw': -172.62, 'datetime': '2018-10-09 12:04:32.280722', 'mgs': 0, 'volt': 0.9033, 'depth': 1.614, 'time': 364, 'pitch': 4.36, 'roll': -0.09, 'pres': 185}
{'lipoC2': 7.55, 'lipoC3S1': 4.14, 'temp': 31.0, 'lipoC3S3': 12.51, 'lipoC3S2': 8.27, 'rot1': 0, 'rot0': 0, 'rot3': 0, 'rot2': 0, 'state': 'normal', 'yaw': -172.46, 'datetime': '2018-10-09 12:04:32.291046', 'mgs': 0, 'volt': 0.9033, 'depth': 1.614, 'time': 364, 'pitch': 5.01, 'roll': -0.27, 'pres': 185}
{'lipoC2': 7.55, 'lipoC3S1': 4.14, 'temp': 30.94, 'lipoC3S3': 12.51, 'lipoC3S2': 8.27, 'rot1': 0, 'rot0': 0, 'rot3': 0, 'rot2': 0, 'state': 'normal', 'yaw': -172.34, 'datetime': '2018-10-09 12:04:32.301310', 'mgs': 0, 'volt': 0.9033, 'depth': 1.614, 'time': 364, 'pitch': 5.5, 'roll': -0.34, 'pres': 185}
{'lipoC2': 7.55, 'lipoC3S1': 4.14, 'temp': 30.94, 'lipoC3S3': 12.51, 'lipoC3S2': 8.27, 'rot1': 0, 'rot0': 0, 'rot3': 0, 'rot2': 0, 'state': 'normal', 'yaw': -172.21, 'datetime': '2018-10-09 12:04:32.311480', 'mgs': 0, 'volt': 0.9033, 'depth': 1.614, 'time': 364, 'pitch': 5.71, 'roll': -0.28, 'pres': 185}
{'lipoC2': 7.55, 'lipoC3S1': 4.14, 'temp': 31.0, 'lipoC3S3': 12.51, 'lipoC3S2': 8.27, 'rot1': 0, 'rot0': 0, 'rot3': 0, 'rot2': 0, 'state': 'normal', 'yaw': -172.08, 'datetime': '2018-10-09 12:04:32.321504', 'mgs': 0, 'volt': 0.9033, 'depth': 1.614, 'time': 364, 'pitch': 5.63, 'roll': -0.12, 'pres': 185}
{'lipoC2': 7.55, 'lipoC3S1': 4.14, 'temp': 31.0, 'lipoC3S3': 12.51, 'lipoC3S2': 8.27, 'rot1': 0, 'rot0': 0, 'rot3': 0, 'rot2': 0, 'state': 'normal', 'yaw': -171.9, 'datetime': '2018-10-09 12:04:32.331668', 'mgs': 0, 'volt': 0.9033, 'depth': 1.614, 'time': 364, 'pitch': 5.32, 'roll': 0.08, 'pres': 185}
