{'lipoC2': 7.4, 'lipoC3S1': 3.96, 'temp': 30.44, 'lipoC3S3': 11.98, 'lipoC3S2': 7.93, 'rot1': 1493, 'rot0': 1475, 'rot3': 696, 'rot2': 662, 'state': 'normal', 'yaw': -78.15, 'datetime': '2018-10-09 13:14:52.520940', 'mgs': 0, 'volt': 0.9277, 'depth': 1.996, 'time': 572, 'pitch': 2.81, 'roll': -6.75, 'pres': 190}
{'lipoC2': 7.4, 'lipoC3S1': 3.96, 'temp': 30.44, 'lipoC3S3': 12.0, 'lipoC3S2': 7.93, 'rot1': 1493, 'rot0': 1475, 'rot3': 696, 'rot2': 662, 'state': 'normal', 'yaw': -76.92, 'datetime': '2018-10-09 13:14:52.545038', 'mgs': 0, 'volt': 0.9229, 'depth': 1.92, 'time': 572, 'pitch': 1.02, 'roll': -7.25, 'pres': 189}
{'lipoC2': 7.4, 'lipoC3S1': 3.96, 'temp': 30.44, 'lipoC3S3': 11.98, 'lipoC3S2': 7.93, 'rot1': 1493, 'rot0': 1475, 'rot3': 696, 'rot2': 662, 'state': 'normal', 'yaw': -74.64, 'datetime': '2018-10-09 13:14:52.567869', 'mgs': 0, 'volt': 0.9277, 'depth': 1.996, 'time': 572, 'pitch': -0.83, 'roll': -7.43, 'pres': 190}
{'lipoC2': 7.4, 'lipoC3S1': 3.96, 'temp': 30.44, 'lipoC3S3': 11.98, 'lipoC3S2': 7.93, 'rot1': 1493, 'rot0': 1475, 'rot3': 696, 'rot2': 662, 'state': 'normal', 'yaw': -72.62, 'datetime': '2018-10-09 13:14:52.578326', 'mgs': 0, 'volt': 0.9326, 'depth': 2.072, 'time': 572, 'pitch': -1.24, 'roll': -7.23, 'pres': 191}
{'lipoC2': 7.4, 'lipoC3S1': 3.96, 'temp': 30.56, 'lipoC3S3': 11.98, 'lipoC3S2': 7.93, 'rot1': 1493, 'rot0': 1475, 'rot3': 696, 'rot2': 662, 'state': 'normal', 'yaw': -71.02, 'datetime': '2018-10-09 13:14:52.588796', 'mgs': 0, 'volt': 0.9326, 'depth': 2.072, 'time': 572, 'pitch': 0.06, 'roll': -6.95, 'pres': 191}
{'lipoC2': 7.4, 'lipoC3S1': 3.96, 'temp': 30.56, 'lipoC3S3': 11.98, 'lipoC3S2': 7.93, 'rot1': 1493, 'rot0': 1475, 'rot3': 696, 'rot2': 662, 'state': 'normal', 'yaw': -69.84, 'datetime': '2018-10-09 13:14:52.599241', 'mgs': 0, 'volt': 0.9375, 'depth': 2.148, 'time': 572, 'pitch': 1.54, 'roll': -6.94, 'pres': 192}
{'lipoC2': 7.4, 'lipoC3S1': 3.96, 'temp': 30.5, 'lipoC3S3': 11.98, 'lipoC3S2': 7.92, 'rot1': 1493, 'rot0': 1475, 'rot3': 696, 'rot2': 662, 'state': 'normal', 'yaw': -68.83, 'datetime': '2018-10-09 13:14:52.609693', 'mgs': 0, 'volt': 0.9375, 'depth': 2.148, 'time': 572, 'pitch': 3.42, 'roll': -7.11, 'pres': 192}
{'lipoC2': 7.4, 'lipoC3S1': 3.96, 'temp': 30.5, 'lipoC3S3': 11.98, 'lipoC3S2': 7.93, 'rot1': 1493, 'rot0': 1475, 'rot3': 696, 'rot2': 662, 'state': 'normal', 'yaw': -68.15, 'datetime': '2018-10-09 13:14:52.620181', 'mgs': 0, 'volt': 0.9424, 'depth': 2.225, 'time': 572, 'pitch': 5.32, 'roll': -7.33, 'pres': 193}
{'lipoC2': 7.4, 'lipoC3S1': 3.96, 'temp': 30.5, 'lipoC3S3': 11.98, 'lipoC3S2': 7.92, 'rot1': 1493, 'rot0': 1475, 'rot3': 696, 'rot2': 662, 'state': 'normal', 'yaw': -67.62, 'datetime': '2018-10-09 13:14:52.633214', 'mgs': 0, 'volt': 0.9424, 'depth': 2.225, 'time': 572, 'pitch': 7.23, 'roll': -7.47, 'pres': 193}
{'lipoC2': 7.4, 'lipoC3S1': 3.96, 'temp': 30.5, 'lipoC3S3': 11.98, 'lipoC3S2': 7.93, 'rot1': 1493, 'rot0': 1475, 'rot3': 696, 'rot2': 662, 'state': 'normal', 'yaw': -67.58, 'datetime': '2018-10-09 13:14:52.646996', 'mgs': 0, 'volt': 0.9473, 'depth': 2.301, 'time': 573, 'pitch': 8.39, 'roll': -7.41, 'pres': 194}
{'lipoC2': 7.4, 'lipoC3S1': 3.96, 'temp': 30.5, 'lipoC3S3': 11.98, 'lipoC3S2': 7.92, 'rot1': 1493, 'rot0': 1475, 'rot3': 696, 'rot2': 662, 'state': 'normal', 'yaw': -67.98, 'datetime': '2018-10-09 13:14:52.663397', 'mgs': 0, 'volt': 0.9473, 'depth': 2.301, 'time': 573, 'pitch': 8.72, 'roll': -7.38, 'pres': 194}
{'lipoC2': 7.4, 'lipoC3S1': 3.96, 'temp': 30.5, 'lipoC3S3': 11.98, 'lipoC3S2': 7.92, 'rot1': 1493, 'rot0': 1475, 'rot3': 696, 'rot2': 662, 'state': 'normal', 'yaw': -68.74, 'datetime': '2018-10-09 13:14:52.676900', 'mgs': 0, 'volt': 0.9521, 'depth': 2.377, 'time': 573, 'pitch': 8.6, 'roll': -7.47, 'pres': 195}
{'lipoC2': 7.4, 'lipoC3S1': 3.96, 'temp': 30.5, 'lipoC3S3': 11.98, 'lipoC3S2': 7.92, 'rot1': 1493, 'rot0': 1475, 'rot3': 696, 'rot2': 662, 'state': 'normal', 'yaw': -70.03, 'datetime': '2018-10-09 13:14:52.687360', 'mgs': 0, 'volt': 0.9521, 'depth': 2.377, 'time': 573, 'pitch': 8.88, 'roll': -7.6, 'pres': 195}
{'lipoC2': 7.4, 'lipoC3S1': 3.96, 'temp': 30.5, 'lipoC3S3': 11.98, 'lipoC3S2': 7.92, 'rot1': 1493, 'rot0': 1475, 'rot3': 696, 'rot2': 662, 'state': 'normal', 'yaw': -71.42, 'datetime': '2018-10-09 13:14:52.697821', 'mgs': 0, 'volt': 0.9473, 'depth': 2.301, 'time': 573, 'pitch': 9.77, 'roll': -8.01, 'pres': 194}
{'lipoC2': 7.4, 'lipoC3S1': 3.96, 'temp': 30.5, 'lipoC3S3': 11.98, 'lipoC3S2': 7.92, 'rot1': 1493, 'rot0': 1475, 'rot3': 696, 'rot2': 662, 'state': 'normal', 'yaw': -73.05, 'datetime': '2018-10-09 13:14:52.708627', 'mgs': 0, 'volt': 0.9473, 'depth': 2.301, 'time': 573, 'pitch': 10.08, 'roll': -8.57, 'pres': 194}
{'lipoC2': 7.4, 'lipoC3S1': 3.96, 'temp': 30.5, 'lipoC3S3': 11.98, 'lipoC3S2': 7.92, 'rot1': 1493, 'rot0': 1475, 'rot3': 696, 'rot2': 662, 'state': 'normal', 'yaw': -74.78, 'datetime': '2018-10-09 13:14:52.719120', 'mgs': 0, 'volt': 0.9473, 'depth': 2.301, 'time': 573, 'pitch': 9.86, 'roll': -9.32, 'pres': 194}
{'lipoC2': 7.4, 'lipoC3S1': 3.96, 'temp': 30.5, 'lipoC3S3': 11.98, 'lipoC3S2': 7.92, 'rot1': 1493, 'rot0': 1475, 'rot3': 696, 'rot2': 662, 'state': 'normal', 'yaw': -76.24, 'datetime': '2018-10-09 13:14:52.729578', 'mgs': 0, 'volt': 0.9473, 'depth': 2.301, 'time': 573, 'pitch': 9.92, 'roll': -9.93, 'pres': 194}
{'lipoC2': 7.4, 'lipoC3S1': 3.96, 'temp': 30.5, 'lipoC3S3': 11.98, 'lipoC3S2': 7.92, 'rot1': 1493, 'rot0': 1475, 'rot3': 696, 'rot2': 662, 'state': 'normal', 'yaw': -77.63, 'datetime': '2018-10-09 13:14:52.740079', 'mgs': 0, 'volt': 0.9424, 'depth': 2.225, 'time': 573, 'pitch': 10.55, 'roll': -10.39, 'pres': 193}
{'lipoC2': 7.4, 'lipoC3S1': 3.96, 'temp': 30.5, 'lipoC3S3': 11.98, 'lipoC3S2': 7.92, 'rot1': 1493, 'rot0': 1475, 'rot3': 696, 'rot2': 662, 'state': 'normal', 'yaw': -78.72, 'datetime': '2018-10-09 13:14:52.750605', 'mgs': 0, 'volt': 0.9424, 'depth': 2.225, 'time': 574, 'pitch': 11.36, 'roll': -10.54, 'pres': 193}
{'lipoC2': 7.4, 'lipoC3S1': 3.96, 'temp': 30.5, 'lipoC3S3': 11.98, 'lipoC3S2': 7.92, 'rot1': 1493, 'rot0': 1475, 'rot3': 696, 'rot2': 662, 'state': 'normal', 'yaw': -79.67, 'datetime': '2018-10-09 13:14:52.761087', 'mgs': 0, 'volt': 0.9473, 'depth': 2.301, 'time': 574, 'pitch': 11.87, 'roll': -10.35, 'pres': 194}
{'lipoC2': 7.4, 'lipoC3S1': 3.96, 'temp': 30.5, 'lipoC3S3': 11.98, 'lipoC3S2': 7.92, 'rot1': 1493, 'rot0': 1475, 'rot3': 696, 'rot2': 662, 'state': 'normal', 'yaw': -80.18, 'datetime': '2018-10-09 13:14:52.771581', 'mgs': 0, 'volt': 0.9473, 'depth': 2.301, 'time': 574, 'pitch': 11.69, 'roll': -9.94, 'pres': 194}
{'lipoC2': 7.4, 'lipoC3S1': 3.96, 'temp': 30.5, 'lipoC3S3': 11.98, 'lipoC3S2': 7.92, 'rot1': 1493, 'rot0': 1475, 'rot3': 696, 'rot2': 662, 'state': 'normal', 'yaw': -80.41, 'datetime': '2018-10-09 13:14:52.781997', 'mgs': 0, 'volt': 0.9473, 'depth': 2.301, 'time': 574, 'pitch': 11.36, 'roll': -9.23, 'pres': 194}
{'lipoC2': 7.4, 'lipoC3S1': 3.96, 'temp': 30.5, 'lipoC3S3': 11.98, 'lipoC3S2': 7.92, 'rot1': 1493, 'rot0': 1475, 'rot3': 696, 'rot2': 662, 'state': 'normal', 'yaw': -80.43, 'datetime': '2018-10-09 13:14:52.792410', 'mgs': 0, 'volt': 0.9473, 'depth': 2.301, 'time': 574, 'pitch': 11.38, 'roll': -8.44, 'pres': 194}
{'lipoC2': 7.4, 'lipoC3S1': 3.96, 'temp': 30.5, 'lipoC3S3': 11.98, 'lipoC3S2': 7.92, 'rot1': 1493, 'rot0': 1475, 'rot3': 696, 'rot2': 662, 'state': 'normal', 'yaw': -80.29, 'datetime': '2018-10-09 13:14:52.802843', 'mgs': 0, 'volt': 0.9473, 'depth': 2.301, 'time': 574, 'pitch': 11.27, 'roll': -7.52, 'pres': 194}
{'lipoC2': 7.4, 'lipoC3S1': 3.96, 'temp': 30.5, 'lipoC3S3': 11.98, 'lipoC3S2': 7.92, 'rot1': 1493, 'rot0': 1475, 'rot3': 696, 'rot2': 662, 'state': 'normal', 'yaw': -79.84, 'datetime': '2018-10-09 13:14:52.813322', 'mgs': 0, 'volt': 0.9473, 'depth': 2.301, 'time': 574, 'pitch': 10.59, 'roll': -6.56, 'pres': 194}
{'lipoC2': 7.4, 'lipoC3S1': 3.96, 'temp': 30.5, 'lipoC3S3': 11.98, 'lipoC3S2': 7.92, 'rot1': 1493, 'rot0': 1475, 'rot3': 696, 'rot2': 662, 'state': 'normal', 'yaw': -79.25, 'datetime': '2018-10-09 13:14:52.823784', 'mgs': 0, 'volt': 0.9473, 'depth': 2.301, 'time': 574, 'pitch': 9.18, 'roll': -5.73, 'pres': 194}
{'lipoC2': 7.4, 'lipoC3S1': 3.96, 'temp': 30.5, 'lipoC3S3': 11.98, 'lipoC3S2': 7.92, 'rot1': 1493, 'rot0': 1475, 'rot3': 696, 'rot2': 662, 'state': 'normal', 'yaw': -78.47, 'datetime': '2018-10-09 13:14:52.834255', 'mgs': 0, 'volt': 0.9424, 'depth': 2.225, 'time': 574, 'pitch': 7.28, 'roll': -4.9, 'pres': 193}
{'lipoC2': 7.4, 'lipoC3S1': 3.96, 'temp': 30.5, 'lipoC3S3': 11.98, 'lipoC3S2': 7.92, 'rot1': 1493, 'rot0': 1475, 'rot3': 696, 'rot2': 662, 'state': 'normal', 'yaw': -77.77, 'datetime': '2018-10-09 13:14:52.844965', 'mgs': 0, 'volt': 0.9424, 'depth': 2.225, 'time': 574, 'pitch': 5.46, 'roll': -4.17, 'pres': 193}
{'lipoC2': 7.4, 'lipoC3S1': 3.96, 'temp': 30.5, 'lipoC3S3': 11.98, 'lipoC3S2': 7.92, 'rot1': 1493, 'rot0': 1475, 'rot3': 696, 'rot2': 662, 'state': 'normal', 'yaw': -77.17, 'datetime': '2018-10-09 13:14:52.855449', 'mgs': 0, 'volt': 0.9424, 'depth': 2.225, 'time': 575, 'pitch': 3.77, 'roll': -3.33, 'pres': 193}
{'lipoC2': 7.4, 'lipoC3S1': 3.96, 'temp': 30.5, 'lipoC3S3': 11.98, 'lipoC3S2': 7.92, 'rot1': 1493, 'rot0': 1475, 'rot3': 696, 'rot2': 662, 'state': 'normal', 'yaw': -76.99, 'datetime': '2018-10-09 13:14:52.865917', 'mgs': 0, 'volt': 0.9424, 'depth': 2.225, 'time': 575, 'pitch': 2.53, 'roll': -2.44, 'pres': 193}
{'lipoC2': 7.4, 'lipoC3S1': 3.96, 'temp': 30.5, 'lipoC3S3': 11.98, 'lipoC3S2': 7.92, 'rot1': 1493, 'rot0': 1475, 'rot3': 696, 'rot2': 662, 'state': 'normal', 'yaw': -77.08, 'datetime': '2018-10-09 13:14:52.876374', 'mgs': 0, 'volt': 0.9473, 'depth': 2.301, 'time': 575, 'pitch': 1.27, 'roll': -1.38, 'pres': 194}
{'lipoC2': 7.4, 'lipoC3S1': 3.96, 'temp': 30.5, 'lipoC3S3': 11.98, 'lipoC3S2': 7.92, 'rot1': 1493, 'rot0': 1475, 'rot3': 696, 'rot2': 662, 'state': 'normal', 'yaw': -77.26, 'datetime': '2018-10-09 13:14:52.886829', 'mgs': 0, 'volt': 0.9473, 'depth': 2.301, 'time': 575, 'pitch': 0.2, 'roll': -0.56, 'pres': 194}
{'lipoC2': 7.4, 'lipoC3S1': 3.96, 'temp': 30.5, 'lipoC3S3': 11.98, 'lipoC3S2': 7.92, 'rot1': 1493, 'rot0': 1475, 'rot3': 696, 'rot2': 662, 'state': 'normal', 'yaw': -77.57, 'datetime': '2018-10-09 13:14:52.897245', 'mgs': 0, 'volt': 0.9473, 'depth': 2.301, 'time': 575, 'pitch': -0.28, 'roll': 0.18, 'pres': 194}
{'lipoC2': 7.4, 'lipoC3S1': 3.96, 'temp': 30.5, 'lipoC3S3': 11.98, 'lipoC3S2': 7.92, 'rot1': 1493, 'rot0': 1475, 'rot3': 696, 'rot2': 662, 'state': 'normal', 'yaw': -78.03, 'datetime': '2018-10-09 13:14:52.907640', 'mgs': 0, 'volt': 0.9521, 'depth': 2.377, 'time': 575, 'pitch': 0.01, 'roll': 0.76, 'pres': 195}
{'lipoC2': 7.4, 'lipoC3S1': 3.96, 'temp': 30.5, 'lipoC3S3': 11.98, 'lipoC3S2': 7.92, 'rot1': 1493, 'rot0': 1475, 'rot3': 696, 'rot2': 662, 'state': 'normal', 'yaw': -78.51, 'datetime': '2018-10-09 13:14:52.918097', 'mgs': 0, 'volt': 0.9521, 'depth': 2.377, 'time': 575, 'pitch': 0.63, 'roll': 1.19, 'pres': 195}
{'lipoC2': 7.4, 'lipoC3S1': 3.96, 'temp': 30.5, 'lipoC3S3': 11.98, 'lipoC3S2': 7.92, 'rot1': 1493, 'rot0': 1475, 'rot3': 696, 'rot2': 662, 'state': 'normal', 'yaw': -78.62, 'datetime': '2018-10-09 13:14:52.928724', 'mgs': 0, 'volt': 0.9521, 'depth': 2.377, 'time': 575, 'pitch': 1.48, 'roll': 1.2, 'pres': 195}
{'lipoC2': 7.4, 'lipoC3S1': 3.96, 'temp': 30.5, 'lipoC3S3': 11.98, 'lipoC3S2': 7.92, 'rot1': 1493, 'rot0': 1475, 'rot3': 696, 'rot2': 662, 'state': 'normal', 'yaw': -78.85, 'datetime': '2018-10-09 13:14:52.939196', 'mgs': 0, 'volt': 0.9521, 'depth': 2.377, 'time': 575, 'pitch': 2.48, 'roll': 0.94, 'pres': 195}
{'lipoC2': 7.4, 'lipoC3S1': 3.96, 'temp': 30.5, 'lipoC3S3': 11.98, 'lipoC3S2': 7.92, 'rot1': 1493, 'rot0': 1475, 'rot3': 696, 'rot2': 662, 'state': 'normal', 'yaw': -79.56, 'datetime': '2018-10-09 13:14:52.949627', 'mgs': 0, 'volt': 0.957, 'depth': 2.454, 'time': 576, 'pitch': 3.7, 'roll': 0.68, 'pres': 196}
{'lipoC2': 7.4, 'lipoC3S1': 3.96, 'temp': 30.5, 'lipoC3S3': 11.98, 'lipoC3S2': 7.92, 'rot1': 1493, 'rot0': 1475, 'rot3': 696, 'rot2': 662, 'state': 'normal', 'yaw': -80.38, 'datetime': '2018-10-09 13:14:52.960081', 'mgs': 0, 'volt': 0.957, 'depth': 2.454, 'time': 576, 'pitch': 4.52, 'roll': 0.4, 'pres': 196}
{'lipoC2': 7.4, 'lipoC3S1': 3.96, 'temp': 30.5, 'lipoC3S3': 11.98, 'lipoC3S2': 7.92, 'rot1': 1493, 'rot0': 1475, 'rot3': 696, 'rot2': 662, 'state': 'normal', 'yaw': -81.36, 'datetime': '2018-10-09 13:14:52.970516', 'mgs': 0, 'volt': 0.9619, 'depth': 2.53, 'time': 576, 'pitch': 4.84, 'roll': 0.02, 'pres': 197}
{'lipoC2': 7.4, 'lipoC3S1': 3.96, 'temp': 30.5, 'lipoC3S3': 11.98, 'lipoC3S2': 7.92, 'rot1': 1493, 'rot0': 1475, 'rot3': 696, 'rot2': 662, 'state': 'normal', 'yaw': -82.25, 'datetime': '2018-10-09 13:14:52.981283', 'mgs': 0, 'volt': 0.9619, 'depth': 2.53, 'time': 576, 'pitch': 4.72, 'roll': -0.42, 'pres': 197}
{'lipoC2': 7.4, 'lipoC3S1': 3.96, 'temp': 30.5, 'lipoC3S3': 11.98, 'lipoC3S2': 7.92, 'rot1': 1493, 'rot0': 1475, 'rot3': 696, 'rot2': 662, 'state': 'normal', 'yaw': -83.27, 'datetime': '2018-10-09 13:14:52.991775', 'mgs': 0, 'volt': 0.9619, 'depth': 2.53, 'time': 576, 'pitch': 4.49, 'roll': -0.87, 'pres': 197}
{'lipoC2': 7.4, 'lipoC3S1': 3.96, 'temp': 30.5, 'lipoC3S3': 11.98, 'lipoC3S2': 7.92, 'rot1': 1493, 'rot0': 1475, 'rot3': 696, 'rot2': 662, 'state': 'normal', 'yaw': -84.67, 'datetime': '2018-10-09 13:14:53.002169', 'mgs': 0, 'volt': 0.9619, 'depth': 2.53, 'time': 576, 'pitch': 4.21, 'roll': -1.28, 'pres': 197}
{'lipoC2': 7.4, 'lipoC3S1': 3.96, 'temp': 30.5, 'lipoC3S3': 11.98, 'lipoC3S2': 7.92, 'rot1': 1493, 'rot0': 1475, 'rot3': 696, 'rot2': 662, 'state': 'normal', 'yaw': -86.07, 'datetime': '2018-10-09 13:14:53.012584', 'mgs': 0, 'volt': 0.9619, 'depth': 2.53, 'time': 576, 'pitch': 3.89, 'roll': -1.61, 'pres': 197}
{'lipoC2': 7.4, 'lipoC3S1': 3.96, 'temp': 30.5, 'lipoC3S3': 11.98, 'lipoC3S2': 7.92, 'rot1': 1493, 'rot0': 1475, 'rot3': 696, 'rot2': 662, 'state': 'normal', 'yaw': -87.54, 'datetime': '2018-10-09 13:14:53.023062', 'mgs': 0, 'volt': 0.9619, 'depth': 2.53, 'time': 576, 'pitch': 3.51, 'roll': -1.95, 'pres': 197}
{'lipoC2': 7.4, 'lipoC3S1': 3.96, 'temp': 30.5, 'lipoC3S3': 11.98, 'lipoC3S2': 7.92, 'rot1': 1493, 'rot0': 1475, 'rot3': 696, 'rot2': 662, 'state': 'normal', 'yaw': -88.61, 'datetime': '2018-10-09 13:14:53.033569', 'mgs': 0, 'volt': 0.9668, 'depth': 2.606, 'time': 576, 'pitch': 3.13, 'roll': -2.32, 'pres': 198}
{'lipoC2': 7.4, 'lipoC3S1': 3.96, 'temp': 30.5, 'lipoC3S3': 11.98, 'lipoC3S2': 7.92, 'rot1': 1493, 'rot0': 1475, 'rot3': 696, 'rot2': 662, 'state': 'normal', 'yaw': -89.44, 'datetime': '2018-10-09 13:14:53.044037', 'mgs': 0, 'volt': 0.9668, 'depth': 2.606, 'time': 576, 'pitch': 2.93, 'roll': -2.8, 'pres': 198}
{'lipoC2': 7.4, 'lipoC3S1': 3.96, 'temp': 30.5, 'lipoC3S3': 11.98, 'lipoC3S2': 7.92, 'rot1': 1493, 'rot0': 1475, 'rot3': 696, 'rot2': 662, 'state': 'normal', 'yaw': -89.81, 'datetime': '2018-10-09 13:14:53.054484', 'mgs': 0, 'volt': 0.9668, 'depth': 2.606, 'time': 577, 'pitch': 3.03, 'roll': -3.38, 'pres': 198}
{'lipoC2': 7.4, 'lipoC3S1': 3.96, 'temp': 30.5, 'lipoC3S3': 11.98, 'lipoC3S2': 7.92, 'rot1': 1493, 'rot0': 1475, 'rot3': 696, 'rot2': 662, 'state': 'normal', 'yaw': -89.94, 'datetime': '2018-10-09 13:14:53.064952', 'mgs': 0, 'volt': 0.9668, 'depth': 2.606, 'time': 577, 'pitch': 3.07, 'roll': -4.02, 'pres': 198}
{'lipoC2': 7.4, 'lipoC3S1': 3.96, 'temp': 30.5, 'lipoC3S3': 11.98, 'lipoC3S2': 7.92, 'rot1': 1493, 'rot0': 1475, 'rot3': 696, 'rot2': 662, 'state': 'normal', 'yaw': -90.07, 'datetime': '2018-10-09 13:14:53.075375', 'mgs': 0, 'volt': 0.9717, 'depth': 2.682, 'time': 577, 'pitch': 3.11, 'roll': -4.59, 'pres': 199}
{'lipoC2': 7.4, 'lipoC3S1': 3.96, 'temp': 30.5, 'lipoC3S3': 11.98, 'lipoC3S2': 7.92, 'rot1': 1493, 'rot0': 1475, 'rot3': 696, 'rot2': 662, 'state': 'normal', 'yaw': -90.4, 'datetime': '2018-10-09 13:14:53.085802', 'mgs': 0, 'volt': 0.9717, 'depth': 2.682, 'time': 577, 'pitch': 3.45, 'roll': -4.87, 'pres': 199}
{'lipoC2': 7.4, 'lipoC3S1': 3.96, 'temp': 30.5, 'lipoC3S3': 11.98, 'lipoC3S2': 7.92, 'rot1': 1493, 'rot0': 1475, 'rot3': 696, 'rot2': 662, 'state': 'normal', 'yaw': -91.14, 'datetime': '2018-10-09 13:14:53.096277', 'mgs': 0, 'volt': 0.9717, 'depth': 2.682, 'time': 577, 'pitch': 4.14, 'roll': -4.87, 'pres': 199}
{'lipoC2': 7.4, 'lipoC3S1': 3.96, 'temp': 30.5, 'lipoC3S3': 11.98, 'lipoC3S2': 7.92, 'rot1': 1493, 'rot0': 1475, 'rot3': 696, 'rot2': 662, 'state': 'normal', 'yaw': -92.04, 'datetime': '2018-10-09 13:14:53.106740', 'mgs': 0, 'volt': 0.9717, 'depth': 2.682, 'time': 577, 'pitch': 4.59, 'roll': -4.63, 'pres': 199}
{'lipoC2': 7.4, 'lipoC3S1': 3.96, 'temp': 30.5, 'lipoC3S3': 11.98, 'lipoC3S2': 7.92, 'rot1': 1493, 'rot0': 1475, 'rot3': 696, 'rot2': 662, 'state': 'normal', 'yaw': -93.21, 'datetime': '2018-10-09 13:14:53.117342', 'mgs': 0, 'volt': 0.9766, 'depth': 2.759, 'time': 577, 'pitch': 4.61, 'roll': -4.19, 'pres': 200}
{'lipoC2': 7.4, 'lipoC3S1': 3.96, 'temp': 30.5, 'lipoC3S3': 11.98, 'lipoC3S2': 7.92, 'rot1': 1493, 'rot0': 1475, 'rot3': 696, 'rot2': 662, 'state': 'normal', 'yaw': -94.41, 'datetime': '2018-10-09 13:14:53.127804', 'mgs': 0, 'volt': 0.9766, 'depth': 2.759, 'time': 577, 'pitch': 4.45, 'roll': -3.63, 'pres': 200}
{'lipoC2': 7.4, 'lipoC3S1': 3.96, 'temp': 30.56, 'lipoC3S3': 11.98, 'lipoC3S2': 7.92, 'rot1': 1493, 'rot0': 1475, 'rot3': 696, 'rot2': 662, 'state': 'normal', 'yaw': -95.71, 'datetime': '2018-10-09 13:14:53.138263', 'mgs': 0, 'volt': 0.9814, 'depth': 2.835, 'time': 577, 'pitch': 4.08, 'roll': -2.92, 'pres': 201}
{'lipoC2': 7.4, 'lipoC3S1': 3.96, 'temp': 30.56, 'lipoC3S3': 11.98, 'lipoC3S2': 7.92, 'rot1': 1493, 'rot0': 1475, 'rot3': 696, 'rot2': 662, 'state': 'normal', 'yaw': -96.84, 'datetime': '2018-10-09 13:14:53.148718', 'mgs': 0, 'volt': 0.9814, 'depth': 2.835, 'time': 577, 'pitch': 3.6, 'roll': -2.28, 'pres': 201}
{'lipoC2': 7.4, 'lipoC3S1': 3.96, 'temp': 30.5, 'lipoC3S3': 11.98, 'lipoC3S2': 7.92, 'rot1': 1493, 'rot0': 1475, 'rot3': 696, 'rot2': 662, 'state': 'normal', 'yaw': -97.87, 'datetime': '2018-10-09 13:14:53.159182', 'mgs': 0, 'volt': 0.9814, 'depth': 2.835, 'time': 578, 'pitch': 3.11, 'roll': -1.65, 'pres': 201}
{'lipoC2': 7.4, 'lipoC3S1': 3.96, 'temp': 30.5, 'lipoC3S3': 11.98, 'lipoC3S2': 7.92, 'rot1': 1493, 'rot0': 1475, 'rot3': 696, 'rot2': 662, 'state': 'normal', 'yaw': -98.56, 'datetime': '2018-10-09 13:14:53.169664', 'mgs': 0, 'volt': 0.9863, 'depth': 2.911, 'time': 578, 'pitch': 2.92, 'roll': -1.28, 'pres': 202}
{'lipoC2': 7.4, 'lipoC3S1': 3.96, 'temp': 30.5, 'lipoC3S3': 11.98, 'lipoC3S2': 7.92, 'rot1': 1493, 'rot0': 1475, 'rot3': 696, 'rot2': 662, 'state': 'normal', 'yaw': -98.96, 'datetime': '2018-10-09 13:14:53.180101', 'mgs': 0, 'volt': 0.9814, 'depth': 2.835, 'time': 578, 'pitch': 3.02, 'roll': -1.2, 'pres': 201}
{'lipoC2': 7.4, 'lipoC3S1': 3.96, 'temp': 30.56, 'lipoC3S3': 11.98, 'lipoC3S2': 7.92, 'rot1': 1493, 'rot0': 1475, 'rot3': 696, 'rot2': 662, 'state': 'normal', 'yaw': -99.21, 'datetime': '2018-10-09 13:14:53.190558', 'mgs': 0, 'volt': 0.9814, 'depth': 2.835, 'time': 578, 'pitch': 3.23, 'roll': -1.34, 'pres': 201}
{'lipoC2': 7.4, 'lipoC3S1': 3.96, 'temp': 30.56, 'lipoC3S3': 11.98, 'lipoC3S2': 7.92, 'rot1': 1493, 'rot0': 1475, 'rot3': 696, 'rot2': 662, 'state': 'normal', 'yaw': -99.21, 'datetime': '2018-10-09 13:14:53.201084', 'mgs': 0, 'volt': 0.9814, 'depth': 2.835, 'time': 578, 'pitch': 3.27, 'roll': -1.67, 'pres': 201}
{'lipoC2': 7.4, 'lipoC3S1': 3.96, 'temp': 30.5, 'lipoC3S3': 11.98, 'lipoC3S2': 7.92, 'rot1': 1493, 'rot0': 1475, 'rot3': 696, 'rot2': 662, 'state': 'normal', 'yaw': -98.95, 'datetime': '2018-10-09 13:14:53.211581', 'mgs': 0, 'volt': 0.9863, 'depth': 2.911, 'time': 578, 'pitch': 3.04, 'roll': -2.26, 'pres': 202}
{'lipoC2': 7.4, 'lipoC3S1': 3.96, 'temp': 30.5, 'lipoC3S3': 11.98, 'lipoC3S2': 7.92, 'rot1': 1493, 'rot0': 1475, 'rot3': 696, 'rot2': 662, 'state': 'normal', 'yaw': -98.57, 'datetime': '2018-10-09 13:14:53.222069', 'mgs': 0, 'volt': 0.9814, 'depth': 2.835, 'time': 578, 'pitch': 2.56, 'roll': -2.93, 'pres': 201}
{'lipoC2': 7.4, 'lipoC3S1': 3.96, 'temp': 30.5, 'lipoC3S3': 11.98, 'lipoC3S2': 7.92, 'rot1': 1493, 'rot0': 1475, 'rot3': 696, 'rot2': 662, 'state': 'normal', 'yaw': -97.94, 'datetime': '2018-10-09 13:14:53.232581', 'mgs': 0, 'volt': 0.9814, 'depth': 2.835, 'time': 578, 'pitch': 1.8, 'roll': -3.81, 'pres': 201}
{'lipoC2': 7.4, 'lipoC3S1': 3.96, 'temp': 30.5, 'lipoC3S3': 11.98, 'lipoC3S2': 7.92, 'rot1': 1493, 'rot0': 1475, 'rot3': 696, 'rot2': 662, 'state': 'normal', 'yaw': -97.26, 'datetime': '2018-10-09 13:14:53.243052', 'mgs': 0, 'volt': 0.9814, 'depth': 2.835, 'time': 578, 'pitch': 1.17, 'roll': -4.62, 'pres': 201}
{'lipoC2': 7.4, 'lipoC3S1': 3.96, 'temp': 30.5, 'lipoC3S3': 11.98, 'lipoC3S2': 7.92, 'rot1': 1493, 'rot0': 1475, 'rot3': 696, 'rot2': 662, 'state': 'normal', 'yaw': -96.53, 'datetime': '2018-10-09 13:14:53.253700', 'mgs': 0, 'volt': 0.9814, 'depth': 2.835, 'time': 579, 'pitch': 0.66, 'roll': -5.38, 'pres': 201}
{'lipoC2': 7.4, 'lipoC3S1': 3.96, 'temp': 30.5, 'lipoC3S3': 11.98, 'lipoC3S2': 7.92, 'rot1': 1493, 'rot0': 1475, 'rot3': 696, 'rot2': 662, 'state': 'normal', 'yaw': -96.01, 'datetime': '2018-10-09 13:14:53.264165', 'mgs': 0, 'volt': 0.9814, 'depth': 2.835, 'time': 579, 'pitch': 0.55, 'roll': -5.82, 'pres': 201}
{'lipoC2': 7.4, 'lipoC3S1': 3.96, 'temp': 30.5, 'lipoC3S3': 11.98, 'lipoC3S2': 7.92, 'rot1': 1493, 'rot0': 1475, 'rot3': 696, 'rot2': 662, 'state': 'normal', 'yaw': -95.66, 'datetime': '2018-10-09 13:14:53.274606', 'mgs': 0, 'volt': 0.9766, 'depth': 2.759, 'time': 579, 'pitch': 0.85, 'roll': -5.94, 'pres': 200}
{'lipoC2': 7.4, 'lipoC3S1': 3.96, 'temp': 30.5, 'lipoC3S3': 11.98, 'lipoC3S2': 7.92, 'rot1': 1493, 'rot0': 1475, 'rot3': 696, 'rot2': 662, 'state': 'normal', 'yaw': -95.19, 'datetime': '2018-10-09 13:14:53.285156', 'mgs': 0, 'volt': 0.9766, 'depth': 2.759, 'time': 579, 'pitch': 1.02, 'roll': -5.88, 'pres': 200}
{'lipoC2': 7.4, 'lipoC3S1': 3.96, 'temp': 30.5, 'lipoC3S3': 11.98, 'lipoC3S2': 7.92, 'rot1': 1493, 'rot0': 1475, 'rot3': 696, 'rot2': 662, 'state': 'normal', 'yaw': -94.51, 'datetime': '2018-10-09 13:14:53.295600', 'mgs': 0, 'volt': 0.9766, 'depth': 2.759, 'time': 579, 'pitch': 0.85, 'roll': -5.8, 'pres': 200}
{'lipoC2': 7.4, 'lipoC3S1': 3.96, 'temp': 30.5, 'lipoC3S3': 11.98, 'lipoC3S2': 7.92, 'rot1': 1493, 'rot0': 1475, 'rot3': 696, 'rot2': 662, 'state': 'normal', 'yaw': -93.73, 'datetime': '2018-10-09 13:14:53.306043', 'mgs': 0, 'volt': 0.9814, 'depth': 2.835, 'time': 579, 'pitch': 0.45, 'roll': -5.56, 'pres': 201}
{'lipoC2': 7.4, 'lipoC3S1': 3.96, 'temp': 30.5, 'lipoC3S3': 11.98, 'lipoC3S2': 7.92, 'rot1': 1493, 'rot0': 1475, 'rot3': 696, 'rot2': 662, 'state': 'normal', 'yaw': -93.05, 'datetime': '2018-10-09 13:14:53.316480', 'mgs': 0, 'volt': 0.9766, 'depth': 2.759, 'time': 579, 'pitch': -0.23, 'roll': -5.23, 'pres': 200}
{'lipoC2': 7.4, 'lipoC3S1': 3.96, 'temp': 30.5, 'lipoC3S3': 11.98, 'lipoC3S2': 7.92, 'rot1': 1493, 'rot0': 1475, 'rot3': 696, 'rot2': 662, 'state': 'normal', 'yaw': -92.69, 'datetime': '2018-10-09 13:14:53.327049', 'mgs': 0, 'volt': 0.9766, 'depth': 2.759, 'time': 579, 'pitch': -1.52, 'roll': -4.72, 'pres': 200}
{'lipoC2': 7.4, 'lipoC3S1': 3.96, 'temp': 30.5, 'lipoC3S3': 11.98, 'lipoC3S2': 7.92, 'rot1': 1493, 'rot0': 1475, 'rot3': 696, 'rot2': 662, 'state': 'normal', 'yaw': -92.79, 'datetime': '2018-10-09 13:14:53.337522', 'mgs': 0, 'volt': 0.9766, 'depth': 2.759, 'time': 579, 'pitch': -2.52, 'roll': -4.16, 'pres': 200}
{'lipoC2': 7.4, 'lipoC3S1': 3.96, 'temp': 30.5, 'lipoC3S3': 11.98, 'lipoC3S2': 7.92, 'rot1': 1493, 'rot0': 1475, 'rot3': 696, 'rot2': 662, 'state': 'normal', 'yaw': -93.43, 'datetime': '2018-10-09 13:14:53.348094', 'mgs': 0, 'volt': 0.9717, 'depth': 2.682, 'time': 579, 'pitch': -3.18, 'roll': -3.45, 'pres': 199}
{'lipoC2': 7.4, 'lipoC3S1': 3.96, 'temp': 30.5, 'lipoC3S3': 11.98, 'lipoC3S2': 7.92, 'rot1': 1493, 'rot0': 1475, 'rot3': 696, 'rot2': 662, 'state': 'normal', 'yaw': -94.34, 'datetime': '2018-10-09 13:14:53.358534', 'mgs': 0, 'volt': 0.9717, 'depth': 2.682, 'time': 580, 'pitch': -3.64, 'roll': -2.85, 'pres': 199}
{'lipoC2': 7.4, 'lipoC3S1': 3.96, 'temp': 30.5, 'lipoC3S3': 11.98, 'lipoC3S2': 7.92, 'rot1': 1493, 'rot0': 1475, 'rot3': 696, 'rot2': 662, 'state': 'normal', 'yaw': -95.14, 'datetime': '2018-10-09 13:14:53.369041', 'mgs': 0, 'volt': 0.9717, 'depth': 2.682, 'time': 580, 'pitch': -4.28, 'roll': -2.58, 'pres': 199}
{'lipoC2': 7.4, 'lipoC3S1': 3.96, 'temp': 30.5, 'lipoC3S3': 11.98, 'lipoC3S2': 7.92, 'rot1': 1493, 'rot0': 1475, 'rot3': 696, 'rot2': 662, 'state': 'normal', 'yaw': -95.68, 'datetime': '2018-10-09 13:14:53.379507', 'mgs': 0, 'volt': 0.9668, 'depth': 2.606, 'time': 580, 'pitch': -5.01, 'roll': -2.86, 'pres': 198}
{'lipoC2': 7.4, 'lipoC3S1': 3.96, 'temp': 30.5, 'lipoC3S3': 11.98, 'lipoC3S2': 7.92, 'rot1': 1493, 'rot0': 1475, 'rot3': 696, 'rot2': 662, 'state': 'normal', 'yaw': -96.24, 'datetime': '2018-10-09 13:14:53.390259', 'mgs': 0, 'volt': 0.9619, 'depth': 2.53, 'time': 580, 'pitch': -5.76, 'roll': -3.48, 'pres': 197}
{'lipoC2': 7.4, 'lipoC3S1': 3.96, 'temp': 30.5, 'lipoC3S3': 11.98, 'lipoC3S2': 7.92, 'rot1': 1493, 'rot0': 1475, 'rot3': 696, 'rot2': 662, 'state': 'normal', 'yaw': -96.89, 'datetime': '2018-10-09 13:14:53.400761', 'mgs': 0, 'volt': 0.9619, 'depth': 2.53, 'time': 580, 'pitch': -6.44, 'roll': -4.36, 'pres': 197}
{'lipoC2': 7.4, 'lipoC3S1': 3.96, 'temp': 30.56, 'lipoC3S3': 11.98, 'lipoC3S2': 7.92, 'rot1': 1493, 'rot0': 1475, 'rot3': 696, 'rot2': 662, 'state': 'normal', 'yaw': -97.38, 'datetime': '2018-10-09 13:14:53.411348', 'mgs': 0, 'volt': 0.957, 'depth': 2.454, 'time': 580, 'pitch': -7.11, 'roll': -5.3, 'pres': 196}
{'lipoC2': 7.4, 'lipoC3S1': 3.96, 'temp': 30.56, 'lipoC3S3': 11.98, 'lipoC3S2': 7.92, 'rot1': 1493, 'rot0': 1475, 'rot3': 696, 'rot2': 662, 'state': 'normal', 'yaw': -97.91, 'datetime': '2018-10-09 13:14:53.421810', 'mgs': 0, 'volt': 0.9521, 'depth': 2.377, 'time': 580, 'pitch': -8.07, 'roll': -6.37, 'pres': 195}
{'lipoC2': 7.4, 'lipoC3S1': 3.96, 'temp': 30.5, 'lipoC3S3': 11.98, 'lipoC3S2': 7.92, 'rot1': 1493, 'rot0': 1475, 'rot3': 696, 'rot2': 662, 'state': 'normal', 'yaw': -98.49, 'datetime': '2018-10-09 13:14:53.432328', 'mgs': 0, 'volt': 0.9521, 'depth': 2.377, 'time': 580, 'pitch': -8.81, 'roll': -7.28, 'pres': 195}
{'lipoC2': 7.4, 'lipoC3S1': 3.96, 'temp': 30.5, 'lipoC3S3': 11.98, 'lipoC3S2': 7.92, 'rot1': 1493, 'rot0': 1475, 'rot3': 696, 'rot2': 662, 'state': 'normal', 'yaw': -99.32, 'datetime': '2018-10-09 13:14:53.442751', 'mgs': 0, 'volt': 0.9473, 'depth': 2.301, 'time': 580, 'pitch': -9.05, 'roll': -8.02, 'pres': 194}
{'lipoC2': 7.4, 'lipoC3S1': 3.96, 'temp': 30.5, 'lipoC3S3': 11.98, 'lipoC3S2': 7.92, 'rot1': 1493, 'rot0': 1475, 'rot3': 696, 'rot2': 662, 'state': 'normal', 'yaw': -100.31, 'datetime': '2018-10-09 13:14:53.453316', 'mgs': 0, 'volt': 0.9473, 'depth': 2.301, 'time': 581, 'pitch': -8.88, 'roll': -8.35, 'pres': 194}
{'lipoC2': 7.4, 'lipoC3S1': 3.96, 'temp': 30.5, 'lipoC3S3': 11.98, 'lipoC3S2': 7.92, 'rot1': 1493, 'rot0': 1475, 'rot3': 696, 'rot2': 662, 'state': 'normal', 'yaw': -101.49, 'datetime': '2018-10-09 13:14:53.463809', 'mgs': 0, 'volt': 0.9473, 'depth': 2.301, 'time': 581, 'pitch': -8.61, 'roll': -8.32, 'pres': 194}
{'lipoC2': 7.4, 'lipoC3S1': 3.96, 'temp': 30.5, 'lipoC3S3': 11.98, 'lipoC3S2': 7.92, 'rot1': 1493, 'rot0': 1475, 'rot3': 696, 'rot2': 662, 'state': 'normal', 'yaw': -102.42, 'datetime': '2018-10-09 13:14:53.474241', 'mgs': 0, 'volt': 0.9473, 'depth': 2.301, 'time': 581, 'pitch': -8.69, 'roll': -7.98, 'pres': 194}
{'lipoC2': 7.4, 'lipoC3S1': 3.96, 'temp': 30.5, 'lipoC3S3': 11.98, 'lipoC3S2': 7.92, 'rot1': 1493, 'rot0': 1475, 'rot3': 696, 'rot2': 662, 'state': 'normal', 'yaw': -103.11, 'datetime': '2018-10-09 13:14:53.484701', 'mgs': 0, 'volt': 0.9521, 'depth': 2.377, 'time': 581, 'pitch': -9.06, 'roll': -7.45, 'pres': 195}
{'lipoC2': 7.4, 'lipoC3S1': 3.96, 'temp': 30.5, 'lipoC3S3': 11.98, 'lipoC3S2': 7.92, 'rot1': 1493, 'rot0': 1475, 'rot3': 696, 'rot2': 662, 'state': 'normal', 'yaw': -103.7, 'datetime': '2018-10-09 13:14:53.495212', 'mgs': 0, 'volt': 0.9521, 'depth': 2.377, 'time': 581, 'pitch': -8.97, 'roll': -6.68, 'pres': 195}
{'lipoC2': 7.4, 'lipoC3S1': 3.96, 'temp': 30.5, 'lipoC3S3': 11.98, 'lipoC3S2': 7.92, 'rot1': 1493, 'rot0': 1475, 'rot3': 696, 'rot2': 662, 'state': 'normal', 'yaw': -104.02, 'datetime': '2018-10-09 13:14:53.506097', 'mgs': 0, 'volt': 0.957, 'depth': 2.454, 'time': 581, 'pitch': -8.03, 'roll': -5.96, 'pres': 196}
{'lipoC2': 7.4, 'lipoC3S1': 3.96, 'temp': 30.5, 'lipoC3S3': 11.98, 'lipoC3S2': 7.92, 'rot1': 1493, 'rot0': 1475, 'rot3': 696, 'rot2': 662, 'state': 'normal', 'yaw': -104.34, 'datetime': '2018-10-09 13:14:53.516645', 'mgs': 0, 'volt': 0.957, 'depth': 2.454, 'time': 581, 'pitch': -6.36, 'roll': -5.05, 'pres': 196}
{'lipoC2': 7.4, 'lipoC3S1': 3.96, 'temp': 30.5, 'lipoC3S3': 11.98, 'lipoC3S2': 7.92, 'rot1': 1493, 'rot0': 1475, 'rot3': 696, 'rot2': 662, 'state': 'normal', 'yaw': -104.75, 'datetime': '2018-10-09 13:14:53.527444', 'mgs': 0, 'volt': 0.957, 'depth': 2.454, 'time': 581, 'pitch': -4.68, 'roll': -4.08, 'pres': 196}
{'lipoC2': 7.4, 'lipoC3S1': 3.96, 'temp': 30.5, 'lipoC3S3': 11.98, 'lipoC3S2': 7.92, 'rot1': 1493, 'rot0': 1475, 'rot3': 696, 'rot2': 662, 'state': 'normal', 'yaw': -105.3, 'datetime': '2018-10-09 13:14:53.537951', 'mgs': 0, 'volt': 0.9619, 'depth': 2.53, 'time': 581, 'pitch': -3.12, 'roll': -2.85, 'pres': 197}
{'lipoC2': 7.4, 'lipoC3S1': 3.96, 'temp': 30.56, 'lipoC3S3': 11.98, 'lipoC3S2': 7.92, 'rot1': 1493, 'rot0': 1475, 'rot3': 696, 'rot2': 662, 'state': 'normal', 'yaw': -105.82, 'datetime': '2018-10-09 13:14:53.548465', 'mgs': 0, 'volt': 0.9619, 'depth': 2.53, 'time': 581, 'pitch': -2.14, 'roll': -1.68, 'pres': 197}
{'lipoC2': 7.4, 'lipoC3S1': 3.96, 'temp': 30.56, 'lipoC3S3': 11.98, 'lipoC3S2': 7.92, 'rot1': 1493, 'rot0': 1475, 'rot3': 696, 'rot2': 662, 'state': 'normal', 'yaw': -106.33, 'datetime': '2018-10-09 13:14:53.558942', 'mgs': 0, 'volt': 0.9668, 'depth': 2.606, 'time': 582, 'pitch': -1.6, 'roll': -0.48, 'pres': 198}
{'lipoC2': 7.4, 'lipoC3S1': 3.96, 'temp': 30.56, 'lipoC3S3': 11.98, 'lipoC3S2': 7.92, 'rot1': 1493, 'rot0': 1475, 'rot3': 696, 'rot2': 662, 'state': 'normal', 'yaw': -106.52, 'datetime': '2018-10-09 13:14:53.569426', 'mgs': 0, 'volt': 0.9619, 'depth': 2.53, 'time': 582, 'pitch': -1.51, 'roll': 0.34, 'pres': 197}
{'lipoC2': 7.4, 'lipoC3S1': 3.96, 'temp': 30.5, 'lipoC3S3': 11.98, 'lipoC3S2': 7.92, 'rot1': 1493, 'rot0': 1475, 'rot3': 696, 'rot2': 662, 'state': 'normal', 'yaw': -106.25, 'datetime': '2018-10-09 13:14:53.579923', 'mgs': 0, 'volt': 0.9619, 'depth': 2.53, 'time': 582, 'pitch': -1.62, 'roll': 0.58, 'pres': 197}
{'lipoC2': 7.4, 'lipoC3S1': 3.96, 'temp': 30.5, 'lipoC3S3': 11.98, 'lipoC3S2': 7.92, 'rot1': 1493, 'rot0': 1475, 'rot3': 696, 'rot2': 662, 'state': 'normal', 'yaw': -105.45, 'datetime': '2018-10-09 13:14:53.590376', 'mgs': 0, 'volt': 0.9619, 'depth': 2.53, 'time': 582, 'pitch': -2.02, 'roll': 0.19, 'pres': 197}
{'lipoC2': 7.4, 'lipoC3S1': 3.96, 'temp': 30.5, 'lipoC3S3': 11.98, 'lipoC3S2': 7.92, 'rot1': 1493, 'rot0': 1475, 'rot3': 696, 'rot2': 662, 'state': 'normal', 'yaw': -104.34, 'datetime': '2018-10-09 13:14:53.600835', 'mgs': 0, 'volt': 0.957, 'depth': 2.454, 'time': 582, 'pitch': -2.53, 'roll': -0.72, 'pres': 196}
{'lipoC2': 7.4, 'lipoC3S1': 3.96, 'temp': 30.5, 'lipoC3S3': 11.98, 'lipoC3S2': 7.92, 'rot1': 1493, 'rot0': 1475, 'rot3': 696, 'rot2': 662, 'state': 'normal', 'yaw': -102.94, 'datetime': '2018-10-09 13:14:53.611326', 'mgs': 0, 'volt': 0.9521, 'depth': 2.377, 'time': 582, 'pitch': -2.88, 'roll': -2.07, 'pres': 195}
{'lipoC2': 7.4, 'lipoC3S1': 3.96, 'temp': 30.5, 'lipoC3S3': 11.98, 'lipoC3S2': 7.92, 'rot1': 1493, 'rot0': 1475, 'rot3': 696, 'rot2': 662, 'state': 'normal', 'yaw': -101.65, 'datetime': '2018-10-09 13:14:53.621801', 'mgs': 0, 'volt': 0.9521, 'depth': 2.377, 'time': 582, 'pitch': -2.99, 'roll': -3.39, 'pres': 195}
{'lipoC2': 7.4, 'lipoC3S1': 3.96, 'temp': 30.5, 'lipoC3S3': 11.98, 'lipoC3S2': 7.92, 'rot1': 1493, 'rot0': 1475, 'rot3': 696, 'rot2': 662, 'state': 'normal', 'yaw': -100.36, 'datetime': '2018-10-09 13:14:53.632286', 'mgs': 0, 'volt': 0.9424, 'depth': 2.225, 'time': 582, 'pitch': -2.92, 'roll': -4.66, 'pres': 193}
{'lipoC2': 7.4, 'lipoC3S1': 3.96, 'temp': 30.5, 'lipoC3S3': 11.98, 'lipoC3S2': 7.92, 'rot1': 1493, 'rot0': 1475, 'rot3': 696, 'rot2': 662, 'state': 'normal', 'yaw': -99.3, 'datetime': '2018-10-09 13:14:53.642811', 'mgs': 0, 'volt': 0.9424, 'depth': 2.225, 'time': 582, 'pitch': -2.98, 'roll': -5.58, 'pres': 193}
{'lipoC2': 7.4, 'lipoC3S1': 3.96, 'temp': 30.5, 'lipoC3S3': 11.98, 'lipoC3S2': 7.92, 'rot1': 1493, 'rot0': 1475, 'rot3': 696, 'rot2': 662, 'state': 'normal', 'yaw': -98.18, 'datetime': '2018-10-09 13:14:53.653278', 'mgs': 0, 'volt': 0.9375, 'depth': 2.148, 'time': 583, 'pitch': -3.34, 'roll': -6.29, 'pres': 192}
{'lipoC2': 7.4, 'lipoC3S1': 3.96, 'temp': 30.5, 'lipoC3S3': 11.98, 'lipoC3S2': 7.92, 'rot1': 1493, 'rot0': 1475, 'rot3': 696, 'rot2': 662, 'state': 'normal', 'yaw': -97.22, 'datetime': '2018-10-09 13:14:53.663935', 'mgs': 0, 'volt': 0.9375, 'depth': 2.148, 'time': 583, 'pitch': -3.91, 'roll': -6.63, 'pres': 192}
{'lipoC2': 7.4, 'lipoC3S1': 3.96, 'temp': 30.5, 'lipoC3S3': 11.98, 'lipoC3S2': 7.92, 'rot1': 1493, 'rot0': 1475, 'rot3': 696, 'rot2': 662, 'state': 'normal', 'yaw': -96.33, 'datetime': '2018-10-09 13:14:53.674396', 'mgs': 0, 'volt': 0.9326, 'depth': 2.072, 'time': 583, 'pitch': -4.59, 'roll': -6.64, 'pres': 191}
{'lipoC2': 7.4, 'lipoC3S1': 3.96, 'temp': 30.5, 'lipoC3S3': 11.98, 'lipoC3S2': 7.92, 'rot1': 1493, 'rot0': 1475, 'rot3': 696, 'rot2': 662, 'state': 'normal', 'yaw': -95.38, 'datetime': '2018-10-09 13:14:53.684896', 'mgs': 0, 'volt': 0.9326, 'depth': 2.072, 'time': 583, 'pitch': -5.4, 'roll': -6.34, 'pres': 191}
{'lipoC2': 7.4, 'lipoC3S1': 3.96, 'temp': 30.5, 'lipoC3S3': 11.98, 'lipoC3S2': 7.92, 'rot1': 1493, 'rot0': 1475, 'rot3': 696, 'rot2': 662, 'state': 'normal', 'yaw': -94.47, 'datetime': '2018-10-09 13:14:53.695457', 'mgs': 0, 'volt': 0.9326, 'depth': 2.072, 'time': 583, 'pitch': -6.08, 'roll': -5.9, 'pres': 191}
{'lipoC2': 7.4, 'lipoC3S1': 3.96, 'temp': 30.5, 'lipoC3S3': 11.98, 'lipoC3S2': 7.92, 'rot1': 1493, 'rot0': 1475, 'rot3': 696, 'rot2': 662, 'state': 'normal', 'yaw': -93.37, 'datetime': '2018-10-09 13:14:53.706051', 'mgs': 0, 'volt': 0.9277, 'depth': 1.996, 'time': 583, 'pitch': -6.54, 'roll': -5.28, 'pres': 190}
{'lipoC2': 7.4, 'lipoC3S1': 3.96, 'temp': 30.5, 'lipoC3S3': 11.98, 'lipoC3S2': 7.92, 'rot1': 1493, 'rot0': 1475, 'rot3': 696, 'rot2': 662, 'state': 'normal', 'yaw': -92.39, 'datetime': '2018-10-09 13:14:53.716530', 'mgs': 0, 'volt': 0.9277, 'depth': 1.996, 'time': 583, 'pitch': -6.57, 'roll': -4.6, 'pres': 190}
{'lipoC2': 7.4, 'lipoC3S1': 3.96, 'temp': 30.5, 'lipoC3S3': 11.98, 'lipoC3S2': 7.92, 'rot1': 1493, 'rot0': 1475, 'rot3': 696, 'rot2': 662, 'state': 'normal', 'yaw': -91.33, 'datetime': '2018-10-09 13:14:53.727003', 'mgs': 0, 'volt': 0.9277, 'depth': 1.996, 'time': 583, 'pitch': -6.26, 'roll': -3.73, 'pres': 190}
{'lipoC2': 7.4, 'lipoC3S1': 3.96, 'temp': 30.5, 'lipoC3S3': 11.98, 'lipoC3S2': 7.92, 'rot1': 1493, 'rot0': 1475, 'rot3': 696, 'rot2': 662, 'state': 'normal', 'yaw': -90.32, 'datetime': '2018-10-09 13:14:53.737446', 'mgs': 0, 'volt': 0.9277, 'depth': 1.996, 'time': 583, 'pitch': -5.71, 'roll': -2.94, 'pres': 190}
{'lipoC2': 7.4, 'lipoC3S1': 3.96, 'temp': 30.5, 'lipoC3S3': 11.98, 'lipoC3S2': 7.92, 'rot1': 1493, 'rot0': 1475, 'rot3': 696, 'rot2': 662, 'state': 'normal', 'yaw': -89.24, 'datetime': '2018-10-09 13:14:53.747844', 'mgs': 0, 'volt': 0.9277, 'depth': 1.996, 'time': 583, 'pitch': -4.72, 'roll': -2.05, 'pres': 190}
{'lipoC2': 7.4, 'lipoC3S1': 3.96, 'temp': 30.5, 'lipoC3S3': 11.98, 'lipoC3S2': 7.92, 'rot1': 1493, 'rot0': 1475, 'rot3': 696, 'rot2': 662, 'state': 'normal', 'yaw': -88.38, 'datetime': '2018-10-09 13:14:53.758312', 'mgs': 0, 'volt': 0.9229, 'depth': 1.92, 'time': 584, 'pitch': -3.65, 'roll': -1.24, 'pres': 189}
{'lipoC2': 7.4, 'lipoC3S1': 3.96, 'temp': 30.5, 'lipoC3S3': 11.98, 'lipoC3S2': 7.92, 'rot1': 1493, 'rot0': 1475, 'rot3': 696, 'rot2': 662, 'state': 'normal', 'yaw': -87.73, 'datetime': '2018-10-09 13:14:53.768756', 'mgs': 0, 'volt': 0.9229, 'depth': 1.92, 'time': 584, 'pitch': -2.7, 'roll': -0.45, 'pres': 189}
{'lipoC2': 7.4, 'lipoC3S1': 3.96, 'temp': 30.5, 'lipoC3S3': 11.98, 'lipoC3S2': 7.92, 'rot1': 1493, 'rot0': 1475, 'rot3': 696, 'rot2': 662, 'state': 'normal', 'yaw': -87.36, 'datetime': '2018-10-09 13:14:53.779185', 'mgs': 0, 'volt': 0.918, 'depth': 1.843, 'time': 584, 'pitch': -1.96, 'roll': 0.41, 'pres': 188}
{'lipoC2': 7.4, 'lipoC3S1': 3.96, 'temp': 30.5, 'lipoC3S3': 11.98, 'lipoC3S2': 7.92, 'rot1': 1493, 'rot0': 1475, 'rot3': 696, 'rot2': 662, 'state': 'normal', 'yaw': -87.34, 'datetime': '2018-10-09 13:14:53.789596', 'mgs': 0, 'volt': 0.918, 'depth': 1.843, 'time': 584, 'pitch': -1.6, 'roll': 1.12, 'pres': 188}
{'lipoC2': 7.4, 'lipoC3S1': 3.96, 'temp': 30.5, 'lipoC3S3': 11.98, 'lipoC3S2': 7.92, 'rot1': 1493, 'rot0': 1475, 'rot3': 696, 'rot2': 662, 'state': 'normal', 'yaw': -87.73, 'datetime': '2018-10-09 13:14:53.800256', 'mgs': 0, 'volt': 0.918, 'depth': 1.843, 'time': 584, 'pitch': -1.5, 'roll': 1.82, 'pres': 188}
{'lipoC2': 7.4, 'lipoC3S1': 3.96, 'temp': 30.5, 'lipoC3S3': 11.98, 'lipoC3S2': 7.92, 'rot1': 1493, 'rot0': 1475, 'rot3': 696, 'rot2': 662, 'state': 'normal', 'yaw': -88.44, 'datetime': '2018-10-09 13:14:53.810722', 'mgs': 0, 'volt': 0.9131, 'depth': 1.767, 'time': 584, 'pitch': -1.55, 'roll': 2.35, 'pres': 187}
{'lipoC2': 7.4, 'lipoC3S1': 3.96, 'temp': 30.5, 'lipoC3S3': 11.98, 'lipoC3S2': 7.92, 'rot1': 1493, 'rot0': 1475, 'rot3': 696, 'rot2': 662, 'state': 'normal', 'yaw': -89.47, 'datetime': '2018-10-09 13:14:53.821194', 'mgs': 0, 'volt': 0.9131, 'depth': 1.767, 'time': 584, 'pitch': -1.67, 'roll': 2.72, 'pres': 187}
{'lipoC2': 7.4, 'lipoC3S1': 3.96, 'temp': 30.5, 'lipoC3S3': 11.98, 'lipoC3S2': 7.92, 'rot1': 1493, 'rot0': 1475, 'rot3': 696, 'rot2': 662, 'state': 'normal', 'yaw': -90.47, 'datetime': '2018-10-09 13:14:53.831652', 'mgs': 0, 'volt': 0.9131, 'depth': 1.767, 'time': 584, 'pitch': -1.6, 'roll': 2.76, 'pres': 187}
{'lipoC2': 7.4, 'lipoC3S1': 3.96, 'temp': 30.5, 'lipoC3S3': 11.98, 'lipoC3S2': 7.92, 'rot1': 1493, 'rot0': 1475, 'rot3': 696, 'rot2': 662, 'state': 'normal', 'yaw': -91.35, 'datetime': '2018-10-09 13:14:53.842063', 'mgs': 0, 'volt': 0.9131, 'depth': 1.767, 'time': 584, 'pitch': -1.3, 'roll': 2.4, 'pres': 187}
{'lipoC2': 7.4, 'lipoC3S1': 3.96, 'temp': 30.5, 'lipoC3S3': 11.98, 'lipoC3S2': 7.92, 'rot1': 1493, 'rot0': 1475, 'rot3': 696, 'rot2': 662, 'state': 'normal', 'yaw': -91.9, 'datetime': '2018-10-09 13:14:53.852439', 'mgs': 0, 'volt': 0.9082, 'depth': 1.691, 'time': 585, 'pitch': -0.61, 'roll': 1.68, 'pres': 186}
{'lipoC2': 7.4, 'lipoC3S1': 3.96, 'temp': 30.5, 'lipoC3S3': 11.98, 'lipoC3S2': 7.92, 'rot1': 1493, 'rot0': 1475, 'rot3': 696, 'rot2': 662, 'state': 'normal', 'yaw': -92.3, 'datetime': '2018-10-09 13:14:53.862874', 'mgs': 0, 'volt': 0.9131, 'depth': 1.767, 'time': 585, 'pitch': 0.96, 'roll': 0.63, 'pres': 187}
{'lipoC2': 7.4, 'lipoC3S1': 3.96, 'temp': 30.5, 'lipoC3S3': 11.98, 'lipoC3S2': 7.92, 'rot1': 1493, 'rot0': 1475, 'rot3': 696, 'rot2': 662, 'state': 'normal', 'yaw': -92.3, 'datetime': '2018-10-09 13:14:53.873345', 'mgs': 0, 'volt': 0.9131, 'depth': 1.767, 'time': 585, 'pitch': 3.08, 'roll': -0.48, 'pres': 187}
{'lipoC2': 7.4, 'lipoC3S1': 3.96, 'temp': 30.5, 'lipoC3S3': 11.98, 'lipoC3S2': 7.92, 'rot1': 1493, 'rot0': 1475, 'rot3': 696, 'rot2': 662, 'state': 'normal', 'yaw': -91.89, 'datetime': '2018-10-09 13:14:53.883820', 'mgs': 0, 'volt': 0.9131, 'depth': 1.767, 'time': 585, 'pitch': 5.91, 'roll': -1.81, 'pres': 187}
{'lipoC2': 7.4, 'lipoC3S1': 3.96, 'temp': 30.5, 'lipoC3S3': 11.98, 'lipoC3S2': 7.92, 'rot1': 1493, 'rot0': 1475, 'rot3': 696, 'rot2': 662, 'state': 'normal', 'yaw': -91.24, 'datetime': '2018-10-09 13:14:53.894281', 'mgs': 0, 'volt': 0.9131, 'depth': 1.767, 'time': 585, 'pitch': 8.77, 'roll': -3.26, 'pres': 187}
{'lipoC2': 7.4, 'lipoC3S1': 3.96, 'temp': 30.5, 'lipoC3S3': 11.98, 'lipoC3S2': 7.92, 'rot1': 1493, 'rot0': 1475, 'rot3': 696, 'rot2': 662, 'state': 'normal', 'yaw': -90.61, 'datetime': '2018-10-09 13:14:53.904737', 'mgs': 0, 'volt': 0.9131, 'depth': 1.767, 'time': 585, 'pitch': 10.33, 'roll': -4.4, 'pres': 187}
{'lipoC2': 7.4, 'lipoC3S1': 3.96, 'temp': 30.56, 'lipoC3S3': 11.98, 'lipoC3S2': 7.92, 'rot1': 1493, 'rot0': 1475, 'rot3': 696, 'rot2': 662, 'state': 'normal', 'yaw': -90.08, 'datetime': '2018-10-09 13:14:53.915231', 'mgs': 0, 'volt': 0.918, 'depth': 1.843, 'time': 585, 'pitch': 10.75, 'roll': -5.33, 'pres': 188}
{'lipoC2': 7.4, 'lipoC3S1': 3.96, 'temp': 30.56, 'lipoC3S3': 11.98, 'lipoC3S2': 7.92, 'rot1': 1493, 'rot0': 1475, 'rot3': 696, 'rot2': 662, 'state': 'normal', 'yaw': -89.97, 'datetime': '2018-10-09 13:14:53.925666', 'mgs': 0, 'volt': 0.9131, 'depth': 1.767, 'time': 585, 'pitch': 10.4, 'roll': -5.78, 'pres': 187}
{'lipoC2': 7.4, 'lipoC3S1': 3.96, 'temp': 30.5, 'lipoC3S3': 11.98, 'lipoC3S2': 7.92, 'rot1': 1493, 'rot0': 1475, 'rot3': 696, 'rot2': 662, 'state': 'normal', 'yaw': -90.34, 'datetime': '2018-10-09 13:14:53.936298', 'mgs': 0, 'volt': 0.9131, 'depth': 1.767, 'time': 585, 'pitch': 10.0, 'roll': -5.91, 'pres': 187}
{'lipoC2': 7.4, 'lipoC3S1': 3.96, 'temp': 30.5, 'lipoC3S3': 11.98, 'lipoC3S2': 7.92, 'rot1': 1493, 'rot0': 1475, 'rot3': 696, 'rot2': 662, 'state': 'normal', 'yaw': -91.23, 'datetime': '2018-10-09 13:14:53.946916', 'mgs': 0, 'volt': 0.9131, 'depth': 1.767, 'time': 585, 'pitch': 10.22, 'roll': -5.69, 'pres': 187}
{'lipoC2': 7.4, 'lipoC3S1': 3.96, 'temp': 30.5, 'lipoC3S3': 11.98, 'lipoC3S2': 7.92, 'rot1': 1493, 'rot0': 1475, 'rot3': 696, 'rot2': 662, 'state': 'normal', 'yaw': -92.31, 'datetime': '2018-10-09 13:14:53.957397', 'mgs': 0, 'volt': 0.9131, 'depth': 1.767, 'time': 586, 'pitch': 10.76, 'roll': -5.14, 'pres': 187}
{'lipoC2': 7.4, 'lipoC3S1': 3.96, 'temp': 30.5, 'lipoC3S3': 11.98, 'lipoC3S2': 7.92, 'rot1': 1493, 'rot0': 1475, 'rot3': 696, 'rot2': 662, 'state': 'normal', 'yaw': -93.27, 'datetime': '2018-10-09 13:14:53.967882', 'mgs': 0, 'volt': 0.9131, 'depth': 1.767, 'time': 586, 'pitch': 10.95, 'roll': -4.35, 'pres': 187}
{'lipoC2': 7.4, 'lipoC3S1': 3.96, 'temp': 30.5, 'lipoC3S3': 11.98, 'lipoC3S2': 7.92, 'rot1': 1493, 'rot0': 1475, 'rot3': 696, 'rot2': 662, 'state': 'normal', 'yaw': -94.44, 'datetime': '2018-10-09 13:14:53.979184', 'mgs': 0, 'volt': 0.9131, 'depth': 1.767, 'time': 586, 'pitch': 10.34, 'roll': -3.09, 'pres': 187}
{'lipoC2': 7.4, 'lipoC3S1': 3.96, 'temp': 30.5, 'lipoC3S3': 11.98, 'lipoC3S2': 7.92, 'rot1': 1493, 'rot0': 1475, 'rot3': 696, 'rot2': 662, 'state': 'normal', 'yaw': -95.59, 'datetime': '2018-10-09 13:14:53.989680', 'mgs': 0, 'volt': 0.9131, 'depth': 1.767, 'time': 586, 'pitch': 8.89, 'roll': -1.73, 'pres': 187}
{'lipoC2': 7.4, 'lipoC3S1': 3.96, 'temp': 30.5, 'lipoC3S3': 11.98, 'lipoC3S2': 7.92, 'rot1': 1493, 'rot0': 1475, 'rot3': 696, 'rot2': 662, 'state': 'normal', 'yaw': -96.63, 'datetime': '2018-10-09 13:14:54.000175', 'mgs': 0, 'volt': 0.9131, 'depth': 1.767, 'time': 586, 'pitch': 6.98, 'roll': -0.47, 'pres': 187}
{'lipoC2': 7.4, 'lipoC3S1': 3.96, 'temp': 30.5, 'lipoC3S3': 11.98, 'lipoC3S2': 7.92, 'rot1': 1493, 'rot0': 1475, 'rot3': 696, 'rot2': 662, 'state': 'normal', 'yaw': -97.43, 'datetime': '2018-10-09 13:14:54.010648', 'mgs': 0, 'volt': 0.9131, 'depth': 1.767, 'time': 586, 'pitch': 4.7, 'roll': 0.49, 'pres': 187}
{'lipoC2': 7.4, 'lipoC3S1': 3.96, 'temp': 30.5, 'lipoC3S3': 11.98, 'lipoC3S2': 7.92, 'rot1': 1493, 'rot0': 1475, 'rot3': 696, 'rot2': 662, 'state': 'normal', 'yaw': -98.09, 'datetime': '2018-10-09 13:14:54.021098', 'mgs': 0, 'volt': 0.9131, 'depth': 1.767, 'time': 586, 'pitch': 3.1, 'roll': 1.04, 'pres': 187}
{'lipoC2': 7.4, 'lipoC3S1': 3.96, 'temp': 30.5, 'lipoC3S3': 11.98, 'lipoC3S2': 7.92, 'rot1': 1493, 'rot0': 1475, 'rot3': 696, 'rot2': 662, 'state': 'normal', 'yaw': -98.77, 'datetime': '2018-10-09 13:14:54.031555', 'mgs': 0, 'volt': 0.9131, 'depth': 1.767, 'time': 586, 'pitch': 2.73, 'roll': 1.48, 'pres': 187}
{'lipoC2': 7.4, 'lipoC3S1': 3.96, 'temp': 30.5, 'lipoC3S3': 11.98, 'lipoC3S2': 7.92, 'rot1': 1493, 'rot0': 1475, 'rot3': 696, 'rot2': 662, 'state': 'normal', 'yaw': -99.26, 'datetime': '2018-10-09 13:14:54.042010', 'mgs': 0, 'volt': 0.918, 'depth': 1.843, 'time': 586, 'pitch': 3.38, 'roll': 1.81, 'pres': 188}
{'lipoC2': 7.4, 'lipoC3S1': 3.96, 'temp': 30.5, 'lipoC3S3': 11.98, 'lipoC3S2': 7.92, 'rot1': 1493, 'rot0': 1475, 'rot3': 696, 'rot2': 662, 'state': 'normal', 'yaw': -99.72, 'datetime': '2018-10-09 13:14:54.052420', 'mgs': 0, 'volt': 0.9131, 'depth': 1.767, 'time': 586, 'pitch': 4.52, 'roll': 2.06, 'pres': 187}
{'lipoC2': 7.4, 'lipoC3S1': 3.96, 'temp': 30.5, 'lipoC3S3': 11.98, 'lipoC3S2': 7.92, 'rot1': 1493, 'rot0': 1475, 'rot3': 696, 'rot2': 662, 'state': 'normal', 'yaw': -100.13, 'datetime': '2018-10-09 13:14:54.062910', 'mgs': 0, 'volt': 0.9131, 'depth': 1.767, 'time': 587, 'pitch': 5.21, 'roll': 2.23, 'pres': 187}
{'lipoC2': 7.4, 'lipoC3S1': 3.96, 'temp': 30.5, 'lipoC3S3': 11.98, 'lipoC3S2': 7.92, 'rot1': 1493, 'rot0': 1475, 'rot3': 696, 'rot2': 662, 'state': 'normal', 'yaw': -100.43, 'datetime': '2018-10-09 13:14:54.073593', 'mgs': 0, 'volt': 0.9131, 'depth': 1.767, 'time': 587, 'pitch': 4.77, 'roll': 2.17, 'pres': 187}
{'lipoC2': 7.4, 'lipoC3S1': 3.96, 'temp': 30.5, 'lipoC3S3': 11.98, 'lipoC3S2': 7.92, 'rot1': 1493, 'rot0': 1475, 'rot3': 696, 'rot2': 662, 'state': 'normal', 'yaw': -100.59, 'datetime': '2018-10-09 13:14:54.084098', 'mgs': 0, 'volt': 0.9131, 'depth': 1.767, 'time': 587, 'pitch': 3.55, 'roll': 1.88, 'pres': 187}
{'lipoC2': 7.4, 'lipoC3S1': 3.96, 'temp': 30.5, 'lipoC3S3': 11.98, 'lipoC3S2': 7.92, 'rot1': 1493, 'rot0': 1475, 'rot3': 696, 'rot2': 662, 'state': 'normal', 'yaw': -100.54, 'datetime': '2018-10-09 13:14:54.094575', 'mgs': 0, 'volt': 0.9082, 'depth': 1.691, 'time': 587, 'pitch': 1.82, 'roll': 1.21, 'pres': 186}
{'lipoC2': 7.4, 'lipoC3S1': 3.96, 'temp': 30.5, 'lipoC3S3': 11.98, 'lipoC3S2': 7.92, 'rot1': 1493, 'rot0': 1475, 'rot3': 696, 'rot2': 662, 'state': 'normal', 'yaw': -100.29, 'datetime': '2018-10-09 13:14:54.105092', 'mgs': 0, 'volt': 0.9082, 'depth': 1.691, 'time': 587, 'pitch': 0.28, 'roll': 0.28, 'pres': 186}
{'lipoC2': 7.4, 'lipoC3S1': 3.96, 'temp': 30.5, 'lipoC3S3': 11.98, 'lipoC3S2': 7.92, 'rot1': 1493, 'rot0': 1475, 'rot3': 696, 'rot2': 662, 'state': 'normal', 'yaw': -99.9, 'datetime': '2018-10-09 13:14:54.115535', 'mgs': 0, 'volt': 0.9033, 'depth': 1.614, 'time': 587, 'pitch': -0.92, 'roll': -0.79, 'pres': 185}
{'lipoC2': 7.4, 'lipoC3S1': 3.96, 'temp': 30.5, 'lipoC3S3': 11.98, 'lipoC3S2': 7.92, 'rot1': 1493, 'rot0': 1475, 'rot3': 696, 'rot2': 662, 'state': 'normal', 'yaw': -99.51, 'datetime': '2018-10-09 13:14:54.126165', 'mgs': 0, 'volt': 0.9033, 'depth': 1.614, 'time': 587, 'pitch': -1.68, 'roll': -2.03, 'pres': 185}
{'lipoC2': 7.4, 'lipoC3S1': 3.96, 'temp': 30.5, 'lipoC3S3': 11.98, 'lipoC3S2': 7.92, 'rot1': 1493, 'rot0': 1475, 'rot3': 696, 'rot2': 662, 'state': 'normal', 'yaw': -99.04, 'datetime': '2018-10-09 13:14:54.136649', 'mgs': 0, 'volt': 0.9033, 'depth': 1.614, 'time': 587, 'pitch': -1.82, 'roll': -3.17, 'pres': 185}
{'lipoC2': 7.4, 'lipoC3S1': 3.96, 'temp': 30.5, 'lipoC3S3': 11.98, 'lipoC3S2': 7.92, 'rot1': 1493, 'rot0': 1475, 'rot3': 696, 'rot2': 662, 'state': 'normal', 'yaw': -98.47, 'datetime': '2018-10-09 13:14:54.147238', 'mgs': 0, 'volt': 0.9033, 'depth': 1.614, 'time': 587, 'pitch': -1.36, 'roll': -4.33, 'pres': 185}
{'lipoC2': 7.4, 'lipoC3S1': 3.96, 'temp': 30.44, 'lipoC3S3': 11.98, 'lipoC3S2': 7.92, 'rot1': 1493, 'rot0': 1475, 'rot3': 696, 'rot2': 662, 'state': 'normal', 'yaw': -98.3, 'datetime': '2018-10-09 13:14:54.160200', 'mgs': 0, 'volt': 0.9033, 'depth': 1.614, 'time': 588, 'pitch': -0.33, 'roll': -5.18, 'pres': 185}
{'lipoC2': 7.4, 'lipoC3S1': 3.96, 'temp': 30.44, 'lipoC3S3': 11.98, 'lipoC3S2': 7.92, 'rot1': 1493, 'rot0': 1475, 'rot3': 696, 'rot2': 662, 'state': 'normal', 'yaw': -98.65, 'datetime': '2018-10-09 13:14:54.171016', 'mgs': 0, 'volt': 0.9033, 'depth': 1.614, 'time': 588, 'pitch': 1.12, 'roll': -5.92, 'pres': 185}
{'lipoC2': 7.4, 'lipoC3S1': 3.96, 'temp': 30.44, 'lipoC3S3': 11.98, 'lipoC3S2': 7.92, 'rot1': 1493, 'rot0': 1475, 'rot3': 696, 'rot2': 662, 'state': 'normal', 'yaw': -98.63, 'datetime': '2018-10-09 13:14:54.181512', 'mgs': 0, 'volt': 0.9033, 'depth': 1.614, 'time': 588, 'pitch': 2.02, 'roll': -6.69, 'pres': 185}
{'lipoC2': 7.4, 'lipoC3S1': 3.96, 'temp': 30.5, 'lipoC3S3': 11.98, 'lipoC3S2': 7.92, 'rot1': 1493, 'rot0': 1475, 'rot3': 696, 'rot2': 662, 'state': 'normal', 'yaw': -97.93, 'datetime': '2018-10-09 13:14:54.192137', 'mgs': 0, 'volt': 0.9033, 'depth': 1.614, 'time': 588, 'pitch': 2.13, 'roll': -7.91, 'pres': 185}
{'lipoC2': 7.4, 'lipoC3S1': 3.96, 'temp': 30.5, 'lipoC3S3': 11.98, 'lipoC3S2': 7.92, 'rot1': 1493, 'rot0': 1475, 'rot3': 696, 'rot2': 662, 'state': 'normal', 'yaw': -97.42, 'datetime': '2018-10-09 13:14:54.202588', 'mgs': 0, 'volt': 0.9033, 'depth': 1.614, 'time': 588, 'pitch': 1.8, 'roll': -8.86, 'pres': 185}
{'lipoC2': 7.4, 'lipoC3S1': 3.96, 'temp': 30.5, 'lipoC3S3': 11.98, 'lipoC3S2': 7.92, 'rot1': 1493, 'rot0': 1475, 'rot3': 696, 'rot2': 662, 'state': 'normal', 'yaw': -97.75, 'datetime': '2018-10-09 13:14:54.213374', 'mgs': 0, 'volt': 0.8984, 'depth': 1.538, 'time': 588, 'pitch': 1.51, 'roll': -9.14, 'pres': 184}
{'lipoC2': 7.4, 'lipoC3S1': 3.96, 'temp': 30.5, 'lipoC3S3': 11.98, 'lipoC3S2': 7.92, 'rot1': 1493, 'rot0': 1475, 'rot3': 696, 'rot2': 662, 'state': 'normal', 'yaw': -98.91, 'datetime': '2018-10-09 13:14:54.223867', 'mgs': 0, 'volt': 0.8984, 'depth': 1.538, 'time': 588, 'pitch': 1.45, 'roll': -8.62, 'pres': 184}
{'lipoC2': 7.4, 'lipoC3S1': 3.96, 'temp': 30.5, 'lipoC3S3': 11.98, 'lipoC3S2': 7.92, 'rot1': 1493, 'rot0': 1475, 'rot3': 696, 'rot2': 662, 'state': 'normal', 'yaw': -100.26, 'datetime': '2018-10-09 13:14:54.234449', 'mgs': 0, 'volt': 0.8984, 'depth': 1.538, 'time': 588, 'pitch': 1.18, 'roll': -7.63, 'pres': 184}
{'lipoC2': 7.4, 'lipoC3S1': 3.96, 'temp': 30.5, 'lipoC3S3': 11.98, 'lipoC3S2': 7.92, 'rot1': 1493, 'rot0': 1475, 'rot3': 696, 'rot2': 662, 'state': 'normal', 'yaw': -101.37, 'datetime': '2018-10-09 13:14:54.244999', 'mgs': 0, 'volt': 0.9033, 'depth': 1.614, 'time': 588, 'pitch': 0.66, 'roll': -6.28, 'pres': 185}
{'lipoC2': 7.4, 'lipoC3S1': 3.96, 'temp': 30.5, 'lipoC3S3': 11.98, 'lipoC3S2': 7.92, 'rot1': 1493, 'rot0': 1475, 'rot3': 696, 'rot2': 662, 'state': 'normal', 'yaw': -101.52, 'datetime': '2018-10-09 13:14:54.255481', 'mgs': 0, 'volt': 0.9033, 'depth': 1.614, 'time': 588, 'pitch': 0.53, 'roll': -5.1, 'pres': 185}
{'lipoC2': 7.4, 'lipoC3S1': 3.96, 'temp': 30.5, 'lipoC3S3': 11.98, 'lipoC3S2': 7.92, 'rot1': 1493, 'rot0': 1475, 'rot3': 696, 'rot2': 662, 'state': 'normal', 'yaw': -100.33, 'datetime': '2018-10-09 13:14:54.266019', 'mgs': 0, 'volt': 0.9082, 'depth': 1.691, 'time': 589, 'pitch': 1.26, 'roll': -4.06, 'pres': 186}
{'lipoC2': 7.4, 'lipoC3S1': 3.96, 'temp': 30.5, 'lipoC3S3': 11.98, 'lipoC3S2': 7.92, 'rot1': 1493, 'rot0': 1475, 'rot3': 696, 'rot2': 662, 'state': 'normal', 'yaw': -98.1, 'datetime': '2018-10-09 13:14:54.276634', 'mgs': 0, 'volt': 0.9082, 'depth': 1.691, 'time': 589, 'pitch': 2.33, 'roll': -3.58, 'pres': 186}
{'lipoC2': 7.4, 'lipoC3S1': 3.96, 'temp': 30.56, 'lipoC3S3': 11.98, 'lipoC3S2': 7.92, 'rot1': 1493, 'rot0': 1475, 'rot3': 696, 'rot2': 662, 'state': 'normal', 'yaw': -95.26, 'datetime': '2018-10-09 13:14:54.287145', 'mgs': 0, 'volt': 0.9082, 'depth': 1.691, 'time': 589, 'pitch': 3.69, 'roll': -3.5, 'pres': 186}
{'lipoC2': 7.4, 'lipoC3S1': 3.96, 'temp': 30.56, 'lipoC3S3': 11.98, 'lipoC3S2': 7.92, 'rot1': 1493, 'rot0': 1475, 'rot3': 696, 'rot2': 662, 'state': 'normal', 'yaw': -92.28, 'datetime': '2018-10-09 13:14:54.297637', 'mgs': 0, 'volt': 0.9131, 'depth': 1.767, 'time': 589, 'pitch': 5.2, 'roll': -3.61, 'pres': 187}
{'lipoC2': 7.4, 'lipoC3S1': 3.96, 'temp': 30.5, 'lipoC3S3': 11.98, 'lipoC3S2': 7.92, 'rot1': 1493, 'rot0': 1475, 'rot3': 696, 'rot2': 662, 'state': 'normal', 'yaw': -90.26, 'datetime': '2018-10-09 13:14:54.308110', 'mgs': 0, 'volt': 0.918, 'depth': 1.843, 'time': 589, 'pitch': 6.31, 'roll': -3.62, 'pres': 188}
{'lipoC2': 7.4, 'lipoC3S1': 3.96, 'temp': 30.5, 'lipoC3S3': 11.98, 'lipoC3S2': 7.92, 'rot1': 1493, 'rot0': 1475, 'rot3': 696, 'rot2': 662, 'state': 'normal', 'yaw': -88.57, 'datetime': '2018-10-09 13:14:54.318555', 'mgs': 0, 'volt': 0.9229, 'depth': 1.92, 'time': 589, 'pitch': 6.97, 'roll': -3.34, 'pres': 189}
{'lipoC2': 7.4, 'lipoC3S1': 3.96, 'temp': 30.5, 'lipoC3S3': 11.98, 'lipoC3S2': 7.92, 'rot1': 1493, 'rot0': 1475, 'rot3': 696, 'rot2': 662, 'state': 'normal', 'yaw': -86.71, 'datetime': '2018-10-09 13:14:54.329045', 'mgs': 0, 'volt': 0.9277, 'depth': 1.996, 'time': 589, 'pitch': 7.74, 'roll': -3.11, 'pres': 190}
{'lipoC2': 7.4, 'lipoC3S1': 3.96, 'temp': 30.5, 'lipoC3S3': 11.98, 'lipoC3S2': 7.92, 'rot1': 1493, 'rot0': 1475, 'rot3': 696, 'rot2': 662, 'state': 'normal', 'yaw': -84.39, 'datetime': '2018-10-09 13:14:54.339489', 'mgs': 0, 'volt': 0.9326, 'depth': 2.072, 'time': 589, 'pitch': 9.01, 'roll': -3.02, 'pres': 191}
{'lipoC2': 7.4, 'lipoC3S1': 3.96, 'temp': 30.5, 'lipoC3S3': 11.98, 'lipoC3S2': 7.92, 'rot1': 1493, 'rot0': 1475, 'rot3': 696, 'rot2': 662, 'state': 'normal', 'yaw': -82.6, 'datetime': '2018-10-09 13:14:54.349935', 'mgs': 0, 'volt': 0.9326, 'depth': 2.072, 'time': 589, 'pitch': 9.85, 'roll': -2.87, 'pres': 191}
{'lipoC2': 7.4, 'lipoC3S1': 3.96, 'temp': 30.5, 'lipoC3S3': 11.98, 'lipoC3S2': 7.92, 'rot1': 1493, 'rot0': 1475, 'rot3': 696, 'rot2': 662, 'state': 'normal', 'yaw': -81.35, 'datetime': '2018-10-09 13:14:54.360543', 'mgs': 0, 'volt': 0.9375, 'depth': 2.148, 'time': 590, 'pitch': 10.43, 'roll': -2.72, 'pres': 192}
{'lipoC2': 7.4, 'lipoC3S1': 3.96, 'temp': 30.5, 'lipoC3S3': 11.98, 'lipoC3S2': 7.92, 'rot1': 1493, 'rot0': 1475, 'rot3': 696, 'rot2': 662, 'state': 'normal', 'yaw': -80.79, 'datetime': '2018-10-09 13:14:54.371035', 'mgs': 0, 'volt': 0.9375, 'depth': 2.148, 'time': 590, 'pitch': 10.51, 'roll': -2.57, 'pres': 192}
{'lipoC2': 7.4, 'lipoC3S1': 3.96, 'temp': 30.5, 'lipoC3S3': 11.98, 'lipoC3S2': 7.92, 'rot1': 1493, 'rot0': 1475, 'rot3': 696, 'rot2': 662, 'state': 'normal', 'yaw': -81.0, 'datetime': '2018-10-09 13:14:54.381492', 'mgs': 0, 'volt': 0.9375, 'depth': 2.148, 'time': 590, 'pitch': 10.15, 'roll': -2.37, 'pres': 192}
{'lipoC2': 7.4, 'lipoC3S1': 3.96, 'temp': 30.5, 'lipoC3S3': 11.98, 'lipoC3S2': 7.92, 'rot1': 1493, 'rot0': 1475, 'rot3': 696, 'rot2': 662, 'state': 'normal', 'yaw': -81.55, 'datetime': '2018-10-09 13:14:54.391912', 'mgs': 0, 'volt': 0.9424, 'depth': 2.225, 'time': 590, 'pitch': 9.27, 'roll': -2.18, 'pres': 193}
{'lipoC2': 7.4, 'lipoC3S1': 3.96, 'temp': 30.5, 'lipoC3S3': 11.98, 'lipoC3S2': 7.92, 'rot1': 1493, 'rot0': 1475, 'rot3': 696, 'rot2': 662, 'state': 'normal', 'yaw': -81.81, 'datetime': '2018-10-09 13:14:54.402308', 'mgs': 0, 'volt': 0.9424, 'depth': 2.225, 'time': 590, 'pitch': 8.45, 'roll': -2.04, 'pres': 193}
{'lipoC2': 7.4, 'lipoC3S1': 3.96, 'temp': 30.5, 'lipoC3S3': 11.98, 'lipoC3S2': 7.92, 'rot1': 1493, 'rot0': 1475, 'rot3': 696, 'rot2': 662, 'state': 'normal', 'yaw': -81.72, 'datetime': '2018-10-09 13:14:54.412749', 'mgs': 0, 'volt': 0.9424, 'depth': 2.225, 'time': 590, 'pitch': 7.54, 'roll': -1.91, 'pres': 193}
{'lipoC2': 7.4, 'lipoC3S1': 3.96, 'temp': 30.5, 'lipoC3S3': 11.98, 'lipoC3S2': 7.92, 'rot1': 1493, 'rot0': 1475, 'rot3': 696, 'rot2': 662, 'state': 'normal', 'yaw': -81.33, 'datetime': '2018-10-09 13:14:54.423226', 'mgs': 0, 'volt': 0.9424, 'depth': 2.225, 'time': 590, 'pitch': 6.58, 'roll': -1.84, 'pres': 193}
{'lipoC2': 7.4, 'lipoC3S1': 3.96, 'temp': 30.44, 'lipoC3S3': 11.98, 'lipoC3S2': 7.92, 'rot1': 1493, 'rot0': 1475, 'rot3': 696, 'rot2': 662, 'state': 'normal', 'yaw': -80.75, 'datetime': '2018-10-09 13:14:54.433681', 'mgs': 0, 'volt': 0.9424, 'depth': 2.225, 'time': 590, 'pitch': 5.37, 'roll': -1.87, 'pres': 193}
{'lipoC2': 7.4, 'lipoC3S1': 3.96, 'temp': 30.44, 'lipoC3S3': 11.98, 'lipoC3S2': 7.92, 'rot1': 1493, 'rot0': 1475, 'rot3': 696, 'rot2': 662, 'state': 'normal', 'yaw': -80.22, 'datetime': '2018-10-09 13:14:54.444167', 'mgs': 0, 'volt': 0.9473, 'depth': 2.301, 'time': 590, 'pitch': 4.38, 'roll': -1.93, 'pres': 194}
{'lipoC2': 7.4, 'lipoC3S1': 3.96, 'temp': 30.5, 'lipoC3S3': 11.98, 'lipoC3S2': 7.92, 'rot1': 1493, 'rot0': 1475, 'rot3': 696, 'rot2': 662, 'state': 'normal', 'yaw': -79.76, 'datetime': '2018-10-09 13:14:54.454633', 'mgs': 0, 'volt': 0.9473, 'depth': 2.301, 'time': 590, 'pitch': 3.78, 'roll': -1.95, 'pres': 194}
{'lipoC2': 7.4, 'lipoC3S1': 3.96, 'temp': 30.5, 'lipoC3S3': 11.98, 'lipoC3S2': 7.92, 'rot1': 1493, 'rot0': 1475, 'rot3': 696, 'rot2': 662, 'state': 'normal', 'yaw': -79.5, 'datetime': '2018-10-09 13:14:54.465122', 'mgs': 0, 'volt': 0.9473, 'depth': 2.301, 'time': 591, 'pitch': 3.59, 'roll': -1.91, 'pres': 194}
{'lipoC2': 7.4, 'lipoC3S1': 3.96, 'temp': 30.5, 'lipoC3S3': 11.98, 'lipoC3S2': 7.92, 'rot1': 1493, 'rot0': 1475, 'rot3': 696, 'rot2': 662, 'state': 'normal', 'yaw': -79.33, 'datetime': '2018-10-09 13:14:54.475564', 'mgs': 0, 'volt': 0.9473, 'depth': 2.301, 'time': 591, 'pitch': 3.6, 'roll': -1.79, 'pres': 194}
{'lipoC2': 7.4, 'lipoC3S1': 3.96, 'temp': 30.5, 'lipoC3S3': 11.98, 'lipoC3S2': 7.92, 'rot1': 1493, 'rot0': 1475, 'rot3': 696, 'rot2': 662, 'state': 'normal', 'yaw': -79.2, 'datetime': '2018-10-09 13:14:54.486036', 'mgs': 0, 'volt': 0.9521, 'depth': 2.377, 'time': 591, 'pitch': 3.67, 'roll': -1.67, 'pres': 195}
{'lipoC2': 7.4, 'lipoC3S1': 3.96, 'temp': 30.5, 'lipoC3S3': 11.98, 'lipoC3S2': 7.92, 'rot1': 1493, 'rot0': 1475, 'rot3': 696, 'rot2': 662, 'state': 'normal', 'yaw': -79.04, 'datetime': '2018-10-09 13:14:54.496653', 'mgs': 0, 'volt': 0.9521, 'depth': 2.377, 'time': 591, 'pitch': 3.76, 'roll': -1.65, 'pres': 195}
{'lipoC2': 7.4, 'lipoC3S1': 3.96, 'temp': 30.5, 'lipoC3S3': 11.98, 'lipoC3S2': 7.92, 'rot1': 1493, 'rot0': 1475, 'rot3': 696, 'rot2': 662, 'state': 'normal', 'yaw': -78.85, 'datetime': '2018-10-09 13:14:54.507100', 'mgs': 0, 'volt': 0.957, 'depth': 2.454, 'time': 591, 'pitch': 4.01, 'roll': -1.71, 'pres': 196}
{'lipoC2': 7.4, 'lipoC3S1': 3.96, 'temp': 30.5, 'lipoC3S3': 11.98, 'lipoC3S2': 7.92, 'rot1': 1493, 'rot0': 1475, 'rot3': 696, 'rot2': 662, 'state': 'normal', 'yaw': -78.4, 'datetime': '2018-10-09 13:14:54.517550', 'mgs': 0, 'volt': 0.9619, 'depth': 2.53, 'time': 591, 'pitch': 4.36, 'roll': -1.89, 'pres': 197}
{'lipoC2': 7.4, 'lipoC3S1': 3.96, 'temp': 30.5, 'lipoC3S3': 11.98, 'lipoC3S2': 7.92, 'rot1': 1493, 'rot0': 1475, 'rot3': 696, 'rot2': 662, 'state': 'normal', 'yaw': -78.06, 'datetime': '2018-10-09 13:14:54.528002', 'mgs': 0, 'volt': 0.9668, 'depth': 2.606, 'time': 591, 'pitch': 5.05, 'roll': -2.06, 'pres': 198}
{'lipoC2': 7.4, 'lipoC3S1': 3.96, 'temp': 30.5, 'lipoC3S3': 11.98, 'lipoC3S2': 7.92, 'rot1': 1493, 'rot0': 1475, 'rot3': 696, 'rot2': 662, 'state': 'normal', 'yaw': -77.94, 'datetime': '2018-10-09 13:14:54.538464', 'mgs': 0, 'volt': 0.9668, 'depth': 2.606, 'time': 591, 'pitch': 5.72, 'roll': -2.04, 'pres': 198}
{'lipoC2': 7.4, 'lipoC3S1': 3.96, 'temp': 30.5, 'lipoC3S3': 11.98, 'lipoC3S2': 7.92, 'rot1': 1493, 'rot0': 1475, 'rot3': 696, 'rot2': 662, 'state': 'normal', 'yaw': -77.75, 'datetime': '2018-10-09 13:14:54.548908', 'mgs': 0, 'volt': 0.9717, 'depth': 2.682, 'time': 591, 'pitch': 5.82, 'roll': -2.01, 'pres': 199}
{'lipoC2': 7.4, 'lipoC3S1': 3.96, 'temp': 30.5, 'lipoC3S3': 11.98, 'lipoC3S2': 7.92, 'rot1': 1493, 'rot0': 1475, 'rot3': 696, 'rot2': 662, 'state': 'normal', 'yaw': -77.75, 'datetime': '2018-10-09 13:14:54.559378', 'mgs': 0, 'volt': 0.9717, 'depth': 2.682, 'time': 592, 'pitch': 5.16, 'roll': -1.94, 'pres': 199}
