{'lipoC2': 7.83, 'lipoC3S1': 4.16, 'temp': 27.56, 'lipoC3S3': 12.56, 'lipoC3S2': 8.31, 'rot1': 0, 'rot0': 0, 'rot3': 0, 'rot2': 0, 'state': 'normal', 'yaw': 0.0, 'datetime': '2018-10-05 15:45:19.295029', 'mgs': 1, 'volt': 0.7813, 'depth': -0.293, 'time': 1, 'pitch': -9.96, 'roll': -1.64, 'pres': 160}
{'lipoC2': 7.83, 'lipoC3S1': 4.16, 'temp': 27.56, 'lipoC3S3': 12.56, 'lipoC3S2': 8.31, 'rot1': 0, 'rot0': 0, 'rot3': 0, 'rot2': 0, 'state': 'normal', 'yaw': 0.0, 'datetime': '2018-10-05 15:45:25.326334', 'mgs': 1, 'volt': 0.7813, 'depth': -0.293, 'time': 1, 'pitch': -9.96, 'roll': -1.64, 'pres': 160}
{'lipoC2': 7.83, 'lipoC3S1': 4.16, 'temp': 27.56, 'lipoC3S3': 12.56, 'lipoC3S2': 8.31, 'rot1': 0, 'rot0': 0, 'rot3': 0, 'rot2': 0, 'state': 'normal', 'yaw': 0.0, 'datetime': '2018-10-05 15:45:25.349261', 'mgs': 1, 'volt': 0.7813, 'depth': -0.293, 'time': 1, 'pitch': -9.96, 'roll': -1.64, 'pres': 160}
{'lipoC2': 7.83, 'lipoC3S1': 4.16, 'temp': 27.5, 'lipoC3S3': 12.56, 'lipoC3S2': 8.31, 'rot1': 0, 'rot0': 0, 'rot3': 0, 'rot2': 0, 'state': 'normal', 'yaw': 0.0, 'datetime': '2018-10-05 15:45:25.384491', 'mgs': 1, 'volt': 0.7813, 'depth': -0.293, 'time': 1, 'pitch': -9.96, 'roll': -1.64, 'pres': 160}
{'lipoC2': 7.83, 'lipoC3S1': 4.16, 'temp': 27.5, 'lipoC3S3': 12.56, 'lipoC3S2': 8.31, 'rot1': 0, 'rot0': 0, 'rot3': 0, 'rot2': 0, 'state': 'normal', 'yaw': 0.0, 'datetime': '2018-10-05 15:45:25.399007', 'mgs': 1, 'volt': 0.7813, 'depth': -0.293, 'time': 1, 'pitch': -9.96, 'roll': -1.64, 'pres': 160}
{'lipoC2': 7.83, 'lipoC3S1': 4.16, 'temp': 27.5, 'lipoC3S3': 12.56, 'lipoC3S2': 8.31, 'rot1': 0, 'rot0': 0, 'rot3': 0, 'rot2': 0, 'state': 'normal', 'yaw': 0.0, 'datetime': '2018-10-05 15:45:25.419169', 'mgs': 1, 'volt': 0.7813, 'depth': -0.293, 'time': 1, 'pitch': -9.96, 'roll': -1.64, 'pres': 160}
{'lipoC2': 7.83, 'lipoC3S1': 4.16, 'temp': 27.5, 'lipoC3S3': 12.56, 'lipoC3S2': 8.31, 'rot1': 0, 'rot0': 0, 'rot3': 0, 'rot2': 0, 'state': 'normal', 'yaw': 0.0, 'datetime': '2018-10-05 15:45:25.429106', 'mgs': 1, 'volt': 0.7813, 'depth': -0.293, 'time': 2, 'pitch': -9.96, 'roll': -1.64, 'pres': 160}
{'lipoC2': 7.83, 'lipoC3S1': 4.16, 'temp': 27.5, 'lipoC3S3': 12.56, 'lipoC3S2': 8.31, 'rot1': 0, 'rot0': 0, 'rot3': 0, 'rot2': 0, 'state': 'normal', 'yaw': 0.0, 'datetime': '2018-10-05 15:45:25.449222', 'mgs': 1, 'volt': 0.7813, 'depth': -0.293, 'time': 2, 'pitch': -9.96, 'roll': -1.64, 'pres': 160}
{'lipoC2': 7.83, 'lipoC3S1': 4.16, 'temp': 27.5, 'lipoC3S3': 12.56, 'lipoC3S2': 8.31, 'rot1': 0, 'rot0': 0, 'rot3': 0, 'rot2': 0, 'state': 'normal', 'yaw': 0.0, 'datetime': '2018-10-05 15:45:25.459164', 'mgs': 1, 'volt': 0.7813, 'depth': -0.293, 'time': 2, 'pitch': -9.96, 'roll': -1.64, 'pres': 160}
{'lipoC2': 7.83, 'lipoC3S1': 4.16, 'temp': 27.5, 'lipoC3S3': 12.56, 'lipoC3S2': 8.31, 'rot1': 0, 'rot0': 0, 'rot3': 0, 'rot2': 0, 'state': 'normal', 'yaw': 0.0, 'datetime': '2018-10-05 15:45:25.479260', 'mgs': 1, 'volt': 0.7813, 'depth': -0.293, 'time': 2, 'pitch': -9.96, 'roll': -1.64, 'pres': 160}
{'lipoC2': 7.83, 'lipoC3S1': 4.16, 'temp': 27.56, 'lipoC3S3': 12.56, 'lipoC3S2': 8.31, 'rot1': 0, 'rot0': 0, 'rot3': 0, 'rot2': 0, 'state': 'normal', 'yaw': 0.0, 'datetime': '2018-10-05 15:45:25.489188', 'mgs': 1, 'volt': 0.7813, 'depth': -0.293, 'time': 2, 'pitch': -9.96, 'roll': -1.64, 'pres': 160}
{'lipoC2': 7.83, 'lipoC3S1': 4.16, 'temp': 27.56, 'lipoC3S3': 12.56, 'lipoC3S2': 8.31, 'rot1': 0, 'rot0': 0, 'rot3': 0, 'rot2': 0, 'state': 'normal', 'yaw': 0.0, 'datetime': '2018-10-05 15:45:25.509291', 'mgs': 1, 'volt': 0.7813, 'depth': -0.293, 'time': 2, 'pitch': -9.96, 'roll': -1.64, 'pres': 160}
{'lipoC2': 7.83, 'lipoC3S1': 4.16, 'temp': 27.56, 'lipoC3S3': 12.56, 'lipoC3S2': 8.31, 'rot1': 0, 'rot0': 0, 'rot3': 0, 'rot2': 0, 'state': 'normal', 'yaw': 0.0, 'datetime': '2018-10-05 15:45:25.519183', 'mgs': 1, 'volt': 0.7813, 'depth': -0.293, 'time': 2, 'pitch': -9.96, 'roll': -1.64, 'pres': 160}
{'lipoC2': 7.83, 'lipoC3S1': 4.16, 'temp': 27.56, 'lipoC3S3': 12.56, 'lipoC3S2': 8.31, 'rot1': 0, 'rot0': 0, 'rot3': 0, 'rot2': 0, 'state': 'normal', 'yaw': 0.0, 'datetime': '2018-10-05 15:45:25.539291', 'mgs': 1, 'volt': 0.7813, 'depth': -0.293, 'time': 2, 'pitch': -9.96, 'roll': -1.64, 'pres': 160}
{'lipoC2': 7.83, 'lipoC3S1': 4.16, 'temp': 27.56, 'lipoC3S3': 12.56, 'lipoC3S2': 8.31, 'rot1': 0, 'rot0': 0, 'rot3': 0, 'rot2': 0, 'state': 'normal', 'yaw': 0.0, 'datetime': '2018-10-05 15:45:25.549376', 'mgs': 1, 'volt': 0.7813, 'depth': -0.293, 'time': 2, 'pitch': -9.96, 'roll': -1.64, 'pres': 160}
{'lipoC2': 7.83, 'lipoC3S1': 4.16, 'temp': 27.56, 'lipoC3S3': 12.56, 'lipoC3S2': 8.31, 'rot1': 0, 'rot0': 0, 'rot3': 0, 'rot2': 0, 'state': 'normal', 'yaw': 0.0, 'datetime': '2018-10-05 15:45:25.569439', 'mgs': 1, 'volt': 0.7813, 'depth': -0.293, 'time': 3, 'pitch': -9.96, 'roll': -1.64, 'pres': 160}
{'lipoC2': 7.83, 'lipoC3S1': 4.16, 'temp': 27.56, 'lipoC3S3': 12.56, 'lipoC3S2': 8.31, 'rot1': 0, 'rot0': 0, 'rot3': 0, 'rot2': 0, 'state': 'normal', 'yaw': 0.0, 'datetime': '2018-10-05 15:45:25.579350', 'mgs': 1, 'volt': 0.7813, 'depth': -0.293, 'time': 3, 'pitch': -9.96, 'roll': -1.64, 'pres': 160}
{'lipoC2': 7.83, 'lipoC3S1': 4.16, 'temp': 27.56, 'lipoC3S3': 12.56, 'lipoC3S2': 8.31, 'rot1': 0, 'rot0': 0, 'rot3': 0, 'rot2': 0, 'state': 'normal', 'yaw': 0.0, 'datetime': '2018-10-05 15:45:25.599525', 'mgs': 1, 'volt': 0.7861, 'depth': -0.217, 'time': 3, 'pitch': -9.96, 'roll': -1.64, 'pres': 161}
{'lipoC2': 7.83, 'lipoC3S1': 4.16, 'temp': 27.56, 'lipoC3S3': 12.56, 'lipoC3S2': 8.31, 'rot1': 0, 'rot0': 0, 'rot3': 0, 'rot2': 0, 'state': 'normal', 'yaw': 0.0, 'datetime': '2018-10-05 15:45:25.609495', 'mgs': 1, 'volt': 0.7813, 'depth': -0.293, 'time': 3, 'pitch': -9.96, 'roll': -1.64, 'pres': 160}
{'lipoC2': 7.83, 'lipoC3S1': 4.16, 'temp': 27.56, 'lipoC3S3': 12.56, 'lipoC3S2': 8.31, 'rot1': 0, 'rot0': 0, 'rot3': 0, 'rot2': 0, 'state': 'normal', 'yaw': 0.0, 'datetime': '2018-10-05 15:45:25.629601', 'mgs': 1, 'volt': 0.7813, 'depth': -0.293, 'time': 3, 'pitch': -9.96, 'roll': -1.64, 'pres': 160}
{'lipoC2': 7.83, 'lipoC3S1': 4.16, 'temp': 27.56, 'lipoC3S3': 12.56, 'lipoC3S2': 8.31, 'rot1': 0, 'rot0': 0, 'rot3': 0, 'rot2': 0, 'state': 'normal', 'yaw': 0.0, 'datetime': '2018-10-05 15:45:25.639483', 'mgs': 1, 'volt': 0.7813, 'depth': -0.293, 'time': 3, 'pitch': -9.96, 'roll': -1.64, 'pres': 160}
{'lipoC2': 7.83, 'lipoC3S1': 4.16, 'temp': 27.56, 'lipoC3S3': 12.56, 'lipoC3S2': 8.31, 'rot1': 0, 'rot0': 0, 'rot3': 0, 'rot2': 0, 'state': 'normal', 'yaw': 0.0, 'datetime': '2018-10-05 15:45:25.659562', 'mgs': 1, 'volt': 0.7813, 'depth': -0.293, 'time': 3, 'pitch': -9.96, 'roll': -1.64, 'pres': 160}
{'lipoC2': 7.83, 'lipoC3S1': 4.16, 'temp': 27.56, 'lipoC3S3': 12.56, 'lipoC3S2': 8.31, 'rot1': 0, 'rot0': 0, 'rot3': 0, 'rot2': 0, 'state': 'normal', 'yaw': 0.0, 'datetime': '2018-10-05 15:45:25.669512', 'mgs': 1, 'volt': 0.7861, 'depth': -0.217, 'time': 3, 'pitch': -9.96, 'roll': -1.64, 'pres': 161}
{'lipoC2': 7.83, 'lipoC3S1': 4.16, 'temp': 27.56, 'lipoC3S3': 12.56, 'lipoC3S2': 8.31, 'rot1': 0, 'rot0': 0, 'rot3': 0, 'rot2': 0, 'state': 'normal', 'yaw': 0.0, 'datetime': '2018-10-05 15:45:25.689569', 'mgs': 1, 'volt': 0.7813, 'depth': -0.293, 'time': 3, 'pitch': -9.96, 'roll': -1.64, 'pres': 160}
{'lipoC2': 7.83, 'lipoC3S1': 4.16, 'temp': 27.56, 'lipoC3S3': 12.56, 'lipoC3S2': 8.31, 'rot1': 0, 'rot0': 0, 'rot3': 0, 'rot2': 0, 'state': 'normal', 'yaw': 0.0, 'datetime': '2018-10-05 15:45:25.699586', 'mgs': 1, 'volt': 0.7813, 'depth': -0.293, 'time': 3, 'pitch': -9.96, 'roll': -1.64, 'pres': 160}
{'lipoC2': 7.83, 'lipoC3S1': 4.16, 'temp': 27.56, 'lipoC3S3': 12.56, 'lipoC3S2': 8.31, 'rot1': 0, 'rot0': 0, 'rot3': 0, 'rot2': 0, 'state': 'normal', 'yaw': 0.0, 'datetime': '2018-10-05 15:45:25.719710', 'mgs': 1, 'volt': 0.7813, 'depth': -0.293, 'time': 4, 'pitch': -9.96, 'roll': -1.64, 'pres': 160}
{'lipoC2': 7.83, 'lipoC3S1': 4.16, 'temp': 27.56, 'lipoC3S3': 12.56, 'lipoC3S2': 8.31, 'rot1': 0, 'rot0': 0, 'rot3': 0, 'rot2': 0, 'state': 'normal', 'yaw': 0.0, 'datetime': '2018-10-05 15:45:25.729625', 'mgs': 1, 'volt': 0.7861, 'depth': -0.217, 'time': 4, 'pitch': -9.96, 'roll': -1.64, 'pres': 161}
{'lipoC2': 7.83, 'lipoC3S1': 4.16, 'temp': 27.56, 'lipoC3S3': 12.56, 'lipoC3S2': 8.31, 'rot1': 0, 'rot0': 0, 'rot3': 0, 'rot2': 0, 'state': 'normal', 'yaw': 0.0, 'datetime': '2018-10-05 15:45:25.749695', 'mgs': 1, 'volt': 0.7861, 'depth': -0.217, 'time': 4, 'pitch': -9.96, 'roll': -1.64, 'pres': 161}
{'lipoC2': 7.83, 'lipoC3S1': 4.16, 'temp': 27.56, 'lipoC3S3': 12.56, 'lipoC3S2': 8.31, 'rot1': 0, 'rot0': 0, 'rot3': 0, 'rot2': 0, 'state': 'normal', 'yaw': 0.0, 'datetime': '2018-10-05 15:45:25.759778', 'mgs': 1, 'volt': 0.7813, 'depth': -0.293, 'time': 4, 'pitch': -9.96, 'roll': -1.64, 'pres': 160}
{'lipoC2': 7.83, 'lipoC3S1': 4.16, 'temp': 27.56, 'lipoC3S3': 12.56, 'lipoC3S2': 8.31, 'rot1': 0, 'rot0': 0, 'rot3': 0, 'rot2': 0, 'state': 'normal', 'yaw': 0.0, 'datetime': '2018-10-05 15:45:25.779941', 'mgs': 1, 'volt': 0.7861, 'depth': -0.217, 'time': 4, 'pitch': -9.96, 'roll': -1.64, 'pres': 161}
{'lipoC2': 7.84, 'lipoC3S1': 4.16, 'temp': 27.56, 'lipoC3S3': 12.56, 'lipoC3S2': 8.31, 'rot1': 0, 'rot0': 0, 'rot3': 0, 'rot2': 0, 'state': 'normal', 'yaw': 0.0, 'datetime': '2018-10-05 15:45:25.789860', 'mgs': 1, 'volt': 0.7813, 'depth': -0.293, 'time': 1, 'pitch': -7.62, 'roll': -1.42, 'pres': 160}
{'lipoC2': 7.83, 'lipoC3S1': 4.16, 'temp': 27.56, 'lipoC3S3': 12.56, 'lipoC3S2': 8.31, 'rot1': 0, 'rot0': 0, 'rot3': 0, 'rot2': 0, 'state': 'normal', 'yaw': -0.0, 'datetime': '2018-10-05 15:45:25.810015', 'mgs': 1, 'volt': 0.7813, 'depth': -0.293, 'time': 1, 'pitch': -7.41, 'roll': -1.4, 'pres': 160}
{'lipoC2': 7.84, 'lipoC3S1': 4.16, 'temp': 27.56, 'lipoC3S3': 12.56, 'lipoC3S2': 8.31, 'rot1': 0, 'rot0': 0, 'rot3': 0, 'rot2': 0, 'state': 'normal', 'yaw': -0.01, 'datetime': '2018-10-05 15:45:25.819956', 'mgs': 1, 'volt': 0.7813, 'depth': -0.293, 'time': 1, 'pitch': -7.25, 'roll': -1.39, 'pres': 160}
{'lipoC2': 7.84, 'lipoC3S1': 4.16, 'temp': 27.56, 'lipoC3S3': 12.56, 'lipoC3S2': 8.31, 'rot1': 0, 'rot0': 0, 'rot3': 0, 'rot2': 0, 'state': 'normal', 'yaw': -0.0, 'datetime': '2018-10-05 15:45:25.840022', 'mgs': 1, 'volt': 0.7813, 'depth': -0.293, 'time': 1, 'pitch': -7.12, 'roll': -1.37, 'pres': 160}
{'lipoC2': 7.83, 'lipoC3S1': 4.16, 'temp': 27.56, 'lipoC3S3': 12.56, 'lipoC3S2': 8.31, 'rot1': 0, 'rot0': 0, 'rot3': 0, 'rot2': 0, 'state': 'normal', 'yaw': -0.01, 'datetime': '2018-10-05 15:45:25.849976', 'mgs': 1, 'volt': 0.7861, 'depth': -0.217, 'time': 1, 'pitch': -6.99, 'roll': -1.36, 'pres': 161}
{'lipoC2': 7.83, 'lipoC3S1': 4.16, 'temp': 27.56, 'lipoC3S3': 12.56, 'lipoC3S2': 8.31, 'rot1': 0, 'rot0': 0, 'rot3': 0, 'rot2': 0, 'state': 'normal', 'yaw': -0.01, 'datetime': '2018-10-05 15:45:25.870122', 'mgs': 1, 'volt': 0.7813, 'depth': -0.293, 'time': 1, 'pitch': -6.89, 'roll': -1.36, 'pres': 160}
{'lipoC2': 7.83, 'lipoC3S1': 4.16, 'temp': 27.56, 'lipoC3S3': 12.56, 'lipoC3S2': 8.31, 'rot1': 0, 'rot0': 0, 'rot3': 0, 'rot2': 0, 'state': 'normal', 'yaw': -0.01, 'datetime': '2018-10-05 15:45:25.880043', 'mgs': 1, 'volt': 0.7861, 'depth': -0.217, 'time': 1, 'pitch': -6.8, 'roll': -1.35, 'pres': 161}
{'lipoC2': 7.83, 'lipoC3S1': 4.16, 'temp': 27.56, 'lipoC3S3': 12.56, 'lipoC3S2': 8.31, 'rot1': 0, 'rot0': 0, 'rot3': 0, 'rot2': 0, 'state': 'normal', 'yaw': -0.01, 'datetime': '2018-10-05 15:45:25.900218', 'mgs': 1, 'volt': 0.7813, 'depth': -0.293, 'time': 1, 'pitch': -6.72, 'roll': -1.34, 'pres': 160}
{'lipoC2': 7.83, 'lipoC3S1': 4.16, 'temp': 27.56, 'lipoC3S3': 12.56, 'lipoC3S2': 8.31, 'rot1': 0, 'rot0': 0, 'rot3': 0, 'rot2': 0, 'state': 'normal', 'yaw': -0.01, 'datetime': '2018-10-05 15:45:25.910138', 'mgs': 1, 'volt': 0.7813, 'depth': -0.293, 'time': 2, 'pitch': -6.66, 'roll': -1.33, 'pres': 160}
{'lipoC2': 7.83, 'lipoC3S1': 4.16, 'temp': 27.56, 'lipoC3S3': 12.56, 'lipoC3S2': 8.31, 'rot1': 0, 'rot0': 0, 'rot3': 0, 'rot2': 0, 'state': 'normal', 'yaw': -0.01, 'datetime': '2018-10-05 15:45:25.930212', 'mgs': 1, 'volt': 0.7813, 'depth': -0.293, 'time': 2, 'pitch': -6.6, 'roll': -1.34, 'pres': 160}
{'lipoC2': 7.83, 'lipoC3S1': 4.16, 'temp': 27.56, 'lipoC3S3': 12.56, 'lipoC3S2': 8.31, 'rot1': 0, 'rot0': 0, 'rot3': 0, 'rot2': 0, 'state': 'normal', 'yaw': -0.01, 'datetime': '2018-10-05 15:45:25.940166', 'mgs': 1, 'volt': 0.7813, 'depth': -0.293, 'time': 2, 'pitch': -6.55, 'roll': -1.33, 'pres': 160}
{'lipoC2': 7.84, 'lipoC3S1': 4.16, 'temp': 27.56, 'lipoC3S3': 12.56, 'lipoC3S2': 8.31, 'rot1': 0, 'rot0': 0, 'rot3': 0, 'rot2': 0, 'state': 'normal', 'yaw': -0.01, 'datetime': '2018-10-05 15:45:25.960405', 'mgs': 1, 'volt': 0.7813, 'depth': -0.293, 'time': 2, 'pitch': -6.5, 'roll': -1.32, 'pres': 160}
{'lipoC2': 7.84, 'lipoC3S1': 4.16, 'temp': 27.56, 'lipoC3S3': 12.56, 'lipoC3S2': 8.31, 'rot1': 0, 'rot0': 0, 'rot3': 0, 'rot2': 0, 'state': 'normal', 'yaw': -0.02, 'datetime': '2018-10-05 15:45:25.970355', 'mgs': 1, 'volt': 0.7861, 'depth': -0.217, 'time': 2, 'pitch': -6.46, 'roll': -1.32, 'pres': 161}
{'lipoC2': 7.84, 'lipoC3S1': 4.16, 'temp': 27.56, 'lipoC3S3': 12.56, 'lipoC3S2': 8.31, 'rot1': 0, 'rot0': 0, 'rot3': 0, 'rot2': 0, 'state': 'normal', 'yaw': -0.01, 'datetime': '2018-10-05 15:45:25.990412', 'mgs': 1, 'volt': 0.7861, 'depth': -0.217, 'time': 2, 'pitch': -6.42, 'roll': -1.31, 'pres': 161}
{'lipoC2': 7.84, 'lipoC3S1': 4.16, 'temp': 27.56, 'lipoC3S3': 12.56, 'lipoC3S2': 8.31, 'rot1': 0, 'rot0': 0, 'rot3': 0, 'rot2': 0, 'state': 'normal', 'yaw': -0.01, 'datetime': '2018-10-05 15:45:26.000395', 'mgs': 1, 'volt': 0.7813, 'depth': -0.293, 'time': 2, 'pitch': -6.39, 'roll': -1.31, 'pres': 160}
{'lipoC2': 7.83, 'lipoC3S1': 4.16, 'temp': 27.56, 'lipoC3S3': 12.56, 'lipoC3S2': 8.31, 'rot1': 0, 'rot0': 0, 'rot3': 0, 'rot2': 0, 'state': 'normal', 'yaw': -0.01, 'datetime': '2018-10-05 15:45:26.020547', 'mgs': 1, 'volt': 0.7813, 'depth': -0.293, 'time': 2, 'pitch': -6.39, 'roll': -1.31, 'pres': 160}
{'lipoC2': 7.83, 'lipoC3S1': 4.16, 'temp': 27.56, 'lipoC3S3': 12.56, 'lipoC3S2': 8.31, 'rot1': 0, 'rot0': 0, 'rot3': 0, 'rot2': 0, 'state': 'normal', 'yaw': -0.01, 'datetime': '2018-10-05 15:45:26.030467', 'mgs': 1, 'volt': 0.7861, 'depth': -0.217, 'time': 2, 'pitch': -6.39, 'roll': -1.31, 'pres': 161}
{'lipoC2': 7.83, 'lipoC3S1': 4.16, 'temp': 27.56, 'lipoC3S3': 12.56, 'lipoC3S2': 8.31, 'rot1': 0, 'rot0': 0, 'rot3': 0, 'rot2': 0, 'state': 'normal', 'yaw': -0.01, 'datetime': '2018-10-05 15:45:26.050566', 'mgs': 1, 'volt': 0.7813, 'depth': -0.293, 'time': 3, 'pitch': -6.39, 'roll': -1.31, 'pres': 160}
{'lipoC2': 7.83, 'lipoC3S1': 4.16, 'temp': 27.56, 'lipoC3S3': 12.56, 'lipoC3S2': 8.31, 'rot1': 0, 'rot0': 0, 'rot3': 0, 'rot2': 0, 'state': 'normal', 'yaw': -0.01, 'datetime': '2018-10-05 15:45:26.060502', 'mgs': 1, 'volt': 0.7813, 'depth': -0.293, 'time': 3, 'pitch': -6.39, 'roll': -1.31, 'pres': 160}
{'lipoC2': 7.83, 'lipoC3S1': 4.16, 'temp': 27.56, 'lipoC3S3': 12.55, 'lipoC3S2': 8.31, 'rot1': 0, 'rot0': 0, 'rot3': 0, 'rot2': 0, 'state': 'normal', 'yaw': -0.01, 'datetime': '2018-10-05 15:45:26.080633', 'mgs': 1, 'volt': 0.7813, 'depth': -0.293, 'time': 3, 'pitch': -6.39, 'roll': -1.31, 'pres': 160}
{'lipoC2': 7.83, 'lipoC3S1': 4.16, 'temp': 27.56, 'lipoC3S3': 12.55, 'lipoC3S2': 8.31, 'rot1': 0, 'rot0': 0, 'rot3': 0, 'rot2': 0, 'state': 'normal', 'yaw': -0.01, 'datetime': '2018-10-05 15:45:26.090593', 'mgs': 1, 'volt': 0.7813, 'depth': -0.293, 'time': 3, 'pitch': -6.39, 'roll': -1.31, 'pres': 160}
{'lipoC2': 7.84, 'lipoC3S1': 4.16, 'temp': 27.5, 'lipoC3S3': 12.56, 'lipoC3S2': 8.31, 'rot1': 0, 'rot0': 0, 'rot3': 0, 'rot2': 0, 'state': 'normal', 'yaw': -0.01, 'datetime': '2018-10-05 15:45:26.110795', 'mgs': 1, 'volt': 0.7813, 'depth': -0.293, 'time': 3, 'pitch': -6.39, 'roll': -1.31, 'pres': 160}
{'lipoC2': 7.83, 'lipoC3S1': 4.16, 'temp': 27.5, 'lipoC3S3': 12.56, 'lipoC3S2': 8.31, 'rot1': 0, 'rot0': 0, 'rot3': 0, 'rot2': 0, 'state': 'normal', 'yaw': -0.01, 'datetime': '2018-10-05 15:45:26.120741', 'mgs': 1, 'volt': 0.7813, 'depth': -0.293, 'time': 3, 'pitch': -6.39, 'roll': -1.31, 'pres': 160}
{'lipoC2': 7.83, 'lipoC3S1': 4.16, 'temp': 27.56, 'lipoC3S3': 12.56, 'lipoC3S2': 8.31, 'rot1': 0, 'rot0': 0, 'rot3': 0, 'rot2': 0, 'state': 'normal', 'yaw': -0.01, 'datetime': '2018-10-05 15:45:26.140816', 'mgs': 1, 'volt': 0.7813, 'depth': -0.293, 'time': 3, 'pitch': -6.39, 'roll': -1.31, 'pres': 160}
{'lipoC2': 7.83, 'lipoC3S1': 4.16, 'temp': 27.56, 'lipoC3S3': 12.56, 'lipoC3S2': 8.31, 'rot1': 0, 'rot0': 0, 'rot3': 0, 'rot2': 0, 'state': 'normal', 'yaw': -0.01, 'datetime': '2018-10-05 15:45:26.150758', 'mgs': 1, 'volt': 0.7813, 'depth': -0.293, 'time': 3, 'pitch': -6.39, 'roll': -1.31, 'pres': 160}
{'lipoC2': 7.84, 'lipoC3S1': 4.16, 'temp': 27.56, 'lipoC3S3': 12.56, 'lipoC3S2': 8.31, 'rot1': 0, 'rot0': 0, 'rot3': 0, 'rot2': 0, 'state': 'normal', 'yaw': -0.01, 'datetime': '2018-10-05 15:45:26.170951', 'mgs': 1, 'volt': 0.7813, 'depth': -0.293, 'time': 3, 'pitch': -6.39, 'roll': -1.31, 'pres': 160}
{'lipoC2': 7.83, 'lipoC3S1': 4.16, 'temp': 27.56, 'lipoC3S3': 12.56, 'lipoC3S2': 8.31, 'rot1': 0, 'rot0': 0, 'rot3': 0, 'rot2': 0, 'state': 'normal', 'yaw': -0.01, 'datetime': '2018-10-05 15:45:26.180882', 'mgs': 1, 'volt': 0.7813, 'depth': -0.293, 'time': 3, 'pitch': -6.39, 'roll': -1.31, 'pres': 160}
{'lipoC2': 7.83, 'lipoC3S1': 4.16, 'temp': 27.56, 'lipoC3S3': 12.56, 'lipoC3S2': 8.31, 'rot1': 0, 'rot0': 0, 'rot3': 0, 'rot2': 0, 'state': 'normal', 'yaw': -0.01, 'datetime': '2018-10-05 15:45:26.201016', 'mgs': 1, 'volt': 0.7813, 'depth': -0.293, 'time': 4, 'pitch': -6.39, 'roll': -1.31, 'pres': 160}
{'lipoC2': 7.83, 'lipoC3S1': 4.16, 'temp': 27.56, 'lipoC3S3': 12.56, 'lipoC3S2': 8.31, 'rot1': 0, 'rot0': 0, 'rot3': 0, 'rot2': 0, 'state': 'normal', 'yaw': -0.01, 'datetime': '2018-10-05 15:45:26.210971', 'mgs': 1, 'volt': 0.7813, 'depth': -0.293, 'time': 4, 'pitch': -6.39, 'roll': -1.31, 'pres': 160}
{'lipoC2': 7.83, 'lipoC3S1': 4.16, 'temp': 27.56, 'lipoC3S3': 12.56, 'lipoC3S2': 8.31, 'rot1': 0, 'rot0': 0, 'rot3': 0, 'rot2': 0, 'state': 'normal', 'yaw': -0.01, 'datetime': '2018-10-05 15:45:26.231053', 'mgs': 1, 'volt': 0.7861, 'depth': -0.217, 'time': 4, 'pitch': -6.39, 'roll': -1.31, 'pres': 161}
{'lipoC2': 7.84, 'lipoC3S1': 4.16, 'temp': 27.56, 'lipoC3S3': 12.55, 'lipoC3S2': 8.31, 'rot1': 0, 'rot0': 0, 'rot3': 0, 'rot2': 0, 'state': 'normal', 'yaw': -0.01, 'datetime': '2018-10-05 15:45:26.240972', 'mgs': 1, 'volt': 0.7813, 'depth': -0.293, 'time': 4, 'pitch': -6.39, 'roll': -1.31, 'pres': 160}
{'lipoC2': 7.83, 'lipoC3S1': 4.16, 'temp': 27.56, 'lipoC3S3': 12.56, 'lipoC3S2': 8.31, 'rot1': 0, 'rot0': 0, 'rot3': 0, 'rot2': 0, 'state': 'normal', 'yaw': -0.01, 'datetime': '2018-10-05 15:45:26.261083', 'mgs': 1, 'volt': 0.7813, 'depth': -0.293, 'time': 4, 'pitch': -6.39, 'roll': -1.31, 'pres': 160}
{'lipoC2': 7.83, 'lipoC3S1': 4.16, 'temp': 27.56, 'lipoC3S3': 12.56, 'lipoC3S2': 8.31, 'rot1': 0, 'rot0': 0, 'rot3': 0, 'rot2': 0, 'state': 'normal', 'yaw': -0.01, 'datetime': '2018-10-05 15:45:26.271036', 'mgs': 1, 'volt': 0.7861, 'depth': -0.217, 'time': 4, 'pitch': -6.39, 'roll': -1.31, 'pres': 161}
{'lipoC2': 7.84, 'lipoC3S1': 4.16, 'temp': 27.56, 'lipoC3S3': 12.56, 'lipoC3S2': 8.31, 'rot1': 0, 'rot0': 0, 'rot3': 0, 'rot2': 0, 'state': 'normal', 'yaw': -0.01, 'datetime': '2018-10-05 15:45:26.291123', 'mgs': 1, 'volt': 0.7861, 'depth': -0.217, 'time': 4, 'pitch': -6.39, 'roll': -1.31, 'pres': 161}
{'lipoC2': 7.84, 'lipoC3S1': 4.16, 'temp': 27.56, 'lipoC3S3': 12.56, 'lipoC3S2': 8.31, 'rot1': 0, 'rot0': 0, 'rot3': 0, 'rot2': 0, 'state': 'normal', 'yaw': -0.01, 'datetime': '2018-10-05 15:45:26.301155', 'mgs': 1, 'volt': 0.7861, 'depth': -0.217, 'time': 4, 'pitch': -6.39, 'roll': -1.31, 'pres': 161}
{'lipoC2': 7.84, 'lipoC3S1': 4.16, 'temp': 27.56, 'lipoC3S3': 12.56, 'lipoC3S2': 8.31, 'rot1': 0, 'rot0': 0, 'rot3': 0, 'rot2': 0, 'state': 'normal', 'yaw': -0.01, 'datetime': '2018-10-05 15:45:26.321309', 'mgs': 1, 'volt': 0.7813, 'depth': -0.293, 'time': 4, 'pitch': -6.39, 'roll': -1.31, 'pres': 160}
{'lipoC2': 7.83, 'lipoC3S1': 4.16, 'temp': 27.56, 'lipoC3S3': 12.56, 'lipoC3S2': 8.31, 'rot1': 0, 'rot0': 0, 'rot3': 0, 'rot2': 0, 'state': 'normal', 'yaw': -0.01, 'datetime': '2018-10-05 15:45:26.331298', 'mgs': 1, 'volt': 0.7813, 'depth': -0.293, 'time': 4, 'pitch': -6.39, 'roll': -1.31, 'pres': 160}
{'lipoC2': 7.83, 'lipoC3S1': 4.16, 'temp': 27.56, 'lipoC3S3': 12.55, 'lipoC3S2': 8.31, 'rot1': 0, 'rot0': 0, 'rot3': 0, 'rot2': 0, 'state': 'normal', 'yaw': -0.01, 'datetime': '2018-10-05 15:45:26.351376', 'mgs': 1, 'volt': 0.7813, 'depth': -0.293, 'time': 5, 'pitch': -6.39, 'roll': -1.31, 'pres': 160}
{'lipoC2': 7.83, 'lipoC3S1': 4.16, 'temp': 27.56, 'lipoC3S3': 12.56, 'lipoC3S2': 8.31, 'rot1': 0, 'rot0': 0, 'rot3': 0, 'rot2': 0, 'state': 'normal', 'yaw': -0.01, 'datetime': '2018-10-05 15:45:26.361498', 'mgs': 1, 'volt': 0.7813, 'depth': -0.293, 'time': 5, 'pitch': -6.39, 'roll': -1.31, 'pres': 160}
{'lipoC2': 7.83, 'lipoC3S1': 4.16, 'temp': 27.56, 'lipoC3S3': 12.55, 'lipoC3S2': 8.31, 'rot1': 0, 'rot0': 0, 'rot3': 0, 'rot2': 0, 'state': 'normal', 'yaw': -0.01, 'datetime': '2018-10-05 15:45:26.381666', 'mgs': 1, 'volt': 0.7813, 'depth': -0.293, 'time': 5, 'pitch': -6.39, 'roll': -1.31, 'pres': 160}
{'lipoC2': 7.84, 'lipoC3S1': 4.16, 'temp': 27.56, 'lipoC3S3': 12.56, 'lipoC3S2': 8.31, 'rot1': 0, 'rot0': 0, 'rot3': 0, 'rot2': 0, 'state': 'normal', 'yaw': -0.01, 'datetime': '2018-10-05 15:45:26.391146', 'mgs': 1, 'volt': 0.7813, 'depth': -0.293, 'time': 5, 'pitch': -6.39, 'roll': -1.31, 'pres': 160}
{'lipoC2': 7.84, 'lipoC3S1': 4.16, 'temp': 27.56, 'lipoC3S3': 12.56, 'lipoC3S2': 8.31, 'rot1': 0, 'rot0': 0, 'rot3': 0, 'rot2': 0, 'state': 'normal', 'yaw': -0.01, 'datetime': '2018-10-05 15:45:26.410744', 'mgs': 1, 'volt': 0.7813, 'depth': -0.293, 'time': 5, 'pitch': -6.39, 'roll': -1.31, 'pres': 160}
{'lipoC2': 7.83, 'lipoC3S1': 4.16, 'temp': 27.56, 'lipoC3S3': 12.56, 'lipoC3S2': 8.31, 'rot1': 0, 'rot0': 0, 'rot3': 0, 'rot2': 0, 'state': 'normal', 'yaw': -0.01, 'datetime': '2018-10-05 15:45:26.420117', 'mgs': 1, 'volt': 0.7813, 'depth': -0.293, 'time': 5, 'pitch': -6.39, 'roll': -1.31, 'pres': 160}
{'lipoC2': 7.84, 'lipoC3S1': 4.16, 'temp': 27.56, 'lipoC3S3': 12.56, 'lipoC3S2': 8.31, 'rot1': 0, 'rot0': 0, 'rot3': 0, 'rot2': 0, 'state': 'normal', 'yaw': -0.01, 'datetime': '2018-10-05 15:45:26.439670', 'mgs': 1, 'volt': 0.7861, 'depth': -0.217, 'time': 5, 'pitch': -6.39, 'roll': -1.31, 'pres': 161}
{'lipoC2': 7.84, 'lipoC3S1': 4.16, 'temp': 27.5, 'lipoC3S3': 12.56, 'lipoC3S2': 8.31, 'rot1': 0, 'rot0': 0, 'rot3': 0, 'rot2': 0, 'state': 'normal', 'yaw': -0.01, 'datetime': '2018-10-05 15:45:26.449112', 'mgs': 1, 'volt': 0.7861, 'depth': -0.217, 'time': 5, 'pitch': -6.39, 'roll': -1.31, 'pres': 161}
{'lipoC2': 7.84, 'lipoC3S1': 4.16, 'temp': 27.5, 'lipoC3S3': 12.56, 'lipoC3S2': 8.31, 'rot1': 0, 'rot0': 0, 'rot3': 0, 'rot2': 0, 'state': 'normal', 'yaw': -0.01, 'datetime': '2018-10-05 15:45:26.468627', 'mgs': 1, 'volt': 0.7813, 'depth': -0.293, 'time': 5, 'pitch': -6.39, 'roll': -1.31, 'pres': 160}
{'lipoC2': 7.83, 'lipoC3S1': 4.15, 'temp': 27.5, 'lipoC3S3': 12.55, 'lipoC3S2': 8.3, 'rot1': 0, 'rot0': 0, 'rot3': 0, 'rot2': 0, 'state': 'normal', 'yaw': -0.01, 'datetime': '2018-10-05 15:45:26.477999', 'mgs': 1, 'volt': 0.7813, 'depth': -0.293, 'time': 6, 'pitch': -6.39, 'roll': -1.31, 'pres': 160}
{'lipoC2': 7.83, 'lipoC3S1': 4.15, 'temp': 27.56, 'lipoC3S3': 12.55, 'lipoC3S2': 8.3, 'rot1': 0, 'rot0': 0, 'rot3': 0, 'rot2': 0, 'state': 'normal', 'yaw': -0.01, 'datetime': '2018-10-05 15:45:26.497575', 'mgs': 1, 'volt': 0.7813, 'depth': -0.293, 'time': 6, 'pitch': -6.39, 'roll': -1.31, 'pres': 160}
{'lipoC2': 7.83, 'lipoC3S1': 4.15, 'temp': 27.56, 'lipoC3S3': 12.55, 'lipoC3S2': 8.3, 'rot1': 0, 'rot0': 0, 'rot3': 0, 'rot2': 0, 'state': 'normal', 'yaw': -0.01, 'datetime': '2018-10-05 15:45:26.506982', 'mgs': 1, 'volt': 0.7813, 'depth': -0.293, 'time': 6, 'pitch': -6.39, 'roll': -1.31, 'pres': 160}
{'lipoC2': 7.83, 'lipoC3S1': 4.15, 'temp': 27.5, 'lipoC3S3': 12.55, 'lipoC3S2': 8.3, 'rot1': 0, 'rot0': 0, 'rot3': 0, 'rot2': 0, 'state': 'normal', 'yaw': -0.01, 'datetime': '2018-10-05 15:45:26.526524', 'mgs': 1, 'volt': 0.7813, 'depth': -0.293, 'time': 6, 'pitch': -6.39, 'roll': -1.31, 'pres': 160}
{'lipoC2': 7.83, 'lipoC3S1': 4.15, 'temp': 27.5, 'lipoC3S3': 12.55, 'lipoC3S2': 8.3, 'rot1': 0, 'rot0': 0, 'rot3': 0, 'rot2': 0, 'state': 'normal', 'yaw': -0.01, 'datetime': '2018-10-05 15:45:26.535942', 'mgs': 1, 'volt': 0.7813, 'depth': -0.293, 'time': 6, 'pitch': -6.39, 'roll': -1.31, 'pres': 160}
{'lipoC2': 7.83, 'lipoC3S1': 4.15, 'temp': 27.44, 'lipoC3S3': 12.55, 'lipoC3S2': 8.3, 'rot1': 0, 'rot0': 0, 'rot3': 0, 'rot2': 0, 'state': 'normal', 'yaw': -0.01, 'datetime': '2018-10-05 15:45:26.555478', 'mgs': 1, 'volt': 0.7813, 'depth': -0.293, 'time': 6, 'pitch': -6.39, 'roll': -1.31, 'pres': 160}
{'lipoC2': 7.83, 'lipoC3S1': 4.15, 'temp': 27.44, 'lipoC3S3': 12.55, 'lipoC3S2': 8.3, 'rot1': 0, 'rot0': 0, 'rot3': 0, 'rot2': 0, 'state': 'normal', 'yaw': -0.01, 'datetime': '2018-10-05 15:45:26.565045', 'mgs': 1, 'volt': 0.7813, 'depth': -0.293, 'time': 6, 'pitch': -6.39, 'roll': -1.31, 'pres': 160}
{'lipoC2': 7.83, 'lipoC3S1': 4.15, 'temp': 27.44, 'lipoC3S3': 12.55, 'lipoC3S2': 8.3, 'rot1': 0, 'rot0': 0, 'rot3': 0, 'rot2': 0, 'state': 'normal', 'yaw': -0.01, 'datetime': '2018-10-05 15:45:26.584622', 'mgs': 1, 'volt': 0.7813, 'depth': -0.293, 'time': 6, 'pitch': -6.39, 'roll': -1.31, 'pres': 160}
{'lipoC2': 7.83, 'lipoC3S1': 4.15, 'temp': 27.5, 'lipoC3S3': 12.55, 'lipoC3S2': 8.3, 'rot1': 0, 'rot0': 0, 'rot3': 0, 'rot2': 0, 'state': 'normal', 'yaw': -0.01, 'datetime': '2018-10-05 15:45:26.594035', 'mgs': 1, 'volt': 0.7813, 'depth': -0.293, 'time': 6, 'pitch': -6.39, 'roll': -1.31, 'pres': 160}
{'lipoC2': 7.83, 'lipoC3S1': 4.15, 'temp': 27.5, 'lipoC3S3': 12.55, 'lipoC3S2': 8.3, 'rot1': 0, 'rot0': 0, 'rot3': 0, 'rot2': 0, 'state': 'normal', 'yaw': -0.01, 'datetime': '2018-10-05 15:45:26.613618', 'mgs': 1, 'volt': 0.7813, 'depth': -0.293, 'time': 6, 'pitch': -6.39, 'roll': -1.31, 'pres': 160}
{'lipoC2': 7.83, 'lipoC3S1': 4.15, 'temp': 27.44, 'lipoC3S3': 12.55, 'lipoC3S2': 8.3, 'rot1': 0, 'rot0': 0, 'rot3': 0, 'rot2': 0, 'state': 'normal', 'yaw': -0.01, 'datetime': '2018-10-05 15:45:26.622994', 'mgs': 1, 'volt': 0.7813, 'depth': -0.293, 'time': 7, 'pitch': -6.39, 'roll': -1.31, 'pres': 160}
{'lipoC2': 7.83, 'lipoC3S1': 4.15, 'temp': 27.44, 'lipoC3S3': 12.55, 'lipoC3S2': 8.3, 'rot1': 0, 'rot0': 0, 'rot3': 0, 'rot2': 0, 'state': 'normal', 'yaw': -0.01, 'datetime': '2018-10-05 15:45:26.642494', 'mgs': 1, 'volt': 0.7813, 'depth': -0.293, 'time': 7, 'pitch': -6.39, 'roll': -1.31, 'pres': 160}
{'lipoC2': 7.83, 'lipoC3S1': 4.15, 'temp': 27.5, 'lipoC3S3': 12.55, 'lipoC3S2': 8.3, 'rot1': 0, 'rot0': 0, 'rot3': 0, 'rot2': 0, 'state': 'normal', 'yaw': -0.01, 'datetime': '2018-10-05 15:45:26.665723', 'mgs': 1, 'volt': 0.7813, 'depth': -0.293, 'time': 7, 'pitch': -6.39, 'roll': -1.31, 'pres': 160}
{'lipoC2': 7.83, 'lipoC3S1': 4.15, 'temp': 27.5, 'lipoC3S3': 12.55, 'lipoC3S2': 8.3, 'rot1': 0, 'rot0': 0, 'rot3': 0, 'rot2': 0, 'state': 'normal', 'yaw': -0.01, 'datetime': '2018-10-05 15:45:26.769107', 'mgs': 1, 'volt': 0.7813, 'depth': -0.293, 'time': 7, 'pitch': -6.39, 'roll': -1.31, 'pres': 160}
{'lipoC2': 7.83, 'lipoC3S1': 4.15, 'temp': 27.5, 'lipoC3S3': 12.55, 'lipoC3S2': 8.3, 'rot1': 0, 'rot0': 0, 'rot3': 0, 'rot2': 0, 'state': 'normal', 'yaw': -0.01, 'datetime': '2018-10-05 15:45:26.873611', 'mgs': 1, 'volt': 0.7813, 'depth': -0.293, 'time': 7, 'pitch': -6.39, 'roll': -1.31, 'pres': 160}
{'lipoC2': 7.83, 'lipoC3S1': 4.15, 'temp': 27.56, 'lipoC3S3': 12.55, 'lipoC3S2': 8.3, 'rot1': 0, 'rot0': 0, 'rot3': 0, 'rot2': 0, 'state': 'normal', 'yaw': -0.01, 'datetime': '2018-10-05 15:45:26.976976', 'mgs': 1, 'volt': 0.7813, 'depth': -0.293, 'time': 7, 'pitch': -6.39, 'roll': -1.31, 'pres': 160}
{'lipoC2': 7.83, 'lipoC3S1': 4.15, 'temp': 27.56, 'lipoC3S3': 12.55, 'lipoC3S2': 8.3, 'rot1': 0, 'rot0': 0, 'rot3': 0, 'rot2': 0, 'state': 'normal', 'yaw': -0.01, 'datetime': '2018-10-05 15:45:27.080194', 'mgs': 1, 'volt': 0.7813, 'depth': -0.293, 'time': 7, 'pitch': -6.39, 'roll': -1.31, 'pres': 160}
{'lipoC2': 7.83, 'lipoC3S1': 4.15, 'temp': 27.56, 'lipoC3S3': 12.55, 'lipoC3S2': 8.3, 'rot1': 0, 'rot0': 0, 'rot3': 0, 'rot2': 0, 'state': 'normal', 'yaw': -0.01, 'datetime': '2018-10-05 15:45:27.183561', 'mgs': 1, 'volt': 0.7813, 'depth': -0.293, 'time': 7, 'pitch': -6.39, 'roll': -1.31, 'pres': 160}
{'lipoC2': 7.83, 'lipoC3S1': 4.15, 'temp': 27.56, 'lipoC3S3': 12.55, 'lipoC3S2': 8.3, 'rot1': 0, 'rot0': 0, 'rot3': 0, 'rot2': 0, 'state': 'normal', 'yaw': -0.01, 'datetime': '2018-10-05 15:45:27.287328', 'mgs': 1, 'volt': 0.7813, 'depth': -0.293, 'time': 7, 'pitch': -6.39, 'roll': -1.31, 'pres': 160}
{'lipoC2': 7.83, 'lipoC3S1': 4.15, 'temp': 27.56, 'lipoC3S3': 12.55, 'lipoC3S2': 8.3, 'rot1': 0, 'rot0': 0, 'rot3': 0, 'rot2': 0, 'state': 'normal', 'yaw': 0.02, 'datetime': '2018-10-05 15:45:27.390712', 'mgs': 1, 'volt': 0.7813, 'depth': -0.293, 'time': 7, 'pitch': -6.28, 'roll': -1.32, 'pres': 160}
{'lipoC2': 7.83, 'lipoC3S1': 4.15, 'temp': 27.63, 'lipoC3S3': 12.55, 'lipoC3S2': 8.3, 'rot1': 0, 'rot0': 0, 'rot3': 0, 'rot2': 0, 'state': 'normal', 'yaw': -0.35, 'datetime': '2018-10-05 15:45:27.493920', 'mgs': 1, 'volt': 0.7813, 'depth': -0.293, 'time': 8, 'pitch': -6.0, 'roll': -1.25, 'pres': 160}
{'lipoC2': 7.83, 'lipoC3S1': 4.15, 'temp': 27.63, 'lipoC3S3': 12.55, 'lipoC3S2': 8.3, 'rot1': 0, 'rot0': 0, 'rot3': 0, 'rot2': 0, 'state': 'normal', 'yaw': -2.51, 'datetime': '2018-10-05 15:45:27.598196', 'mgs': 1, 'volt': 0.7813, 'depth': -0.293, 'time': 8, 'pitch': -5.75, 'roll': -0.97, 'pres': 160}
{'lipoC2': 7.83, 'lipoC3S1': 4.15, 'temp': 27.63, 'lipoC3S3': 12.55, 'lipoC3S2': 8.3, 'rot1': 0, 'rot0': 0, 'rot3': 0, 'rot2': 0, 'state': 'normal', 'yaw': -7.3, 'datetime': '2018-10-05 15:45:27.701410', 'mgs': 1, 'volt': 0.7813, 'depth': -0.293, 'time': 8, 'pitch': -5.73, 'roll': -1.04, 'pres': 160}
{'lipoC2': 7.83, 'lipoC3S1': 4.15, 'temp': 27.63, 'lipoC3S3': 12.55, 'lipoC3S2': 8.3, 'rot1': 0, 'rot0': 0, 'rot3': 0, 'rot2': 0, 'state': 'normal', 'yaw': -12.53, 'datetime': '2018-10-05 15:45:27.804781', 'mgs': 1, 'volt': 0.7813, 'depth': -0.293, 'time': 8, 'pitch': -5.81, 'roll': -1.17, 'pres': 160}
{'lipoC2': 7.83, 'lipoC3S1': 4.15, 'temp': 27.56, 'lipoC3S3': 12.55, 'lipoC3S2': 8.3, 'rot1': 0, 'rot0': 0, 'rot3': 0, 'rot2': 0, 'state': 'normal', 'yaw': -17.87, 'datetime': '2018-10-05 15:45:27.907952', 'mgs': 1, 'volt': 0.7813, 'depth': -0.293, 'time': 8, 'pitch': -5.77, 'roll': -1.11, 'pres': 160}
{'lipoC2': 7.83, 'lipoC3S1': 4.15, 'temp': 27.56, 'lipoC3S3': 12.54, 'lipoC3S2': 8.3, 'rot1': 0, 'rot0': 0, 'rot3': 0, 'rot2': 0, 'state': 'normal', 'yaw': -23.47, 'datetime': '2018-10-05 15:45:28.011311', 'mgs': 1, 'volt': 0.7813, 'depth': -0.293, 'time': 8, 'pitch': -5.6, 'roll': -1.21, 'pres': 160}
{'lipoC2': 7.83, 'lipoC3S1': 4.15, 'temp': 27.56, 'lipoC3S3': 12.54, 'lipoC3S2': 8.29, 'rot1': 0, 'rot0': 0, 'rot3': 0, 'rot2': 0, 'state': 'normal', 'yaw': -28.36, 'datetime': '2018-10-05 15:45:28.114657', 'mgs': 1, 'volt': 0.7813, 'depth': -0.293, 'time': 8, 'pitch': -5.62, 'roll': -1.17, 'pres': 160}
{'lipoC2': 7.83, 'lipoC3S1': 4.15, 'temp': 27.56, 'lipoC3S3': 12.54, 'lipoC3S2': 8.29, 'rot1': 1, 'rot0': 1, 'rot3': 0, 'rot2': 0, 'state': 'normal', 'yaw': -32.94, 'datetime': '2018-10-05 15:45:28.219159', 'mgs': 1, 'volt': 0.791, 'depth': -0.14, 'time': 8, 'pitch': -5.76, 'roll': -1.21, 'pres': 162}
{'lipoC2': 7.82, 'lipoC3S1': 4.15, 'temp': 27.56, 'lipoC3S3': 12.54, 'lipoC3S2': 8.29, 'rot1': 2, 'rot0': 2, 'rot3': 0, 'rot2': 0, 'state': 'normal', 'yaw': -37.75, 'datetime': '2018-10-05 15:45:28.322493', 'mgs': 1, 'volt': 0.7813, 'depth': -0.293, 'time': 8, 'pitch': -5.79, 'roll': -1.22, 'pres': 160}
{'lipoC2': 7.83, 'lipoC3S1': 4.15, 'temp': 27.56, 'lipoC3S3': 12.54, 'lipoC3S2': 8.28, 'rot1': 3, 'rot0': 3, 'rot3': 0, 'rot2': 0, 'state': 'normal', 'yaw': -41.79, 'datetime': '2018-10-05 15:45:28.425802', 'mgs': 1, 'volt': 0.7813, 'depth': -0.293, 'time': 9, 'pitch': -5.73, 'roll': -1.24, 'pres': 160}
{'lipoC2': 7.83, 'lipoC3S1': 4.15, 'temp': 27.56, 'lipoC3S3': 12.52, 'lipoC3S2': 8.29, 'rot1': 4, 'rot0': 4, 'rot3': 0, 'rot2': 0, 'state': 'normal', 'yaw': -45.22, 'datetime': '2018-10-05 15:45:28.530339', 'mgs': 1, 'volt': 0.7959, 'depth': -0.064, 'time': 9, 'pitch': -5.75, 'roll': -1.32, 'pres': 163}
{'lipoC2': 7.82, 'lipoC3S1': 4.15, 'temp': 27.56, 'lipoC3S3': 12.52, 'lipoC3S2': 8.28, 'rot1': 5, 'rot0': 5, 'rot3': 0, 'rot2': 0, 'state': 'normal', 'yaw': -47.72, 'datetime': '2018-10-05 15:45:28.633642', 'mgs': 1, 'volt': 0.7813, 'depth': -0.293, 'time': 9, 'pitch': -5.82, 'roll': -1.34, 'pres': 160}
{'lipoC2': 7.83, 'lipoC3S1': 4.15, 'temp': 27.56, 'lipoC3S3': 12.56, 'lipoC3S2': 8.28, 'rot1': 7, 'rot0': 7, 'rot3': 0, 'rot2': 0, 'state': 'normal', 'yaw': -48.42, 'datetime': '2018-10-05 15:45:28.736951', 'mgs': 1, 'volt': 0.7813, 'depth': -0.293, 'time': 9, 'pitch': -5.84, 'roll': -1.38, 'pres': 160}
{'lipoC2': 7.83, 'lipoC3S1': 4.14, 'temp': 27.56, 'lipoC3S3': 12.47, 'lipoC3S2': 8.27, 'rot1': 8, 'rot0': 8, 'rot3': 0, 'rot2': 0, 'state': 'normal', 'yaw': -47.42, 'datetime': '2018-10-05 15:45:28.839539', 'mgs': 1, 'volt': 0.7813, 'depth': -0.293, 'time': 9, 'pitch': -5.86, 'roll': -1.41, 'pres': 160}
{'lipoC2': 7.83, 'lipoC3S1': 4.15, 'temp': 27.56, 'lipoC3S3': 12.5, 'lipoC3S2': 8.28, 'rot1': 10, 'rot0': 10, 'rot3': 0, 'rot2': 0, 'state': 'normal', 'yaw': -44.43, 'datetime': '2018-10-05 15:45:28.943200', 'mgs': 1, 'volt': 0.7813, 'depth': -0.293, 'time': 9, 'pitch': -5.82, 'roll': -1.39, 'pres': 160}
{'lipoC2': 7.83, 'lipoC3S1': 4.15, 'temp': 27.56, 'lipoC3S3': 12.52, 'lipoC3S2': 8.28, 'rot1': 11, 'rot0': 11, 'rot3': 0, 'rot2': 0, 'state': 'normal', 'yaw': -40.31, 'datetime': '2018-10-05 15:45:29.046771', 'mgs': 1, 'volt': 0.7813, 'depth': -0.293, 'time': 9, 'pitch': -5.76, 'roll': -1.35, 'pres': 160}
{'lipoC2': 7.83, 'lipoC3S1': 4.15, 'temp': 27.5, 'lipoC3S3': 12.54, 'lipoC3S2': 8.29, 'rot1': 13, 'rot0': 13, 'rot3': 0, 'rot2': 0, 'state': 'normal', 'yaw': -35.36, 'datetime': '2018-10-05 15:45:29.150302', 'mgs': 1, 'volt': 0.8057, 'depth': 0.089, 'time': 9, 'pitch': -5.67, 'roll': -1.27, 'pres': 165}
{'lipoC2': 7.83, 'lipoC3S1': 4.15, 'temp': 27.5, 'lipoC3S3': 12.54, 'lipoC3S2': 8.3, 'rot1': 14, 'rot0': 14, 'rot3': 0, 'rot2': 0, 'state': 'normal', 'yaw': -29.73, 'datetime': '2018-10-05 15:45:29.254072', 'mgs': 1, 'volt': 0.7813, 'depth': -0.293, 'time': 9, 'pitch': -5.64, 'roll': -1.19, 'pres': 160}
{'lipoC2': 7.83, 'lipoC3S1': 4.15, 'temp': 27.56, 'lipoC3S3': 12.54, 'lipoC3S2': 8.29, 'rot1': 15, 'rot0': 15, 'rot3': 0, 'rot2': 0, 'state': 'normal', 'yaw': -24.86, 'datetime': '2018-10-05 15:45:29.357700', 'mgs': 1, 'volt': 0.7813, 'depth': -0.293, 'time': 9, 'pitch': -5.68, 'roll': -1.16, 'pres': 160}
{'lipoC2': 7.82, 'lipoC3S1': 4.15, 'temp': 27.56, 'lipoC3S3': 12.54, 'lipoC3S2': 8.29, 'rot1': 16, 'rot0': 16, 'rot3': 0, 'rot2': 0, 'state': 'normal', 'yaw': -20.3, 'datetime': '2018-10-05 15:45:29.461436', 'mgs': 1, 'volt': 0.7813, 'depth': -0.293, 'time': 10, 'pitch': -5.77, 'roll': -1.14, 'pres': 160}
{'lipoC2': 7.83, 'lipoC3S1': 4.15, 'temp': 27.56, 'lipoC3S3': 12.55, 'lipoC3S2': 8.27, 'rot1': 16, 'rot0': 17, 'rot3': 0, 'rot2': 0, 'state': 'normal', 'yaw': -15.47, 'datetime': '2018-10-05 15:45:29.566122', 'mgs': 1, 'volt': 0.7813, 'depth': -0.293, 'time': 10, 'pitch': -5.84, 'roll': -1.11, 'pres': 160}
{'lipoC2': 7.83, 'lipoC3S1': 4.15, 'temp': 27.5, 'lipoC3S3': 12.54, 'lipoC3S2': 8.3, 'rot1': 17, 'rot0': 17, 'rot3': 0, 'rot2': 0, 'state': 'normal', 'yaw': -11.26, 'datetime': '2018-10-05 15:45:29.674828', 'mgs': 1, 'volt': 0.7813, 'depth': -0.293, 'time': 10, 'pitch': -5.77, 'roll': -1.09, 'pres': 160}
{'lipoC2': 7.83, 'lipoC3S1': 4.15, 'temp': 27.5, 'lipoC3S3': 12.55, 'lipoC3S2': 8.3, 'rot1': 17, 'rot0': 17, 'rot3': 0, 'rot2': 0, 'state': 'normal', 'yaw': -7.21, 'datetime': '2018-10-05 15:45:29.781268', 'mgs': 1, 'volt': 0.7813, 'depth': -0.293, 'time': 10, 'pitch': -5.71, 'roll': -1.06, 'pres': 160}
{'lipoC2': 7.83, 'lipoC3S1': 4.15, 'temp': 27.56, 'lipoC3S3': 12.55, 'lipoC3S2': 8.3, 'rot1': 17, 'rot0': 18, 'rot3': 0, 'rot2': 0, 'state': 'normal', 'yaw': -2.95, 'datetime': '2018-10-05 15:45:29.885151', 'mgs': 1, 'volt': 0.7813, 'depth': -0.293, 'time': 10, 'pitch': -5.77, 'roll': -1.03, 'pres': 160}
{'lipoC2': 7.84, 'lipoC3S1': 4.16, 'temp': 27.56, 'lipoC3S3': 12.56, 'lipoC3S2': 8.31, 'rot1': 17, 'rot0': 18, 'rot3': 0, 'rot2': 0, 'state': 'normal', 'yaw': 0.73, 'datetime': '2018-10-05 15:45:29.988890', 'mgs': 1, 'volt': 0.7813, 'depth': -0.293, 'time': 10, 'pitch': -5.79, 'roll': -1.01, 'pres': 160}
{'lipoC2': 7.83, 'lipoC3S1': 4.15, 'temp': 27.5, 'lipoC3S3': 12.55, 'lipoC3S2': 8.3, 'rot1': 17, 'rot0': 18, 'rot3': 0, 'rot2': 0, 'state': 'normal', 'yaw': 4.22, 'datetime': '2018-10-05 15:45:30.094500', 'mgs': 1, 'volt': 0.7813, 'depth': -0.293, 'time': 10, 'pitch': -5.73, 'roll': -0.98, 'pres': 160}
{'lipoC2': 7.83, 'lipoC3S1': 4.15, 'temp': 27.5, 'lipoC3S3': 12.55, 'lipoC3S2': 8.3, 'rot1': 17, 'rot0': 18, 'rot3': 0, 'rot2': 0, 'state': 'normal', 'yaw': 7.86, 'datetime': '2018-10-05 15:45:30.198385', 'mgs': 1, 'volt': 0.7813, 'depth': -0.293, 'time': 10, 'pitch': -5.73, 'roll': -0.97, 'pres': 160}
{'lipoC2': 7.83, 'lipoC3S1': 4.15, 'temp': 27.5, 'lipoC3S3': 12.55, 'lipoC3S2': 8.3, 'rot1': 17, 'rot0': 18, 'rot3': 0, 'rot2': 0, 'state': 'normal', 'yaw': 10.99, 'datetime': '2018-10-05 15:45:30.301685', 'mgs': 1, 'volt': 0.7813, 'depth': -0.293, 'time': 10, 'pitch': -5.78, 'roll': -0.95, 'pres': 160}
{'lipoC2': 7.83, 'lipoC3S1': 4.15, 'temp': 27.56, 'lipoC3S3': 12.55, 'lipoC3S2': 8.3, 'rot1': 17, 'rot0': 18, 'rot3': 0, 'rot2': 0, 'state': 'normal', 'yaw': 14.21, 'datetime': '2018-10-05 15:45:30.401574', 'mgs': 1, 'volt': 0.7813, 'depth': -0.293, 'time': 10, 'pitch': -5.76, 'roll': -0.93, 'pres': 160}
{'lipoC2': 7.83, 'lipoC3S1': 4.15, 'temp': 27.56, 'lipoC3S3': 12.55, 'lipoC3S2': 8.29, 'rot1': 17, 'rot0': 18, 'rot3': 0, 'rot2': 0, 'state': 'normal', 'yaw': 16.95, 'datetime': '2018-10-05 15:45:30.510014', 'mgs': 1, 'volt': 0.7813, 'depth': -0.293, 'time': 11, 'pitch': -5.71, 'roll': -0.92, 'pres': 160}
{'lipoC2': 7.83, 'lipoC3S1': 4.15, 'temp': 27.56, 'lipoC3S3': 12.54, 'lipoC3S2': 8.29, 'rot1': 18, 'rot0': 18, 'rot3': 0, 'rot2': 0, 'state': 'normal', 'yaw': 19.5, 'datetime': '2018-10-05 15:45:30.613360', 'mgs': 1, 'volt': 0.7813, 'depth': -0.293, 'time': 11, 'pitch': -5.72, 'roll': -0.9, 'pres': 160}
{'lipoC2': 7.84, 'lipoC3S1': 4.15, 'temp': 27.56, 'lipoC3S3': 12.54, 'lipoC3S2': 8.29, 'rot1': 18, 'rot0': 19, 'rot3': 0, 'rot2': 0, 'state': 'normal', 'yaw': 21.84, 'datetime': '2018-10-05 15:45:30.717079', 'mgs': 1, 'volt': 0.7813, 'depth': -0.293, 'time': 11, 'pitch': -5.76, 'roll': -0.91, 'pres': 160}
{'lipoC2': 7.83, 'lipoC3S1': 4.12, 'temp': 27.56, 'lipoC3S3': 12.54, 'lipoC3S2': 8.29, 'rot1': 19, 'rot0': 19, 'rot3': 0, 'rot2': 0, 'state': 'normal', 'yaw': 24.13, 'datetime': '2018-10-05 15:45:30.820064', 'mgs': 1, 'volt': 0.7813, 'depth': -0.293, 'time': 11, 'pitch': -5.72, 'roll': -0.9, 'pres': 160}
{'lipoC2': 7.83, 'lipoC3S1': 4.15, 'temp': 27.56, 'lipoC3S3': 12.52, 'lipoC3S2': 8.29, 'rot1': 19, 'rot0': 20, 'rot3': 0, 'rot2': 0, 'state': 'normal', 'yaw': 25.91, 'datetime': '2018-10-05 15:45:30.923567', 'mgs': 1, 'volt': 0.7813, 'depth': -0.293, 'time': 11, 'pitch': -5.7, 'roll': -0.9, 'pres': 160}
{'lipoC2': 7.83, 'lipoC3S1': 4.15, 'temp': 27.56, 'lipoC3S3': 12.54, 'lipoC3S2': 8.29, 'rot1': 20, 'rot0': 21, 'rot3': 0, 'rot2': 0, 'state': 'normal', 'yaw': 27.83, 'datetime': '2018-10-05 15:45:31.027283', 'mgs': 1, 'volt': 0.7764, 'depth': -0.369, 'time': 11, 'pitch': -5.68, 'roll': -0.89, 'pres': 159}
{'lipoC2': 7.83, 'lipoC3S1': 4.09, 'temp': 27.56, 'lipoC3S3': 12.54, 'lipoC3S2': 8.29, 'rot1': 21, 'rot0': 22, 'rot3': 0, 'rot2': 0, 'state': 'normal', 'yaw': 29.74, 'datetime': '2018-10-05 15:45:31.131003', 'mgs': 1, 'volt': 0.7813, 'depth': -0.293, 'time': 11, 'pitch': -5.67, 'roll': -0.86, 'pres': 160}
{'lipoC2': 7.83, 'lipoC3S1': 4.15, 'temp': 27.56, 'lipoC3S3': 12.54, 'lipoC3S2': 8.29, 'rot1': 22, 'rot0': 23, 'rot3': 0, 'rot2': 0, 'state': 'normal', 'yaw': 31.87, 'datetime': '2018-10-05 15:45:31.236169', 'mgs': 1, 'volt': 0.8057, 'depth': 0.089, 'time': 11, 'pitch': -5.73, 'roll': -0.9, 'pres': 165}
{'lipoC2': 7.83, 'lipoC3S1': 4.1, 'temp': 27.56, 'lipoC3S3': 12.54, 'lipoC3S2': 8.29, 'rot1': 23, 'rot0': 24, 'rot3': 0, 'rot2': 0, 'state': 'normal', 'yaw': 34.34, 'datetime': '2018-10-05 15:45:31.339920', 'mgs': 1, 'volt': 0.7813, 'depth': -0.293, 'time': 11, 'pitch': -5.81, 'roll': -0.84, 'pres': 160}
{'lipoC2': 7.83, 'lipoC3S1': 4.15, 'temp': 27.56, 'lipoC3S3': 12.47, 'lipoC3S2': 8.28, 'rot1': 24, 'rot0': 25, 'rot3': 0, 'rot2': 0, 'state': 'normal', 'yaw': 36.38, 'datetime': '2018-10-05 15:45:31.443489', 'mgs': 1, 'volt': 0.7813, 'depth': -0.293, 'time': 12, 'pitch': -5.86, 'roll': -0.8, 'pres': 160}
{'lipoC2': 7.83, 'lipoC3S1': 4.15, 'temp': 27.56, 'lipoC3S3': 12.52, 'lipoC3S2': 8.29, 'rot1': 25, 'rot0': 26, 'rot3': 0, 'rot2': 0, 'state': 'normal', 'yaw': 37.84, 'datetime': '2018-10-05 15:45:31.548964', 'mgs': 1, 'volt': 0.7861, 'depth': -0.217, 'time': 12, 'pitch': -5.95, 'roll': -0.79, 'pres': 161}
{'lipoC2': 7.83, 'lipoC3S1': 4.09, 'temp': 27.56, 'lipoC3S3': 12.54, 'lipoC3S2': 8.29, 'rot1': 26, 'rot0': 27, 'rot3': 0, 'rot2': 0, 'state': 'normal', 'yaw': 38.52, 'datetime': '2018-10-05 15:45:31.649418', 'mgs': 1, 'volt': 0.7813, 'depth': -0.293, 'time': 12, 'pitch': -5.97, 'roll': -0.81, 'pres': 160}
{'lipoC2': 7.83, 'lipoC3S1': 4.15, 'temp': 27.56, 'lipoC3S3': 12.45, 'lipoC3S2': 8.28, 'rot1': 28, 'rot0': 28, 'rot3': 0, 'rot2': 0, 'state': 'normal', 'yaw': 38.48, 'datetime': '2018-10-05 15:45:31.755747', 'mgs': 1, 'volt': 0.7813, 'depth': -0.293, 'time': 12, 'pitch': -5.88, 'roll': -0.82, 'pres': 160}
{'lipoC2': 7.83, 'lipoC3S1': 4.15, 'temp': 27.56, 'lipoC3S3': 12.54, 'lipoC3S2': 8.28, 'rot1': 29, 'rot0': 30, 'rot3': 0, 'rot2': 0, 'state': 'normal', 'yaw': 38.11, 'datetime': '2018-10-05 15:45:31.859470', 'mgs': 1, 'volt': 0.8057, 'depth': 0.089, 'time': 12, 'pitch': -5.79, 'roll': -0.86, 'pres': 165}
{'lipoC2': 7.83, 'lipoC3S1': 4.11, 'temp': 27.56, 'lipoC3S3': 12.54, 'lipoC3S2': 8.29, 'rot1': 30, 'rot0': 31, 'rot3': 0, 'rot2': 0, 'state': 'normal', 'yaw': 37.58, 'datetime': '2018-10-05 15:45:31.962991', 'mgs': 1, 'volt': 0.7813, 'depth': -0.293, 'time': 12, 'pitch': -5.86, 'roll': -0.83, 'pres': 160}
{'lipoC2': 7.83, 'lipoC3S1': 4.15, 'temp': 27.56, 'lipoC3S3': 12.5, 'lipoC3S2': 8.28, 'rot1': 32, 'rot0': 32, 'rot3': 0, 'rot2': 0, 'state': 'normal', 'yaw': 36.96, 'datetime': '2018-10-05 15:45:32.066851', 'mgs': 1, 'volt': 0.7813, 'depth': -0.293, 'time': 12, 'pitch': -5.92, 'roll': -0.89, 'pres': 160}
{'lipoC2': 7.83, 'lipoC3S1': 4.15, 'temp': 27.56, 'lipoC3S3': 12.52, 'lipoC3S2': 8.28, 'rot1': 33, 'rot0': 34, 'rot3': 0, 'rot2': 0, 'state': 'normal', 'yaw': 36.37, 'datetime': '2018-10-05 15:45:32.165069', 'mgs': 1, 'volt': 0.7959, 'depth': -0.064, 'time': 12, 'pitch': -5.86, 'roll': -0.91, 'pres': 163}
{'lipoC2': 7.83, 'lipoC3S1': 4.13, 'temp': 27.5, 'lipoC3S3': 12.54, 'lipoC3S2': 8.29, 'rot1': 34, 'rot0': 35, 'rot3': 0, 'rot2': 0, 'state': 'normal', 'yaw': 35.89, 'datetime': '2018-10-05 15:45:32.274225', 'mgs': 1, 'volt': 0.7813, 'depth': -0.293, 'time': 12, 'pitch': -5.82, 'roll': -0.89, 'pres': 160}
{'lipoC2': 7.83, 'lipoC3S1': 4.15, 'temp': 27.5, 'lipoC3S3': 12.45, 'lipoC3S2': 8.28, 'rot1': 35, 'rot0': 36, 'rot3': 0, 'rot2': 0, 'state': 'normal', 'yaw': 35.58, 'datetime': '2018-10-05 15:45:32.378129', 'mgs': 1, 'volt': 0.7813, 'depth': -0.293, 'time': 12, 'pitch': -5.89, 'roll': -0.88, 'pres': 160}
{'lipoC2': 7.83, 'lipoC3S1': 4.15, 'temp': 27.5, 'lipoC3S3': 12.54, 'lipoC3S2': 8.29, 'rot1': 36, 'rot0': 38, 'rot3': 0, 'rot2': 0, 'state': 'normal', 'yaw': 34.88, 'datetime': '2018-10-05 15:45:32.481607', 'mgs': 1, 'volt': 0.8203, 'depth': 0.317, 'time': 13, 'pitch': -6.01, 'roll': -0.84, 'pres': 168}
{'lipoC2': 7.83, 'lipoC3S1': 4.1, 'temp': 27.56, 'lipoC3S3': 12.54, 'lipoC3S2': 8.29, 'rot1': 38, 'rot0': 39, 'rot3': 0, 'rot2': 0, 'state': 'normal', 'yaw': 33.42, 'datetime': '2018-10-05 15:45:32.587175', 'mgs': 1, 'volt': 0.7813, 'depth': -0.293, 'time': 13, 'pitch': -6.04, 'roll': -0.87, 'pres': 160}
{'lipoC2': 7.83, 'lipoC3S1': 4.15, 'temp': 27.56, 'lipoC3S3': 12.52, 'lipoC3S2': 8.28, 'rot1': 39, 'rot0': 40, 'rot3': 0, 'rot2': 0, 'state': 'normal', 'yaw': 31.07, 'datetime': '2018-10-05 15:45:32.691364', 'mgs': 1, 'volt': 0.7959, 'depth': -0.064, 'time': 13, 'pitch': -5.98, 'roll': -0.93, 'pres': 163}
{'lipoC2': 7.83, 'lipoC3S1': 4.16, 'temp': 27.56, 'lipoC3S3': 12.54, 'lipoC3S2': 8.29, 'rot1': 40, 'rot0': 41, 'rot3': 0, 'rot2': 0, 'state': 'normal', 'yaw': 27.64, 'datetime': '2018-10-05 15:45:32.794547', 'mgs': 1, 'volt': 0.7813, 'depth': -0.293, 'time': 13, 'pitch': -5.87, 'roll': -0.94, 'pres': 160}
{'lipoC2': 7.84, 'lipoC3S1': 4.15, 'temp': 27.56, 'lipoC3S3': 12.52, 'lipoC3S2': 8.29, 'rot1': 41, 'rot0': 42, 'rot3': 0, 'rot2': 0, 'state': 'normal', 'yaw': 24.17, 'datetime': '2018-10-05 15:45:32.899217', 'mgs': 1, 'volt': 0.7813, 'depth': -0.293, 'time': 13, 'pitch': -5.78, 'roll': -0.96, 'pres': 160}
{'lipoC2': 7.83, 'lipoC3S1': 4.15, 'temp': 27.56, 'lipoC3S3': 12.54, 'lipoC3S2': 8.29, 'rot1': 42, 'rot0': 43, 'rot3': 0, 'rot2': 0, 'state': 'normal', 'yaw': 20.38, 'datetime': '2018-10-05 15:45:33.000652', 'mgs': 1, 'volt': 0.7813, 'depth': -0.293, 'time': 13, 'pitch': -5.71, 'roll': -1.02, 'pres': 160}
{'lipoC2': 7.83, 'lipoC3S1': 4.15, 'temp': 27.56, 'lipoC3S3': 12.54, 'lipoC3S2': 8.29, 'rot1': 43, 'rot0': 44, 'rot3': 0, 'rot2': 0, 'state': 'normal', 'yaw': 17.05, 'datetime': '2018-10-05 15:45:33.110113', 'mgs': 1, 'volt': 0.7813, 'depth': -0.293, 'time': 13, 'pitch': -5.76, 'roll': -1.04, 'pres': 160}
{'lipoC2': 7.83, 'lipoC3S1': 4.11, 'temp': 27.56, 'lipoC3S3': 12.54, 'lipoC3S2': 8.29, 'rot1': 43, 'rot0': 44, 'rot3': 0, 'rot2': 0, 'state': 'normal', 'yaw': 14.0, 'datetime': '2018-10-05 15:45:33.204796', 'mgs': 1, 'volt': 0.7813, 'depth': -0.293, 'time': 13, 'pitch': -5.71, 'roll': -1.02, 'pres': 160}
{'lipoC2': 7.83, 'lipoC3S1': 4.15, 'temp': 27.56, 'lipoC3S3': 12.51, 'lipoC3S2': 8.29, 'rot1': 44, 'rot0': 45, 'rot3': 0, 'rot2': 0, 'state': 'normal', 'yaw': 10.91, 'datetime': '2018-10-05 15:45:33.314115', 'mgs': 1, 'volt': 0.7813, 'depth': -0.293, 'time': 13, 'pitch': -5.73, 'roll': -1.16, 'pres': 160}
{'lipoC2': 7.83, 'lipoC3S1': 4.15, 'temp': 27.56, 'lipoC3S3': 12.55, 'lipoC3S2': 8.3, 'rot1': 44, 'rot0': 45, 'rot3': 0, 'rot2': 0, 'state': 'normal', 'yaw': 8.33, 'datetime': '2018-10-05 15:45:33.418290', 'mgs': 1, 'volt': 0.791, 'depth': -0.14, 'time': 13, 'pitch': -5.77, 'roll': -1.11, 'pres': 162}
{'lipoC2': 7.83, 'lipoC3S1': 4.15, 'temp': 27.56, 'lipoC3S3': 12.54, 'lipoC3S2': 8.3, 'rot1': 44, 'rot0': 45, 'rot3': 0, 'rot2': 0, 'state': 'normal', 'yaw': 6.1, 'datetime': '2018-10-05 15:45:33.541298', 'mgs': 1, 'volt': 0.7813, 'depth': -0.293, 'time': 14, 'pitch': -5.7, 'roll': -1.12, 'pres': 160}
{'lipoC2': 7.83, 'lipoC3S1': 4.15, 'temp': 27.56, 'lipoC3S3': 12.55, 'lipoC3S2': 8.3, 'rot1': 45, 'rot0': 46, 'rot3': 0, 'rot2': 0, 'state': 'normal', 'yaw': 3.85, 'datetime': '2018-10-05 15:45:33.618353', 'mgs': 1, 'volt': 0.7813, 'depth': -0.293, 'time': 14, 'pitch': -5.77, 'roll': -1.24, 'pres': 160}
{'lipoC2': 7.83, 'lipoC3S1': 4.15, 'temp': 27.5, 'lipoC3S3': 12.55, 'lipoC3S2': 8.3, 'rot1': 45, 'rot0': 46, 'rot3': 0, 'rot2': 0, 'state': 'normal', 'yaw': 1.95, 'datetime': '2018-10-05 15:45:33.722058', 'mgs': 1, 'volt': 0.7813, 'depth': -0.293, 'time': 14, 'pitch': -5.81, 'roll': -1.14, 'pres': 160}
{'lipoC2': 7.83, 'lipoC3S1': 4.15, 'temp': 27.5, 'lipoC3S3': 12.55, 'lipoC3S2': 8.3, 'rot1': 45, 'rot0': 46, 'rot3': 0, 'rot2': 0, 'state': 'normal', 'yaw': 0.17, 'datetime': '2018-10-05 15:45:33.825733', 'mgs': 1, 'volt': 0.7813, 'depth': -0.293, 'time': 14, 'pitch': -5.75, 'roll': -1.24, 'pres': 160}
{'lipoC2': 7.83, 'lipoC3S1': 4.15, 'temp': 27.5, 'lipoC3S3': 12.55, 'lipoC3S2': 8.3, 'rot1': 45, 'rot0': 46, 'rot3': 0, 'rot2': 0, 'state': 'normal', 'yaw': -1.61, 'datetime': '2018-10-05 15:45:33.929501', 'mgs': 1, 'volt': 0.7813, 'depth': -0.293, 'time': 14, 'pitch': -5.72, 'roll': -1.24, 'pres': 160}
{'lipoC2': 7.83, 'lipoC3S1': 4.15, 'temp': 27.63, 'lipoC3S3': 12.55, 'lipoC3S2': 8.3, 'rot1': 45, 'rot0': 46, 'rot3': 0, 'rot2': 0, 'state': 'normal', 'yaw': -3.05, 'datetime': '2018-10-05 15:45:34.033177', 'mgs': 1, 'volt': 0.7813, 'depth': -0.293, 'time': 14, 'pitch': -5.75, 'roll': -1.24, 'pres': 160}
{'lipoC2': 7.83, 'lipoC3S1': 4.15, 'temp': 27.63, 'lipoC3S3': 12.55, 'lipoC3S2': 8.3, 'rot1': 45, 'rot0': 46, 'rot3': 0, 'rot2': 0, 'state': 'normal', 'yaw': -4.35, 'datetime': '2018-10-05 15:45:34.138262', 'mgs': 1, 'volt': 0.7813, 'depth': -0.293, 'time': 14, 'pitch': -5.79, 'roll': -1.3, 'pres': 160}
{'lipoC2': 7.83, 'lipoC3S1': 4.15, 'temp': 27.56, 'lipoC3S3': 12.55, 'lipoC3S2': 8.3, 'rot1': 45, 'rot0': 46, 'rot3': 0, 'rot2': 0, 'state': 'normal', 'yaw': -5.64, 'datetime': '2018-10-05 15:45:34.241954', 'mgs': 1, 'volt': 0.7813, 'depth': -0.293, 'time': 14, 'pitch': -5.73, 'roll': -1.26, 'pres': 160}
{'lipoC2': 7.83, 'lipoC3S1': 4.15, 'temp': 27.56, 'lipoC3S3': 12.55, 'lipoC3S2': 8.3, 'rot1': 45, 'rot0': 46, 'rot3': 0, 'rot2': 0, 'state': 'normal', 'yaw': -6.88, 'datetime': '2018-10-05 15:45:34.353082', 'mgs': 1, 'volt': 0.7813, 'depth': -0.293, 'time': 14, 'pitch': -5.66, 'roll': -1.27, 'pres': 160}
{'lipoC2': 7.83, 'lipoC3S1': 4.15, 'temp': 27.63, 'lipoC3S3': 12.55, 'lipoC3S2': 8.3, 'rot1': 45, 'rot0': 46, 'rot3': 0, 'rot2': 0, 'state': 'normal', 'yaw': -8.42, 'datetime': '2018-10-05 15:45:34.457244', 'mgs': 1, 'volt': 0.7813, 'depth': -0.293, 'time': 15, 'pitch': -5.4, 'roll': -1.28, 'pres': 160}
{'lipoC2': 7.83, 'lipoC3S1': 4.15, 'temp': 27.63, 'lipoC3S3': 12.54, 'lipoC3S2': 8.3, 'rot1': 45, 'rot0': 46, 'rot3': 0, 'rot2': 0, 'state': 'normal', 'yaw': -10.42, 'datetime': '2018-10-05 15:45:34.561127', 'mgs': 1, 'volt': 0.7813, 'depth': -0.293, 'time': 15, 'pitch': -5.23, 'roll': -1.28, 'pres': 160}
{'lipoC2': 7.83, 'lipoC3S1': 4.15, 'temp': 27.63, 'lipoC3S3': 12.55, 'lipoC3S2': 8.3, 'rot1': 45, 'rot0': 46, 'rot3': 0, 'rot2': 0, 'state': 'normal', 'yaw': -12.59, 'datetime': '2018-10-05 15:45:34.664986', 'mgs': 1, 'volt': 0.7813, 'depth': -0.293, 'time': 15, 'pitch': -5.39, 'roll': -1.29, 'pres': 160}
{'lipoC2': 7.83, 'lipoC3S1': 4.15, 'temp': 27.56, 'lipoC3S3': 12.54, 'lipoC3S2': 8.29, 'rot1': 45, 'rot0': 46, 'rot3': 0, 'rot2': 0, 'state': 'normal', 'yaw': -14.86, 'datetime': '2018-10-05 15:45:34.768672', 'mgs': 1, 'volt': 0.7813, 'depth': -0.293, 'time': 15, 'pitch': -5.44, 'roll': -1.32, 'pres': 160}
{'lipoC2': 7.83, 'lipoC3S1': 4.15, 'temp': 27.56, 'lipoC3S3': 12.54, 'lipoC3S2': 8.29, 'rot1': 45, 'rot0': 46, 'rot3': 0, 'rot2': 0, 'state': 'normal', 'yaw': -16.64, 'datetime': '2018-10-05 15:45:34.872302', 'mgs': 1, 'volt': 0.7813, 'depth': -0.293, 'time': 15, 'pitch': -5.24, 'roll': -1.31, 'pres': 160}
{'lipoC2': 7.83, 'lipoC3S1': 4.15, 'temp': 27.56, 'lipoC3S3': 12.54, 'lipoC3S2': 8.29, 'rot1': 45, 'rot0': 46, 'rot3': 0, 'rot2': 0, 'state': 'normal', 'yaw': -17.66, 'datetime': '2018-10-05 15:45:34.970201', 'mgs': 1, 'volt': 0.7813, 'depth': -0.293, 'time': 15, 'pitch': -5.02, 'roll': -1.4, 'pres': 160}
{'lipoC2': 7.83, 'lipoC3S1': 4.15, 'temp': 27.56, 'lipoC3S3': 12.54, 'lipoC3S2': 8.29, 'rot1': 46, 'rot0': 46, 'rot3': 0, 'rot2': 0, 'state': 'normal', 'yaw': -16.43, 'datetime': '2018-10-05 15:45:35.079825', 'mgs': 1, 'volt': 0.7813, 'depth': -0.293, 'time': 15, 'pitch': -4.66, 'roll': -1.42, 'pres': 160}
{'lipoC2': 7.82, 'lipoC3S1': 4.15, 'temp': 27.56, 'lipoC3S3': 12.54, 'lipoC3S2': 8.29, 'rot1': 46, 'rot0': 47, 'rot3': 0, 'rot2': 0, 'state': 'normal', 'yaw': -13.27, 'datetime': '2018-10-05 15:45:35.183627', 'mgs': 1, 'volt': 0.7813, 'depth': -0.293, 'time': 15, 'pitch': -4.8, 'roll': -1.35, 'pres': 160}
{'lipoC2': 7.83, 'lipoC3S1': 4.15, 'temp': 27.56, 'lipoC3S3': 12.55, 'lipoC3S2': 8.29, 'rot1': 46, 'rot0': 47, 'rot3': 0, 'rot2': 0, 'state': 'normal', 'yaw': -9.07, 'datetime': '2018-10-05 15:45:35.287202', 'mgs': 1, 'volt': 0.7813, 'depth': -0.293, 'time': 15, 'pitch': -5.25, 'roll': -1.28, 'pres': 160}
{'lipoC2': 7.83, 'lipoC3S1': 4.15, 'temp': 27.56, 'lipoC3S3': 12.55, 'lipoC3S2': 8.3, 'rot1': 47, 'rot0': 47, 'rot3': 0, 'rot2': 0, 'state': 'normal', 'yaw': -4.75, 'datetime': '2018-10-05 15:45:35.391408', 'mgs': 1, 'volt': 0.7813, 'depth': -0.293, 'time': 15, 'pitch': -5.27, 'roll': -1.22, 'pres': 160}
{'lipoC2': 7.83, 'lipoC3S1': 4.15, 'temp': 27.56, 'lipoC3S3': 12.55, 'lipoC3S2': 8.3, 'rot1': 47, 'rot0': 47, 'rot3': 0, 'rot2': 0, 'state': 'normal', 'yaw': -1.82, 'datetime': '2018-10-05 15:45:35.495022', 'mgs': 1, 'volt': 0.7813, 'depth': -0.293, 'time': 16, 'pitch': -5.06, 'roll': -1.1, 'pres': 160}
{'lipoC2': 7.83, 'lipoC3S1': 4.15, 'temp': 27.56, 'lipoC3S3': 12.55, 'lipoC3S2': 8.3, 'rot1': 47, 'rot0': 47, 'rot3': 0, 'rot2': 0, 'state': 'normal', 'yaw': -0.41, 'datetime': '2018-10-05 15:45:35.599762', 'mgs': 1, 'volt': 0.7813, 'depth': -0.293, 'time': 16, 'pitch': -5.08, 'roll': -1.15, 'pres': 160}
{'lipoC2': 7.83, 'lipoC3S1': 4.15, 'temp': 27.56, 'lipoC3S3': 12.55, 'lipoC3S2': 8.3, 'rot1': 47, 'rot0': 47, 'rot3': 0, 'rot2': 0, 'state': 'normal', 'yaw': -0.35, 'datetime': '2018-10-05 15:45:35.703545', 'mgs': 1, 'volt': 0.7813, 'depth': -0.293, 'time': 16, 'pitch': -4.98, 'roll': -1.08, 'pres': 160}
{'lipoC2': 7.83, 'lipoC3S1': 4.15, 'temp': 27.56, 'lipoC3S3': 12.55, 'lipoC3S2': 8.3, 'rot1': 47, 'rot0': 47, 'rot3': 0, 'rot2': 0, 'state': 'normal', 'yaw': -0.51, 'datetime': '2018-10-05 15:45:35.808425', 'mgs': 1, 'volt': 0.7813, 'depth': -0.293, 'time': 16, 'pitch': -4.89, 'roll': -1.25, 'pres': 160}
{'lipoC2': 7.83, 'lipoC3S1': 4.15, 'temp': 27.56, 'lipoC3S3': 12.55, 'lipoC3S2': 8.3, 'rot1': 47, 'rot0': 47, 'rot3': 0, 'rot2': 0, 'state': 'normal', 'yaw': -0.22, 'datetime': '2018-10-05 15:45:35.912207', 'mgs': 1, 'volt': 0.7813, 'depth': -0.293, 'time': 16, 'pitch': -5.12, 'roll': -1.42, 'pres': 160}
{'lipoC2': 7.83, 'lipoC3S1': 4.15, 'temp': 27.56, 'lipoC3S3': 12.55, 'lipoC3S2': 8.3, 'rot1': 47, 'rot0': 47, 'rot3': 0, 'rot2': 0, 'state': 'normal', 'yaw': 0.05, 'datetime': '2018-10-05 15:45:36.015924', 'mgs': 1, 'volt': 0.7813, 'depth': -0.293, 'time': 16, 'pitch': -5.55, 'roll': -1.31, 'pres': 160}
{'lipoC2': 7.83, 'lipoC3S1': 4.15, 'temp': 27.56, 'lipoC3S3': 12.55, 'lipoC3S2': 8.3, 'rot1': 47, 'rot0': 47, 'rot3': 0, 'rot2': 0, 'state': 'normal', 'yaw': 0.18, 'datetime': '2018-10-05 15:45:36.124147', 'mgs': 1, 'volt': 0.7813, 'depth': -0.293, 'time': 16, 'pitch': -5.61, 'roll': -1.36, 'pres': 160}
{'lipoC2': 7.83, 'lipoC3S1': 4.15, 'temp': 27.63, 'lipoC3S3': 12.55, 'lipoC3S2': 8.3, 'rot1': 47, 'rot0': 47, 'rot3': 0, 'rot2': 0, 'state': 'normal', 'yaw': 0.15, 'datetime': '2018-10-05 15:45:36.226385', 'mgs': 1, 'volt': 0.7813, 'depth': -0.293, 'time': 16, 'pitch': -5.0, 'roll': -1.34, 'pres': 160}
{'lipoC2': 7.83, 'lipoC3S1': 4.15, 'temp': 27.63, 'lipoC3S3': 12.55, 'lipoC3S2': 8.3, 'rot1': 47, 'rot0': 47, 'rot3': 0, 'rot2': 0, 'state': 'normal', 'yaw': -0.03, 'datetime': '2018-10-05 15:45:36.330077', 'mgs': 1, 'volt': 0.7813, 'depth': -0.293, 'time': 16, 'pitch': -4.62, 'roll': -1.14, 'pres': 160}
{'lipoC2': 7.83, 'lipoC3S1': 4.15, 'temp': 27.56, 'lipoC3S3': 12.55, 'lipoC3S2': 8.3, 'rot1': 47, 'rot0': 47, 'rot3': 0, 'rot2': 0, 'state': 'normal', 'yaw': -0.36, 'datetime': '2018-10-05 15:45:36.433729', 'mgs': 1, 'volt': 0.7813, 'depth': -0.293, 'time': 17, 'pitch': -4.79, 'roll': -1.22, 'pres': 160}
{'lipoC2': 7.83, 'lipoC3S1': 4.15, 'temp': 27.56, 'lipoC3S3': 12.55, 'lipoC3S2': 8.3, 'rot1': 47, 'rot0': 47, 'rot3': 0, 'rot2': 0, 'state': 'normal', 'yaw': -0.77, 'datetime': '2018-10-05 15:45:36.537452', 'mgs': 1, 'volt': 0.7813, 'depth': -0.293, 'time': 17, 'pitch': -5.02, 'roll': -1.23, 'pres': 160}
{'lipoC2': 7.83, 'lipoC3S1': 4.15, 'temp': 27.56, 'lipoC3S3': 12.55, 'lipoC3S2': 8.3, 'rot1': 47, 'rot0': 47, 'rot3': 0, 'rot2': 0, 'state': 'normal', 'yaw': -1.02, 'datetime': '2018-10-05 15:45:36.641184', 'mgs': 1, 'volt': 0.7813, 'depth': -0.293, 'time': 17, 'pitch': -5.13, 'roll': -1.2, 'pres': 160}
{'lipoC2': 7.83, 'lipoC3S1': 4.15, 'temp': 27.56, 'lipoC3S3': 12.55, 'lipoC3S2': 8.3, 'rot1': 47, 'rot0': 47, 'rot3': 0, 'rot2': 0, 'state': 'normal', 'yaw': -1.34, 'datetime': '2018-10-05 15:45:36.744966', 'mgs': 1, 'volt': 0.7813, 'depth': -0.293, 'time': 17, 'pitch': -5.14, 'roll': -1.19, 'pres': 160}
{'lipoC2': 7.83, 'lipoC3S1': 4.15, 'temp': 27.56, 'lipoC3S3': 12.55, 'lipoC3S2': 8.3, 'rot1': 47, 'rot0': 47, 'rot3': 0, 'rot2': 0, 'state': 'normal', 'yaw': -1.71, 'datetime': '2018-10-05 15:45:36.848591', 'mgs': 1, 'volt': 0.7813, 'depth': -0.293, 'time': 17, 'pitch': -5.23, 'roll': -1.17, 'pres': 160}
{'lipoC2': 7.83, 'lipoC3S1': 4.15, 'temp': 27.63, 'lipoC3S3': 12.55, 'lipoC3S2': 8.3, 'rot1': 47, 'rot0': 47, 'rot3': 0, 'rot2': 0, 'state': 'normal', 'yaw': -1.95, 'datetime': '2018-10-05 15:45:36.952309', 'mgs': 1, 'volt': 0.7813, 'depth': -0.293, 'time': 17, 'pitch': -5.43, 'roll': -1.16, 'pres': 160}
{'lipoC2': 7.83, 'lipoC3S1': 4.15, 'temp': 27.63, 'lipoC3S3': 12.55, 'lipoC3S2': 8.3, 'rot1': 47, 'rot0': 47, 'rot3': 0, 'rot2': 0, 'state': 'normal', 'yaw': -2.03, 'datetime': '2018-10-05 15:45:37.057526', 'mgs': 1, 'volt': 0.7813, 'depth': -0.293, 'time': 17, 'pitch': -5.49, 'roll': -1.17, 'pres': 160}
{'lipoC2': 7.83, 'lipoC3S1': 4.15, 'temp': 27.63, 'lipoC3S3': 12.55, 'lipoC3S2': 8.3, 'rot1': 47, 'rot0': 47, 'rot3': 0, 'rot2': 0, 'state': 'normal', 'yaw': -2.04, 'datetime': '2018-10-05 15:45:37.161099', 'mgs': 1, 'volt': 0.7813, 'depth': -0.293, 'time': 17, 'pitch': -5.35, 'roll': -1.17, 'pres': 160}
{'lipoC2': 7.83, 'lipoC3S1': 4.15, 'temp': 27.63, 'lipoC3S3': 12.55, 'lipoC3S2': 8.3, 'rot1': 47, 'rot0': 47, 'rot3': 0, 'rot2': 0, 'state': 'normal', 'yaw': -2.04, 'datetime': '2018-10-05 15:45:37.265151', 'mgs': 1, 'volt': 0.7813, 'depth': -0.293, 'time': 17, 'pitch': -5.37, 'roll': -1.18, 'pres': 160}
{'lipoC2': 7.83, 'lipoC3S1': 4.15, 'temp': 27.56, 'lipoC3S3': 12.55, 'lipoC3S2': 8.3, 'rot1': 47, 'rot0': 47, 'rot3': 0, 'rot2': 0, 'state': 'normal', 'yaw': -2.03, 'datetime': '2018-10-05 15:45:37.362975', 'mgs': 1, 'volt': 0.7813, 'depth': -0.293, 'time': 17, 'pitch': -5.47, 'roll': -1.18, 'pres': 160}
{'lipoC2': 7.83, 'lipoC3S1': 4.15, 'temp': 27.56, 'lipoC3S3': 12.55, 'lipoC3S2': 8.3, 'rot1': 47, 'rot0': 47, 'rot3': 0, 'rot2': 0, 'state': 'normal', 'yaw': -2.04, 'datetime': '2018-10-05 15:45:37.466725', 'mgs': 1, 'volt': 0.7813, 'depth': -0.293, 'time': 18, 'pitch': -5.46, 'roll': -1.18, 'pres': 160}
{'lipoC2': 7.83, 'lipoC3S1': 4.15, 'temp': 27.56, 'lipoC3S3': 12.55, 'lipoC3S2': 8.3, 'rot1': 47, 'rot0': 47, 'rot3': 0, 'rot2': 0, 'state': 'normal', 'yaw': -2.04, 'datetime': '2018-10-05 15:45:37.577018', 'mgs': 1, 'volt': 0.7813, 'depth': -0.293, 'time': 18, 'pitch': -5.4, 'roll': -1.18, 'pres': 160}
{'lipoC2': 7.83, 'lipoC3S1': 4.15, 'temp': 27.56, 'lipoC3S3': 12.55, 'lipoC3S2': 8.3, 'rot1': 47, 'rot0': 47, 'rot3': 0, 'rot2': 0, 'state': 'normal', 'yaw': -2.04, 'datetime': '2018-10-05 15:45:37.680835', 'mgs': 1, 'volt': 0.7813, 'depth': -0.293, 'time': 18, 'pitch': -5.44, 'roll': -1.18, 'pres': 160}
{'lipoC2': 7.83, 'lipoC3S1': 4.15, 'temp': 27.56, 'lipoC3S3': 12.55, 'lipoC3S2': 8.3, 'rot1': 47, 'rot0': 47, 'rot3': 0, 'rot2': 0, 'state': 'normal', 'yaw': -2.04, 'datetime': '2018-10-05 15:45:37.784488', 'mgs': 1, 'volt': 0.7813, 'depth': -0.293, 'time': 18, 'pitch': -5.48, 'roll': -1.19, 'pres': 160}
{'lipoC2': 7.83, 'lipoC3S1': 4.15, 'temp': 27.56, 'lipoC3S3': 12.55, 'lipoC3S2': 8.3, 'rot1': 47, 'rot0': 47, 'rot3': 0, 'rot2': 0, 'state': 'normal', 'yaw': -2.04, 'datetime': '2018-10-05 15:45:37.889471', 'mgs': 1, 'volt': 0.7813, 'depth': -0.293, 'time': 18, 'pitch': -5.46, 'roll': -1.19, 'pres': 160}
