{'lipoC2': 7.5, 'lipoC3S1': 4.12, 'temp': 31.13, 'lipoC3S3': 12.47, 'lipoC3S2': 8.24, 'rot1': 0, 'rot0': 0, 'rot3': 0, 'rot2': 0, 'state': 'normal', 'yaw': 0.73, 'datetime': '2018-10-09 12:29:35.885913', 'mgs': 0, 'volt': 0.9326, 'depth': 2.072, 'time': 14, 'pitch': -0.59, 'roll': -1.92, 'pres': 191}
{'lipoC2': 7.49, 'lipoC3S1': 4.12, 'temp': 31.13, 'lipoC3S3': 12.47, 'lipoC3S2': 8.24, 'rot1': 0, 'rot0': 0, 'rot3': 0, 'rot2': 0, 'state': 'normal', 'yaw': 0.74, 'datetime': '2018-10-09 12:29:35.920285', 'mgs': 0, 'volt': 0.9277, 'depth': 1.996, 'time': 14, 'pitch': -0.72, 'roll': -1.91, 'pres': 190}
{'lipoC2': 7.5, 'lipoC3S1': 4.12, 'temp': 31.13, 'lipoC3S3': 12.47, 'lipoC3S2': 8.24, 'rot1': 0, 'rot0': 0, 'rot3': 0, 'rot2': 0, 'state': 'normal', 'yaw': 0.74, 'datetime': '2018-10-09 12:29:35.950936', 'mgs': 0, 'volt': 0.9277, 'depth': 1.996, 'time': 14, 'pitch': -0.8, 'roll': -1.92, 'pres': 190}
{'lipoC2': 7.5, 'lipoC3S1': 4.12, 'temp': 31.19, 'lipoC3S3': 12.47, 'lipoC3S2': 8.24, 'rot1': 0, 'rot0': 0, 'rot3': 0, 'rot2': 0, 'state': 'normal', 'yaw': 0.74, 'datetime': '2018-10-09 12:29:35.981366', 'mgs': 0, 'volt': 0.9326, 'depth': 2.072, 'time': 14, 'pitch': -0.8, 'roll': -1.92, 'pres': 191}
{'lipoC2': 7.5, 'lipoC3S1': 4.12, 'temp': 31.19, 'lipoC3S3': 12.47, 'lipoC3S2': 8.24, 'rot1': 0, 'rot0': 0, 'rot3': 0, 'rot2': 0, 'state': 'normal', 'yaw': 0.74, 'datetime': '2018-10-09 12:29:36.006866', 'mgs': 0, 'volt': 0.9326, 'depth': 2.072, 'time': 14, 'pitch': -0.8, 'roll': -1.95, 'pres': 191}
{'lipoC2': 7.5, 'lipoC3S1': 4.12, 'temp': 31.19, 'lipoC3S3': 12.47, 'lipoC3S2': 8.24, 'rot1': 0, 'rot0': 0, 'rot3': 0, 'rot2': 0, 'state': 'normal', 'yaw': 0.78, 'datetime': '2018-10-09 12:29:36.020109', 'mgs': 0, 'volt': 0.9277, 'depth': 1.996, 'time': 14, 'pitch': -0.79, 'roll': -2.1, 'pres': 190}
{'lipoC2': 7.5, 'lipoC3S1': 4.12, 'temp': 31.19, 'lipoC3S3': 12.47, 'lipoC3S2': 8.24, 'rot1': 0, 'rot0': 0, 'rot3': 0, 'rot2': 0, 'state': 'normal', 'yaw': 0.79, 'datetime': '2018-10-09 12:29:36.033825', 'mgs': 0, 'volt': 0.9277, 'depth': 1.996, 'time': 14, 'pitch': -0.78, 'roll': -2.26, 'pres': 190}
{'lipoC2': 7.5, 'lipoC3S1': 4.12, 'temp': 31.19, 'lipoC3S3': 12.46, 'lipoC3S2': 8.24, 'rot1': 0, 'rot0': 0, 'rot3': 0, 'rot2': 0, 'state': 'normal', 'yaw': 0.79, 'datetime': '2018-10-09 12:29:36.047042', 'mgs': 0, 'volt': 0.9277, 'depth': 1.996, 'time': 15, 'pitch': -0.78, 'roll': -2.39, 'pres': 190}
{'lipoC2': 7.5, 'lipoC3S1': 4.12, 'temp': 31.19, 'lipoC3S3': 12.47, 'lipoC3S2': 8.24, 'rot1': 0, 'rot0': 0, 'rot3': 0, 'rot2': 0, 'state': 'normal', 'yaw': 0.79, 'datetime': '2018-10-09 12:29:36.060194', 'mgs': 0, 'volt': 0.9326, 'depth': 2.072, 'time': 15, 'pitch': -0.78, 'roll': -2.41, 'pres': 191}
{'lipoC2': 7.5, 'lipoC3S1': 4.12, 'temp': 31.19, 'lipoC3S3': 12.46, 'lipoC3S2': 8.24, 'rot1': 0, 'rot0': 0, 'rot3': 0, 'rot2': 0, 'state': 'normal', 'yaw': 0.79, 'datetime': '2018-10-09 12:29:36.073323', 'mgs': 0, 'volt': 0.9326, 'depth': 2.072, 'time': 15, 'pitch': -0.75, 'roll': -2.32, 'pres': 191}
{'lipoC2': 7.5, 'lipoC3S1': 4.12, 'temp': 31.19, 'lipoC3S3': 12.46, 'lipoC3S2': 8.24, 'rot1': 0, 'rot0': 0, 'rot3': 0, 'rot2': 0, 'state': 'normal', 'yaw': 0.79, 'datetime': '2018-10-09 12:29:36.086494', 'mgs': 0, 'volt': 0.9277, 'depth': 1.996, 'time': 15, 'pitch': -0.63, 'roll': -2.15, 'pres': 190}
{'lipoC2': 7.49, 'lipoC3S1': 4.12, 'temp': 31.19, 'lipoC3S3': 12.46, 'lipoC3S2': 8.24, 'rot1': 0, 'rot0': 0, 'rot3': 0, 'rot2': 0, 'state': 'normal', 'yaw': 0.78, 'datetime': '2018-10-09 12:29:36.099603', 'mgs': 0, 'volt': 0.9277, 'depth': 1.996, 'time': 15, 'pitch': -0.4, 'roll': -1.99, 'pres': 190}
{'lipoC2': 7.5, 'lipoC3S1': 4.12, 'temp': 31.19, 'lipoC3S3': 12.46, 'lipoC3S2': 8.24, 'rot1': 0, 'rot0': 0, 'rot3': 0, 'rot2': 0, 'state': 'normal', 'yaw': 0.77, 'datetime': '2018-10-09 12:29:36.112063', 'mgs': 0, 'volt': 0.9277, 'depth': 1.996, 'time': 15, 'pitch': -0.18, 'roll': -1.95, 'pres': 190}
{'lipoC2': 7.5, 'lipoC3S1': 4.12, 'temp': 31.19, 'lipoC3S3': 12.46, 'lipoC3S2': 8.24, 'rot1': 0, 'rot0': 0, 'rot3': 0, 'rot2': 0, 'state': 'normal', 'yaw': 0.77, 'datetime': '2018-10-09 12:29:36.123152', 'mgs': 0, 'volt': 0.9277, 'depth': 1.996, 'time': 15, 'pitch': -0.08, 'roll': -1.96, 'pres': 190}
{'lipoC2': 7.5, 'lipoC3S1': 4.12, 'temp': 31.19, 'lipoC3S3': 12.46, 'lipoC3S2': 8.24, 'rot1': 0, 'rot0': 0, 'rot3': 0, 'rot2': 0, 'state': 'normal', 'yaw': 0.77, 'datetime': '2018-10-09 12:29:36.133173', 'mgs': 0, 'volt': 0.9277, 'depth': 1.996, 'time': 15, 'pitch': -0.15, 'roll': -1.95, 'pres': 190}
{'lipoC2': 7.49, 'lipoC3S1': 4.12, 'temp': 31.19, 'lipoC3S3': 12.46, 'lipoC3S2': 8.24, 'rot1': 0, 'rot0': 0, 'rot3': 0, 'rot2': 0, 'state': 'normal', 'yaw': 0.78, 'datetime': '2018-10-09 12:29:36.142673', 'mgs': 0, 'volt': 0.9277, 'depth': 1.996, 'time': 15, 'pitch': -0.39, 'roll': -1.96, 'pres': 190}
{'lipoC2': 7.5, 'lipoC3S1': 4.12, 'temp': 31.19, 'lipoC3S3': 12.46, 'lipoC3S2': 8.24, 'rot1': 0, 'rot0': 0, 'rot3': 0, 'rot2': 0, 'state': 'normal', 'yaw': 0.79, 'datetime': '2018-10-09 12:29:36.152365', 'mgs': 0, 'volt': 0.9277, 'depth': 1.996, 'time': 15, 'pitch': -0.64, 'roll': -1.95, 'pres': 190}
{'lipoC2': 7.5, 'lipoC3S1': 4.12, 'temp': 31.19, 'lipoC3S3': 12.46, 'lipoC3S2': 8.24, 'rot1': 0, 'rot0': 0, 'rot3': 0, 'rot2': 0, 'state': 'normal', 'yaw': 0.79, 'datetime': '2018-10-09 12:29:36.162018', 'mgs': 0, 'volt': 0.9326, 'depth': 2.072, 'time': 16, 'pitch': -0.75, 'roll': -1.88, 'pres': 191}
{'lipoC2': 7.49, 'lipoC3S1': 4.12, 'temp': 31.19, 'lipoC3S3': 12.46, 'lipoC3S2': 8.24, 'rot1': 0, 'rot0': 0, 'rot3': 0, 'rot2': 0, 'state': 'normal', 'yaw': 0.79, 'datetime': '2018-10-09 12:29:36.171545', 'mgs': 0, 'volt': 0.9277, 'depth': 1.996, 'time': 16, 'pitch': -0.66, 'roll': -1.78, 'pres': 190}
{'lipoC2': 7.49, 'lipoC3S1': 4.12, 'temp': 31.19, 'lipoC3S3': 12.46, 'lipoC3S2': 8.24, 'rot1': 0, 'rot0': 0, 'rot3': 0, 'rot2': 0, 'state': 'normal', 'yaw': 0.78, 'datetime': '2018-10-09 12:29:36.181035', 'mgs': 0, 'volt': 0.9277, 'depth': 1.996, 'time': 16, 'pitch': -0.44, 'roll': -1.76, 'pres': 190}
{'lipoC2': 7.5, 'lipoC3S1': 4.12, 'temp': 31.19, 'lipoC3S3': 12.46, 'lipoC3S2': 8.24, 'rot1': 0, 'rot0': 0, 'rot3': 0, 'rot2': 0, 'state': 'normal', 'yaw': 0.78, 'datetime': '2018-10-09 12:29:36.190511', 'mgs': 0, 'volt': 0.9277, 'depth': 1.996, 'time': 16, 'pitch': -0.3, 'roll': -1.75, 'pres': 190}
{'lipoC2': 7.5, 'lipoC3S1': 4.12, 'temp': 31.19, 'lipoC3S3': 12.46, 'lipoC3S2': 8.24, 'rot1': 0, 'rot0': 0, 'rot3': 0, 'rot2': 0, 'state': 'normal', 'yaw': 0.78, 'datetime': '2018-10-09 12:29:36.200164', 'mgs': 0, 'volt': 0.9277, 'depth': 1.996, 'time': 16, 'pitch': -0.39, 'roll': -1.77, 'pres': 190}
{'lipoC2': 7.49, 'lipoC3S1': 4.12, 'temp': 31.19, 'lipoC3S3': 12.46, 'lipoC3S2': 8.24, 'rot1': 0, 'rot0': 0, 'rot3': 0, 'rot2': 0, 'state': 'normal', 'yaw': 0.79, 'datetime': '2018-10-09 12:29:36.209757', 'mgs': 0, 'volt': 0.9326, 'depth': 2.072, 'time': 16, 'pitch': -0.71, 'roll': -1.85, 'pres': 191}
{'lipoC2': 7.5, 'lipoC3S1': 4.12, 'temp': 31.19, 'lipoC3S3': 12.46, 'lipoC3S2': 8.24, 'rot1': 0, 'rot0': 0, 'rot3': 0, 'rot2': 0, 'state': 'normal', 'yaw': 0.8, 'datetime': '2018-10-09 12:29:36.220688', 'mgs': 0, 'volt': 0.9277, 'depth': 1.996, 'time': 16, 'pitch': -1.07, 'roll': -1.96, 'pres': 190}
{'lipoC2': 7.5, 'lipoC3S1': 4.12, 'temp': 31.19, 'lipoC3S3': 12.46, 'lipoC3S2': 8.24, 'rot1': 0, 'rot0': 0, 'rot3': 0, 'rot2': 0, 'state': 'normal', 'yaw': 0.81, 'datetime': '2018-10-09 12:29:36.230373', 'mgs': 0, 'volt': 0.9326, 'depth': 2.072, 'time': 16, 'pitch': -1.31, 'roll': -2.1, 'pres': 191}
{'lipoC2': 7.5, 'lipoC3S1': 4.12, 'temp': 31.19, 'lipoC3S3': 12.46, 'lipoC3S2': 8.24, 'rot1': 0, 'rot0': 0, 'rot3': 0, 'rot2': 0, 'state': 'normal', 'yaw': 0.8, 'datetime': '2018-10-09 12:29:36.239886', 'mgs': 0, 'volt': 0.9326, 'depth': 2.072, 'time': 16, 'pitch': -1.31, 'roll': -2.2, 'pres': 191}
{'lipoC2': 7.5, 'lipoC3S1': 4.12, 'temp': 31.19, 'lipoC3S3': 12.46, 'lipoC3S2': 8.24, 'rot1': 0, 'rot0': 0, 'rot3': 0, 'rot2': 0, 'state': 'normal', 'yaw': 0.77, 'datetime': '2018-10-09 12:29:36.249430', 'mgs': 0, 'volt': 0.9277, 'depth': 1.996, 'time': 16, 'pitch': -1.15, 'roll': -2.24, 'pres': 190}
{'lipoC2': 7.49, 'lipoC3S1': 4.12, 'temp': 31.19, 'lipoC3S3': 12.46, 'lipoC3S2': 8.24, 'rot1': 0, 'rot0': 0, 'rot3': 0, 'rot2': 0, 'state': 'normal', 'yaw': 0.75, 'datetime': '2018-10-09 12:29:36.258976', 'mgs': 0, 'volt': 0.9277, 'depth': 1.996, 'time': 17, 'pitch': -0.97, 'roll': -2.25, 'pres': 190}
{'lipoC2': 7.5, 'lipoC3S1': 4.12, 'temp': 31.19, 'lipoC3S3': 12.46, 'lipoC3S2': 8.24, 'rot1': 0, 'rot0': 0, 'rot3': 0, 'rot2': 0, 'state': 'normal', 'yaw': 0.72, 'datetime': '2018-10-09 12:29:36.268754', 'mgs': 0, 'volt': 0.9277, 'depth': 1.996, 'time': 17, 'pitch': -0.89, 'roll': -2.18, 'pres': 190}
{'lipoC2': 7.49, 'lipoC3S1': 4.12, 'temp': 31.19, 'lipoC3S3': 12.46, 'lipoC3S2': 8.24, 'rot1': 0, 'rot0': 0, 'rot3': 0, 'rot2': 0, 'state': 'normal', 'yaw': 0.71, 'datetime': '2018-10-09 12:29:36.278386', 'mgs': 0, 'volt': 0.9277, 'depth': 1.996, 'time': 17, 'pitch': -0.89, 'roll': -2.07, 'pres': 190}
{'lipoC2': 7.49, 'lipoC3S1': 4.12, 'temp': 31.19, 'lipoC3S3': 12.46, 'lipoC3S2': 8.24, 'rot1': 0, 'rot0': 0, 'rot3': 0, 'rot2': 0, 'state': 'normal', 'yaw': 0.69, 'datetime': '2018-10-09 12:29:36.288020', 'mgs': 0, 'volt': 0.9277, 'depth': 1.996, 'time': 17, 'pitch': -0.89, 'roll': -1.94, 'pres': 190}
{'lipoC2': 7.49, 'lipoC3S1': 4.12, 'temp': 31.13, 'lipoC3S3': 12.46, 'lipoC3S2': 8.24, 'rot1': 0, 'rot0': 0, 'rot3': 0, 'rot2': 0, 'state': 'normal', 'yaw': 0.66, 'datetime': '2018-10-09 12:29:36.338110', 'mgs': 0, 'volt': 0.9277, 'depth': 1.996, 'time': 17, 'pitch': -0.87, 'roll': -1.86, 'pres': 190}
{'lipoC2': 7.49, 'lipoC3S1': 4.12, 'temp': 31.13, 'lipoC3S3': 12.46, 'lipoC3S2': 8.24, 'rot1': 0, 'rot0': 0, 'rot3': 0, 'rot2': 0, 'state': 'normal', 'yaw': 0.66, 'datetime': '2018-10-09 12:29:36.442315', 'mgs': 0, 'volt': 0.9277, 'depth': 1.996, 'time': 17, 'pitch': -0.77, 'roll': -1.87, 'pres': 190}
{'lipoC2': 7.49, 'lipoC3S1': 4.12, 'temp': 31.13, 'lipoC3S3': 12.46, 'lipoC3S2': 8.24, 'rot1': 0, 'rot0': 0, 'rot3': 0, 'rot2': 0, 'state': 'normal', 'yaw': 0.66, 'datetime': '2018-10-09 12:29:36.546022', 'mgs': 0, 'volt': 0.9277, 'depth': 1.996, 'time': 17, 'pitch': -0.72, 'roll': -2.01, 'pres': 190}
{'lipoC2': 7.5, 'lipoC3S1': 4.12, 'temp': 31.13, 'lipoC3S3': 12.46, 'lipoC3S2': 8.24, 'rot1': 0, 'rot0': 0, 'rot3': 0, 'rot2': 0, 'state': 'normal', 'yaw': 0.66, 'datetime': '2018-10-09 12:29:36.648994', 'mgs': 0, 'volt': 0.9277, 'depth': 1.996, 'time': 17, 'pitch': -0.73, 'roll': -2.23, 'pres': 190}
{'lipoC2': 7.5, 'lipoC3S1': 4.12, 'temp': 31.19, 'lipoC3S3': 12.46, 'lipoC3S2': 8.24, 'rot1': 0, 'rot0': 0, 'rot3': 0, 'rot2': 0, 'state': 'normal', 'yaw': 0.67, 'datetime': '2018-10-09 12:29:36.759755', 'mgs': 0, 'volt': 0.9326, 'depth': 2.072, 'time': 17, 'pitch': -0.85, 'roll': -2.39, 'pres': 191}
{'lipoC2': 7.5, 'lipoC3S1': 4.12, 'temp': 31.19, 'lipoC3S3': 12.46, 'lipoC3S2': 8.24, 'rot1': 0, 'rot0': 0, 'rot3': 0, 'rot2': 0, 'state': 'normal', 'yaw': 0.61, 'datetime': '2018-10-09 12:29:36.863470', 'mgs': 0, 'volt': 0.9326, 'depth': 2.072, 'time': 18, 'pitch': -0.98, 'roll': -2.42, 'pres': 191}
{'lipoC2': 7.5, 'lipoC3S1': 4.12, 'temp': 31.19, 'lipoC3S3': 12.46, 'lipoC3S2': 8.24, 'rot1': 0, 'rot0': 0, 'rot3': 0, 'rot2': 0, 'state': 'normal', 'yaw': 0.53, 'datetime': '2018-10-09 12:29:36.966402', 'mgs': 0, 'volt': 0.9277, 'depth': 1.996, 'time': 18, 'pitch': -1.01, 'roll': -2.36, 'pres': 190}
{'lipoC2': 7.49, 'lipoC3S1': 4.12, 'temp': 31.19, 'lipoC3S3': 12.46, 'lipoC3S2': 8.24, 'rot1': 0, 'rot0': 0, 'rot3': 0, 'rot2': 0, 'state': 'normal', 'yaw': 0.46, 'datetime': '2018-10-09 12:29:37.069446', 'mgs': 0, 'volt': 0.9277, 'depth': 1.996, 'time': 18, 'pitch': -0.89, 'roll': -2.22, 'pres': 190}
{'lipoC2': 7.5, 'lipoC3S1': 4.12, 'temp': 31.19, 'lipoC3S3': 12.46, 'lipoC3S2': 8.24, 'rot1': 0, 'rot0': 0, 'rot3': 0, 'rot2': 0, 'state': 'normal', 'yaw': 0.45, 'datetime': '2018-10-09 12:29:37.172432', 'mgs': 0, 'volt': 0.9277, 'depth': 1.996, 'time': 18, 'pitch': -0.67, 'roll': -2.06, 'pres': 190}
{'lipoC2': 7.5, 'lipoC3S1': 4.12, 'temp': 31.19, 'lipoC3S3': 12.46, 'lipoC3S2': 8.24, 'rot1': 0, 'rot0': 0, 'rot3': 0, 'rot2': 0, 'state': 'normal', 'yaw': 0.44, 'datetime': '2018-10-09 12:29:37.275353', 'mgs': 0, 'volt': 0.9277, 'depth': 1.996, 'time': 18, 'pitch': -0.44, 'roll': -1.95, 'pres': 190}
{'lipoC2': 7.5, 'lipoC3S1': 4.12, 'temp': 31.19, 'lipoC3S3': 12.46, 'lipoC3S2': 8.24, 'rot1': 0, 'rot0': 0, 'rot3': 0, 'rot2': 0, 'state': 'normal', 'yaw': 0.44, 'datetime': '2018-10-09 12:29:37.378323', 'mgs': 0, 'volt': 0.9277, 'depth': 1.996, 'time': 18, 'pitch': -0.39, 'roll': -1.93, 'pres': 190}
{'lipoC2': 7.5, 'lipoC3S1': 4.12, 'temp': 31.19, 'lipoC3S3': 12.46, 'lipoC3S2': 8.24, 'rot1': 0, 'rot0': 0, 'rot3': 0, 'rot2': 0, 'state': 'normal', 'yaw': 0.44, 'datetime': '2018-10-09 12:29:37.482557', 'mgs': 0, 'volt': 0.9326, 'depth': 2.072, 'time': 18, 'pitch': -0.45, 'roll': -1.93, 'pres': 191}
{'lipoC2': 7.5, 'lipoC3S1': 4.12, 'temp': 31.19, 'lipoC3S3': 12.46, 'lipoC3S2': 8.24, 'rot1': 0, 'rot0': 0, 'rot3': 0, 'rot2': 0, 'state': 'normal', 'yaw': 0.44, 'datetime': '2018-10-09 12:29:37.585500', 'mgs': 0, 'volt': 0.9277, 'depth': 1.996, 'time': 18, 'pitch': -0.59, 'roll': -1.92, 'pres': 190}
{'lipoC2': 7.5, 'lipoC3S1': 4.12, 'temp': 31.19, 'lipoC3S3': 12.46, 'lipoC3S2': 8.24, 'rot1': 0, 'rot0': 0, 'rot3': 0, 'rot2': 0, 'state': 'normal', 'yaw': 0.45, 'datetime': '2018-10-09 12:29:37.688635', 'mgs': 0, 'volt': 0.9277, 'depth': 1.996, 'time': 18, 'pitch': -0.65, 'roll': -1.89, 'pres': 190}
{'lipoC2': 7.49, 'lipoC3S1': 4.12, 'temp': 31.13, 'lipoC3S3': 12.46, 'lipoC3S2': 8.24, 'rot1': 0, 'rot0': 0, 'rot3': 0, 'rot2': 0, 'state': 'normal', 'yaw': 0.44, 'datetime': '2018-10-09 12:29:37.792664', 'mgs': 0, 'volt': 0.9326, 'depth': 2.072, 'time': 18, 'pitch': -0.65, 'roll': -1.81, 'pres': 191}
{'lipoC2': 7.5, 'lipoC3S1': 4.12, 'temp': 31.13, 'lipoC3S3': 12.46, 'lipoC3S2': 8.24, 'rot1': 0, 'rot0': 0, 'rot3': 0, 'rot2': 0, 'state': 'normal', 'yaw': 0.38, 'datetime': '2018-10-09 12:29:37.891120', 'mgs': 0, 'volt': 0.9326, 'depth': 2.072, 'time': 19, 'pitch': -0.62, 'roll': -1.69, 'pres': 191}
{'lipoC2': 7.5, 'lipoC3S1': 4.12, 'temp': 31.19, 'lipoC3S3': 12.46, 'lipoC3S2': 8.24, 'rot1': 0, 'rot0': 0, 'rot3': 0, 'rot2': 0, 'state': 'normal', 'yaw': 0.3, 'datetime': '2018-10-09 12:29:37.992776', 'mgs': 0, 'volt': 0.9277, 'depth': 1.996, 'time': 19, 'pitch': -0.53, 'roll': -1.58, 'pres': 190}
{'lipoC2': 7.49, 'lipoC3S1': 4.12, 'temp': 31.19, 'lipoC3S3': 12.46, 'lipoC3S2': 8.24, 'rot1': 0, 'rot0': 0, 'rot3': 0, 'rot2': 0, 'state': 'normal', 'yaw': 0.23, 'datetime': '2018-10-09 12:29:38.097084', 'mgs': 0, 'volt': 0.9326, 'depth': 2.072, 'time': 19, 'pitch': -0.43, 'roll': -1.53, 'pres': 191}
{'lipoC2': 7.5, 'lipoC3S1': 4.12, 'temp': 31.19, 'lipoC3S3': 12.46, 'lipoC3S2': 8.24, 'rot1': 0, 'rot0': 0, 'rot3': 0, 'rot2': 0, 'state': 'normal', 'yaw': 0.15, 'datetime': '2018-10-09 12:29:38.200393', 'mgs': 0, 'volt': 0.9326, 'depth': 2.072, 'time': 19, 'pitch': -0.38, 'roll': -1.53, 'pres': 191}
{'lipoC2': 7.5, 'lipoC3S1': 4.12, 'temp': 31.13, 'lipoC3S3': 12.46, 'lipoC3S2': 8.24, 'rot1': 0, 'rot0': 0, 'rot3': 0, 'rot2': 0, 'state': 'normal', 'yaw': 0.08, 'datetime': '2018-10-09 12:29:38.303306', 'mgs': 0, 'volt': 0.9277, 'depth': 1.996, 'time': 19, 'pitch': -0.38, 'roll': -1.55, 'pres': 190}
{'lipoC2': 7.5, 'lipoC3S1': 4.12, 'temp': 31.13, 'lipoC3S3': 12.46, 'lipoC3S2': 8.24, 'rot1': 0, 'rot0': 0, 'rot3': 0, 'rot2': 0, 'state': 'normal', 'yaw': 0.02, 'datetime': '2018-10-09 12:29:38.407562', 'mgs': 0, 'volt': 0.9277, 'depth': 1.996, 'time': 19, 'pitch': -0.53, 'roll': -1.68, 'pres': 190}
{'lipoC2': 7.5, 'lipoC3S1': 4.12, 'temp': 31.19, 'lipoC3S3': 12.46, 'lipoC3S2': 8.24, 'rot1': 0, 'rot0': 0, 'rot3': 0, 'rot2': 0, 'state': 'normal', 'yaw': -0.02, 'datetime': '2018-10-09 12:29:38.511105', 'mgs': 0, 'volt': 0.9277, 'depth': 1.996, 'time': 19, 'pitch': -0.8, 'roll': -1.88, 'pres': 190}
{'lipoC2': 7.49, 'lipoC3S1': 4.12, 'temp': 31.19, 'lipoC3S3': 12.46, 'lipoC3S2': 8.24, 'rot1': 0, 'rot0': 0, 'rot3': 0, 'rot2': 0, 'state': 'normal', 'yaw': -0.05, 'datetime': '2018-10-09 12:29:38.614080', 'mgs': 0, 'volt': 0.9326, 'depth': 2.072, 'time': 19, 'pitch': -1.14, 'roll': -2.19, 'pres': 191}
{'lipoC2': 7.5, 'lipoC3S1': 4.12, 'temp': 31.13, 'lipoC3S3': 12.46, 'lipoC3S2': 8.24, 'rot1': 0, 'rot0': 0, 'rot3': 0, 'rot2': 0, 'state': 'normal', 'yaw': -0.11, 'datetime': '2018-10-09 12:29:38.717058', 'mgs': 0, 'volt': 0.9277, 'depth': 1.996, 'time': 19, 'pitch': -1.31, 'roll': -2.51, 'pres': 190}
{'lipoC2': 7.5, 'lipoC3S1': 4.12, 'temp': 31.13, 'lipoC3S3': 12.46, 'lipoC3S2': 8.24, 'rot1': 0, 'rot0': 0, 'rot3': 0, 'rot2': 0, 'state': 'normal', 'yaw': -0.15, 'datetime': '2018-10-09 12:29:38.820048', 'mgs': 0, 'volt': 0.9277, 'depth': 1.996, 'time': 19, 'pitch': -1.27, 'roll': -2.8, 'pres': 190}
{'lipoC2': 7.5, 'lipoC3S1': 4.12, 'temp': 31.13, 'lipoC3S3': 12.46, 'lipoC3S2': 8.24, 'rot1': 0, 'rot0': 0, 'rot3': 0, 'rot2': 0, 'state': 'normal', 'yaw': -0.24, 'datetime': '2018-10-09 12:29:38.922900', 'mgs': 0, 'volt': 0.9277, 'depth': 1.996, 'time': 20, 'pitch': -1.01, 'roll': -3.01, 'pres': 190}
{'lipoC2': 7.5, 'lipoC3S1': 4.12, 'temp': 31.19, 'lipoC3S3': 12.46, 'lipoC3S2': 8.24, 'rot1': 0, 'rot0': 0, 'rot3': 0, 'rot2': 0, 'state': 'normal', 'yaw': -0.32, 'datetime': '2018-10-09 12:29:39.025915', 'mgs': 0, 'volt': 0.9277, 'depth': 1.996, 'time': 20, 'pitch': -0.71, 'roll': -3.02, 'pres': 190}
{'lipoC2': 7.5, 'lipoC3S1': 4.12, 'temp': 31.19, 'lipoC3S3': 12.46, 'lipoC3S2': 8.24, 'rot1': 0, 'rot0': 0, 'rot3': 0, 'rot2': 0, 'state': 'normal', 'yaw': -0.43, 'datetime': '2018-10-09 12:29:39.128876', 'mgs': 0, 'volt': 0.9277, 'depth': 1.996, 'time': 20, 'pitch': -0.5, 'roll': -2.97, 'pres': 190}
{'lipoC2': 7.5, 'lipoC3S1': 4.12, 'temp': 31.19, 'lipoC3S3': 12.46, 'lipoC3S2': 8.24, 'rot1': 0, 'rot0': 0, 'rot3': 0, 'rot2': 0, 'state': 'normal', 'yaw': -0.51, 'datetime': '2018-10-09 12:29:39.232297', 'mgs': 0, 'volt': 0.9277, 'depth': 1.996, 'time': 20, 'pitch': -0.48, 'roll': -2.94, 'pres': 190}
{'lipoC2': 7.5, 'lipoC3S1': 4.12, 'temp': 31.19, 'lipoC3S3': 12.46, 'lipoC3S2': 8.24, 'rot1': 0, 'rot0': 0, 'rot3': 0, 'rot2': 0, 'state': 'normal', 'yaw': -0.52, 'datetime': '2018-10-09 12:29:39.335213', 'mgs': 0, 'volt': 0.9277, 'depth': 1.996, 'time': 20, 'pitch': -0.63, 'roll': -2.96, 'pres': 190}
{'lipoC2': 7.5, 'lipoC3S1': 4.12, 'temp': 31.19, 'lipoC3S3': 12.46, 'lipoC3S2': 8.24, 'rot1': 0, 'rot0': 0, 'rot3': 0, 'rot2': 0, 'state': 'normal', 'yaw': -0.52, 'datetime': '2018-10-09 12:29:39.438166', 'mgs': 0, 'volt': 0.9229, 'depth': 1.92, 'time': 20, 'pitch': -0.85, 'roll': -3.08, 'pres': 189}
{'lipoC2': 7.49, 'lipoC3S1': 4.12, 'temp': 31.19, 'lipoC3S3': 12.46, 'lipoC3S2': 8.24, 'rot1': 0, 'rot0': 0, 'rot3': 0, 'rot2': 0, 'state': 'normal', 'yaw': -0.51, 'datetime': '2018-10-09 12:29:39.542330', 'mgs': 0, 'volt': 0.9277, 'depth': 1.996, 'time': 20, 'pitch': -0.98, 'roll': -3.19, 'pres': 190}
{'lipoC2': 7.5, 'lipoC3S1': 4.12, 'temp': 31.19, 'lipoC3S3': 12.46, 'lipoC3S2': 8.24, 'rot1': 0, 'rot0': 0, 'rot3': 0, 'rot2': 0, 'state': 'normal', 'yaw': -0.56, 'datetime': '2018-10-09 12:29:39.645358', 'mgs': 0, 'volt': 0.9277, 'depth': 1.996, 'time': 20, 'pitch': -0.94, 'roll': -3.22, 'pres': 190}
{'lipoC2': 7.5, 'lipoC3S1': 4.12, 'temp': 31.19, 'lipoC3S3': 12.46, 'lipoC3S2': 8.24, 'rot1': 0, 'rot0': 0, 'rot3': 0, 'rot2': 0, 'state': 'normal', 'yaw': -0.65, 'datetime': '2018-10-09 12:29:39.749454', 'mgs': 0, 'volt': 0.9277, 'depth': 1.996, 'time': 20, 'pitch': -0.74, 'roll': -3.12, 'pres': 190}
{'lipoC2': 7.5, 'lipoC3S1': 4.12, 'temp': 31.19, 'lipoC3S3': 12.46, 'lipoC3S2': 8.24, 'rot1': 0, 'rot0': 0, 'rot3': 0, 'rot2': 0, 'state': 'normal', 'yaw': -0.74, 'datetime': '2018-10-09 12:29:39.853250', 'mgs': 0, 'volt': 0.9277, 'depth': 1.996, 'time': 20, 'pitch': -0.45, 'roll': -2.9, 'pres': 190}
{'lipoC2': 7.5, 'lipoC3S1': 4.12, 'temp': 31.13, 'lipoC3S3': 12.46, 'lipoC3S2': 8.24, 'rot1': 0, 'rot0': 0, 'rot3': 0, 'rot2': 0, 'state': 'normal', 'yaw': -0.83, 'datetime': '2018-10-09 12:29:39.956228', 'mgs': 0, 'volt': 0.9277, 'depth': 1.996, 'time': 21, 'pitch': -0.15, 'roll': -2.6, 'pres': 190}
{'lipoC2': 7.49, 'lipoC3S1': 4.12, 'temp': 31.13, 'lipoC3S3': 12.46, 'lipoC3S2': 8.24, 'rot1': 0, 'rot0': 0, 'rot3': 0, 'rot2': 0, 'state': 'normal', 'yaw': -0.85, 'datetime': '2018-10-09 12:29:40.060434', 'mgs': 0, 'volt': 0.9277, 'depth': 1.996, 'time': 21, 'pitch': 0.01, 'roll': -2.29, 'pres': 190}
{'lipoC2': 7.5, 'lipoC3S1': 4.12, 'temp': 31.19, 'lipoC3S3': 12.46, 'lipoC3S2': 8.24, 'rot1': 0, 'rot0': 0, 'rot3': 0, 'rot2': 0, 'state': 'normal', 'yaw': -0.85, 'datetime': '2018-10-09 12:29:40.164235', 'mgs': 0, 'volt': 0.9277, 'depth': 1.996, 'time': 21, 'pitch': -0.01, 'roll': -2.01, 'pres': 190}
{'lipoC2': 7.49, 'lipoC3S1': 4.12, 'temp': 31.19, 'lipoC3S3': 12.46, 'lipoC3S2': 8.24, 'rot1': 0, 'rot0': 0, 'rot3': 0, 'rot2': 0, 'state': 'normal', 'yaw': -0.84, 'datetime': '2018-10-09 12:29:40.267260', 'mgs': 0, 'volt': 0.9277, 'depth': 1.996, 'time': 21, 'pitch': -0.2, 'roll': -1.77, 'pres': 190}
{'lipoC2': 7.49, 'lipoC3S1': 4.12, 'temp': 31.19, 'lipoC3S3': 12.46, 'lipoC3S2': 8.24, 'rot1': 0, 'rot0': 0, 'rot3': 0, 'rot2': 0, 'state': 'normal', 'yaw': -0.84, 'datetime': '2018-10-09 12:29:40.370182', 'mgs': 0, 'volt': 0.9277, 'depth': 1.996, 'time': 21, 'pitch': -0.47, 'roll': -1.66, 'pres': 190}
{'lipoC2': 7.5, 'lipoC3S1': 4.12, 'temp': 31.13, 'lipoC3S3': 12.46, 'lipoC3S2': 8.24, 'rot1': 0, 'rot0': 0, 'rot3': 0, 'rot2': 0, 'state': 'normal', 'yaw': -0.83, 'datetime': '2018-10-09 12:29:40.487239', 'mgs': 0, 'volt': 0.9277, 'depth': 1.996, 'time': 21, 'pitch': -0.72, 'roll': -1.66, 'pres': 190}
{'lipoC2': 7.49, 'lipoC3S1': 4.12, 'temp': 31.13, 'lipoC3S3': 12.46, 'lipoC3S2': 8.24, 'rot1': 0, 'rot0': 0, 'rot3': 0, 'rot2': 0, 'state': 'normal', 'yaw': -0.9, 'datetime': '2018-10-09 12:29:40.575438', 'mgs': 0, 'volt': 0.9326, 'depth': 2.072, 'time': 21, 'pitch': -0.82, 'roll': -1.66, 'pres': 191}
{'lipoC2': 7.5, 'lipoC3S1': 4.12, 'temp': 31.13, 'lipoC3S3': 12.46, 'lipoC3S2': 8.24, 'rot1': 0, 'rot0': 0, 'rot3': 0, 'rot2': 0, 'state': 'normal', 'yaw': -1.0, 'datetime': '2018-10-09 12:29:40.678388', 'mgs': 0, 'volt': 0.9277, 'depth': 1.996, 'time': 21, 'pitch': -0.79, 'roll': -1.68, 'pres': 190}
{'lipoC2': 7.49, 'lipoC3S1': 4.12, 'temp': 31.13, 'lipoC3S3': 12.46, 'lipoC3S2': 8.24, 'rot1': 0, 'rot0': 0, 'rot3': 0, 'rot2': 0, 'state': 'normal', 'yaw': -1.12, 'datetime': '2018-10-09 12:29:40.781298', 'mgs': 0, 'volt': 0.9326, 'depth': 2.072, 'time': 21, 'pitch': -0.66, 'roll': -1.68, 'pres': 191}
{'lipoC2': 7.49, 'lipoC3S1': 4.12, 'temp': 31.13, 'lipoC3S3': 12.46, 'lipoC3S2': 8.24, 'rot1': 0, 'rot0': 0, 'rot3': 0, 'rot2': 0, 'state': 'normal', 'yaw': -1.23, 'datetime': '2018-10-09 12:29:40.884855', 'mgs': 0, 'volt': 0.9277, 'depth': 1.996, 'time': 22, 'pitch': -0.57, 'roll': -1.68, 'pres': 190}
{'lipoC2': 7.49, 'lipoC3S1': 4.12, 'temp': 31.13, 'lipoC3S3': 12.46, 'lipoC3S2': 8.24, 'rot1': 0, 'rot0': 0, 'rot3': 0, 'rot2': 0, 'state': 'normal', 'yaw': -1.33, 'datetime': '2018-10-09 12:29:40.987795', 'mgs': 0, 'volt': 0.9277, 'depth': 1.996, 'time': 22, 'pitch': -0.57, 'roll': -1.68, 'pres': 190}
{'lipoC2': 7.49, 'lipoC3S1': 4.12, 'temp': 31.13, 'lipoC3S3': 12.46, 'lipoC3S2': 8.24, 'rot1': 0, 'rot0': 0, 'rot3': 0, 'rot2': 0, 'state': 'normal', 'yaw': -1.43, 'datetime': '2018-10-09 12:29:41.092029', 'mgs': 0, 'volt': 0.9277, 'depth': 1.996, 'time': 22, 'pitch': -0.59, 'roll': -1.68, 'pres': 190}
{'lipoC2': 7.49, 'lipoC3S1': 4.12, 'temp': 31.06, 'lipoC3S3': 12.46, 'lipoC3S2': 8.24, 'rot1': 0, 'rot0': 0, 'rot3': 0, 'rot2': 0, 'state': 'normal', 'yaw': -1.51, 'datetime': '2018-10-09 12:29:41.195578', 'mgs': 0, 'volt': 0.9277, 'depth': 1.996, 'time': 22, 'pitch': -0.69, 'roll': -1.68, 'pres': 190}
{'lipoC2': 7.49, 'lipoC3S1': 4.12, 'temp': 31.06, 'lipoC3S3': 12.46, 'lipoC3S2': 8.24, 'rot1': 0, 'rot0': 0, 'rot3': 0, 'rot2': 0, 'state': 'normal', 'yaw': -1.63, 'datetime': '2018-10-09 12:29:41.308984', 'mgs': 0, 'volt': 0.9277, 'depth': 1.996, 'time': 22, 'pitch': -0.83, 'roll': -1.72, 'pres': 190}
{'lipoC2': 7.5, 'lipoC3S1': 4.12, 'temp': 31.13, 'lipoC3S3': 12.46, 'lipoC3S2': 8.24, 'rot1': 0, 'rot0': 0, 'rot3': 0, 'rot2': 0, 'state': 'normal', 'yaw': -1.73, 'datetime': '2018-10-09 12:29:41.413188', 'mgs': 0, 'volt': 0.9277, 'depth': 1.996, 'time': 22, 'pitch': -0.94, 'roll': -1.85, 'pres': 190}
{'lipoC2': 7.49, 'lipoC3S1': 4.12, 'temp': 31.13, 'lipoC3S3': 12.46, 'lipoC3S2': 8.24, 'rot1': 0, 'rot0': 0, 'rot3': 0, 'rot2': 0, 'state': 'normal', 'yaw': -1.83, 'datetime': '2018-10-09 12:29:41.516728', 'mgs': 0, 'volt': 0.9277, 'depth': 1.996, 'time': 22, 'pitch': -1.03, 'roll': -2.06, 'pres': 190}
{'lipoC2': 7.5, 'lipoC3S1': 4.12, 'temp': 31.13, 'lipoC3S3': 12.46, 'lipoC3S2': 8.24, 'rot1': 0, 'rot0': 0, 'rot3': 0, 'rot2': 0, 'state': 'normal', 'yaw': -1.92, 'datetime': '2018-10-09 12:29:41.619619', 'mgs': 0, 'volt': 0.9277, 'depth': 1.996, 'time': 22, 'pitch': -1.12, 'roll': -2.32, 'pres': 190}
{'lipoC2': 7.49, 'lipoC3S1': 4.12, 'temp': 31.13, 'lipoC3S3': 12.46, 'lipoC3S2': 8.24, 'rot1': 0, 'rot0': 0, 'rot3': 0, 'rot2': 0, 'state': 'normal', 'yaw': -1.99, 'datetime': '2018-10-09 12:29:41.724143', 'mgs': 0, 'volt': 0.9277, 'depth': 1.996, 'time': 22, 'pitch': -1.24, 'roll': -2.57, 'pres': 190}
{'lipoC2': 7.49, 'lipoC3S1': 4.12, 'temp': 31.13, 'lipoC3S3': 12.46, 'lipoC3S2': 8.24, 'rot1': 0, 'rot0': 0, 'rot3': 0, 'rot2': 0, 'state': 'normal', 'yaw': -2.03, 'datetime': '2018-10-09 12:29:41.827483', 'mgs': 0, 'volt': 0.9277, 'depth': 1.996, 'time': 22, 'pitch': -1.42, 'roll': -2.82, 'pres': 190}
{'lipoC2': 7.49, 'lipoC3S1': 4.12, 'temp': 31.13, 'lipoC3S3': 12.46, 'lipoC3S2': 8.24, 'rot1': 0, 'rot0': 0, 'rot3': 0, 'rot2': 0, 'state': 'normal', 'yaw': -2.13, 'datetime': '2018-10-09 12:29:41.930405', 'mgs': 0, 'volt': 0.9277, 'depth': 1.996, 'time': 23, 'pitch': -1.6, 'roll': -3.05, 'pres': 190}
{'lipoC2': 7.49, 'lipoC3S1': 4.12, 'temp': 31.13, 'lipoC3S3': 12.46, 'lipoC3S2': 8.24, 'rot1': 0, 'rot0': 0, 'rot3': 0, 'rot2': 0, 'state': 'normal', 'yaw': -2.26, 'datetime': '2018-10-09 12:29:42.033410', 'mgs': 0, 'volt': 0.9277, 'depth': 1.996, 'time': 23, 'pitch': -1.54, 'roll': -3.11, 'pres': 190}
{'lipoC2': 7.5, 'lipoC3S1': 4.12, 'temp': 31.13, 'lipoC3S3': 12.46, 'lipoC3S2': 8.24, 'rot1': 0, 'rot0': 0, 'rot3': 0, 'rot2': 0, 'state': 'normal', 'yaw': -2.41, 'datetime': '2018-10-09 12:29:42.136487', 'mgs': 0, 'volt': 0.9277, 'depth': 1.996, 'time': 23, 'pitch': -1.19, 'roll': -3.04, 'pres': 190}
{'lipoC2': 7.5, 'lipoC3S1': 4.12, 'temp': 31.13, 'lipoC3S3': 12.46, 'lipoC3S2': 8.24, 'rot1': 0, 'rot0': 0, 'rot3': 0, 'rot2': 0, 'state': 'normal', 'yaw': -2.58, 'datetime': '2018-10-09 12:29:42.239397', 'mgs': 0, 'volt': 0.9277, 'depth': 1.996, 'time': 23, 'pitch': -0.57, 'roll': -2.79, 'pres': 190}
{'lipoC2': 7.49, 'lipoC3S1': 4.12, 'temp': 31.19, 'lipoC3S3': 12.46, 'lipoC3S2': 8.24, 'rot1': 0, 'rot0': 0, 'rot3': 0, 'rot2': 0, 'state': 'normal', 'yaw': -2.72, 'datetime': '2018-10-09 12:29:42.342381', 'mgs': 0, 'volt': 0.9277, 'depth': 1.996, 'time': 23, 'pitch': -0.01, 'roll': -2.49, 'pres': 190}
{'lipoC2': 7.5, 'lipoC3S1': 4.12, 'temp': 31.19, 'lipoC3S3': 12.46, 'lipoC3S2': 8.24, 'rot1': 0, 'rot0': 0, 'rot3': 0, 'rot2': 0, 'state': 'normal', 'yaw': -2.81, 'datetime': '2018-10-09 12:29:42.446168', 'mgs': 0, 'volt': 0.9277, 'depth': 1.996, 'time': 23, 'pitch': 0.26, 'roll': -2.24, 'pres': 190}
{'lipoC2': 7.49, 'lipoC3S1': 4.12, 'temp': 31.19, 'lipoC3S3': 12.46, 'lipoC3S2': 8.24, 'rot1': 0, 'rot0': 0, 'rot3': 0, 'rot2': 0, 'state': 'normal', 'yaw': -2.87, 'datetime': '2018-10-09 12:29:42.548353', 'mgs': 0, 'volt': 0.9277, 'depth': 1.996, 'time': 23, 'pitch': 0.13, 'roll': -2.14, 'pres': 190}
{'lipoC2': 7.49, 'lipoC3S1': 4.12, 'temp': 31.13, 'lipoC3S3': 12.46, 'lipoC3S2': 8.24, 'rot1': 0, 'rot0': 0, 'rot3': 0, 'rot2': 0, 'state': 'normal', 'yaw': -2.93, 'datetime': '2018-10-09 12:29:42.651361', 'mgs': 0, 'volt': 0.9277, 'depth': 1.996, 'time': 23, 'pitch': -0.29, 'roll': -2.17, 'pres': 190}
{'lipoC2': 7.49, 'lipoC3S1': 4.12, 'temp': 31.13, 'lipoC3S3': 12.46, 'lipoC3S2': 8.24, 'rot1': 0, 'rot0': 0, 'rot3': 0, 'rot2': 0, 'state': 'normal', 'yaw': -3.02, 'datetime': '2018-10-09 12:29:42.755078', 'mgs': 0, 'volt': 0.9326, 'depth': 2.072, 'time': 23, 'pitch': -0.67, 'roll': -2.28, 'pres': 191}
{'lipoC2': 7.5, 'lipoC3S1': 4.12, 'temp': 31.06, 'lipoC3S3': 12.46, 'lipoC3S2': 8.24, 'rot1': 0, 'rot0': 0, 'rot3': 0, 'rot2': 0, 'state': 'normal', 'yaw': -3.1, 'datetime': '2018-10-09 12:29:42.858660', 'mgs': 0, 'volt': 0.9277, 'depth': 1.996, 'time': 23, 'pitch': -0.9, 'roll': -2.41, 'pres': 190}
{'lipoC2': 7.49, 'lipoC3S1': 4.12, 'temp': 31.06, 'lipoC3S3': 12.46, 'lipoC3S2': 8.24, 'rot1': 0, 'rot0': 0, 'rot3': 0, 'rot2': 0, 'state': 'normal', 'yaw': -3.23, 'datetime': '2018-10-09 12:29:42.961632', 'mgs': 0, 'volt': 0.9277, 'depth': 1.996, 'time': 24, 'pitch': -0.93, 'roll': -2.49, 'pres': 190}
{'lipoC2': 7.5, 'lipoC3S1': 4.12, 'temp': 31.13, 'lipoC3S3': 12.46, 'lipoC3S2': 8.24, 'rot1': 0, 'rot0': 0, 'rot3': 0, 'rot2': 0, 'state': 'normal', 'yaw': -3.37, 'datetime': '2018-10-09 12:29:43.066102', 'mgs': 0, 'volt': 0.9277, 'depth': 1.996, 'time': 24, 'pitch': -0.83, 'roll': -2.49, 'pres': 190}
{'lipoC2': 7.5, 'lipoC3S1': 4.12, 'temp': 31.13, 'lipoC3S3': 12.46, 'lipoC3S2': 8.24, 'rot1': 0, 'rot0': 0, 'rot3': 0, 'rot2': 0, 'state': 'normal', 'yaw': -3.5, 'datetime': '2018-10-09 12:29:43.169554', 'mgs': 0, 'volt': 0.9277, 'depth': 1.996, 'time': 24, 'pitch': -0.73, 'roll': -2.48, 'pres': 190}
{'lipoC2': 7.5, 'lipoC3S1': 4.12, 'temp': 31.13, 'lipoC3S3': 12.46, 'lipoC3S2': 8.24, 'rot1': 0, 'rot0': 0, 'rot3': 0, 'rot2': 0, 'state': 'normal', 'yaw': -3.64, 'datetime': '2018-10-09 12:29:43.272520', 'mgs': 0, 'volt': 0.9277, 'depth': 1.996, 'time': 24, 'pitch': -0.64, 'roll': -2.49, 'pres': 190}
{'lipoC2': 7.5, 'lipoC3S1': 4.12, 'temp': 31.13, 'lipoC3S3': 12.46, 'lipoC3S2': 8.24, 'rot1': 0, 'rot0': 0, 'rot3': 0, 'rot2': 0, 'state': 'normal', 'yaw': -3.79, 'datetime': '2018-10-09 12:29:43.376991', 'mgs': 0, 'volt': 0.9277, 'depth': 1.996, 'time': 24, 'pitch': -0.61, 'roll': -2.5, 'pres': 190}
{'lipoC2': 7.5, 'lipoC3S1': 4.12, 'temp': 31.13, 'lipoC3S3': 12.46, 'lipoC3S2': 8.24, 'rot1': 0, 'rot0': 0, 'rot3': 0, 'rot2': 0, 'state': 'normal', 'yaw': -3.95, 'datetime': '2018-10-09 12:29:43.480628', 'mgs': 0, 'volt': 0.9277, 'depth': 1.996, 'time': 24, 'pitch': -0.61, 'roll': -2.5, 'pres': 190}
{'lipoC2': 7.5, 'lipoC3S1': 4.12, 'temp': 31.13, 'lipoC3S3': 12.46, 'lipoC3S2': 8.24, 'rot1': 0, 'rot0': 0, 'rot3': 0, 'rot2': 0, 'state': 'normal', 'yaw': -4.11, 'datetime': '2018-10-09 12:29:43.583499', 'mgs': 0, 'volt': 0.9277, 'depth': 1.996, 'time': 24, 'pitch': -0.66, 'roll': -2.44, 'pres': 190}
{'lipoC2': 7.5, 'lipoC3S1': 4.12, 'temp': 31.13, 'lipoC3S3': 12.46, 'lipoC3S2': 8.24, 'rot1': 0, 'rot0': 0, 'rot3': 0, 'rot2': 0, 'state': 'normal', 'yaw': -4.26, 'datetime': '2018-10-09 12:29:43.686710', 'mgs': 0, 'volt': 0.9229, 'depth': 1.92, 'time': 24, 'pitch': -0.78, 'roll': -2.35, 'pres': 189}
{'lipoC2': 7.5, 'lipoC3S1': 4.12, 'temp': 31.13, 'lipoC3S3': 12.46, 'lipoC3S2': 8.24, 'rot1': 0, 'rot0': 0, 'rot3': 0, 'rot2': 0, 'state': 'normal', 'yaw': -4.39, 'datetime': '2018-10-09 12:29:43.789721', 'mgs': 0, 'volt': 0.9277, 'depth': 1.996, 'time': 24, 'pitch': -0.93, 'roll': -2.31, 'pres': 190}
{'lipoC2': 7.49, 'lipoC3S1': 4.12, 'temp': 31.13, 'lipoC3S3': 12.46, 'lipoC3S2': 8.24, 'rot1': 0, 'rot0': 0, 'rot3': 0, 'rot2': 0, 'state': 'normal', 'yaw': -4.51, 'datetime': '2018-10-09 12:29:43.892406', 'mgs': 0, 'volt': 0.9277, 'depth': 1.996, 'time': 25, 'pitch': -1.1, 'roll': -2.31, 'pres': 190}
{'lipoC2': 7.49, 'lipoC3S1': 4.12, 'temp': 31.13, 'lipoC3S3': 12.46, 'lipoC3S2': 8.24, 'rot1': 0, 'rot0': 0, 'rot3': 0, 'rot2': 0, 'state': 'normal', 'yaw': -4.61, 'datetime': '2018-10-09 12:29:43.996226', 'mgs': 0, 'volt': 0.9277, 'depth': 1.996, 'time': 25, 'pitch': -1.24, 'roll': -2.34, 'pres': 190}
{'lipoC2': 7.5, 'lipoC3S1': 4.12, 'temp': 31.13, 'lipoC3S3': 12.46, 'lipoC3S2': 8.24, 'rot1': 0, 'rot0': 0, 'rot3': 0, 'rot2': 0, 'state': 'normal', 'yaw': -4.73, 'datetime': '2018-10-09 12:29:44.098579', 'mgs': 0, 'volt': 0.9229, 'depth': 1.92, 'time': 25, 'pitch': -1.28, 'roll': -2.34, 'pres': 189}
{'lipoC2': 7.5, 'lipoC3S1': 4.12, 'temp': 31.13, 'lipoC3S3': 12.46, 'lipoC3S2': 8.24, 'rot1': 0, 'rot0': 0, 'rot3': 0, 'rot2': 0, 'state': 'normal', 'yaw': -4.88, 'datetime': '2018-10-09 12:29:44.201513', 'mgs': 0, 'volt': 0.9277, 'depth': 1.996, 'time': 25, 'pitch': -1.26, 'roll': -2.32, 'pres': 190}
{'lipoC2': 7.5, 'lipoC3S1': 4.12, 'temp': 31.13, 'lipoC3S3': 12.46, 'lipoC3S2': 8.24, 'rot1': 0, 'rot0': 0, 'rot3': 0, 'rot2': 0, 'state': 'normal', 'yaw': -5.06, 'datetime': '2018-10-09 12:29:44.304441', 'mgs': 0, 'volt': 0.9277, 'depth': 1.996, 'time': 25, 'pitch': -1.13, 'roll': -2.15, 'pres': 190}
{'lipoC2': 7.5, 'lipoC3S1': 4.12, 'temp': 31.13, 'lipoC3S3': 12.46, 'lipoC3S2': 8.24, 'rot1': 0, 'rot0': 0, 'rot3': 0, 'rot2': 0, 'state': 'normal', 'yaw': -5.22, 'datetime': '2018-10-09 12:29:44.407854', 'mgs': 0, 'volt': 0.9277, 'depth': 1.996, 'time': 25, 'pitch': -0.96, 'roll': -1.95, 'pres': 190}
{'lipoC2': 7.5, 'lipoC3S1': 4.12, 'temp': 31.13, 'lipoC3S3': 12.46, 'lipoC3S2': 8.24, 'rot1': 0, 'rot0': 0, 'rot3': 0, 'rot2': 0, 'state': 'normal', 'yaw': -5.35, 'datetime': '2018-10-09 12:29:44.511794', 'mgs': 0, 'volt': 0.9277, 'depth': 1.996, 'time': 25, 'pitch': -0.79, 'roll': -1.76, 'pres': 190}
{'lipoC2': 7.49, 'lipoC3S1': 4.12, 'temp': 31.13, 'lipoC3S3': 12.46, 'lipoC3S2': 8.24, 'rot1': 0, 'rot0': 0, 'rot3': 0, 'rot2': 0, 'state': 'normal', 'yaw': -5.47, 'datetime': '2018-10-09 12:29:44.614782', 'mgs': 0, 'volt': 0.9277, 'depth': 1.996, 'time': 25, 'pitch': -0.65, 'roll': -1.62, 'pres': 190}
{'lipoC2': 7.5, 'lipoC3S1': 4.12, 'temp': 31.13, 'lipoC3S3': 12.46, 'lipoC3S2': 8.24, 'rot1': 0, 'rot0': 0, 'rot3': 0, 'rot2': 0, 'state': 'normal', 'yaw': -5.55, 'datetime': '2018-10-09 12:29:44.718806', 'mgs': 0, 'volt': 0.9277, 'depth': 1.996, 'time': 25, 'pitch': -0.57, 'roll': -1.59, 'pres': 190}
{'lipoC2': 7.5, 'lipoC3S1': 4.12, 'temp': 31.13, 'lipoC3S3': 12.46, 'lipoC3S2': 8.24, 'rot1': 0, 'rot0': 0, 'rot3': 0, 'rot2': 0, 'state': 'normal', 'yaw': -5.64, 'datetime': '2018-10-09 12:29:44.822595', 'mgs': 0, 'volt': 0.9277, 'depth': 1.996, 'time': 25, 'pitch': -0.57, 'roll': -1.59, 'pres': 190}
{'lipoC2': 7.5, 'lipoC3S1': 4.12, 'temp': 31.13, 'lipoC3S3': 12.46, 'lipoC3S2': 8.24, 'rot1': 0, 'rot0': 0, 'rot3': 0, 'rot2': 0, 'state': 'normal', 'yaw': -5.76, 'datetime': '2018-10-09 12:29:44.925881', 'mgs': 0, 'volt': 0.9277, 'depth': 1.996, 'time': 26, 'pitch': -0.64, 'roll': -1.59, 'pres': 190}
{'lipoC2': 7.5, 'lipoC3S1': 4.12, 'temp': 31.13, 'lipoC3S3': 12.46, 'lipoC3S2': 8.24, 'rot1': 0, 'rot0': 0, 'rot3': 0, 'rot2': 0, 'state': 'normal', 'yaw': -5.95, 'datetime': '2018-10-09 12:29:45.030057', 'mgs': 0, 'volt': 0.9326, 'depth': 2.072, 'time': 26, 'pitch': -0.77, 'roll': -1.6, 'pres': 191}
{'lipoC2': 7.49, 'lipoC3S1': 4.12, 'temp': 31.13, 'lipoC3S3': 12.46, 'lipoC3S2': 8.24, 'rot1': 0, 'rot0': 0, 'rot3': 0, 'rot2': 0, 'state': 'normal', 'yaw': -6.11, 'datetime': '2018-10-09 12:29:45.133793', 'mgs': 0, 'volt': 0.9326, 'depth': 2.072, 'time': 26, 'pitch': -1.03, 'roll': -1.71, 'pres': 191}
{'lipoC2': 7.5, 'lipoC3S1': 4.12, 'temp': 31.13, 'lipoC3S3': 12.46, 'lipoC3S2': 8.24, 'rot1': 0, 'rot0': 0, 'rot3': 0, 'rot2': 0, 'state': 'normal', 'yaw': -6.3, 'datetime': '2018-10-09 12:29:45.230402', 'mgs': 0, 'volt': 0.9326, 'depth': 2.072, 'time': 26, 'pitch': -1.32, 'roll': -1.91, 'pres': 191}
{'lipoC2': 7.49, 'lipoC3S1': 4.12, 'temp': 31.13, 'lipoC3S3': 12.46, 'lipoC3S2': 8.24, 'rot1': 0, 'rot0': 0, 'rot3': 0, 'rot2': 0, 'state': 'normal', 'yaw': -6.46, 'datetime': '2018-10-09 12:29:45.336396', 'mgs': 0, 'volt': 0.9326, 'depth': 2.072, 'time': 26, 'pitch': -1.38, 'roll': -2.11, 'pres': 191}
{'lipoC2': 7.49, 'lipoC3S1': 4.12, 'temp': 31.13, 'lipoC3S3': 12.46, 'lipoC3S2': 8.24, 'rot1': 0, 'rot0': 0, 'rot3': 0, 'rot2': 0, 'state': 'normal', 'yaw': -6.65, 'datetime': '2018-10-09 12:29:45.439243', 'mgs': 0, 'volt': 0.9277, 'depth': 1.996, 'time': 26, 'pitch': -1.09, 'roll': -2.27, 'pres': 190}
{'lipoC2': 7.5, 'lipoC3S1': 4.12, 'temp': 31.13, 'lipoC3S3': 12.46, 'lipoC3S2': 8.24, 'rot1': 0, 'rot0': 0, 'rot3': 0, 'rot2': 0, 'state': 'normal', 'yaw': -6.88, 'datetime': '2018-10-09 12:29:45.542262', 'mgs': 0, 'volt': 0.9277, 'depth': 1.996, 'time': 26, 'pitch': -0.44, 'roll': -2.31, 'pres': 190}
{'lipoC2': 7.5, 'lipoC3S1': 4.12, 'temp': 31.13, 'lipoC3S3': 12.46, 'lipoC3S2': 8.24, 'rot1': 0, 'rot0': 0, 'rot3': 0, 'rot2': 0, 'state': 'normal', 'yaw': -7.08, 'datetime': '2018-10-09 12:29:45.645194', 'mgs': 0, 'volt': 0.9277, 'depth': 1.996, 'time': 26, 'pitch': 0.11, 'roll': -2.28, 'pres': 190}
{'lipoC2': 7.5, 'lipoC3S1': 4.12, 'temp': 31.13, 'lipoC3S3': 12.46, 'lipoC3S2': 8.24, 'rot1': 0, 'rot0': 0, 'rot3': 0, 'rot2': 0, 'state': 'normal', 'yaw': -7.24, 'datetime': '2018-10-09 12:29:45.748218', 'mgs': 0, 'volt': 0.9277, 'depth': 1.996, 'time': 26, 'pitch': 0.27, 'roll': -2.2, 'pres': 190}
{'lipoC2': 7.5, 'lipoC3S1': 4.12, 'temp': 31.13, 'lipoC3S3': 12.46, 'lipoC3S2': 8.24, 'rot1': 0, 'rot0': 0, 'rot3': 0, 'rot2': 0, 'state': 'normal', 'yaw': -7.37, 'datetime': '2018-10-09 12:29:45.851417', 'mgs': 0, 'volt': 0.9277, 'depth': 1.996, 'time': 26, 'pitch': -0.1, 'roll': -2.19, 'pres': 190}
{'lipoC2': 7.5, 'lipoC3S1': 4.12, 'temp': 31.13, 'lipoC3S3': 12.46, 'lipoC3S2': 8.24, 'rot1': 0, 'rot0': 0, 'rot3': 0, 'rot2': 0, 'state': 'normal', 'yaw': -7.51, 'datetime': '2018-10-09 12:29:45.954377', 'mgs': 0, 'volt': 0.9277, 'depth': 1.996, 'time': 27, 'pitch': -0.8, 'roll': -2.19, 'pres': 190}
{'lipoC2': 7.5, 'lipoC3S1': 4.12, 'temp': 31.13, 'lipoC3S3': 12.46, 'lipoC3S2': 8.24, 'rot1': 0, 'rot0': 0, 'rot3': 0, 'rot2': 0, 'state': 'normal', 'yaw': -7.68, 'datetime': '2018-10-09 12:29:46.057389', 'mgs': 0, 'volt': 0.9326, 'depth': 2.072, 'time': 27, 'pitch': -1.3, 'roll': -2.21, 'pres': 191}
{'lipoC2': 7.5, 'lipoC3S1': 4.12, 'temp': 31.13, 'lipoC3S3': 12.46, 'lipoC3S2': 8.24, 'rot1': 0, 'rot0': 0, 'rot3': 0, 'rot2': 0, 'state': 'normal', 'yaw': -7.86, 'datetime': '2018-10-09 12:29:46.161876', 'mgs': 0, 'volt': 0.9277, 'depth': 1.996, 'time': 27, 'pitch': -1.36, 'roll': -2.22, 'pres': 190}
{'lipoC2': 7.5, 'lipoC3S1': 4.12, 'temp': 31.13, 'lipoC3S3': 12.46, 'lipoC3S2': 8.24, 'rot1': 0, 'rot0': 0, 'rot3': 0, 'rot2': 0, 'state': 'normal', 'yaw': -8.11, 'datetime': '2018-10-09 12:29:46.264704', 'mgs': 0, 'volt': 0.9277, 'depth': 1.996, 'time': 27, 'pitch': -0.95, 'roll': -2.22, 'pres': 190}
{'lipoC2': 7.5, 'lipoC3S1': 4.12, 'temp': 31.13, 'lipoC3S3': 12.46, 'lipoC3S2': 8.24, 'rot1': 0, 'rot0': 0, 'rot3': 0, 'rot2': 0, 'state': 'normal', 'yaw': -8.34, 'datetime': '2018-10-09 12:29:46.368570', 'mgs': 0, 'volt': 0.9277, 'depth': 1.996, 'time': 27, 'pitch': -0.47, 'roll': -2.21, 'pres': 190}
{'lipoC2': 7.5, 'lipoC3S1': 4.12, 'temp': 31.13, 'lipoC3S3': 12.46, 'lipoC3S2': 8.24, 'rot1': 0, 'rot0': 0, 'rot3': 0, 'rot2': 0, 'state': 'normal', 'yaw': -8.56, 'datetime': '2018-10-09 12:29:46.472596', 'mgs': 0, 'volt': 0.9277, 'depth': 1.996, 'time': 27, 'pitch': -0.28, 'roll': -2.22, 'pres': 190}
{'lipoC2': 7.5, 'lipoC3S1': 4.12, 'temp': 31.13, 'lipoC3S3': 12.46, 'lipoC3S2': 8.24, 'rot1': 0, 'rot0': 0, 'rot3': 0, 'rot2': 0, 'state': 'normal', 'yaw': -8.78, 'datetime': '2018-10-09 12:29:46.575633', 'mgs': 0, 'volt': 0.9326, 'depth': 2.072, 'time': 27, 'pitch': -0.57, 'roll': -2.23, 'pres': 191}
{'lipoC2': 7.5, 'lipoC3S1': 4.12, 'temp': 31.13, 'lipoC3S3': 12.46, 'lipoC3S2': 8.24, 'rot1': 0, 'rot0': 0, 'rot3': 0, 'rot2': 0, 'state': 'normal', 'yaw': -8.99, 'datetime': '2018-10-09 12:29:46.680791', 'mgs': 0, 'volt': 0.9277, 'depth': 1.996, 'time': 27, 'pitch': -1.08, 'roll': -2.22, 'pres': 190}
{'lipoC2': 7.49, 'lipoC3S1': 4.12, 'temp': 31.13, 'lipoC3S3': 12.46, 'lipoC3S2': 8.24, 'rot1': 0, 'rot0': 0, 'rot3': 0, 'rot2': 0, 'state': 'normal', 'yaw': -9.23, 'datetime': '2018-10-09 12:29:46.783592', 'mgs': 0, 'volt': 0.9277, 'depth': 1.996, 'time': 27, 'pitch': -1.5, 'roll': -2.21, 'pres': 190}
{'lipoC2': 7.49, 'lipoC3S1': 4.12, 'temp': 31.13, 'lipoC3S3': 12.46, 'lipoC3S2': 8.24, 'rot1': 0, 'rot0': 0, 'rot3': 0, 'rot2': 0, 'state': 'normal', 'yaw': -9.5, 'datetime': '2018-10-09 12:29:46.886524', 'mgs': 0, 'volt': 0.9277, 'depth': 1.996, 'time': 28, 'pitch': -1.58, 'roll': -2.17, 'pres': 190}
{'lipoC2': 7.49, 'lipoC3S1': 4.12, 'temp': 31.13, 'lipoC3S3': 12.46, 'lipoC3S2': 8.24, 'rot1': 0, 'rot0': 0, 'rot3': 0, 'rot2': 0, 'state': 'normal', 'yaw': -9.74, 'datetime': '2018-10-09 12:29:46.989493', 'mgs': 0, 'volt': 0.9277, 'depth': 1.996, 'time': 28, 'pitch': -1.29, 'roll': -2.16, 'pres': 190}
{'lipoC2': 7.5, 'lipoC3S1': 4.12, 'temp': 31.13, 'lipoC3S3': 12.46, 'lipoC3S2': 8.24, 'rot1': 0, 'rot0': 0, 'rot3': 0, 'rot2': 0, 'state': 'normal', 'yaw': -9.98, 'datetime': '2018-10-09 12:29:47.092465', 'mgs': 0, 'volt': 0.9277, 'depth': 1.996, 'time': 28, 'pitch': -0.86, 'roll': -2.19, 'pres': 190}
{'lipoC2': 7.5, 'lipoC3S1': 4.12, 'temp': 31.13, 'lipoC3S3': 12.46, 'lipoC3S2': 8.24, 'rot1': 0, 'rot0': 0, 'rot3': 0, 'rot2': 0, 'state': 'normal', 'yaw': -10.23, 'datetime': '2018-10-09 12:29:47.195519', 'mgs': 0, 'volt': 0.9277, 'depth': 1.996, 'time': 28, 'pitch': -0.52, 'roll': -2.27, 'pres': 190}
{'lipoC2': 7.5, 'lipoC3S1': 4.12, 'temp': 31.13, 'lipoC3S3': 12.46, 'lipoC3S2': 8.24, 'rot1': 0, 'rot0': 0, 'rot3': 0, 'rot2': 0, 'state': 'normal', 'yaw': -10.44, 'datetime': '2018-10-09 12:29:47.298380', 'mgs': 0, 'volt': 0.9277, 'depth': 1.996, 'time': 28, 'pitch': -0.5, 'roll': -2.32, 'pres': 190}
{'lipoC2': 7.49, 'lipoC3S1': 4.12, 'temp': 31.13, 'lipoC3S3': 12.46, 'lipoC3S2': 8.24, 'rot1': 0, 'rot0': 0, 'rot3': 0, 'rot2': 0, 'state': 'normal', 'yaw': -10.66, 'datetime': '2018-10-09 12:29:47.401550', 'mgs': 0, 'volt': 0.9277, 'depth': 1.996, 'time': 28, 'pitch': -0.78, 'roll': -2.31, 'pres': 190}
{'lipoC2': 7.5, 'lipoC3S1': 4.12, 'temp': 31.13, 'lipoC3S3': 12.46, 'lipoC3S2': 8.24, 'rot1': 0, 'rot0': 0, 'rot3': 0, 'rot2': 0, 'state': 'normal', 'yaw': -10.87, 'datetime': '2018-10-09 12:29:47.504477', 'mgs': 0, 'volt': 0.9277, 'depth': 1.996, 'time': 28, 'pitch': -1.21, 'roll': -2.31, 'pres': 190}
{'lipoC2': 7.49, 'lipoC3S1': 4.12, 'temp': 31.13, 'lipoC3S3': 12.46, 'lipoC3S2': 8.24, 'rot1': 0, 'rot0': 0, 'rot3': 0, 'rot2': 0, 'state': 'normal', 'yaw': -11.1, 'datetime': '2018-10-09 12:29:47.607527', 'mgs': 0, 'volt': 0.9277, 'depth': 1.996, 'time': 28, 'pitch': -1.58, 'roll': -2.29, 'pres': 190}
{'lipoC2': 7.5, 'lipoC3S1': 4.12, 'temp': 31.13, 'lipoC3S3': 12.46, 'lipoC3S2': 8.24, 'rot1': 0, 'rot0': 0, 'rot3': 0, 'rot2': 0, 'state': 'normal', 'yaw': -11.32, 'datetime': '2018-10-09 12:29:47.710619', 'mgs': 0, 'volt': 0.9277, 'depth': 1.996, 'time': 28, 'pitch': -1.63, 'roll': -2.23, 'pres': 190}
{'lipoC2': 7.5, 'lipoC3S1': 4.12, 'temp': 31.13, 'lipoC3S3': 12.46, 'lipoC3S2': 8.24, 'rot1': 0, 'rot0': 0, 'rot3': 0, 'rot2': 0, 'state': 'normal', 'yaw': -11.52, 'datetime': '2018-10-09 12:29:47.813632', 'mgs': 0, 'volt': 0.9277, 'depth': 1.996, 'time': 28, 'pitch': -1.42, 'roll': -2.14, 'pres': 190}
{'lipoC2': 7.5, 'lipoC3S1': 4.12, 'temp': 31.13, 'lipoC3S3': 12.46, 'lipoC3S2': 8.24, 'rot1': 0, 'rot0': 0, 'rot3': 0, 'rot2': 0, 'state': 'normal', 'yaw': -11.77, 'datetime': '2018-10-09 12:29:47.917819', 'mgs': 0, 'volt': 0.9277, 'depth': 1.996, 'time': 29, 'pitch': -1.06, 'roll': -2.05, 'pres': 190}
{'lipoC2': 7.49, 'lipoC3S1': 4.12, 'temp': 31.13, 'lipoC3S3': 12.46, 'lipoC3S2': 8.24, 'rot1': 0, 'rot0': 0, 'rot3': 0, 'rot2': 0, 'state': 'normal', 'yaw': -11.99, 'datetime': '2018-10-09 12:29:48.022654', 'mgs': 0, 'volt': 0.9277, 'depth': 1.996, 'time': 29, 'pitch': -0.83, 'roll': -1.95, 'pres': 190}
{'lipoC2': 7.5, 'lipoC3S1': 4.12, 'temp': 31.13, 'lipoC3S3': 12.46, 'lipoC3S2': 8.24, 'rot1': 0, 'rot0': 0, 'rot3': 0, 'rot2': 0, 'state': 'normal', 'yaw': -12.24, 'datetime': '2018-10-09 12:29:48.125248', 'mgs': 0, 'volt': 0.9277, 'depth': 1.996, 'time': 29, 'pitch': -0.78, 'roll': -1.82, 'pres': 190}
{'lipoC2': 7.5, 'lipoC3S1': 4.12, 'temp': 31.13, 'lipoC3S3': 12.46, 'lipoC3S2': 8.24, 'rot1': 0, 'rot0': 0, 'rot3': 0, 'rot2': 0, 'state': 'normal', 'yaw': -12.51, 'datetime': '2018-10-09 12:29:48.228482', 'mgs': 0, 'volt': 0.9326, 'depth': 2.072, 'time': 29, 'pitch': -0.96, 'roll': -1.69, 'pres': 191}
{'lipoC2': 7.49, 'lipoC3S1': 4.12, 'temp': 31.13, 'lipoC3S3': 12.46, 'lipoC3S2': 8.24, 'rot1': 0, 'rot0': 0, 'rot3': 0, 'rot2': 0, 'state': 'normal', 'yaw': -12.73, 'datetime': '2018-10-09 12:29:48.329149', 'mgs': 0, 'volt': 0.9277, 'depth': 1.996, 'time': 29, 'pitch': -1.21, 'roll': -1.64, 'pres': 190}
{'lipoC2': 7.49, 'lipoC3S1': 4.12, 'temp': 31.13, 'lipoC3S3': 12.46, 'lipoC3S2': 8.24, 'rot1': 0, 'rot0': 0, 'rot3': 0, 'rot2': 0, 'state': 'normal', 'yaw': -12.94, 'datetime': '2018-10-09 12:29:48.433343', 'mgs': 0, 'volt': 0.9277, 'depth': 1.996, 'time': 29, 'pitch': -1.37, 'roll': -1.63, 'pres': 190}
{'lipoC2': 7.49, 'lipoC3S1': 4.12, 'temp': 31.13, 'lipoC3S3': 12.46, 'lipoC3S2': 8.24, 'rot1': 0, 'rot0': 0, 'rot3': 0, 'rot2': 0, 'state': 'normal', 'yaw': -13.19, 'datetime': '2018-10-09 12:29:48.538469', 'mgs': 0, 'volt': 0.9326, 'depth': 2.072, 'time': 29, 'pitch': -1.36, 'roll': -1.63, 'pres': 191}
{'lipoC2': 7.49, 'lipoC3S1': 4.12, 'temp': 31.13, 'lipoC3S3': 12.46, 'lipoC3S2': 8.24, 'rot1': 0, 'rot0': 0, 'rot3': 0, 'rot2': 0, 'state': 'normal', 'yaw': -13.44, 'datetime': '2018-10-09 12:29:48.641373', 'mgs': 0, 'volt': 0.9326, 'depth': 2.072, 'time': 29, 'pitch': -1.19, 'roll': -1.62, 'pres': 191}
{'lipoC2': 7.49, 'lipoC3S1': 4.12, 'temp': 31.13, 'lipoC3S3': 12.46, 'lipoC3S2': 8.24, 'rot1': 0, 'rot0': 0, 'rot3': 0, 'rot2': 0, 'state': 'normal', 'yaw': -13.67, 'datetime': '2018-10-09 12:29:48.744213', 'mgs': 0, 'volt': 0.9326, 'depth': 2.072, 'time': 29, 'pitch': -1.0, 'roll': -1.61, 'pres': 191}
{'lipoC2': 7.49, 'lipoC3S1': 4.12, 'temp': 31.13, 'lipoC3S3': 12.46, 'lipoC3S2': 8.24, 'rot1': 0, 'rot0': 0, 'rot3': 0, 'rot2': 0, 'state': 'normal', 'yaw': -13.91, 'datetime': '2018-10-09 12:29:48.847471', 'mgs': 0, 'volt': 0.9326, 'depth': 2.072, 'time': 29, 'pitch': -0.88, 'roll': -1.61, 'pres': 191}
{'lipoC2': 7.49, 'lipoC3S1': 4.12, 'temp': 31.06, 'lipoC3S3': 12.46, 'lipoC3S2': 8.24, 'rot1': 0, 'rot0': 0, 'rot3': 0, 'rot2': 0, 'state': 'normal', 'yaw': -14.15, 'datetime': '2018-10-09 12:29:48.950580', 'mgs': 0, 'volt': 0.9277, 'depth': 1.996, 'time': 30, 'pitch': -0.9, 'roll': -1.61, 'pres': 190}
{'lipoC2': 7.49, 'lipoC3S1': 4.12, 'temp': 31.06, 'lipoC3S3': 12.46, 'lipoC3S2': 8.24, 'rot1': 0, 'rot0': 0, 'rot3': 0, 'rot2': 0, 'state': 'normal', 'yaw': -14.37, 'datetime': '2018-10-09 12:29:49.053350', 'mgs': 0, 'volt': 0.9277, 'depth': 1.996, 'time': 30, 'pitch': -1.09, 'roll': -1.71, 'pres': 190}
{'lipoC2': 7.5, 'lipoC3S1': 4.12, 'temp': 31.06, 'lipoC3S3': 12.46, 'lipoC3S2': 8.24, 'rot1': 0, 'rot0': 0, 'rot3': 0, 'rot2': 0, 'state': 'normal', 'yaw': -14.6, 'datetime': '2018-10-09 12:29:49.156359', 'mgs': 0, 'volt': 0.9277, 'depth': 1.996, 'time': 30, 'pitch': -1.36, 'roll': -1.84, 'pres': 190}
{'lipoC2': 7.49, 'lipoC3S1': 4.12, 'temp': 31.06, 'lipoC3S3': 12.46, 'lipoC3S2': 8.24, 'rot1': 0, 'rot0': 0, 'rot3': 0, 'rot2': 0, 'state': 'normal', 'yaw': -14.87, 'datetime': '2018-10-09 12:29:49.259389', 'mgs': 0, 'volt': 0.9277, 'depth': 1.996, 'time': 30, 'pitch': -1.56, 'roll': -1.95, 'pres': 190}
{'lipoC2': 7.49, 'lipoC3S1': 4.12, 'temp': 31.13, 'lipoC3S3': 12.46, 'lipoC3S2': 8.24, 'rot1': 0, 'rot0': 0, 'rot3': 0, 'rot2': 0, 'state': 'normal', 'yaw': -15.12, 'datetime': '2018-10-09 12:29:49.362315', 'mgs': 0, 'volt': 0.9277, 'depth': 1.996, 'time': 30, 'pitch': -1.55, 'roll': -1.95, 'pres': 190}
{'lipoC2': 7.5, 'lipoC3S1': 4.12, 'temp': 31.13, 'lipoC3S3': 12.46, 'lipoC3S2': 8.24, 'rot1': 0, 'rot0': 0, 'rot3': 0, 'rot2': 0, 'state': 'normal', 'yaw': -15.35, 'datetime': '2018-10-09 12:29:49.465429', 'mgs': 0, 'volt': 0.9277, 'depth': 1.996, 'time': 30, 'pitch': -1.31, 'roll': -1.95, 'pres': 190}
{'lipoC2': 7.49, 'lipoC3S1': 4.12, 'temp': 31.13, 'lipoC3S3': 12.46, 'lipoC3S2': 8.24, 'rot1': 0, 'rot0': 0, 'rot3': 0, 'rot2': 0, 'state': 'normal', 'yaw': -15.55, 'datetime': '2018-10-09 12:29:49.569358', 'mgs': 0, 'volt': 0.9277, 'depth': 1.996, 'time': 30, 'pitch': -1.0, 'roll': -1.98, 'pres': 190}
{'lipoC2': 7.49, 'lipoC3S1': 4.12, 'temp': 31.06, 'lipoC3S3': 12.46, 'lipoC3S2': 8.24, 'rot1': 0, 'rot0': 0, 'rot3': 0, 'rot2': 0, 'state': 'normal', 'yaw': -15.74, 'datetime': '2018-10-09 12:29:49.674257', 'mgs': 0, 'volt': 0.9277, 'depth': 1.996, 'time': 30, 'pitch': -0.89, 'roll': -2.13, 'pres': 190}
{'lipoC2': 7.49, 'lipoC3S1': 4.12, 'temp': 31.06, 'lipoC3S3': 12.46, 'lipoC3S2': 8.24, 'rot1': 0, 'rot0': 0, 'rot3': 0, 'rot2': 0, 'state': 'normal', 'yaw': -15.92, 'datetime': '2018-10-09 12:29:49.779951', 'mgs': 0, 'volt': 0.9277, 'depth': 1.996, 'time': 30, 'pitch': -1.16, 'roll': -2.36, 'pres': 190}
{'lipoC2': 7.49, 'lipoC3S1': 4.12, 'temp': 31.06, 'lipoC3S3': 12.46, 'lipoC3S2': 8.24, 'rot1': 0, 'rot0': 0, 'rot3': 0, 'rot2': 0, 'state': 'normal', 'yaw': -16.13, 'datetime': '2018-10-09 12:29:49.883504', 'mgs': 0, 'volt': 0.9277, 'depth': 1.996, 'time': 31, 'pitch': -1.68, 'roll': -2.61, 'pres': 190}
{'lipoC2': 7.5, 'lipoC3S1': 4.12, 'temp': 31.06, 'lipoC3S3': 12.46, 'lipoC3S2': 8.24, 'rot1': 0, 'rot0': 0, 'rot3': 0, 'rot2': 0, 'state': 'normal', 'yaw': -16.38, 'datetime': '2018-10-09 12:29:49.986585', 'mgs': 0, 'volt': 0.9277, 'depth': 1.996, 'time': 31, 'pitch': -2.16, 'roll': -2.84, 'pres': 190}
{'lipoC2': 7.49, 'lipoC3S1': 4.12, 'temp': 31.13, 'lipoC3S3': 12.46, 'lipoC3S2': 8.24, 'rot1': 0, 'rot0': 0, 'rot3': 0, 'rot2': 0, 'state': 'normal', 'yaw': -16.63, 'datetime': '2018-10-09 12:29:50.090927', 'mgs': 0, 'volt': 0.9277, 'depth': 1.996, 'time': 31, 'pitch': -2.27, 'roll': -2.94, 'pres': 190}
{'lipoC2': 7.5, 'lipoC3S1': 4.12, 'temp': 31.13, 'lipoC3S3': 12.46, 'lipoC3S2': 8.24, 'rot1': 0, 'rot0': 0, 'rot3': 0, 'rot2': 0, 'state': 'normal', 'yaw': -16.9, 'datetime': '2018-10-09 12:29:50.194530', 'mgs': 0, 'volt': 0.9277, 'depth': 1.996, 'time': 31, 'pitch': -2.08, 'roll': -2.93, 'pres': 190}
{'lipoC2': 7.49, 'lipoC3S1': 4.12, 'temp': 31.13, 'lipoC3S3': 12.46, 'lipoC3S2': 8.24, 'rot1': 0, 'rot0': 0, 'rot3': 0, 'rot2': 0, 'state': 'normal', 'yaw': -17.18, 'datetime': '2018-10-09 12:29:50.294318', 'mgs': 0, 'volt': 0.9277, 'depth': 1.996, 'time': 31, 'pitch': -1.66, 'roll': -2.82, 'pres': 190}
{'lipoC2': 7.49, 'lipoC3S1': 4.12, 'temp': 31.06, 'lipoC3S3': 12.46, 'lipoC3S2': 8.24, 'rot1': 0, 'rot0': 0, 'rot3': 0, 'rot2': 0, 'state': 'normal', 'yaw': -17.44, 'datetime': '2018-10-09 12:29:50.397078', 'mgs': 0, 'volt': 0.9277, 'depth': 1.996, 'time': 31, 'pitch': -1.24, 'roll': -2.63, 'pres': 190}
{'lipoC2': 7.49, 'lipoC3S1': 4.12, 'temp': 31.06, 'lipoC3S3': 12.46, 'lipoC3S2': 8.24, 'rot1': 0, 'rot0': 0, 'rot3': 0, 'rot2': 0, 'state': 'normal', 'yaw': -17.69, 'datetime': '2018-10-09 12:29:50.498052', 'mgs': 0, 'volt': 0.9277, 'depth': 1.996, 'time': 31, 'pitch': -0.88, 'roll': -2.41, 'pres': 190}
{'lipoC2': 7.5, 'lipoC3S1': 4.12, 'temp': 31.06, 'lipoC3S3': 12.46, 'lipoC3S2': 8.24, 'rot1': 0, 'rot0': 0, 'rot3': 0, 'rot2': 0, 'state': 'normal', 'yaw': -17.96, 'datetime': '2018-10-09 12:29:50.603029', 'mgs': 0, 'volt': 0.9277, 'depth': 1.996, 'time': 31, 'pitch': -0.61, 'roll': -2.19, 'pres': 190}
{'lipoC2': 7.5, 'lipoC3S1': 4.12, 'temp': 31.06, 'lipoC3S3': 12.46, 'lipoC3S2': 8.24, 'rot1': 0, 'rot0': 0, 'rot3': 0, 'rot2': 0, 'state': 'normal', 'yaw': -18.2, 'datetime': '2018-10-09 12:29:50.706187', 'mgs': 0, 'volt': 0.9277, 'depth': 1.996, 'time': 31, 'pitch': -0.53, 'roll': -2.04, 'pres': 190}
{'lipoC2': 7.5, 'lipoC3S1': 4.12, 'temp': 31.06, 'lipoC3S3': 12.46, 'lipoC3S2': 8.24, 'rot1': 0, 'rot0': 0, 'rot3': 0, 'rot2': 0, 'state': 'normal', 'yaw': -18.42, 'datetime': '2018-10-09 12:29:50.809032', 'mgs': 0, 'volt': 0.9277, 'depth': 1.996, 'time': 31, 'pitch': -0.66, 'roll': -1.98, 'pres': 190}
{'lipoC2': 7.49, 'lipoC3S1': 4.12, 'temp': 31.06, 'lipoC3S3': 12.46, 'lipoC3S2': 8.24, 'rot1': 0, 'rot0': 0, 'rot3': 0, 'rot2': 0, 'state': 'normal', 'yaw': -18.63, 'datetime': '2018-10-09 12:29:50.912247', 'mgs': 0, 'volt': 0.9277, 'depth': 1.996, 'time': 32, 'pitch': -1.04, 'roll': -1.98, 'pres': 190}
{'lipoC2': 7.5, 'lipoC3S1': 4.12, 'temp': 31.06, 'lipoC3S3': 12.46, 'lipoC3S2': 8.24, 'rot1': 0, 'rot0': 0, 'rot3': 0, 'rot2': 0, 'state': 'normal', 'yaw': -18.85, 'datetime': '2018-10-09 12:29:51.015195', 'mgs': 0, 'volt': 0.9277, 'depth': 1.996, 'time': 32, 'pitch': -1.54, 'roll': -1.92, 'pres': 190}
{'lipoC2': 7.5, 'lipoC3S1': 4.12, 'temp': 31.06, 'lipoC3S3': 12.46, 'lipoC3S2': 8.24, 'rot1': 0, 'rot0': 0, 'rot3': 0, 'rot2': 0, 'state': 'normal', 'yaw': -19.06, 'datetime': '2018-10-09 12:29:51.118855', 'mgs': 0, 'volt': 0.9326, 'depth': 2.072, 'time': 32, 'pitch': -1.82, 'roll': -1.83, 'pres': 191}
{'lipoC2': 7.49, 'lipoC3S1': 4.12, 'temp': 31.06, 'lipoC3S3': 12.46, 'lipoC3S2': 8.24, 'rot1': 0, 'rot0': 0, 'rot3': 0, 'rot2': 0, 'state': 'normal', 'yaw': -19.25, 'datetime': '2018-10-09 12:29:51.222818', 'mgs': 0, 'volt': 0.9326, 'depth': 2.072, 'time': 32, 'pitch': -1.85, 'roll': -1.8, 'pres': 191}
{'lipoC2': 7.5, 'lipoC3S1': 4.12, 'temp': 31.13, 'lipoC3S3': 12.46, 'lipoC3S2': 8.24, 'rot1': 0, 'rot0': 0, 'rot3': 0, 'rot2': 0, 'state': 'normal', 'yaw': -19.48, 'datetime': '2018-10-09 12:29:51.325954', 'mgs': 0, 'volt': 0.9277, 'depth': 1.996, 'time': 32, 'pitch': -1.68, 'roll': -1.83, 'pres': 190}
{'lipoC2': 7.5, 'lipoC3S1': 4.12, 'temp': 31.13, 'lipoC3S3': 12.46, 'lipoC3S2': 8.24, 'rot1': 0, 'rot0': 0, 'rot3': 0, 'rot2': 0, 'state': 'normal', 'yaw': -19.67, 'datetime': '2018-10-09 12:29:51.429847', 'mgs': 0, 'volt': 0.9277, 'depth': 1.996, 'time': 32, 'pitch': -1.55, 'roll': -1.94, 'pres': 190}
{'lipoC2': 7.5, 'lipoC3S1': 4.12, 'temp': 31.13, 'lipoC3S3': 12.46, 'lipoC3S2': 8.24, 'rot1': 0, 'rot0': 0, 'rot3': 0, 'rot2': 0, 'state': 'normal', 'yaw': -19.87, 'datetime': '2018-10-09 12:29:51.533395', 'mgs': 0, 'volt': 0.9277, 'depth': 1.996, 'time': 32, 'pitch': -1.59, 'roll': -2.03, 'pres': 190}
{'lipoC2': 7.49, 'lipoC3S1': 4.12, 'temp': 31.06, 'lipoC3S3': 12.46, 'lipoC3S2': 8.24, 'rot1': 0, 'rot0': 0, 'rot3': 0, 'rot2': 0, 'state': 'normal', 'yaw': -20.1, 'datetime': '2018-10-09 12:29:51.636335', 'mgs': 0, 'volt': 0.9277, 'depth': 1.996, 'time': 32, 'pitch': -1.77, 'roll': -2.05, 'pres': 190}
{'lipoC2': 7.49, 'lipoC3S1': 4.12, 'temp': 31.06, 'lipoC3S3': 12.46, 'lipoC3S2': 8.24, 'rot1': 0, 'rot0': 0, 'rot3': 0, 'rot2': 0, 'state': 'normal', 'yaw': -20.32, 'datetime': '2018-10-09 12:29:51.740678', 'mgs': 0, 'volt': 0.9277, 'depth': 1.996, 'time': 32, 'pitch': -1.85, 'roll': -2.04, 'pres': 190}
{'lipoC2': 7.49, 'lipoC3S1': 4.12, 'temp': 31.06, 'lipoC3S3': 12.46, 'lipoC3S2': 8.24, 'rot1': 0, 'rot0': 0, 'rot3': 0, 'rot2': 0, 'state': 'normal', 'yaw': -20.53, 'datetime': '2018-10-09 12:29:51.844351', 'mgs': 0, 'volt': 0.9277, 'depth': 1.996, 'time': 32, 'pitch': -1.8, 'roll': -2.03, 'pres': 190}
{'lipoC2': 7.5, 'lipoC3S1': 4.12, 'temp': 31.06, 'lipoC3S3': 12.46, 'lipoC3S2': 8.24, 'rot1': 0, 'rot0': 0, 'rot3': 0, 'rot2': 0, 'state': 'normal', 'yaw': -20.74, 'datetime': '2018-10-09 12:29:51.947478', 'mgs': 0, 'volt': 0.9277, 'depth': 1.996, 'time': 33, 'pitch': -1.62, 'roll': -2.03, 'pres': 190}
{'lipoC2': 7.5, 'lipoC3S1': 4.12, 'temp': 31.06, 'lipoC3S3': 12.46, 'lipoC3S2': 8.24, 'rot1': 0, 'rot0': 0, 'rot3': 0, 'rot2': 0, 'state': 'normal', 'yaw': -20.91, 'datetime': '2018-10-09 12:29:52.051868', 'mgs': 0, 'volt': 0.9229, 'depth': 1.92, 'time': 33, 'pitch': -1.48, 'roll': -2.02, 'pres': 189}
{'lipoC2': 7.5, 'lipoC3S1': 4.12, 'temp': 31.06, 'lipoC3S3': 12.46, 'lipoC3S2': 8.24, 'rot1': 0, 'rot0': 0, 'rot3': 0, 'rot2': 0, 'state': 'normal', 'yaw': -21.08, 'datetime': '2018-10-09 12:29:52.153221', 'mgs': 0, 'volt': 0.9229, 'depth': 1.92, 'time': 33, 'pitch': -1.51, 'roll': -2.03, 'pres': 189}
{'lipoC2': 7.49, 'lipoC3S1': 4.12, 'temp': 31.06, 'lipoC3S3': 12.46, 'lipoC3S2': 8.24, 'rot1': 0, 'rot0': 0, 'rot3': 0, 'rot2': 0, 'state': 'normal', 'yaw': -21.27, 'datetime': '2018-10-09 12:29:52.256257', 'mgs': 0, 'volt': 0.9277, 'depth': 1.996, 'time': 33, 'pitch': -1.66, 'roll': -2.04, 'pres': 190}
{'lipoC2': 7.49, 'lipoC3S1': 4.12, 'temp': 31.06, 'lipoC3S3': 12.46, 'lipoC3S2': 8.24, 'rot1': 0, 'rot0': 0, 'rot3': 0, 'rot2': 0, 'state': 'normal', 'yaw': -21.47, 'datetime': '2018-10-09 12:29:52.359281', 'mgs': 0, 'volt': 0.9277, 'depth': 1.996, 'time': 33, 'pitch': -1.82, 'roll': -2.02, 'pres': 190}
{'lipoC2': 7.5, 'lipoC3S1': 4.12, 'temp': 31.06, 'lipoC3S3': 12.46, 'lipoC3S2': 8.24, 'rot1': 0, 'rot0': 0, 'rot3': 0, 'rot2': 0, 'state': 'normal', 'yaw': -21.66, 'datetime': '2018-10-09 12:29:52.462235', 'mgs': 0, 'volt': 0.9277, 'depth': 1.996, 'time': 33, 'pitch': -1.82, 'roll': -2.02, 'pres': 190}
{'lipoC2': 7.5, 'lipoC3S1': 4.12, 'temp': 31.06, 'lipoC3S3': 12.46, 'lipoC3S2': 8.24, 'rot1': 0, 'rot0': 0, 'rot3': 0, 'rot2': 0, 'state': 'normal', 'yaw': -21.83, 'datetime': '2018-10-09 12:29:52.565466', 'mgs': 0, 'volt': 0.9277, 'depth': 1.996, 'time': 33, 'pitch': -1.67, 'roll': -2.02, 'pres': 190}
{'lipoC2': 7.5, 'lipoC3S1': 4.12, 'temp': 31.06, 'lipoC3S3': 12.46, 'lipoC3S2': 8.24, 'rot1': 0, 'rot0': 0, 'rot3': 0, 'rot2': 0, 'state': 'normal', 'yaw': -22.0, 'datetime': '2018-10-09 12:29:52.668477', 'mgs': 0, 'volt': 0.9277, 'depth': 1.996, 'time': 33, 'pitch': -1.39, 'roll': -2.01, 'pres': 190}
{'lipoC2': 7.5, 'lipoC3S1': 4.12, 'temp': 31.06, 'lipoC3S3': 12.46, 'lipoC3S2': 8.24, 'rot1': 0, 'rot0': 0, 'rot3': 0, 'rot2': 0, 'state': 'normal', 'yaw': -22.16, 'datetime': '2018-10-09 12:29:52.765596', 'mgs': 0, 'volt': 0.9277, 'depth': 1.996, 'time': 33, 'pitch': -1.18, 'roll': -2.02, 'pres': 190}
{'lipoC2': 7.49, 'lipoC3S1': 4.12, 'temp': 31.06, 'lipoC3S3': 12.46, 'lipoC3S2': 8.24, 'rot1': 0, 'rot0': 0, 'rot3': 0, 'rot2': 0, 'state': 'normal', 'yaw': -22.3, 'datetime': '2018-10-09 12:29:52.869604', 'mgs': 0, 'volt': 0.9277, 'depth': 1.996, 'time': 33, 'pitch': -1.13, 'roll': -2.11, 'pres': 190}
{'lipoC2': 7.49, 'lipoC3S1': 4.12, 'temp': 31.06, 'lipoC3S3': 12.46, 'lipoC3S2': 8.24, 'rot1': 0, 'rot0': 0, 'rot3': 0, 'rot2': 0, 'state': 'normal', 'yaw': -22.48, 'datetime': '2018-10-09 12:29:52.972580', 'mgs': 0, 'volt': 0.9277, 'depth': 1.996, 'time': 34, 'pitch': -1.3, 'roll': -2.24, 'pres': 190}
{'lipoC2': 7.5, 'lipoC3S1': 4.12, 'temp': 31.13, 'lipoC3S3': 12.46, 'lipoC3S2': 8.24, 'rot1': 0, 'rot0': 0, 'rot3': 0, 'rot2': 0, 'state': 'normal', 'yaw': -22.64, 'datetime': '2018-10-09 12:29:53.076468', 'mgs': 0, 'volt': 0.9277, 'depth': 1.996, 'time': 34, 'pitch': -1.63, 'roll': -2.36, 'pres': 190}
{'lipoC2': 7.5, 'lipoC3S1': 4.12, 'temp': 31.13, 'lipoC3S3': 12.46, 'lipoC3S2': 8.24, 'rot1': 0, 'rot0': 0, 'rot3': 0, 'rot2': 0, 'state': 'normal', 'yaw': -22.82, 'datetime': '2018-10-09 12:29:53.180427', 'mgs': 0, 'volt': 0.9277, 'depth': 1.996, 'time': 34, 'pitch': -1.95, 'roll': -2.41, 'pres': 190}
{'lipoC2': 7.49, 'lipoC3S1': 4.12, 'temp': 31.13, 'lipoC3S3': 12.46, 'lipoC3S2': 8.24, 'rot1': 0, 'rot0': 0, 'rot3': 0, 'rot2': 0, 'state': 'normal', 'yaw': -23.06, 'datetime': '2018-10-09 12:29:53.283372', 'mgs': 0, 'volt': 0.9277, 'depth': 1.996, 'time': 34, 'pitch': -2.03, 'roll': -2.4, 'pres': 190}
{'lipoC2': 7.5, 'lipoC3S1': 4.12, 'temp': 31.13, 'lipoC3S3': 12.46, 'lipoC3S2': 8.24, 'rot1': 0, 'rot0': 0, 'rot3': 0, 'rot2': 0, 'state': 'normal', 'yaw': -23.29, 'datetime': '2018-10-09 12:29:53.387353', 'mgs': 0, 'volt': 0.9277, 'depth': 1.996, 'time': 34, 'pitch': -1.77, 'roll': -2.38, 'pres': 190}
