{'lipoC2': 7.55, 'lipoC3S1': 4.13, 'temp': 30.94, 'lipoC3S3': 12.48, 'lipoC3S2': 8.26, 'rot1': 0, 'rot0': 0, 'rot3': 176, 'rot2': 150, 'state': 'normal', 'yaw': -18.18, 'datetime': '2018-10-09 12:05:52.163254', 'mgs': 0, 'volt': 0.9033, 'depth': 1.614, 'time': 37, 'pitch': 4.0, 'roll': -0.37, 'pres': 185}
{'lipoC2': 7.55, 'lipoC3S1': 4.13, 'temp': 30.94, 'lipoC3S3': 12.5, 'lipoC3S2': 8.26, 'rot1': 0, 'rot0': 0, 'rot3': 176, 'rot2': 150, 'state': 'normal', 'yaw': -18.1, 'datetime': '2018-10-09 12:05:52.186746', 'mgs': 0, 'volt': 0.9033, 'depth': 1.614, 'time': 37, 'pitch': 4.4, 'roll': -0.45, 'pres': 185}
{'lipoC2': 7.55, 'lipoC3S1': 4.13, 'temp': 30.88, 'lipoC3S3': 12.5, 'lipoC3S2': 8.26, 'rot1': 0, 'rot0': 0, 'rot3': 176, 'rot2': 150, 'state': 'normal', 'yaw': -18.02, 'datetime': '2018-10-09 12:05:52.210307', 'mgs': 0, 'volt': 0.9033, 'depth': 1.614, 'time': 37, 'pitch': 5.1, 'roll': -0.56, 'pres': 185}
{'lipoC2': 7.55, 'lipoC3S1': 4.13, 'temp': 30.88, 'lipoC3S3': 12.5, 'lipoC3S2': 8.26, 'rot1': 0, 'rot0': 0, 'rot3': 176, 'rot2': 150, 'state': 'normal', 'yaw': -18.0, 'datetime': '2018-10-09 12:05:52.233706', 'mgs': 0, 'volt': 0.9082, 'depth': 1.691, 'time': 37, 'pitch': 5.8, 'roll': -0.62, 'pres': 186}
{'lipoC2': 7.55, 'lipoC3S1': 4.13, 'temp': 31.0, 'lipoC3S3': 12.48, 'lipoC3S2': 8.26, 'rot1': 0, 'rot0': 0, 'rot3': 176, 'rot2': 150, 'state': 'normal', 'yaw': -17.99, 'datetime': '2018-10-09 12:05:52.257113', 'mgs': 0, 'volt': 0.9082, 'depth': 1.691, 'time': 37, 'pitch': 6.03, 'roll': -0.51, 'pres': 186}
{'lipoC2': 7.55, 'lipoC3S1': 4.13, 'temp': 31.0, 'lipoC3S3': 12.5, 'lipoC3S2': 8.26, 'rot1': 0, 'rot0': 0, 'rot3': 176, 'rot2': 150, 'state': 'normal', 'yaw': -17.98, 'datetime': '2018-10-09 12:05:52.277975', 'mgs': 0, 'volt': 0.9082, 'depth': 1.691, 'time': 37, 'pitch': 5.93, 'roll': -0.28, 'pres': 186}
{'lipoC2': 7.55, 'lipoC3S1': 4.13, 'temp': 31.0, 'lipoC3S3': 12.48, 'lipoC3S2': 8.26, 'rot1': 0, 'rot0': 0, 'rot3': 176, 'rot2': 150, 'state': 'normal', 'yaw': -17.96, 'datetime': '2018-10-09 12:05:52.287594', 'mgs': 0, 'volt': 0.9082, 'depth': 1.691, 'time': 38, 'pitch': 5.6, 'roll': 0.04, 'pres': 186}
{'lipoC2': 7.55, 'lipoC3S1': 4.13, 'temp': 31.0, 'lipoC3S3': 12.5, 'lipoC3S2': 8.26, 'rot1': 0, 'rot0': 0, 'rot3': 176, 'rot2': 150, 'state': 'normal', 'yaw': -17.89, 'datetime': '2018-10-09 12:05:52.297210', 'mgs': 0, 'volt': 0.9033, 'depth': 1.614, 'time': 38, 'pitch': 5.4, 'roll': 0.29, 'pres': 185}
{'lipoC2': 7.55, 'lipoC3S1': 4.13, 'temp': 31.0, 'lipoC3S3': 12.48, 'lipoC3S2': 8.26, 'rot1': 0, 'rot0': 0, 'rot3': 176, 'rot2': 150, 'state': 'normal', 'yaw': -17.82, 'datetime': '2018-10-09 12:05:52.306824', 'mgs': 0, 'volt': 0.9033, 'depth': 1.614, 'time': 38, 'pitch': 5.38, 'roll': 0.42, 'pres': 185}
{'lipoC2': 7.55, 'lipoC3S1': 4.13, 'temp': 30.94, 'lipoC3S3': 12.5, 'lipoC3S2': 8.26, 'rot1': 0, 'rot0': 0, 'rot3': 176, 'rot2': 150, 'state': 'normal', 'yaw': -17.78, 'datetime': '2018-10-09 12:05:52.316397', 'mgs': 0, 'volt': 0.9033, 'depth': 1.614, 'time': 38, 'pitch': 5.49, 'roll': 0.37, 'pres': 185}
{'lipoC2': 7.55, 'lipoC3S1': 4.13, 'temp': 30.94, 'lipoC3S3': 12.48, 'lipoC3S2': 8.26, 'rot1': 0, 'rot0': 0, 'rot3': 176, 'rot2': 150, 'state': 'normal', 'yaw': -17.78, 'datetime': '2018-10-09 12:05:52.325918', 'mgs': 0, 'volt': 0.9082, 'depth': 1.691, 'time': 38, 'pitch': 5.61, 'roll': 0.14, 'pres': 186}
{'lipoC2': 7.55, 'lipoC3S1': 4.13, 'temp': 30.94, 'lipoC3S3': 12.48, 'lipoC3S2': 8.26, 'rot1': 0, 'rot0': 0, 'rot3': 176, 'rot2': 150, 'state': 'normal', 'yaw': -17.72, 'datetime': '2018-10-09 12:05:52.335464', 'mgs': 0, 'volt': 0.9082, 'depth': 1.691, 'time': 38, 'pitch': 5.66, 'roll': -0.13, 'pres': 186}
{'lipoC2': 7.55, 'lipoC3S1': 4.13, 'temp': 30.94, 'lipoC3S3': 12.48, 'lipoC3S2': 8.26, 'rot1': 0, 'rot0': 0, 'rot3': 176, 'rot2': 150, 'state': 'normal', 'yaw': -17.62, 'datetime': '2018-10-09 12:05:52.344991', 'mgs': 0, 'volt': 0.9082, 'depth': 1.691, 'time': 38, 'pitch': 5.61, 'roll': -0.25, 'pres': 186}
{'lipoC2': 7.55, 'lipoC3S1': 4.13, 'temp': 30.94, 'lipoC3S3': 12.48, 'lipoC3S2': 8.26, 'rot1': 0, 'rot0': 0, 'rot3': 176, 'rot2': 150, 'state': 'normal', 'yaw': -17.52, 'datetime': '2018-10-09 12:05:52.354559', 'mgs': 0, 'volt': 0.9082, 'depth': 1.691, 'time': 38, 'pitch': 5.34, 'roll': -0.11, 'pres': 186}
{'lipoC2': 7.55, 'lipoC3S1': 4.13, 'temp': 30.94, 'lipoC3S3': 12.48, 'lipoC3S2': 8.26, 'rot1': 0, 'rot0': 0, 'rot3': 176, 'rot2': 150, 'state': 'normal', 'yaw': -17.43, 'datetime': '2018-10-09 12:05:52.364472', 'mgs': 0, 'volt': 0.9033, 'depth': 1.614, 'time': 38, 'pitch': 4.74, 'roll': 0.27, 'pres': 185}
{'lipoC2': 7.55, 'lipoC3S1': 4.13, 'temp': 30.94, 'lipoC3S3': 12.48, 'lipoC3S2': 8.26, 'rot1': 0, 'rot0': 0, 'rot3': 176, 'rot2': 150, 'state': 'normal', 'yaw': -17.36, 'datetime': '2018-10-09 12:05:52.374100', 'mgs': 0, 'volt': 0.9033, 'depth': 1.614, 'time': 38, 'pitch': 4.03, 'roll': 0.62, 'pres': 185}
{'lipoC2': 7.54, 'lipoC3S1': 4.13, 'temp': 31.0, 'lipoC3S3': 12.48, 'lipoC3S2': 8.26, 'rot1': 0, 'rot0': 0, 'rot3': 176, 'rot2': 150, 'state': 'normal', 'yaw': -17.31, 'datetime': '2018-10-09 12:05:52.383643', 'mgs': 0, 'volt': 0.9033, 'depth': 1.614, 'time': 39, 'pitch': 3.4, 'roll': 0.69, 'pres': 185}
{'lipoC2': 7.55, 'lipoC3S1': 4.13, 'temp': 31.0, 'lipoC3S3': 12.48, 'lipoC3S2': 8.26, 'rot1': 0, 'rot0': 0, 'rot3': 176, 'rot2': 150, 'state': 'normal', 'yaw': -17.59, 'datetime': '2018-10-09 12:05:52.393270', 'mgs': 0, 'volt': 0.9033, 'depth': 1.614, 'time': 39, 'pitch': 2.67, 'roll': 0.68, 'pres': 185}
{'lipoC2': 7.55, 'lipoC3S1': 4.13, 'temp': 30.94, 'lipoC3S3': 12.48, 'lipoC3S2': 8.26, 'rot1': 0, 'rot0': 0, 'rot3': 176, 'rot2': 150, 'state': 'normal', 'yaw': -18.05, 'datetime': '2018-10-09 12:05:52.402883', 'mgs': 0, 'volt': 0.9033, 'depth': 1.614, 'time': 39, 'pitch': 2.21, 'roll': 0.71, 'pres': 185}
{'lipoC2': 7.55, 'lipoC3S1': 4.13, 'temp': 30.94, 'lipoC3S3': 12.48, 'lipoC3S2': 8.26, 'rot1': 0, 'rot0': 0, 'rot3': 176, 'rot2': 150, 'state': 'normal', 'yaw': -18.53, 'datetime': '2018-10-09 12:05:52.412485', 'mgs': 0, 'volt': 0.9033, 'depth': 1.614, 'time': 39, 'pitch': 2.17, 'roll': 0.8, 'pres': 185}
{'lipoC2': 7.55, 'lipoC3S1': 4.13, 'temp': 30.94, 'lipoC3S3': 12.48, 'lipoC3S2': 8.26, 'rot1': 0, 'rot0': 0, 'rot3': 176, 'rot2': 150, 'state': 'normal', 'yaw': -18.96, 'datetime': '2018-10-09 12:05:52.422050', 'mgs': 0, 'volt': 0.9033, 'depth': 1.614, 'time': 39, 'pitch': 2.44, 'roll': 1.06, 'pres': 185}
{'lipoC2': 7.55, 'lipoC3S1': 4.13, 'temp': 30.94, 'lipoC3S3': 12.48, 'lipoC3S2': 8.26, 'rot1': 0, 'rot0': 0, 'rot3': 176, 'rot2': 150, 'state': 'normal', 'yaw': -19.28, 'datetime': '2018-10-09 12:05:52.431595', 'mgs': 0, 'volt': 0.9033, 'depth': 1.614, 'time': 39, 'pitch': 2.71, 'roll': 1.39, 'pres': 185}
{'lipoC2': 7.54, 'lipoC3S1': 4.13, 'temp': 30.94, 'lipoC3S3': 12.48, 'lipoC3S2': 8.26, 'rot1': 0, 'rot0': 0, 'rot3': 176, 'rot2': 150, 'state': 'normal', 'yaw': -19.63, 'datetime': '2018-10-09 12:05:52.441271', 'mgs': 0, 'volt': 0.9033, 'depth': 1.614, 'time': 39, 'pitch': 2.9, 'roll': 1.69, 'pres': 185}
{'lipoC2': 7.55, 'lipoC3S1': 4.13, 'temp': 30.94, 'lipoC3S3': 12.48, 'lipoC3S2': 8.26, 'rot1': 0, 'rot0': 0, 'rot3': 176, 'rot2': 150, 'state': 'normal', 'yaw': -19.97, 'datetime': '2018-10-09 12:05:52.509355', 'mgs': 0, 'volt': 0.8984, 'depth': 1.538, 'time': 39, 'pitch': 2.97, 'roll': 1.9, 'pres': 184}
{'lipoC2': 7.55, 'lipoC3S1': 4.13, 'temp': 30.94, 'lipoC3S3': 12.48, 'lipoC3S2': 8.26, 'rot1': 0, 'rot0': 0, 'rot3': 176, 'rot2': 150, 'state': 'normal', 'yaw': -20.33, 'datetime': '2018-10-09 12:05:52.614243', 'mgs': 0, 'volt': 0.8984, 'depth': 1.538, 'time': 39, 'pitch': 2.9, 'roll': 1.99, 'pres': 184}
{'lipoC2': 7.55, 'lipoC3S1': 4.13, 'temp': 30.88, 'lipoC3S3': 12.48, 'lipoC3S2': 8.26, 'rot1': 0, 'rot0': 0, 'rot3': 176, 'rot2': 150, 'state': 'normal', 'yaw': -20.88, 'datetime': '2018-10-09 12:05:52.717787', 'mgs': 0, 'volt': 0.8984, 'depth': 1.538, 'time': 39, 'pitch': 2.75, 'roll': 1.89, 'pres': 184}
{'lipoC2': 7.55, 'lipoC3S1': 4.13, 'temp': 30.88, 'lipoC3S3': 12.48, 'lipoC3S2': 8.26, 'rot1': 0, 'rot0': 0, 'rot3': 176, 'rot2': 150, 'state': 'normal', 'yaw': -21.64, 'datetime': '2018-10-09 12:05:52.821311', 'mgs': 0, 'volt': 0.9033, 'depth': 1.614, 'time': 40, 'pitch': 2.75, 'roll': 1.76, 'pres': 185}
{'lipoC2': 7.55, 'lipoC3S1': 4.13, 'temp': 30.94, 'lipoC3S3': 12.48, 'lipoC3S2': 8.26, 'rot1': 0, 'rot0': 0, 'rot3': 176, 'rot2': 150, 'state': 'normal', 'yaw': -22.42, 'datetime': '2018-10-09 12:05:52.924894', 'mgs': 0, 'volt': 0.9033, 'depth': 1.614, 'time': 40, 'pitch': 2.86, 'roll': 1.46, 'pres': 185}
{'lipoC2': 7.55, 'lipoC3S1': 4.13, 'temp': 30.94, 'lipoC3S3': 12.48, 'lipoC3S2': 8.26, 'rot1': 0, 'rot0': 0, 'rot3': 176, 'rot2': 150, 'state': 'normal', 'yaw': -22.76, 'datetime': '2018-10-09 12:05:53.033286', 'mgs': 0, 'volt': 0.9082, 'depth': 1.691, 'time': 40, 'pitch': 3.54, 'roll': 0.9, 'pres': 186}
{'lipoC2': 7.55, 'lipoC3S1': 4.13, 'temp': 30.94, 'lipoC3S3': 12.48, 'lipoC3S2': 8.26, 'rot1': 0, 'rot0': 0, 'rot3': 176, 'rot2': 150, 'state': 'normal', 'yaw': -21.52, 'datetime': '2018-10-09 12:05:53.138525', 'mgs': 0, 'volt': 0.9082, 'depth': 1.691, 'time': 40, 'pitch': 4.59, 'roll': 0.24, 'pres': 186}
{'lipoC2': 7.55, 'lipoC3S1': 4.13, 'temp': 30.94, 'lipoC3S3': 12.48, 'lipoC3S2': 8.26, 'rot1': 0, 'rot0': 0, 'rot3': 176, 'rot2': 150, 'state': 'normal', 'yaw': -19.46, 'datetime': '2018-10-09 12:05:53.242104', 'mgs': 0, 'volt': 0.9082, 'depth': 1.691, 'time': 40, 'pitch': 5.9, 'roll': -0.45, 'pres': 186}
{'lipoC2': 7.55, 'lipoC3S1': 4.13, 'temp': 30.94, 'lipoC3S3': 12.48, 'lipoC3S2': 8.26, 'rot1': 0, 'rot0': 0, 'rot3': 176, 'rot2': 150, 'state': 'normal', 'yaw': -16.91, 'datetime': '2018-10-09 12:05:53.345715', 'mgs': 0, 'volt': 0.9033, 'depth': 1.614, 'time': 40, 'pitch': 7.04, 'roll': -0.86, 'pres': 185}
{'lipoC2': 7.55, 'lipoC3S1': 4.13, 'temp': 30.94, 'lipoC3S3': 12.48, 'lipoC3S2': 8.26, 'rot1': 0, 'rot0': 0, 'rot3': 176, 'rot2': 150, 'state': 'normal', 'yaw': -14.7, 'datetime': '2018-10-09 12:05:53.449154', 'mgs': 0, 'volt': 0.9033, 'depth': 1.614, 'time': 40, 'pitch': 7.34, 'roll': -0.9, 'pres': 185}
{'lipoC2': 7.55, 'lipoC3S1': 4.13, 'temp': 30.94, 'lipoC3S3': 12.48, 'lipoC3S2': 8.26, 'rot1': 0, 'rot0': 0, 'rot3': 176, 'rot2': 150, 'state': 'normal', 'yaw': -12.68, 'datetime': '2018-10-09 12:05:53.552736', 'mgs': 0, 'volt': 0.9033, 'depth': 1.614, 'time': 40, 'pitch': 7.06, 'roll': -0.72, 'pres': 185}
{'lipoC2': 7.55, 'lipoC3S1': 4.13, 'temp': 30.94, 'lipoC3S3': 12.48, 'lipoC3S2': 8.26, 'rot1': 0, 'rot0': 0, 'rot3': 176, 'rot2': 150, 'state': 'normal', 'yaw': -10.71, 'datetime': '2018-10-09 12:05:53.656191', 'mgs': 0, 'volt': 0.9033, 'depth': 1.614, 'time': 40, 'pitch': 6.41, 'roll': -0.57, 'pres': 185}
{'lipoC2': 7.55, 'lipoC3S1': 4.13, 'temp': 30.94, 'lipoC3S3': 12.48, 'lipoC3S2': 8.26, 'rot1': 0, 'rot0': 0, 'rot3': 176, 'rot2': 150, 'state': 'normal', 'yaw': -9.0, 'datetime': '2018-10-09 12:05:53.759825', 'mgs': 0, 'volt': 0.9033, 'depth': 1.614, 'time': 41, 'pitch': 5.91, 'roll': -0.7, 'pres': 185}
{'lipoC2': 7.55, 'lipoC3S1': 4.13, 'temp': 30.94, 'lipoC3S3': 12.48, 'lipoC3S2': 8.26, 'rot1': 0, 'rot0': 0, 'rot3': 176, 'rot2': 150, 'state': 'normal', 'yaw': -7.39, 'datetime': '2018-10-09 12:05:53.864392', 'mgs': 0, 'volt': 0.9033, 'depth': 1.614, 'time': 41, 'pitch': 5.64, 'roll': -1.08, 'pres': 185}
{'lipoC2': 7.55, 'lipoC3S1': 4.13, 'temp': 30.94, 'lipoC3S3': 12.48, 'lipoC3S2': 8.26, 'rot1': 0, 'rot0': 0, 'rot3': 176, 'rot2': 150, 'state': 'normal', 'yaw': -5.75, 'datetime': '2018-10-09 12:05:53.967946', 'mgs': 0, 'volt': 0.9033, 'depth': 1.614, 'time': 41, 'pitch': 5.63, 'roll': -1.52, 'pres': 185}
{'lipoC2': 7.55, 'lipoC3S1': 4.13, 'temp': 30.94, 'lipoC3S3': 12.48, 'lipoC3S2': 8.26, 'rot1': 0, 'rot0': 0, 'rot3': 176, 'rot2': 150, 'state': 'normal', 'yaw': -4.37, 'datetime': '2018-10-09 12:05:54.072902', 'mgs': 0, 'volt': 0.9082, 'depth': 1.691, 'time': 41, 'pitch': 5.96, 'roll': -1.66, 'pres': 186}
{'lipoC2': 7.55, 'lipoC3S1': 4.13, 'temp': 30.88, 'lipoC3S3': 12.48, 'lipoC3S2': 8.26, 'rot1': 0, 'rot0': 0, 'rot3': 176, 'rot2': 150, 'state': 'normal', 'yaw': -2.9, 'datetime': '2018-10-09 12:05:54.176392', 'mgs': 0, 'volt': 0.9033, 'depth': 1.614, 'time': 41, 'pitch': 6.41, 'roll': -1.38, 'pres': 185}
{'lipoC2': 7.55, 'lipoC3S1': 4.13, 'temp': 30.88, 'lipoC3S3': 12.48, 'lipoC3S2': 8.26, 'rot1': 0, 'rot0': 0, 'rot3': 176, 'rot2': 150, 'state': 'normal', 'yaw': -1.6, 'datetime': '2018-10-09 12:05:54.280507', 'mgs': 0, 'volt': 0.9033, 'depth': 1.614, 'time': 41, 'pitch': 6.66, 'roll': -0.9, 'pres': 185}
{'lipoC2': 7.54, 'lipoC3S1': 4.13, 'temp': 30.94, 'lipoC3S3': 12.48, 'lipoC3S2': 8.26, 'rot1': 0, 'rot0': 0, 'rot3': 176, 'rot2': 150, 'state': 'normal', 'yaw': -0.35, 'datetime': '2018-10-09 12:05:54.383717', 'mgs': 0, 'volt': 0.9033, 'depth': 1.614, 'time': 41, 'pitch': 6.68, 'roll': -0.43, 'pres': 185}
{'lipoC2': 7.55, 'lipoC3S1': 4.13, 'temp': 30.94, 'lipoC3S3': 12.48, 'lipoC3S2': 8.26, 'rot1': 0, 'rot0': 0, 'rot3': 176, 'rot2': 150, 'state': 'normal', 'yaw': 0.94, 'datetime': '2018-10-09 12:05:54.487184', 'mgs': 0, 'volt': 0.9033, 'depth': 1.614, 'time': 41, 'pitch': 6.35, 'roll': -0.02, 'pres': 185}
{'lipoC2': 7.55, 'lipoC3S1': 4.13, 'temp': 30.94, 'lipoC3S3': 12.48, 'lipoC3S2': 8.26, 'rot1': 0, 'rot0': 0, 'rot3': 176, 'rot2': 150, 'state': 'normal', 'yaw': 2.04, 'datetime': '2018-10-09 12:05:54.590612', 'mgs': 0, 'volt': 0.9033, 'depth': 1.614, 'time': 41, 'pitch': 5.7, 'roll': 0.31, 'pres': 185}
{'lipoC2': 7.55, 'lipoC3S1': 4.13, 'temp': 30.94, 'lipoC3S3': 12.48, 'lipoC3S2': 8.26, 'rot1': 0, 'rot0': 0, 'rot3': 176, 'rot2': 150, 'state': 'normal', 'yaw': 3.08, 'datetime': '2018-10-09 12:05:54.694188', 'mgs': 0, 'volt': 0.8984, 'depth': 1.538, 'time': 41, 'pitch': 4.84, 'roll': 0.65, 'pres': 184}
{'lipoC2': 7.55, 'lipoC3S1': 4.13, 'temp': 30.94, 'lipoC3S3': 12.48, 'lipoC3S2': 8.26, 'rot1': 0, 'rot0': 0, 'rot3': 176, 'rot2': 150, 'state': 'normal', 'yaw': 4.17, 'datetime': '2018-10-09 12:05:54.797745', 'mgs': 0, 'volt': 0.9033, 'depth': 1.614, 'time': 42, 'pitch': 3.99, 'roll': 0.97, 'pres': 185}
{'lipoC2': 7.55, 'lipoC3S1': 4.13, 'temp': 30.88, 'lipoC3S3': 12.48, 'lipoC3S2': 8.26, 'rot1': 0, 'rot0': 0, 'rot3': 176, 'rot2': 150, 'state': 'normal', 'yaw': 5.14, 'datetime': '2018-10-09 12:05:54.901417', 'mgs': 0, 'volt': 0.8984, 'depth': 1.538, 'time': 42, 'pitch': 3.55, 'roll': 1.13, 'pres': 184}
{'lipoC2': 7.55, 'lipoC3S1': 4.13, 'temp': 30.88, 'lipoC3S3': 12.48, 'lipoC3S2': 8.26, 'rot1': 0, 'rot0': 0, 'rot3': 176, 'rot2': 150, 'state': 'normal', 'yaw': 6.09, 'datetime': '2018-10-09 12:05:55.004771', 'mgs': 0, 'volt': 0.8984, 'depth': 1.538, 'time': 42, 'pitch': 3.56, 'roll': 1.16, 'pres': 184}
{'lipoC2': 7.55, 'lipoC3S1': 4.13, 'temp': 30.88, 'lipoC3S3': 12.48, 'lipoC3S2': 8.26, 'rot1': 0, 'rot0': 0, 'rot3': 176, 'rot2': 150, 'state': 'normal', 'yaw': 7.05, 'datetime': '2018-10-09 12:05:55.108301', 'mgs': 0, 'volt': 0.8984, 'depth': 1.538, 'time': 42, 'pitch': 4.0, 'roll': 1.06, 'pres': 184}
{'lipoC2': 7.55, 'lipoC3S1': 4.13, 'temp': 30.88, 'lipoC3S3': 12.48, 'lipoC3S2': 8.26, 'rot1': 0, 'rot0': 0, 'rot3': 176, 'rot2': 150, 'state': 'normal', 'yaw': 7.87, 'datetime': '2018-10-09 12:05:55.211864', 'mgs': 0, 'volt': 0.8984, 'depth': 1.538, 'time': 42, 'pitch': 4.45, 'roll': 0.96, 'pres': 184}
{'lipoC2': 7.55, 'lipoC3S1': 4.13, 'temp': 30.88, 'lipoC3S3': 12.48, 'lipoC3S2': 8.26, 'rot1': 0, 'rot0': 0, 'rot3': 176, 'rot2': 150, 'state': 'normal', 'yaw': 8.64, 'datetime': '2018-10-09 12:05:55.316777', 'mgs': 0, 'volt': 0.9033, 'depth': 1.614, 'time': 42, 'pitch': 4.75, 'roll': 0.98, 'pres': 185}
{'lipoC2': 7.55, 'lipoC3S1': 4.13, 'temp': 30.94, 'lipoC3S3': 12.48, 'lipoC3S2': 8.26, 'rot1': 0, 'rot0': 0, 'rot3': 176, 'rot2': 150, 'state': 'normal', 'yaw': 9.46, 'datetime': '2018-10-09 12:05:55.420331', 'mgs': 0, 'volt': 0.8984, 'depth': 1.538, 'time': 42, 'pitch': 4.85, 'roll': 1.06, 'pres': 184}
{'lipoC2': 7.55, 'lipoC3S1': 4.13, 'temp': 30.94, 'lipoC3S3': 12.48, 'lipoC3S2': 8.26, 'rot1': 0, 'rot0': 0, 'rot3': 176, 'rot2': 150, 'state': 'normal', 'yaw': 10.19, 'datetime': '2018-10-09 12:05:55.525118', 'mgs': 0, 'volt': 0.8984, 'depth': 1.538, 'time': 42, 'pitch': 4.76, 'roll': 1.14, 'pres': 184}
{'lipoC2': 7.55, 'lipoC3S1': 4.13, 'temp': 30.94, 'lipoC3S3': 12.48, 'lipoC3S2': 8.26, 'rot1': 0, 'rot0': 0, 'rot3': 176, 'rot2': 150, 'state': 'normal', 'yaw': 10.97, 'datetime': '2018-10-09 12:05:55.628742', 'mgs': 0, 'volt': 0.8984, 'depth': 1.538, 'time': 42, 'pitch': 4.52, 'roll': 1.09, 'pres': 184}
{'lipoC2': 7.55, 'lipoC3S1': 4.13, 'temp': 30.94, 'lipoC3S3': 12.48, 'lipoC3S2': 8.26, 'rot1': 0, 'rot0': 0, 'rot3': 176, 'rot2': 150, 'state': 'normal', 'yaw': 11.67, 'datetime': '2018-10-09 12:05:55.732408', 'mgs': 0, 'volt': 0.8984, 'depth': 1.538, 'time': 42, 'pitch': 4.33, 'roll': 0.79, 'pres': 184}
{'lipoC2': 7.55, 'lipoC3S1': 4.13, 'temp': 30.94, 'lipoC3S3': 12.48, 'lipoC3S2': 8.26, 'rot1': 0, 'rot0': 0, 'rot3': 176, 'rot2': 150, 'state': 'normal', 'yaw': 12.35, 'datetime': '2018-10-09 12:05:55.835857', 'mgs': 0, 'volt': 0.9033, 'depth': 1.614, 'time': 43, 'pitch': 4.25, 'roll': 0.39, 'pres': 185}
{'lipoC2': 7.55, 'lipoC3S1': 4.13, 'temp': 30.94, 'lipoC3S3': 12.48, 'lipoC3S2': 8.26, 'rot1': 0, 'rot0': 0, 'rot3': 176, 'rot2': 150, 'state': 'normal', 'yaw': 13.08, 'datetime': '2018-10-09 12:05:55.939395', 'mgs': 0, 'volt': 0.9033, 'depth': 1.614, 'time': 43, 'pitch': 4.41, 'roll': -0.08, 'pres': 185}
{'lipoC2': 7.55, 'lipoC3S1': 4.13, 'temp': 30.94, 'lipoC3S3': 12.48, 'lipoC3S2': 8.26, 'rot1': 0, 'rot0': 0, 'rot3': 176, 'rot2': 150, 'state': 'normal', 'yaw': 13.71, 'datetime': '2018-10-09 12:05:56.042928', 'mgs': 0, 'volt': 0.9033, 'depth': 1.614, 'time': 43, 'pitch': 4.85, 'roll': -0.37, 'pres': 185}
{'lipoC2': 7.55, 'lipoC3S1': 4.13, 'temp': 30.94, 'lipoC3S3': 12.5, 'lipoC3S2': 8.26, 'rot1': 0, 'rot0': 0, 'rot3': 176, 'rot2': 150, 'state': 'normal', 'yaw': 14.32, 'datetime': '2018-10-09 12:05:56.146663', 'mgs': 0, 'volt': 0.9033, 'depth': 1.614, 'time': 43, 'pitch': 5.48, 'roll': -0.48, 'pres': 185}
{'lipoC2': 7.55, 'lipoC3S1': 4.13, 'temp': 30.94, 'lipoC3S3': 12.48, 'lipoC3S2': 8.26, 'rot1': 0, 'rot0': 0, 'rot3': 176, 'rot2': 150, 'state': 'normal', 'yaw': 14.95, 'datetime': '2018-10-09 12:05:56.250093', 'mgs': 0, 'volt': 0.9033, 'depth': 1.614, 'time': 43, 'pitch': 6.15, 'roll': -0.51, 'pres': 185}
{'lipoC2': 7.55, 'lipoC3S1': 4.13, 'temp': 30.94, 'lipoC3S3': 12.48, 'lipoC3S2': 8.26, 'rot1': 0, 'rot0': 0, 'rot3': 176, 'rot2': 150, 'state': 'normal', 'yaw': 15.47, 'datetime': '2018-10-09 12:05:56.354018', 'mgs': 0, 'volt': 0.9033, 'depth': 1.614, 'time': 43, 'pitch': 6.55, 'roll': -0.56, 'pres': 185}
{'lipoC2': 7.55, 'lipoC3S1': 4.13, 'temp': 30.94, 'lipoC3S3': 12.48, 'lipoC3S2': 8.26, 'rot1': 0, 'rot0': 0, 'rot3': 176, 'rot2': 150, 'state': 'normal', 'yaw': 15.94, 'datetime': '2018-10-09 12:05:56.457326', 'mgs': 0, 'volt': 0.9033, 'depth': 1.614, 'time': 43, 'pitch': 6.6, 'roll': -0.64, 'pres': 185}
{'lipoC2': 7.55, 'lipoC3S1': 4.13, 'temp': 30.94, 'lipoC3S3': 12.48, 'lipoC3S2': 8.26, 'rot1': 0, 'rot0': 0, 'rot3': 176, 'rot2': 150, 'state': 'normal', 'yaw': 16.45, 'datetime': '2018-10-09 12:05:56.560812', 'mgs': 0, 'volt': 0.9033, 'depth': 1.614, 'time': 43, 'pitch': 6.29, 'roll': -0.71, 'pres': 185}
{'lipoC2': 7.55, 'lipoC3S1': 4.13, 'temp': 30.94, 'lipoC3S3': 12.48, 'lipoC3S2': 8.26, 'rot1': 0, 'rot0': 0, 'rot3': 176, 'rot2': 150, 'state': 'normal', 'yaw': 16.91, 'datetime': '2018-10-09 12:05:56.664269', 'mgs': 0, 'volt': 0.9033, 'depth': 1.614, 'time': 43, 'pitch': 5.81, 'roll': -0.72, 'pres': 185}
{'lipoC2': 7.55, 'lipoC3S1': 4.13, 'temp': 30.94, 'lipoC3S3': 12.48, 'lipoC3S2': 8.26, 'rot1': 0, 'rot0': 0, 'rot3': 176, 'rot2': 150, 'state': 'normal', 'yaw': 17.33, 'datetime': '2018-10-09 12:05:56.769181', 'mgs': 0, 'volt': 0.9082, 'depth': 1.691, 'time': 44, 'pitch': 5.36, 'roll': -0.7, 'pres': 186}
{'lipoC2': 7.55, 'lipoC3S1': 4.13, 'temp': 30.94, 'lipoC3S3': 12.48, 'lipoC3S2': 8.26, 'rot1': 0, 'rot0': 0, 'rot3': 176, 'rot2': 150, 'state': 'normal', 'yaw': 17.76, 'datetime': '2018-10-09 12:05:56.872700', 'mgs': 0, 'volt': 0.9082, 'depth': 1.691, 'time': 44, 'pitch': 5.02, 'roll': -0.66, 'pres': 186}
{'lipoC2': 7.55, 'lipoC3S1': 4.13, 'temp': 30.94, 'lipoC3S3': 12.48, 'lipoC3S2': 8.26, 'rot1': 0, 'rot0': 0, 'rot3': 176, 'rot2': 150, 'state': 'normal', 'yaw': 18.16, 'datetime': '2018-10-09 12:05:56.976947', 'mgs': 0, 'volt': 0.9082, 'depth': 1.691, 'time': 44, 'pitch': 4.87, 'roll': -0.63, 'pres': 186}
{'lipoC2': 7.55, 'lipoC3S1': 4.13, 'temp': 30.94, 'lipoC3S3': 12.48, 'lipoC3S2': 8.26, 'rot1': 0, 'rot0': 0, 'rot3': 176, 'rot2': 150, 'state': 'normal', 'yaw': 18.59, 'datetime': '2018-10-09 12:05:57.081180', 'mgs': 0, 'volt': 0.9082, 'depth': 1.691, 'time': 44, 'pitch': 4.87, 'roll': -0.57, 'pres': 186}
{'lipoC2': 7.55, 'lipoC3S1': 4.13, 'temp': 30.94, 'lipoC3S3': 12.48, 'lipoC3S2': 8.26, 'rot1': 0, 'rot0': 0, 'rot3': 176, 'rot2': 150, 'state': 'normal', 'yaw': 19.1, 'datetime': '2018-10-09 12:05:57.184670', 'mgs': 0, 'volt': 0.9082, 'depth': 1.691, 'time': 44, 'pitch': 4.7, 'roll': -0.48, 'pres': 186}
{'lipoC2': 7.55, 'lipoC3S1': 4.13, 'temp': 30.94, 'lipoC3S3': 12.48, 'lipoC3S2': 8.26, 'rot1': 0, 'rot0': 0, 'rot3': 176, 'rot2': 150, 'state': 'normal', 'yaw': 19.55, 'datetime': '2018-10-09 12:05:57.288328', 'mgs': 0, 'volt': 0.9082, 'depth': 1.691, 'time': 44, 'pitch': 4.5, 'roll': -0.37, 'pres': 186}
{'lipoC2': 7.55, 'lipoC3S1': 4.13, 'temp': 30.94, 'lipoC3S3': 12.48, 'lipoC3S2': 8.26, 'rot1': 0, 'rot0': 0, 'rot3': 176, 'rot2': 150, 'state': 'normal', 'yaw': 20.03, 'datetime': '2018-10-09 12:05:57.392071', 'mgs': 0, 'volt': 0.9082, 'depth': 1.691, 'time': 44, 'pitch': 4.04, 'roll': -0.28, 'pres': 186}
{'lipoC2': 7.55, 'lipoC3S1': 4.13, 'temp': 30.94, 'lipoC3S3': 12.48, 'lipoC3S2': 8.26, 'rot1': 0, 'rot0': 0, 'rot3': 176, 'rot2': 150, 'state': 'normal', 'yaw': 20.6, 'datetime': '2018-10-09 12:05:57.495432', 'mgs': 1, 'volt': 0.9082, 'depth': 1.691, 'time': 44, 'pitch': 3.46, 'roll': -0.18, 'pres': 186}
{'lipoC2': 7.55, 'lipoC3S1': 4.13, 'temp': 30.94, 'lipoC3S3': 12.48, 'lipoC3S2': 8.26, 'rot1': 0, 'rot0': 0, 'rot3': 0, 'rot2': 0, 'state': 'normal', 'yaw': 0.0, 'datetime': '2018-10-09 12:06:00.525392', 'mgs': 0, 'volt': 0.9131, 'depth': 1.767, 'time': 1, 'pitch': 2.54, 'roll': -2.05, 'pres': 187}
{'lipoC2': 7.55, 'lipoC3S1': 4.13, 'temp': 30.94, 'lipoC3S3': 12.48, 'lipoC3S2': 8.26, 'rot1': 0, 'rot0': 0, 'rot3': 0, 'rot2': 0, 'state': 'normal', 'yaw': 0.34, 'datetime': '2018-10-09 12:06:00.553908', 'mgs': 0, 'volt': 0.9131, 'depth': 1.767, 'time': 1, 'pitch': 1.56, 'roll': -1.96, 'pres': 187}
{'lipoC2': 7.55, 'lipoC3S1': 4.13, 'temp': 30.94, 'lipoC3S3': 12.5, 'lipoC3S2': 8.26, 'rot1': 0, 'rot0': 0, 'rot3': 0, 'rot2': 0, 'state': 'normal', 'yaw': 0.63, 'datetime': '2018-10-09 12:06:00.582324', 'mgs': 0, 'volt': 0.9131, 'depth': 1.767, 'time': 1, 'pitch': 0.57, 'roll': -1.71, 'pres': 187}
{'lipoC2': 7.55, 'lipoC3S1': 4.13, 'temp': 30.94, 'lipoC3S3': 12.5, 'lipoC3S2': 8.26, 'rot1': 0, 'rot0': 0, 'rot3': 0, 'rot2': 0, 'state': 'normal', 'yaw': 0.82, 'datetime': '2018-10-09 12:06:00.604288', 'mgs': 0, 'volt': 0.9082, 'depth': 1.691, 'time': 1, 'pitch': -0.23, 'roll': -1.31, 'pres': 186}
{'lipoC2': 7.55, 'lipoC3S1': 4.13, 'temp': 30.94, 'lipoC3S3': 12.5, 'lipoC3S2': 8.26, 'rot1': 0, 'rot0': 0, 'rot3': 0, 'rot2': 0, 'state': 'normal', 'yaw': 0.91, 'datetime': '2018-10-09 12:06:00.620794', 'mgs': 0, 'volt': 0.9082, 'depth': 1.691, 'time': 1, 'pitch': -0.91, 'roll': -0.73, 'pres': 186}
{'lipoC2': 7.55, 'lipoC3S1': 4.13, 'temp': 30.94, 'lipoC3S3': 12.5, 'lipoC3S2': 8.26, 'rot1': 0, 'rot0': 0, 'rot3': 0, 'rot2': 0, 'state': 'normal', 'yaw': 0.91, 'datetime': '2018-10-09 12:06:00.635938', 'mgs': 0, 'volt': 0.9082, 'depth': 1.691, 'time': 1, 'pitch': -1.63, 'roll': -0.0, 'pres': 186}
{'lipoC2': 7.55, 'lipoC3S1': 4.13, 'temp': 30.94, 'lipoC3S3': 12.5, 'lipoC3S2': 8.26, 'rot1': 0, 'rot0': 0, 'rot3': 0, 'rot2': 0, 'state': 'normal', 'yaw': 0.83, 'datetime': '2018-10-09 12:06:00.651059', 'mgs': 1, 'volt': 0.9033, 'depth': 1.614, 'time': 1, 'pitch': -2.2, 'roll': 0.67, 'pres': 185}
{'lipoC2': 7.55, 'lipoC3S1': 4.13, 'temp': 31.0, 'lipoC3S3': 12.48, 'lipoC3S2': 8.26, 'rot1': 0, 'rot0': 0, 'rot3': 0, 'rot2': 0, 'state': 'normal', 'yaw': 0.69, 'datetime': '2018-10-09 12:06:00.666291', 'mgs': 0, 'volt': 0.9033, 'depth': 1.614, 'time': 1, 'pitch': -2.42, 'roll': 1.31, 'pres': 185}
{'lipoC2': 7.55, 'lipoC3S1': 4.13, 'temp': 31.0, 'lipoC3S3': 12.48, 'lipoC3S2': 8.26, 'rot1': 0, 'rot0': 0, 'rot3': 0, 'rot2': 0, 'state': 'normal', 'yaw': 0.39, 'datetime': '2018-10-09 12:06:00.681428', 'mgs': 0, 'volt': 0.9033, 'depth': 1.614, 'time': 2, 'pitch': -2.23, 'roll': 1.98, 'pres': 185}
{'lipoC2': 7.55, 'lipoC3S1': 4.13, 'temp': 30.94, 'lipoC3S3': 12.48, 'lipoC3S2': 8.26, 'rot1': 0, 'rot0': 0, 'rot3': 0, 'rot2': 0, 'state': 'normal', 'yaw': 0.13, 'datetime': '2018-10-09 12:06:00.697097', 'mgs': 0, 'volt': 0.9033, 'depth': 1.614, 'time': 2, 'pitch': -1.81, 'roll': 2.49, 'pres': 185}
{'lipoC2': 7.54, 'lipoC3S1': 4.13, 'temp': 30.94, 'lipoC3S3': 12.48, 'lipoC3S2': 8.26, 'rot1': 0, 'rot0': 0, 'rot3': 0, 'rot2': 0, 'state': 'normal', 'yaw': -0.08, 'datetime': '2018-10-09 12:06:00.714332', 'mgs': 0, 'volt': 0.9033, 'depth': 1.614, 'time': 2, 'pitch': -1.15, 'roll': 2.85, 'pres': 185}
{'lipoC2': 7.55, 'lipoC3S1': 4.13, 'temp': 30.94, 'lipoC3S3': 12.48, 'lipoC3S2': 8.26, 'rot1': 0, 'rot0': 0, 'rot3': 0, 'rot2': 0, 'state': 'normal', 'yaw': -0.27, 'datetime': '2018-10-09 12:06:00.729714', 'mgs': 0, 'volt': 0.9033, 'depth': 1.614, 'time': 2, 'pitch': -0.04, 'roll': 2.94, 'pres': 185}
{'lipoC2': 7.55, 'lipoC3S1': 4.13, 'temp': 30.94, 'lipoC3S3': 12.5, 'lipoC3S2': 8.26, 'rot1': 0, 'rot0': 0, 'rot3': 0, 'rot2': 0, 'state': 'normal', 'yaw': -0.39, 'datetime': '2018-10-09 12:06:00.744850', 'mgs': 0, 'volt': 0.9082, 'depth': 1.691, 'time': 2, 'pitch': 1.33, 'roll': 2.81, 'pres': 186}
{'lipoC2': 7.55, 'lipoC3S1': 4.13, 'temp': 30.94, 'lipoC3S3': 12.48, 'lipoC3S2': 8.26, 'rot1': 0, 'rot0': 0, 'rot3': 0, 'rot2': 0, 'state': 'normal', 'yaw': -0.48, 'datetime': '2018-10-09 12:06:00.760043', 'mgs': 0, 'volt': 0.9033, 'depth': 1.614, 'time': 2, 'pitch': 2.94, 'roll': 2.51, 'pres': 185}
{'lipoC2': 7.55, 'lipoC3S1': 4.13, 'temp': 30.94, 'lipoC3S3': 12.5, 'lipoC3S2': 8.26, 'rot1': 0, 'rot0': 0, 'rot3': 0, 'rot2': 0, 'state': 'normal', 'yaw': -0.59, 'datetime': '2018-10-09 12:06:00.775109', 'mgs': 0, 'volt': 0.9033, 'depth': 1.614, 'time': 2, 'pitch': 4.66, 'roll': 2.09, 'pres': 185}
{'lipoC2': 7.55, 'lipoC3S1': 4.13, 'temp': 30.94, 'lipoC3S3': 12.5, 'lipoC3S2': 8.26, 'rot1': 0, 'rot0': 0, 'rot3': 0, 'rot2': 0, 'state': 'normal', 'yaw': -0.74, 'datetime': '2018-10-09 12:06:00.790177', 'mgs': 0, 'volt': 0.9082, 'depth': 1.691, 'time': 2, 'pitch': 5.8, 'roll': 1.72, 'pres': 186}
{'lipoC2': 7.55, 'lipoC3S1': 4.13, 'temp': 30.94, 'lipoC3S3': 12.5, 'lipoC3S2': 8.26, 'rot1': 0, 'rot0': 0, 'rot3': 0, 'rot2': 0, 'state': 'normal', 'yaw': -0.91, 'datetime': '2018-10-09 12:06:00.805961', 'mgs': 0, 'volt': 0.9082, 'depth': 1.691, 'time': 2, 'pitch': 6.42, 'roll': 1.35, 'pres': 186}
{'lipoC2': 7.53, 'lipoC3S1': 4.12, 'temp': 30.94, 'lipoC3S3': 12.45, 'lipoC3S2': 8.23, 'rot1': 0, 'rot0': 0, 'rot3': 0, 'rot2': 0, 'state': 'normal', 'yaw': -1.12, 'datetime': '2018-10-09 12:06:00.823486', 'mgs': 0, 'volt': 0.9277, 'depth': 1.996, 'time': 3, 'pitch': 6.83, 'roll': 0.91, 'pres': 190}
{'lipoC2': 7.54, 'lipoC3S1': 4.12, 'temp': 30.94, 'lipoC3S3': 12.45, 'lipoC3S2': 8.23, 'rot1': 0, 'rot0': 0, 'rot3': 0, 'rot2': 0, 'state': 'normal', 'yaw': -1.3, 'datetime': '2018-10-09 12:06:00.838876', 'mgs': 0, 'volt': 0.9131, 'depth': 1.767, 'time': 3, 'pitch': 7.17, 'roll': 0.63, 'pres': 187}
{'lipoC2': 7.53, 'lipoC3S1': 4.12, 'temp': 30.94, 'lipoC3S3': 12.39, 'lipoC3S2': 8.23, 'rot1': 0, 'rot0': 0, 'rot3': 1, 'rot2': 1, 'state': 'normal', 'yaw': -1.45, 'datetime': '2018-10-09 12:06:00.854058', 'mgs': 0, 'volt': 0.9033, 'depth': 1.614, 'time': 3, 'pitch': 7.59, 'roll': 0.43, 'pres': 185}
{'lipoC2': 7.54, 'lipoC3S1': 4.12, 'temp': 30.94, 'lipoC3S3': 12.45, 'lipoC3S2': 8.23, 'rot1': 0, 'rot0': 0, 'rot3': 2, 'rot2': 2, 'state': 'normal', 'yaw': -1.6, 'datetime': '2018-10-09 12:06:00.927746', 'mgs': 0, 'volt': 0.9131, 'depth': 1.767, 'time': 3, 'pitch': 7.99, 'roll': 0.23, 'pres': 187}
{'lipoC2': 7.53, 'lipoC3S1': 4.12, 'temp': 30.88, 'lipoC3S3': 12.45, 'lipoC3S2': 8.23, 'rot1': 0, 'rot0': 0, 'rot3': 3, 'rot2': 2, 'state': 'normal', 'yaw': -1.78, 'datetime': '2018-10-09 12:06:01.031034', 'mgs': 0, 'volt': 0.9082, 'depth': 1.691, 'time': 3, 'pitch': 8.23, 'roll': 0.02, 'pres': 186}
{'lipoC2': 7.54, 'lipoC3S1': 4.12, 'temp': 30.88, 'lipoC3S3': 12.37, 'lipoC3S2': 8.23, 'rot1': 0, 'rot0': 0, 'rot3': 3, 'rot2': 3, 'state': 'normal', 'yaw': -1.95, 'datetime': '2018-10-09 12:06:01.134181', 'mgs': 0, 'volt': 0.8984, 'depth': 1.538, 'time': 3, 'pitch': 8.15, 'roll': -0.06, 'pres': 184}
{'lipoC2': 7.54, 'lipoC3S1': 4.12, 'temp': 30.88, 'lipoC3S3': 12.46, 'lipoC3S2': 8.24, 'rot1': 0, 'rot0': 0, 'rot3': 4, 'rot2': 4, 'state': 'normal', 'yaw': -2.11, 'datetime': '2018-10-09 12:06:01.237729', 'mgs': 0, 'volt': 0.9131, 'depth': 1.767, 'time': 3, 'pitch': 7.83, 'roll': -0.08, 'pres': 187}
{'lipoC2': 7.54, 'lipoC3S1': 4.12, 'temp': 30.88, 'lipoC3S3': 12.46, 'lipoC3S2': 8.24, 'rot1': 0, 'rot0': 0, 'rot3': 5, 'rot2': 4, 'state': 'normal', 'yaw': -2.25, 'datetime': '2018-10-09 12:06:01.347374', 'mgs': 0, 'volt': 0.9033, 'depth': 1.614, 'time': 3, 'pitch': 7.22, 'roll': -0.15, 'pres': 185}
{'lipoC2': 7.54, 'lipoC3S1': 4.12, 'temp': 30.88, 'lipoC3S3': 12.46, 'lipoC3S2': 8.24, 'rot1': 0, 'rot0': 0, 'rot3': 6, 'rot2': 5, 'state': 'normal', 'yaw': -2.41, 'datetime': '2018-10-09 12:06:01.450426', 'mgs': 0, 'volt': 0.8936, 'depth': 1.462, 'time': 3, 'pitch': 6.42, 'roll': -0.39, 'pres': 183}
{'lipoC2': 7.54, 'lipoC3S1': 4.12, 'temp': 30.88, 'lipoC3S3': 12.39, 'lipoC3S2': 8.23, 'rot1': 0, 'rot0': 0, 'rot3': 6, 'rot2': 6, 'state': 'normal', 'yaw': -2.56, 'datetime': '2018-10-09 12:06:01.553795', 'mgs': 0, 'volt': 0.8838, 'depth': 1.309, 'time': 3, 'pitch': 5.37, 'roll': -0.58, 'pres': 181}
{'lipoC2': 7.54, 'lipoC3S1': 4.12, 'temp': 30.88, 'lipoC3S3': 12.41, 'lipoC3S2': 8.23, 'rot1': 0, 'rot0': 0, 'rot3': 7, 'rot2': 6, 'state': 'normal', 'yaw': -2.7, 'datetime': '2018-10-09 12:06:01.656879', 'mgs': 0, 'volt': 0.8789, 'depth': 1.233, 'time': 4, 'pitch': 3.92, 'roll': -0.28, 'pres': 180}
{'lipoC2': 7.54, 'lipoC3S1': 4.12, 'temp': 30.94, 'lipoC3S3': 12.41, 'lipoC3S2': 8.23, 'rot1': 0, 'rot0': 0, 'rot3': 8, 'rot2': 7, 'state': 'normal', 'yaw': -2.73, 'datetime': '2018-10-09 12:06:01.759997', 'mgs': 0, 'volt': 0.874, 'depth': 1.157, 'time': 4, 'pitch': 2.64, 'roll': 0.51, 'pres': 179}
{'lipoC2': 7.54, 'lipoC3S1': 4.12, 'temp': 30.94, 'lipoC3S3': 12.46, 'lipoC3S2': 8.24, 'rot1': 0, 'rot0': 0, 'rot3': 9, 'rot2': 8, 'state': 'normal', 'yaw': -2.68, 'datetime': '2018-10-09 12:06:01.864819', 'mgs': 0, 'volt': 0.8936, 'depth': 1.462, 'time': 4, 'pitch': 1.71, 'roll': 1.54, 'pres': 183}
{'lipoC2': 7.54, 'lipoC3S1': 4.12, 'temp': 31.0, 'lipoC3S3': 12.45, 'lipoC3S2': 8.23, 'rot1': 0, 'rot0': 0, 'rot3': 10, 'rot2': 9, 'state': 'normal', 'yaw': -2.51, 'datetime': '2018-10-09 12:06:01.968116', 'mgs': 0, 'volt': 0.8838, 'depth': 1.309, 'time': 4, 'pitch': 1.43, 'roll': 2.44, 'pres': 181}
{'lipoC2': 7.55, 'lipoC3S1': 4.11, 'temp': 31.0, 'lipoC3S3': 12.46, 'lipoC3S2': 8.24, 'rot1': 0, 'rot0': 0, 'rot3': 11, 'rot2': 9, 'state': 'normal', 'yaw': -2.34, 'datetime': '2018-10-09 12:06:02.071516', 'mgs': 0, 'volt': 0.8984, 'depth': 1.538, 'time': 4, 'pitch': 1.84, 'roll': 2.59, 'pres': 184}
{'lipoC2': 7.55, 'lipoC3S1': 4.08, 'temp': 31.0, 'lipoC3S3': 12.46, 'lipoC3S2': 8.2, 'rot1': 0, 'rot0': 0, 'rot3': 11, 'rot2': 10, 'state': 'normal', 'yaw': -2.24, 'datetime': '2018-10-09 12:06:02.176161', 'mgs': 0, 'volt': 0.8789, 'depth': 1.233, 'time': 4, 'pitch': 2.53, 'roll': 2.07, 'pres': 180}
{'lipoC2': 7.54, 'lipoC3S1': 4.12, 'temp': 30.94, 'lipoC3S3': 12.41, 'lipoC3S2': 8.23, 'rot1': 0, 'rot0': 0, 'rot3': 12, 'rot2': 11, 'state': 'normal', 'yaw': -2.13, 'datetime': '2018-10-09 12:06:02.279757', 'mgs': 0, 'volt': 0.8691, 'depth': 1.08, 'time': 4, 'pitch': 3.04, 'roll': 0.86, 'pres': 178}
{'lipoC2': 7.54, 'lipoC3S1': 4.13, 'temp': 30.94, 'lipoC3S3': 12.46, 'lipoC3S2': 8.23, 'rot1': 0, 'rot0': 0, 'rot3': 13, 'rot2': 11, 'state': 'normal', 'yaw': -1.99, 'datetime': '2018-10-09 12:06:02.383533', 'mgs': 0, 'volt': 0.8984, 'depth': 1.538, 'time': 4, 'pitch': 3.21, 'roll': -0.22, 'pres': 184}
{'lipoC2': 7.54, 'lipoC3S1': 4.08, 'temp': 30.94, 'lipoC3S3': 12.46, 'lipoC3S2': 8.2, 'rot1': 0, 'rot0': 0, 'rot3': 14, 'rot2': 12, 'state': 'normal', 'yaw': -1.89, 'datetime': '2018-10-09 12:06:02.485707', 'mgs': 0, 'volt': 0.8789, 'depth': 1.233, 'time': 4, 'pitch': 3.27, 'roll': -0.83, 'pres': 180}
