{'lipoC2': 7.36, 'lipoC3S1': 3.92, 'temp': 30.44, 'lipoC3S3': 11.85, 'lipoC3S2': 7.84, 'rot1': 1468, 'rot0': 1456, 'rot3': 737, 'rot2': 682, 'state': 'normal', 'yaw': 9.12, 'datetime': '2018-10-09 13:32:17.709036', 'mgs': 0, 'volt': 0.9082, 'depth': 1.691, 'time': 256, 'pitch': -6.42, 'roll': -3.42, 'pres': 186}
{'lipoC2': 7.36, 'lipoC3S1': 3.92, 'temp': 30.44, 'lipoC3S3': 11.85, 'lipoC3S2': 7.84, 'rot1': 1468, 'rot0': 1456, 'rot3': 737, 'rot2': 682, 'state': 'normal', 'yaw': 8.25, 'datetime': '2018-10-09 13:32:17.732865', 'mgs': 0, 'volt': 0.9082, 'depth': 1.691, 'time': 256, 'pitch': -5.78, 'roll': -2.86, 'pres': 186}
{'lipoC2': 7.36, 'lipoC3S1': 3.92, 'temp': 30.44, 'lipoC3S3': 11.85, 'lipoC3S2': 7.84, 'rot1': 1468, 'rot0': 1456, 'rot3': 737, 'rot2': 682, 'state': 'normal', 'yaw': 7.04, 'datetime': '2018-10-09 13:32:17.756754', 'mgs': 0, 'volt': 0.9082, 'depth': 1.691, 'time': 256, 'pitch': -4.83, 'roll': -2.13, 'pres': 186}
{'lipoC2': 7.36, 'lipoC3S1': 3.92, 'temp': 30.44, 'lipoC3S3': 11.85, 'lipoC3S2': 7.84, 'rot1': 1468, 'rot0': 1456, 'rot3': 737, 'rot2': 682, 'state': 'normal', 'yaw': 5.92, 'datetime': '2018-10-09 13:32:17.780668', 'mgs': 0, 'volt': 0.9082, 'depth': 1.691, 'time': 256, 'pitch': -4.25, 'roll': -1.49, 'pres': 186}
{'lipoC2': 7.36, 'lipoC3S1': 3.92, 'temp': 30.5, 'lipoC3S3': 11.85, 'lipoC3S2': 7.84, 'rot1': 1468, 'rot0': 1456, 'rot3': 737, 'rot2': 682, 'state': 'normal', 'yaw': 5.06, 'datetime': '2018-10-09 13:32:17.795070', 'mgs': 0, 'volt': 0.9033, 'depth': 1.614, 'time': 256, 'pitch': -4.13, 'roll': -1.09, 'pres': 185}
{'lipoC2': 7.36, 'lipoC3S1': 3.92, 'temp': 30.5, 'lipoC3S3': 11.85, 'lipoC3S2': 7.84, 'rot1': 1468, 'rot0': 1456, 'rot3': 737, 'rot2': 682, 'state': 'normal', 'yaw': 4.5, 'datetime': '2018-10-09 13:32:17.805422', 'mgs': 0, 'volt': 0.9033, 'depth': 1.614, 'time': 256, 'pitch': -4.5, 'roll': -1.02, 'pres': 185}
{'lipoC2': 7.36, 'lipoC3S1': 3.92, 'temp': 30.5, 'lipoC3S3': 11.85, 'lipoC3S2': 7.84, 'rot1': 1468, 'rot0': 1456, 'rot3': 737, 'rot2': 682, 'state': 'normal', 'yaw': 4.22, 'datetime': '2018-10-09 13:32:17.815798', 'mgs': 0, 'volt': 0.9033, 'depth': 1.614, 'time': 256, 'pitch': -5.2, 'roll': -1.17, 'pres': 185}
{'lipoC2': 7.36, 'lipoC3S1': 3.92, 'temp': 30.5, 'lipoC3S3': 11.85, 'lipoC3S2': 7.84, 'rot1': 1468, 'rot0': 1456, 'rot3': 737, 'rot2': 682, 'state': 'normal', 'yaw': 4.17, 'datetime': '2018-10-09 13:32:17.826158', 'mgs': 0, 'volt': 0.8936, 'depth': 1.462, 'time': 256, 'pitch': -5.91, 'roll': -1.57, 'pres': 183}
{'lipoC2': 7.36, 'lipoC3S1': 3.92, 'temp': 30.44, 'lipoC3S3': 11.87, 'lipoC3S2': 7.84, 'rot1': 1468, 'rot0': 1456, 'rot3': 737, 'rot2': 682, 'state': 'normal', 'yaw': 4.12, 'datetime': '2018-10-09 13:32:17.836555', 'mgs': 0, 'volt': 0.8936, 'depth': 1.462, 'time': 256, 'pitch': -6.54, 'roll': -1.98, 'pres': 183}
{'lipoC2': 7.36, 'lipoC3S1': 3.92, 'temp': 30.44, 'lipoC3S3': 11.85, 'lipoC3S2': 7.84, 'rot1': 1468, 'rot0': 1456, 'rot3': 737, 'rot2': 682, 'state': 'normal', 'yaw': 3.99, 'datetime': '2018-10-09 13:32:17.846930', 'mgs': 0, 'volt': 0.8887, 'depth': 1.385, 'time': 256, 'pitch': -6.99, 'roll': -2.42, 'pres': 182}
{'lipoC2': 7.36, 'lipoC3S1': 3.92, 'temp': 30.44, 'lipoC3S3': 11.85, 'lipoC3S2': 7.84, 'rot1': 1468, 'rot0': 1456, 'rot3': 737, 'rot2': 682, 'state': 'normal', 'yaw': 3.68, 'datetime': '2018-10-09 13:32:17.857283', 'mgs': 0, 'volt': 0.8887, 'depth': 1.385, 'time': 257, 'pitch': -6.91, 'roll': -2.77, 'pres': 182}
{'lipoC2': 7.36, 'lipoC3S1': 3.92, 'temp': 30.5, 'lipoC3S3': 11.85, 'lipoC3S2': 7.84, 'rot1': 1468, 'rot0': 1456, 'rot3': 737, 'rot2': 682, 'state': 'normal', 'yaw': 3.27, 'datetime': '2018-10-09 13:32:17.867507', 'mgs': 0, 'volt': 0.8838, 'depth': 1.309, 'time': 257, 'pitch': -6.18, 'roll': -3.09, 'pres': 181}
{'lipoC2': 7.36, 'lipoC3S1': 3.92, 'temp': 30.5, 'lipoC3S3': 11.85, 'lipoC3S2': 7.84, 'rot1': 1468, 'rot0': 1456, 'rot3': 737, 'rot2': 682, 'state': 'normal', 'yaw': 2.73, 'datetime': '2018-10-09 13:32:17.877379', 'mgs': 0, 'volt': 0.8789, 'depth': 1.233, 'time': 257, 'pitch': -4.79, 'roll': -3.47, 'pres': 180}
{'lipoC2': 7.36, 'lipoC3S1': 3.92, 'temp': 30.44, 'lipoC3S3': 11.85, 'lipoC3S2': 7.84, 'rot1': 1468, 'rot0': 1456, 'rot3': 737, 'rot2': 682, 'state': 'normal', 'yaw': 2.09, 'datetime': '2018-10-09 13:32:17.887200', 'mgs': 0, 'volt': 0.8838, 'depth': 1.309, 'time': 257, 'pitch': -3.8, 'roll': -3.66, 'pres': 181}
{'lipoC2': 7.36, 'lipoC3S1': 3.92, 'temp': 30.44, 'lipoC3S3': 11.85, 'lipoC3S2': 7.84, 'rot1': 1468, 'rot0': 1456, 'rot3': 737, 'rot2': 682, 'state': 'normal', 'yaw': 1.43, 'datetime': '2018-10-09 13:32:17.950081', 'mgs': 0, 'volt': 0.8789, 'depth': 1.233, 'time': 257, 'pitch': -3.41, 'roll': -3.68, 'pres': 180}
{'lipoC2': 7.36, 'lipoC3S1': 3.92, 'temp': 30.44, 'lipoC3S3': 11.85, 'lipoC3S2': 7.84, 'rot1': 1468, 'rot0': 1456, 'rot3': 737, 'rot2': 682, 'state': 'normal', 'yaw': 1.02, 'datetime': '2018-10-09 13:32:17.959966', 'mgs': 0, 'volt': 0.8789, 'depth': 1.233, 'time': 257, 'pitch': -3.68, 'roll': -3.54, 'pres': 180}
{'lipoC2': 7.36, 'lipoC3S1': 3.92, 'temp': 30.44, 'lipoC3S3': 11.85, 'lipoC3S2': 7.84, 'rot1': 1468, 'rot0': 1456, 'rot3': 737, 'rot2': 682, 'state': 'normal', 'yaw': 0.77, 'datetime': '2018-10-09 13:32:17.969787', 'mgs': 0, 'volt': 0.874, 'depth': 1.157, 'time': 257, 'pitch': -4.32, 'roll': -3.23, 'pres': 179}
{'lipoC2': 7.36, 'lipoC3S1': 3.92, 'temp': 30.44, 'lipoC3S3': 11.85, 'lipoC3S2': 7.84, 'rot1': 1468, 'rot0': 1456, 'rot3': 737, 'rot2': 682, 'state': 'normal', 'yaw': 0.67, 'datetime': '2018-10-09 13:32:17.979616', 'mgs': 0, 'volt': 0.874, 'depth': 1.157, 'time': 257, 'pitch': -4.72, 'roll': -3.01, 'pres': 179}
{'lipoC2': 7.36, 'lipoC3S1': 3.92, 'temp': 30.44, 'lipoC3S3': 11.85, 'lipoC3S2': 7.84, 'rot1': 1468, 'rot0': 1456, 'rot3': 737, 'rot2': 682, 'state': 'normal', 'yaw': 0.5, 'datetime': '2018-10-09 13:32:17.989414', 'mgs': 0, 'volt': 0.874, 'depth': 1.157, 'time': 257, 'pitch': -4.55, 'roll': -2.94, 'pres': 179}
{'lipoC2': 7.36, 'lipoC3S1': 3.92, 'temp': 30.44, 'lipoC3S3': 11.85, 'lipoC3S2': 7.84, 'rot1': 1468, 'rot0': 1456, 'rot3': 737, 'rot2': 682, 'state': 'normal', 'yaw': 0.22, 'datetime': '2018-10-09 13:32:17.999210', 'mgs': 0, 'volt': 0.874, 'depth': 1.157, 'time': 258, 'pitch': -3.28, 'roll': -3.16, 'pres': 179}
{'lipoC2': 7.36, 'lipoC3S1': 3.92, 'temp': 30.5, 'lipoC3S3': 11.85, 'lipoC3S2': 7.84, 'rot1': 1468, 'rot0': 1456, 'rot3': 737, 'rot2': 682, 'state': 'normal', 'yaw': -0.02, 'datetime': '2018-10-09 13:32:18.008993', 'mgs': 0, 'volt': 0.874, 'depth': 1.157, 'time': 258, 'pitch': -1.38, 'roll': -3.64, 'pres': 179}
{'lipoC2': 7.36, 'lipoC3S1': 3.92, 'temp': 30.5, 'lipoC3S3': 11.85, 'lipoC3S2': 7.84, 'rot1': 1468, 'rot0': 1456, 'rot3': 737, 'rot2': 682, 'state': 'normal', 'yaw': -0.11, 'datetime': '2018-10-09 13:32:18.018810', 'mgs': 0, 'volt': 0.874, 'depth': 1.157, 'time': 258, 'pitch': 0.81, 'roll': -4.12, 'pres': 179}
{'lipoC2': 7.36, 'lipoC3S1': 3.92, 'temp': 30.44, 'lipoC3S3': 11.85, 'lipoC3S2': 7.84, 'rot1': 1468, 'rot0': 1456, 'rot3': 737, 'rot2': 682, 'state': 'normal', 'yaw': 0.08, 'datetime': '2018-10-09 13:32:18.028616', 'mgs': 0, 'volt': 0.8789, 'depth': 1.233, 'time': 258, 'pitch': 2.26, 'roll': -4.37, 'pres': 180}
{'lipoC2': 7.36, 'lipoC3S1': 3.92, 'temp': 30.44, 'lipoC3S3': 11.85, 'lipoC3S2': 7.84, 'rot1': 1468, 'rot0': 1456, 'rot3': 737, 'rot2': 682, 'state': 'normal', 'yaw': 0.38, 'datetime': '2018-10-09 13:32:18.038391', 'mgs': 0, 'volt': 0.874, 'depth': 1.157, 'time': 258, 'pitch': 2.83, 'roll': -4.26, 'pres': 179}
{'lipoC2': 7.36, 'lipoC3S1': 3.92, 'temp': 30.44, 'lipoC3S3': 11.85, 'lipoC3S2': 7.84, 'rot1': 1468, 'rot0': 1456, 'rot3': 737, 'rot2': 682, 'state': 'normal', 'yaw': 0.55, 'datetime': '2018-10-09 13:32:18.048147', 'mgs': 0, 'volt': 0.8789, 'depth': 1.233, 'time': 258, 'pitch': 2.38, 'roll': -3.87, 'pres': 180}
{'lipoC2': 7.36, 'lipoC3S1': 3.92, 'temp': 30.44, 'lipoC3S3': 11.85, 'lipoC3S2': 7.84, 'rot1': 1468, 'rot0': 1456, 'rot3': 737, 'rot2': 682, 'state': 'normal', 'yaw': 0.82, 'datetime': '2018-10-09 13:32:18.057904', 'mgs': 0, 'volt': 0.874, 'depth': 1.157, 'time': 258, 'pitch': 1.3, 'roll': -3.55, 'pres': 179}
{'lipoC2': 7.36, 'lipoC3S1': 3.92, 'temp': 30.44, 'lipoC3S3': 11.85, 'lipoC3S2': 7.84, 'rot1': 1468, 'rot0': 1456, 'rot3': 737, 'rot2': 682, 'state': 'normal', 'yaw': 1.09, 'datetime': '2018-10-09 13:32:18.067714', 'mgs': 0, 'volt': 0.874, 'depth': 1.157, 'time': 258, 'pitch': 0.16, 'roll': -3.48, 'pres': 179}
{'lipoC2': 7.36, 'lipoC3S1': 3.92, 'temp': 30.44, 'lipoC3S3': 11.85, 'lipoC3S2': 7.84, 'rot1': 1468, 'rot0': 1456, 'rot3': 737, 'rot2': 682, 'state': 'normal', 'yaw': 1.24, 'datetime': '2018-10-09 13:32:18.077728', 'mgs': 0, 'volt': 0.874, 'depth': 1.157, 'time': 258, 'pitch': -0.62, 'roll': -3.54, 'pres': 179}
{'lipoC2': 7.36, 'lipoC3S1': 3.92, 'temp': 30.44, 'lipoC3S3': 11.85, 'lipoC3S2': 7.84, 'rot1': 1468, 'rot0': 1456, 'rot3': 737, 'rot2': 682, 'state': 'normal', 'yaw': 1.17, 'datetime': '2018-10-09 13:32:18.087543', 'mgs': 0, 'volt': 0.874, 'depth': 1.157, 'time': 258, 'pitch': -1.06, 'roll': -3.6, 'pres': 179}
{'lipoC2': 7.36, 'lipoC3S1': 3.92, 'temp': 30.38, 'lipoC3S3': 11.85, 'lipoC3S2': 7.84, 'rot1': 1468, 'rot0': 1456, 'rot3': 737, 'rot2': 682, 'state': 'normal', 'yaw': 0.89, 'datetime': '2018-10-09 13:32:18.127570', 'mgs': 0, 'volt': 0.874, 'depth': 1.157, 'time': 259, 'pitch': -1.13, 'roll': -3.51, 'pres': 179}
{'lipoC2': 7.36, 'lipoC3S1': 3.92, 'temp': 30.38, 'lipoC3S3': 11.85, 'lipoC3S2': 7.84, 'rot1': 1468, 'rot0': 1456, 'rot3': 737, 'rot2': 682, 'state': 'normal', 'yaw': 0.48, 'datetime': '2018-10-09 13:32:18.231973', 'mgs': 0, 'volt': 0.874, 'depth': 1.157, 'time': 259, 'pitch': -1.38, 'roll': -3.05, 'pres': 179}
{'lipoC2': 7.36, 'lipoC3S1': 3.92, 'temp': 30.38, 'lipoC3S3': 11.85, 'lipoC3S2': 7.84, 'rot1': 1468, 'rot0': 1456, 'rot3': 737, 'rot2': 682, 'state': 'normal', 'yaw': 0.19, 'datetime': '2018-10-09 13:32:18.337639', 'mgs': 0, 'volt': 0.8789, 'depth': 1.233, 'time': 259, 'pitch': -1.79, 'roll': -2.45, 'pres': 180}
{'lipoC2': 7.36, 'lipoC3S1': 3.92, 'temp': 30.38, 'lipoC3S3': 11.85, 'lipoC3S2': 7.84, 'rot1': 1468, 'rot0': 1456, 'rot3': 737, 'rot2': 682, 'state': 'normal', 'yaw': -0.01, 'datetime': '2018-10-09 13:32:18.442094', 'mgs': 0, 'volt': 0.8789, 'depth': 1.233, 'time': 259, 'pitch': -2.26, 'roll': -1.86, 'pres': 180}
{'lipoC2': 7.36, 'lipoC3S1': 3.92, 'temp': 30.38, 'lipoC3S3': 11.85, 'lipoC3S2': 7.84, 'rot1': 1468, 'rot0': 1456, 'rot3': 737, 'rot2': 682, 'state': 'normal', 'yaw': -0.13, 'datetime': '2018-10-09 13:32:18.553168', 'mgs': 0, 'volt': 0.8789, 'depth': 1.233, 'time': 259, 'pitch': -2.49, 'roll': -1.55, 'pres': 180}
{'lipoC2': 7.36, 'lipoC3S1': 3.92, 'temp': 30.38, 'lipoC3S3': 11.85, 'lipoC3S2': 7.84, 'rot1': 1468, 'rot0': 1456, 'rot3': 737, 'rot2': 682, 'state': 'normal', 'yaw': -0.18, 'datetime': '2018-10-09 13:32:18.658786', 'mgs': 0, 'volt': 0.8838, 'depth': 1.309, 'time': 259, 'pitch': -2.2, 'roll': -1.66, 'pres': 181}
{'lipoC2': 7.36, 'lipoC3S1': 3.92, 'temp': 30.38, 'lipoC3S3': 11.85, 'lipoC3S2': 7.84, 'rot1': 1468, 'rot0': 1456, 'rot3': 737, 'rot2': 682, 'state': 'normal', 'yaw': -0.26, 'datetime': '2018-10-09 13:32:18.763266', 'mgs': 0, 'volt': 0.8838, 'depth': 1.309, 'time': 259, 'pitch': -1.43, 'roll': -1.95, 'pres': 181}
{'lipoC2': 7.36, 'lipoC3S1': 3.92, 'temp': 30.44, 'lipoC3S3': 11.85, 'lipoC3S2': 7.84, 'rot1': 1468, 'rot0': 1456, 'rot3': 737, 'rot2': 682, 'state': 'normal', 'yaw': -0.4, 'datetime': '2018-10-09 13:32:18.867822', 'mgs': 0, 'volt': 0.8838, 'depth': 1.309, 'time': 259, 'pitch': -0.45, 'roll': -2.25, 'pres': 181}
{'lipoC2': 7.36, 'lipoC3S1': 3.92, 'temp': 30.44, 'lipoC3S3': 11.85, 'lipoC3S2': 7.84, 'rot1': 1468, 'rot0': 1456, 'rot3': 737, 'rot2': 682, 'state': 'normal', 'yaw': -0.41, 'datetime': '2018-10-09 13:32:18.972052', 'mgs': 0, 'volt': 0.8887, 'depth': 1.385, 'time': 259, 'pitch': -0.11, 'roll': -2.44, 'pres': 182}
{'lipoC2': 7.36, 'lipoC3S1': 3.92, 'temp': 30.44, 'lipoC3S3': 11.85, 'lipoC3S2': 7.84, 'rot1': 1468, 'rot0': 1456, 'rot3': 737, 'rot2': 682, 'state': 'normal', 'yaw': -0.42, 'datetime': '2018-10-09 13:32:19.076386', 'mgs': 0, 'volt': 0.8887, 'depth': 1.385, 'time': 260, 'pitch': -0.53, 'roll': -2.49, 'pres': 182}
{'lipoC2': 7.36, 'lipoC3S1': 3.92, 'temp': 30.44, 'lipoC3S3': 11.85, 'lipoC3S2': 7.84, 'rot1': 1468, 'rot0': 1456, 'rot3': 737, 'rot2': 682, 'state': 'normal', 'yaw': -0.6, 'datetime': '2018-10-09 13:32:19.180772', 'mgs': 0, 'volt': 0.8887, 'depth': 1.385, 'time': 260, 'pitch': -1.62, 'roll': -2.47, 'pres': 182}
{'lipoC2': 7.36, 'lipoC3S1': 3.92, 'temp': 30.44, 'lipoC3S3': 11.85, 'lipoC3S2': 7.84, 'rot1': 1468, 'rot0': 1456, 'rot3': 737, 'rot2': 682, 'state': 'normal', 'yaw': -0.8, 'datetime': '2018-10-09 13:32:19.285324', 'mgs': 0, 'volt': 0.8887, 'depth': 1.385, 'time': 260, 'pitch': -2.3, 'roll': -2.63, 'pres': 182}
{'lipoC2': 7.36, 'lipoC3S1': 3.92, 'temp': 30.44, 'lipoC3S3': 11.85, 'lipoC3S2': 7.84, 'rot1': 1468, 'rot0': 1456, 'rot3': 737, 'rot2': 682, 'state': 'normal', 'yaw': -1.01, 'datetime': '2018-10-09 13:32:19.389735', 'mgs': 0, 'volt': 0.8887, 'depth': 1.385, 'time': 260, 'pitch': -2.29, 'roll': -3.0, 'pres': 182}
{'lipoC2': 7.36, 'lipoC3S1': 3.92, 'temp': 30.44, 'lipoC3S3': 11.85, 'lipoC3S2': 7.84, 'rot1': 1468, 'rot0': 1456, 'rot3': 737, 'rot2': 682, 'state': 'normal', 'yaw': -1.18, 'datetime': '2018-10-09 13:32:19.494388', 'mgs': 0, 'volt': 0.8838, 'depth': 1.309, 'time': 260, 'pitch': -1.63, 'roll': -3.39, 'pres': 181}
{'lipoC2': 7.36, 'lipoC3S1': 3.92, 'temp': 30.44, 'lipoC3S3': 11.85, 'lipoC3S2': 7.84, 'rot1': 1468, 'rot0': 1456, 'rot3': 737, 'rot2': 682, 'state': 'normal', 'yaw': -1.44, 'datetime': '2018-10-09 13:32:19.599234', 'mgs': 0, 'volt': 0.8838, 'depth': 1.309, 'time': 260, 'pitch': -1.06, 'roll': -3.52, 'pres': 181}
{'lipoC2': 7.36, 'lipoC3S1': 3.92, 'temp': 30.44, 'lipoC3S3': 11.85, 'lipoC3S2': 7.84, 'rot1': 1468, 'rot0': 1456, 'rot3': 737, 'rot2': 682, 'state': 'normal', 'yaw': -1.8, 'datetime': '2018-10-09 13:32:19.703703', 'mgs': 0, 'volt': 0.8887, 'depth': 1.385, 'time': 260, 'pitch': -1.35, 'roll': -3.31, 'pres': 182}
{'lipoC2': 7.36, 'lipoC3S1': 3.92, 'temp': 30.44, 'lipoC3S3': 11.85, 'lipoC3S2': 7.84, 'rot1': 1468, 'rot0': 1456, 'rot3': 737, 'rot2': 682, 'state': 'normal', 'yaw': -2.02, 'datetime': '2018-10-09 13:32:19.809528', 'mgs': 0, 'volt': 0.8887, 'depth': 1.385, 'time': 260, 'pitch': -2.48, 'roll': -2.96, 'pres': 182}
{'lipoC2': 7.36, 'lipoC3S1': 3.92, 'temp': 30.44, 'lipoC3S3': 11.85, 'lipoC3S2': 7.84, 'rot1': 1468, 'rot0': 1456, 'rot3': 737, 'rot2': 682, 'state': 'normal', 'yaw': -2.01, 'datetime': '2018-10-09 13:32:19.913663', 'mgs': 0, 'volt': 0.8887, 'depth': 1.385, 'time': 260, 'pitch': -4.0, 'roll': -2.63, 'pres': 182}
{'lipoC2': 7.36, 'lipoC3S1': 3.92, 'temp': 30.44, 'lipoC3S3': 11.85, 'lipoC3S2': 7.84, 'rot1': 1468, 'rot0': 1456, 'rot3': 737, 'rot2': 682, 'state': 'normal', 'yaw': -1.69, 'datetime': '2018-10-09 13:32:20.018315', 'mgs': 0, 'volt': 0.8887, 'depth': 1.385, 'time': 260, 'pitch': -4.66, 'roll': -2.64, 'pres': 182}
{'lipoC2': 7.36, 'lipoC3S1': 3.92, 'temp': 30.44, 'lipoC3S3': 11.85, 'lipoC3S2': 7.84, 'rot1': 1468, 'rot0': 1456, 'rot3': 737, 'rot2': 682, 'state': 'normal', 'yaw': -1.1, 'datetime': '2018-10-09 13:32:20.122423', 'mgs': 0, 'volt': 0.8887, 'depth': 1.385, 'time': 261, 'pitch': -4.06, 'roll': -3.02, 'pres': 182}
{'lipoC2': 7.36, 'lipoC3S1': 3.92, 'temp': 30.44, 'lipoC3S3': 11.85, 'lipoC3S2': 7.84, 'rot1': 1468, 'rot0': 1456, 'rot3': 737, 'rot2': 682, 'state': 'normal', 'yaw': -0.58, 'datetime': '2018-10-09 13:32:20.226835', 'mgs': 0, 'volt': 0.8887, 'depth': 1.385, 'time': 261, 'pitch': -2.48, 'roll': -3.44, 'pres': 182}
{'lipoC2': 7.36, 'lipoC3S1': 3.92, 'temp': 30.44, 'lipoC3S3': 11.85, 'lipoC3S2': 7.84, 'rot1': 1468, 'rot0': 1456, 'rot3': 737, 'rot2': 682, 'state': 'normal', 'yaw': -0.1, 'datetime': '2018-10-09 13:32:20.331380', 'mgs': 0, 'volt': 0.8936, 'depth': 1.462, 'time': 261, 'pitch': -0.56, 'roll': -3.7, 'pres': 183}
{'lipoC2': 7.36, 'lipoC3S1': 3.92, 'temp': 30.44, 'lipoC3S3': 11.85, 'lipoC3S2': 7.84, 'rot1': 1468, 'rot0': 1456, 'rot3': 737, 'rot2': 682, 'state': 'normal', 'yaw': 0.16, 'datetime': '2018-10-09 13:32:20.435544', 'mgs': 0, 'volt': 0.8936, 'depth': 1.462, 'time': 261, 'pitch': 0.55, 'roll': -3.69, 'pres': 183}
{'lipoC2': 7.36, 'lipoC3S1': 3.92, 'temp': 30.44, 'lipoC3S3': 11.85, 'lipoC3S2': 7.84, 'rot1': 1468, 'rot0': 1456, 'rot3': 737, 'rot2': 682, 'state': 'normal', 'yaw': 0.32, 'datetime': '2018-10-09 13:32:20.540542', 'mgs': 0, 'volt': 0.8936, 'depth': 1.462, 'time': 261, 'pitch': 0.84, 'roll': -3.44, 'pres': 183}
{'lipoC2': 7.36, 'lipoC3S1': 3.92, 'temp': 30.44, 'lipoC3S3': 11.85, 'lipoC3S2': 7.84, 'rot1': 1468, 'rot0': 1456, 'rot3': 737, 'rot2': 682, 'state': 'normal', 'yaw': 0.63, 'datetime': '2018-10-09 13:32:20.644890', 'mgs': 0, 'volt': 0.8936, 'depth': 1.462, 'time': 261, 'pitch': 0.7, 'roll': -3.15, 'pres': 183}
{'lipoC2': 7.36, 'lipoC3S1': 3.92, 'temp': 30.44, 'lipoC3S3': 11.85, 'lipoC3S2': 7.84, 'rot1': 1468, 'rot0': 1456, 'rot3': 737, 'rot2': 682, 'state': 'normal', 'yaw': 1.0, 'datetime': '2018-10-09 13:32:20.750670', 'mgs': 0, 'volt': 0.8984, 'depth': 1.538, 'time': 261, 'pitch': 0.35, 'roll': -2.97, 'pres': 184}
{'lipoC2': 7.36, 'lipoC3S1': 3.92, 'temp': 30.44, 'lipoC3S3': 11.85, 'lipoC3S2': 7.84, 'rot1': 1468, 'rot0': 1456, 'rot3': 737, 'rot2': 682, 'state': 'normal', 'yaw': 1.38, 'datetime': '2018-10-09 13:32:20.854914', 'mgs': 0, 'volt': 0.8936, 'depth': 1.462, 'time': 261, 'pitch': 0.28, 'roll': -2.83, 'pres': 183}
{'lipoC2': 7.36, 'lipoC3S1': 3.92, 'temp': 30.44, 'lipoC3S3': 11.85, 'lipoC3S2': 7.84, 'rot1': 1468, 'rot0': 1456, 'rot3': 737, 'rot2': 682, 'state': 'normal', 'yaw': 1.65, 'datetime': '2018-10-09 13:32:20.960520', 'mgs': 0, 'volt': 0.8984, 'depth': 1.538, 'time': 261, 'pitch': 0.81, 'roll': -2.65, 'pres': 184}
{'lipoC2': 7.36, 'lipoC3S1': 3.92, 'temp': 30.44, 'lipoC3S3': 11.85, 'lipoC3S2': 7.84, 'rot1': 1468, 'rot0': 1456, 'rot3': 737, 'rot2': 682, 'state': 'normal', 'yaw': 1.86, 'datetime': '2018-10-09 13:32:21.065117', 'mgs': 0, 'volt': 0.8984, 'depth': 1.538, 'time': 261, 'pitch': 1.71, 'roll': -2.32, 'pres': 184}
{'lipoC2': 7.36, 'lipoC3S1': 3.92, 'temp': 30.44, 'lipoC3S3': 11.85, 'lipoC3S2': 7.84, 'rot1': 1468, 'rot0': 1456, 'rot3': 737, 'rot2': 682, 'state': 'normal', 'yaw': 2.04, 'datetime': '2018-10-09 13:32:21.169452', 'mgs': 0, 'volt': 0.8984, 'depth': 1.538, 'time': 262, 'pitch': 2.23, 'roll': -1.91, 'pres': 184}
{'lipoC2': 7.36, 'lipoC3S1': 3.92, 'temp': 30.44, 'lipoC3S3': 11.85, 'lipoC3S2': 7.84, 'rot1': 1468, 'rot0': 1456, 'rot3': 737, 'rot2': 682, 'state': 'normal', 'yaw': 2.36, 'datetime': '2018-10-09 13:32:21.273774', 'mgs': 0, 'volt': 0.8984, 'depth': 1.538, 'time': 262, 'pitch': 2.02, 'roll': -1.52, 'pres': 184}
{'lipoC2': 7.36, 'lipoC3S1': 3.92, 'temp': 30.44, 'lipoC3S3': 11.85, 'lipoC3S2': 7.84, 'rot1': 1468, 'rot0': 1456, 'rot3': 737, 'rot2': 682, 'state': 'normal', 'yaw': 2.74, 'datetime': '2018-10-09 13:32:21.378286', 'mgs': 0, 'volt': 0.8984, 'depth': 1.538, 'time': 262, 'pitch': 1.42, 'roll': -1.33, 'pres': 184}
{'lipoC2': 7.36, 'lipoC3S1': 3.92, 'temp': 30.44, 'lipoC3S3': 11.85, 'lipoC3S2': 7.84, 'rot1': 1468, 'rot0': 1456, 'rot3': 737, 'rot2': 682, 'state': 'normal', 'yaw': 3.15, 'datetime': '2018-10-09 13:32:21.482896', 'mgs': 0, 'volt': 0.8984, 'depth': 1.538, 'time': 262, 'pitch': 1.1, 'roll': -1.33, 'pres': 184}
{'lipoC2': 7.36, 'lipoC3S1': 3.92, 'temp': 30.44, 'lipoC3S3': 11.85, 'lipoC3S2': 7.84, 'rot1': 1468, 'rot0': 1456, 'rot3': 737, 'rot2': 682, 'state': 'normal', 'yaw': 3.62, 'datetime': '2018-10-09 13:32:21.587182', 'mgs': 0, 'volt': 0.8984, 'depth': 1.538, 'time': 262, 'pitch': 1.17, 'roll': -1.46, 'pres': 184}
{'lipoC2': 7.36, 'lipoC3S1': 3.92, 'temp': 30.44, 'lipoC3S3': 11.85, 'lipoC3S2': 7.84, 'rot1': 1468, 'rot0': 1456, 'rot3': 737, 'rot2': 682, 'state': 'normal', 'yaw': 4.28, 'datetime': '2018-10-09 13:32:21.691717', 'mgs': 0, 'volt': 0.8984, 'depth': 1.538, 'time': 262, 'pitch': 1.59, 'roll': -1.85, 'pres': 184}
{'lipoC2': 7.36, 'lipoC3S1': 3.92, 'temp': 30.44, 'lipoC3S3': 11.85, 'lipoC3S2': 7.84, 'rot1': 1468, 'rot0': 1456, 'rot3': 737, 'rot2': 682, 'state': 'normal', 'yaw': 5.2, 'datetime': '2018-10-09 13:32:21.796232', 'mgs': 0, 'volt': 0.8984, 'depth': 1.538, 'time': 262, 'pitch': 2.31, 'roll': -2.45, 'pres': 184}
{'lipoC2': 7.36, 'lipoC3S1': 3.92, 'temp': 30.44, 'lipoC3S3': 11.85, 'lipoC3S2': 7.84, 'rot1': 1468, 'rot0': 1456, 'rot3': 737, 'rot2': 682, 'state': 'normal', 'yaw': 5.97, 'datetime': '2018-10-09 13:32:21.901816', 'mgs': 0, 'volt': 0.8984, 'depth': 1.538, 'time': 262, 'pitch': 2.81, 'roll': -2.88, 'pres': 184}
{'lipoC2': 7.36, 'lipoC3S1': 3.92, 'temp': 30.44, 'lipoC3S3': 11.85, 'lipoC3S2': 7.84, 'rot1': 1468, 'rot0': 1456, 'rot3': 737, 'rot2': 682, 'state': 'normal', 'yaw': 6.82, 'datetime': '2018-10-09 13:32:22.000250', 'mgs': 0, 'volt': 0.8984, 'depth': 1.538, 'time': 262, 'pitch': 2.95, 'roll': -3.33, 'pres': 184}
{'lipoC2': 7.36, 'lipoC3S1': 3.92, 'temp': 30.44, 'lipoC3S3': 11.85, 'lipoC3S2': 7.84, 'rot1': 1468, 'rot0': 1456, 'rot3': 737, 'rot2': 682, 'state': 'normal', 'yaw': 7.04, 'datetime': '2018-10-09 13:32:22.105969', 'mgs': 0, 'volt': 0.8984, 'depth': 1.538, 'time': 263, 'pitch': 2.46, 'roll': -3.45, 'pres': 184}
{'lipoC2': 7.36, 'lipoC3S1': 3.92, 'temp': 30.44, 'lipoC3S3': 11.85, 'lipoC3S2': 7.84, 'rot1': 1468, 'rot0': 1456, 'rot3': 737, 'rot2': 682, 'state': 'normal', 'yaw': 6.71, 'datetime': '2018-10-09 13:32:22.210342', 'mgs': 0, 'volt': 0.8984, 'depth': 1.538, 'time': 263, 'pitch': 1.62, 'roll': -3.13, 'pres': 184}
{'lipoC2': 7.36, 'lipoC3S1': 3.92, 'temp': 30.44, 'lipoC3S3': 11.85, 'lipoC3S2': 7.84, 'rot1': 1468, 'rot0': 1456, 'rot3': 737, 'rot2': 682, 'state': 'normal', 'yaw': 5.95, 'datetime': '2018-10-09 13:32:22.319800', 'mgs': 0, 'volt': 0.8984, 'depth': 1.538, 'time': 263, 'pitch': 1.17, 'roll': -2.63, 'pres': 184}
{'lipoC2': 7.36, 'lipoC3S1': 3.92, 'temp': 30.44, 'lipoC3S3': 11.85, 'lipoC3S2': 7.84, 'rot1': 1468, 'rot0': 1456, 'rot3': 737, 'rot2': 682, 'state': 'normal', 'yaw': 4.8, 'datetime': '2018-10-09 13:32:22.425153', 'mgs': 0, 'volt': 0.8984, 'depth': 1.538, 'time': 263, 'pitch': 0.57, 'roll': -2.15, 'pres': 184}
{'lipoC2': 7.36, 'lipoC3S1': 3.92, 'temp': 30.44, 'lipoC3S3': 11.85, 'lipoC3S2': 7.84, 'rot1': 1468, 'rot0': 1456, 'rot3': 737, 'rot2': 682, 'state': 'normal', 'yaw': 3.94, 'datetime': '2018-10-09 13:32:22.529721', 'mgs': 0, 'volt': 0.8984, 'depth': 1.538, 'time': 263, 'pitch': 0.24, 'roll': -2.12, 'pres': 184}
{'lipoC2': 7.36, 'lipoC3S1': 3.92, 'temp': 30.44, 'lipoC3S3': 11.85, 'lipoC3S2': 7.84, 'rot1': 1468, 'rot0': 1456, 'rot3': 737, 'rot2': 682, 'state': 'normal', 'yaw': 3.2, 'datetime': '2018-10-09 13:32:22.634041', 'mgs': 0, 'volt': 0.8936, 'depth': 1.462, 'time': 263, 'pitch': 0.01, 'roll': -2.46, 'pres': 183}
{'lipoC2': 7.36, 'lipoC3S1': 3.92, 'temp': 30.44, 'lipoC3S3': 11.85, 'lipoC3S2': 7.84, 'rot1': 1468, 'rot0': 1456, 'rot3': 737, 'rot2': 682, 'state': 'normal', 'yaw': 2.37, 'datetime': '2018-10-09 13:32:22.738580', 'mgs': 0, 'volt': 0.8936, 'depth': 1.462, 'time': 263, 'pitch': -0.49, 'roll': -3.13, 'pres': 183}
{'lipoC2': 7.36, 'lipoC3S1': 3.92, 'temp': 30.44, 'lipoC3S3': 11.85, 'lipoC3S2': 7.84, 'rot1': 1468, 'rot0': 1456, 'rot3': 737, 'rot2': 682, 'state': 'normal', 'yaw': 1.44, 'datetime': '2018-10-09 13:32:22.842787', 'mgs': 0, 'volt': 0.8936, 'depth': 1.462, 'time': 263, 'pitch': -1.14, 'roll': -3.7, 'pres': 183}
{'lipoC2': 7.36, 'lipoC3S1': 3.92, 'temp': 30.44, 'lipoC3S3': 11.85, 'lipoC3S2': 7.84, 'rot1': 1468, 'rot0': 1456, 'rot3': 737, 'rot2': 682, 'state': 'normal', 'yaw': -0.1, 'datetime': '2018-10-09 13:32:22.947382', 'mgs': 0, 'volt': 0.8936, 'depth': 1.462, 'time': 263, 'pitch': -2.07, 'roll': -3.83, 'pres': 183}
{'lipoC2': 7.36, 'lipoC3S1': 3.92, 'temp': 30.44, 'lipoC3S3': 11.85, 'lipoC3S2': 7.84, 'rot1': 1468, 'rot0': 1456, 'rot3': 737, 'rot2': 682, 'state': 'normal', 'yaw': -1.85, 'datetime': '2018-10-09 13:32:23.052108', 'mgs': 0, 'volt': 0.8936, 'depth': 1.462, 'time': 263, 'pitch': -3.21, 'roll': -3.33, 'pres': 183}
{'lipoC2': 7.36, 'lipoC3S1': 3.92, 'temp': 30.44, 'lipoC3S3': 11.85, 'lipoC3S2': 7.84, 'rot1': 1468, 'rot0': 1456, 'rot3': 737, 'rot2': 682, 'state': 'normal', 'yaw': -3.65, 'datetime': '2018-10-09 13:32:23.156831', 'mgs': 0, 'volt': 0.8936, 'depth': 1.462, 'time': 264, 'pitch': -4.22, 'roll': -2.56, 'pres': 183}
{'lipoC2': 7.36, 'lipoC3S1': 3.92, 'temp': 30.44, 'lipoC3S3': 11.85, 'lipoC3S2': 7.84, 'rot1': 1468, 'rot0': 1456, 'rot3': 737, 'rot2': 682, 'state': 'normal', 'yaw': -5.58, 'datetime': '2018-10-09 13:32:23.261069', 'mgs': 0, 'volt': 0.8936, 'depth': 1.462, 'time': 264, 'pitch': -4.71, 'roll': -1.75, 'pres': 183}
{'lipoC2': 7.36, 'lipoC3S1': 3.92, 'temp': 30.44, 'lipoC3S3': 11.85, 'lipoC3S2': 7.84, 'rot1': 1468, 'rot0': 1456, 'rot3': 737, 'rot2': 682, 'state': 'normal', 'yaw': -7.0, 'datetime': '2018-10-09 13:32:23.366876', 'mgs': 0, 'volt': 0.8887, 'depth': 1.385, 'time': 264, 'pitch': -4.26, 'roll': -1.38, 'pres': 182}
{'lipoC2': 7.36, 'lipoC3S1': 3.92, 'temp': 30.44, 'lipoC3S3': 11.85, 'lipoC3S2': 7.84, 'rot1': 1468, 'rot0': 1456, 'rot3': 737, 'rot2': 682, 'state': 'normal', 'yaw': -8.22, 'datetime': '2018-10-09 13:32:23.471177', 'mgs': 0, 'volt': 0.8887, 'depth': 1.385, 'time': 264, 'pitch': -3.43, 'roll': -1.57, 'pres': 182}
{'lipoC2': 7.36, 'lipoC3S1': 3.92, 'temp': 30.44, 'lipoC3S3': 11.85, 'lipoC3S2': 7.84, 'rot1': 1468, 'rot0': 1456, 'rot3': 737, 'rot2': 682, 'state': 'normal', 'yaw': -9.34, 'datetime': '2018-10-09 13:32:23.575593', 'mgs': 0, 'volt': 0.8887, 'depth': 1.385, 'time': 264, 'pitch': -2.66, 'roll': -1.87, 'pres': 182}
{'lipoC2': 7.36, 'lipoC3S1': 3.92, 'temp': 30.44, 'lipoC3S3': 11.85, 'lipoC3S2': 7.84, 'rot1': 1468, 'rot0': 1456, 'rot3': 737, 'rot2': 682, 'state': 'normal', 'yaw': -10.22, 'datetime': '2018-10-09 13:32:23.679956', 'mgs': 0, 'volt': 0.8887, 'depth': 1.385, 'time': 264, 'pitch': -2.42, 'roll': -2.31, 'pres': 182}
{'lipoC2': 7.36, 'lipoC3S1': 3.92, 'temp': 30.44, 'lipoC3S3': 11.85, 'lipoC3S2': 7.84, 'rot1': 1468, 'rot0': 1456, 'rot3': 737, 'rot2': 682, 'state': 'normal', 'yaw': -10.76, 'datetime': '2018-10-09 13:32:23.784484', 'mgs': 0, 'volt': 0.8887, 'depth': 1.385, 'time': 264, 'pitch': -2.54, 'roll': -2.65, 'pres': 182}
{'lipoC2': 7.36, 'lipoC3S1': 3.92, 'temp': 30.44, 'lipoC3S3': 11.85, 'lipoC3S2': 7.84, 'rot1': 1468, 'rot0': 1456, 'rot3': 737, 'rot2': 682, 'state': 'normal', 'yaw': -11.2, 'datetime': '2018-10-09 13:32:23.888714', 'mgs': 0, 'volt': 0.8887, 'depth': 1.385, 'time': 264, 'pitch': -2.76, 'roll': -2.85, 'pres': 182}
{'lipoC2': 7.36, 'lipoC3S1': 3.92, 'temp': 30.38, 'lipoC3S3': 11.85, 'lipoC3S2': 7.84, 'rot1': 1468, 'rot0': 1456, 'rot3': 737, 'rot2': 682, 'state': 'normal', 'yaw': -11.69, 'datetime': '2018-10-09 13:32:23.993339', 'mgs': 0, 'volt': 0.8838, 'depth': 1.309, 'time': 264, 'pitch': -2.78, 'roll': -2.89, 'pres': 181}
{'lipoC2': 7.36, 'lipoC3S1': 3.92, 'temp': 30.38, 'lipoC3S3': 11.85, 'lipoC3S2': 7.84, 'rot1': 1468, 'rot0': 1456, 'rot3': 737, 'rot2': 682, 'state': 'normal', 'yaw': -12.11, 'datetime': '2018-10-09 13:32:24.098416', 'mgs': 0, 'volt': 0.8838, 'depth': 1.309, 'time': 265, 'pitch': -2.79, 'roll': -2.99, 'pres': 181}
{'lipoC2': 7.36, 'lipoC3S1': 3.92, 'temp': 30.44, 'lipoC3S3': 11.85, 'lipoC3S2': 7.84, 'rot1': 1468, 'rot0': 1456, 'rot3': 737, 'rot2': 682, 'state': 'normal', 'yaw': -12.37, 'datetime': '2018-10-09 13:32:24.202939', 'mgs': 0, 'volt': 0.8838, 'depth': 1.309, 'time': 265, 'pitch': -2.8, 'roll': -3.35, 'pres': 181}
{'lipoC2': 7.36, 'lipoC3S1': 3.92, 'temp': 30.44, 'lipoC3S3': 11.85, 'lipoC3S2': 7.84, 'rot1': 1468, 'rot0': 1456, 'rot3': 737, 'rot2': 682, 'state': 'normal', 'yaw': -12.47, 'datetime': '2018-10-09 13:32:24.308429', 'mgs': 0, 'volt': 0.8838, 'depth': 1.309, 'time': 265, 'pitch': -2.73, 'roll': -3.84, 'pres': 181}
{'lipoC2': 7.36, 'lipoC3S1': 3.92, 'temp': 30.44, 'lipoC3S3': 11.85, 'lipoC3S2': 7.84, 'rot1': 1468, 'rot0': 1456, 'rot3': 737, 'rot2': 682, 'state': 'normal', 'yaw': -12.51, 'datetime': '2018-10-09 13:32:24.412951', 'mgs': 0, 'volt': 0.8838, 'depth': 1.309, 'time': 265, 'pitch': -2.51, 'roll': -4.4, 'pres': 181}
{'lipoC2': 7.36, 'lipoC3S1': 3.92, 'temp': 30.44, 'lipoC3S3': 11.85, 'lipoC3S2': 7.84, 'rot1': 1468, 'rot0': 1456, 'rot3': 737, 'rot2': 682, 'state': 'normal', 'yaw': -12.52, 'datetime': '2018-10-09 13:32:24.519366', 'mgs': 0, 'volt': 0.8838, 'depth': 1.309, 'time': 265, 'pitch': -2.42, 'roll': -4.77, 'pres': 181}
{'lipoC2': 7.36, 'lipoC3S1': 3.92, 'temp': 30.44, 'lipoC3S3': 11.85, 'lipoC3S2': 7.84, 'rot1': 1468, 'rot0': 1456, 'rot3': 737, 'rot2': 682, 'state': 'normal', 'yaw': -12.5, 'datetime': '2018-10-09 13:32:24.622929', 'mgs': 0, 'volt': 0.8838, 'depth': 1.309, 'time': 265, 'pitch': -2.28, 'roll': -4.92, 'pres': 181}
{'lipoC2': 7.36, 'lipoC3S1': 3.92, 'temp': 30.44, 'lipoC3S3': 11.85, 'lipoC3S2': 7.84, 'rot1': 1468, 'rot0': 1456, 'rot3': 737, 'rot2': 682, 'state': 'normal', 'yaw': -12.34, 'datetime': '2018-10-09 13:32:24.727353', 'mgs': 0, 'volt': 0.8838, 'depth': 1.309, 'time': 265, 'pitch': -2.12, 'roll': -4.93, 'pres': 181}
{'lipoC2': 7.36, 'lipoC3S1': 3.92, 'temp': 30.44, 'lipoC3S3': 11.85, 'lipoC3S2': 7.84, 'rot1': 1468, 'rot0': 1456, 'rot3': 737, 'rot2': 682, 'state': 'normal', 'yaw': -12.14, 'datetime': '2018-10-09 13:32:24.831995', 'mgs': 0, 'volt': 0.8838, 'depth': 1.309, 'time': 265, 'pitch': -1.98, 'roll': -4.75, 'pres': 181}
{'lipoC2': 7.36, 'lipoC3S1': 3.92, 'temp': 30.38, 'lipoC3S3': 11.85, 'lipoC3S2': 7.84, 'rot1': 1468, 'rot0': 1456, 'rot3': 737, 'rot2': 682, 'state': 'normal', 'yaw': -12.02, 'datetime': '2018-10-09 13:32:24.936172', 'mgs': 0, 'volt': 0.8838, 'depth': 1.309, 'time': 265, 'pitch': -1.91, 'roll': -4.48, 'pres': 181}
{'lipoC2': 7.36, 'lipoC3S1': 3.92, 'temp': 30.38, 'lipoC3S3': 11.85, 'lipoC3S2': 7.84, 'rot1': 1468, 'rot0': 1456, 'rot3': 737, 'rot2': 682, 'state': 'normal', 'yaw': -11.88, 'datetime': '2018-10-09 13:32:25.041062', 'mgs': 0, 'volt': 0.8887, 'depth': 1.385, 'time': 265, 'pitch': -1.72, 'roll': -4.21, 'pres': 182}
{'lipoC2': 7.36, 'lipoC3S1': 3.92, 'temp': 30.44, 'lipoC3S3': 11.85, 'lipoC3S2': 7.84, 'rot1': 1468, 'rot0': 1456, 'rot3': 737, 'rot2': 682, 'state': 'normal', 'yaw': -11.72, 'datetime': '2018-10-09 13:32:25.144403', 'mgs': 0, 'volt': 0.8887, 'depth': 1.385, 'time': 266, 'pitch': -1.34, 'roll': -4.08, 'pres': 182}
{'lipoC2': 7.36, 'lipoC3S1': 3.92, 'temp': 30.44, 'lipoC3S3': 11.85, 'lipoC3S2': 7.84, 'rot1': 1468, 'rot0': 1456, 'rot3': 737, 'rot2': 682, 'state': 'normal', 'yaw': -11.54, 'datetime': '2018-10-09 13:32:25.247793', 'mgs': 0, 'volt': 0.8887, 'depth': 1.385, 'time': 266, 'pitch': -0.95, 'roll': -4.06, 'pres': 182}
{'lipoC2': 7.36, 'lipoC3S1': 3.92, 'temp': 30.44, 'lipoC3S3': 11.85, 'lipoC3S2': 7.84, 'rot1': 1468, 'rot0': 1456, 'rot3': 737, 'rot2': 682, 'state': 'normal', 'yaw': -11.34, 'datetime': '2018-10-09 13:32:25.348290', 'mgs': 0, 'volt': 0.8887, 'depth': 1.385, 'time': 266, 'pitch': -1.02, 'roll': -3.98, 'pres': 182}
{'lipoC2': 7.36, 'lipoC3S1': 3.92, 'temp': 30.44, 'lipoC3S3': 11.85, 'lipoC3S2': 7.84, 'rot1': 1468, 'rot0': 1456, 'rot3': 737, 'rot2': 682, 'state': 'normal', 'yaw': -11.05, 'datetime': '2018-10-09 13:32:25.453934', 'mgs': 0, 'volt': 0.8887, 'depth': 1.385, 'time': 266, 'pitch': -1.4, 'roll': -3.77, 'pres': 182}
{'lipoC2': 7.36, 'lipoC3S1': 3.92, 'temp': 30.44, 'lipoC3S3': 11.85, 'lipoC3S2': 7.84, 'rot1': 1468, 'rot0': 1456, 'rot3': 737, 'rot2': 682, 'state': 'normal', 'yaw': -10.6, 'datetime': '2018-10-09 13:32:25.558423', 'mgs': 0, 'volt': 0.8887, 'depth': 1.385, 'time': 266, 'pitch': -1.73, 'roll': -3.4, 'pres': 182}
{'lipoC2': 7.36, 'lipoC3S1': 3.92, 'temp': 30.38, 'lipoC3S3': 11.85, 'lipoC3S2': 7.84, 'rot1': 1468, 'rot0': 1456, 'rot3': 737, 'rot2': 682, 'state': 'normal', 'yaw': -10.09, 'datetime': '2018-10-09 13:32:25.664061', 'mgs': 0, 'volt': 0.8936, 'depth': 1.462, 'time': 266, 'pitch': -1.65, 'roll': -3.04, 'pres': 183}
{'lipoC2': 7.36, 'lipoC3S1': 3.92, 'temp': 30.38, 'lipoC3S3': 11.85, 'lipoC3S2': 7.84, 'rot1': 1468, 'rot0': 1456, 'rot3': 737, 'rot2': 682, 'state': 'normal', 'yaw': -9.47, 'datetime': '2018-10-09 13:32:25.768534', 'mgs': 0, 'volt': 0.8936, 'depth': 1.462, 'time': 266, 'pitch': -1.21, 'roll': -2.74, 'pres': 183}
{'lipoC2': 7.36, 'lipoC3S1': 3.92, 'temp': 30.44, 'lipoC3S3': 11.85, 'lipoC3S2': 7.84, 'rot1': 1468, 'rot0': 1456, 'rot3': 737, 'rot2': 682, 'state': 'normal', 'yaw': -9.01, 'datetime': '2018-10-09 13:32:25.872957', 'mgs': 0, 'volt': 0.8936, 'depth': 1.462, 'time': 266, 'pitch': -0.8, 'roll': -2.58, 'pres': 183}
{'lipoC2': 7.36, 'lipoC3S1': 3.92, 'temp': 30.44, 'lipoC3S3': 11.85, 'lipoC3S2': 7.84, 'rot1': 1468, 'rot0': 1456, 'rot3': 737, 'rot2': 682, 'state': 'normal', 'yaw': -8.74, 'datetime': '2018-10-09 13:32:25.977339', 'mgs': 0, 'volt': 0.8936, 'depth': 1.462, 'time': 266, 'pitch': -0.64, 'roll': -2.45, 'pres': 183}
{'lipoC2': 7.36, 'lipoC3S1': 3.92, 'temp': 30.44, 'lipoC3S3': 11.85, 'lipoC3S2': 7.84, 'rot1': 1468, 'rot0': 1456, 'rot3': 737, 'rot2': 682, 'state': 'normal', 'yaw': -8.72, 'datetime': '2018-10-09 13:32:26.087365', 'mgs': 0, 'volt': 0.8936, 'depth': 1.462, 'time': 267, 'pitch': -0.91, 'roll': -2.25, 'pres': 183}
{'lipoC2': 7.36, 'lipoC3S1': 3.92, 'temp': 30.38, 'lipoC3S3': 11.85, 'lipoC3S2': 7.84, 'rot1': 1468, 'rot0': 1456, 'rot3': 737, 'rot2': 682, 'state': 'normal', 'yaw': -8.6, 'datetime': '2018-10-09 13:32:26.192737', 'mgs': 0, 'volt': 0.8984, 'depth': 1.538, 'time': 267, 'pitch': -1.44, 'roll': -2.04, 'pres': 184}
{'lipoC2': 7.36, 'lipoC3S1': 3.92, 'temp': 30.38, 'lipoC3S3': 11.85, 'lipoC3S2': 7.84, 'rot1': 1468, 'rot0': 1456, 'rot3': 737, 'rot2': 682, 'state': 'normal', 'yaw': -8.28, 'datetime': '2018-10-09 13:32:26.291592', 'mgs': 0, 'volt': 0.8936, 'depth': 1.462, 'time': 267, 'pitch': -2.1, 'roll': -1.8, 'pres': 183}
{'lipoC2': 7.36, 'lipoC3S1': 3.92, 'temp': 30.38, 'lipoC3S3': 11.85, 'lipoC3S2': 7.84, 'rot1': 1468, 'rot0': 1456, 'rot3': 737, 'rot2': 682, 'state': 'normal', 'yaw': -7.7, 'datetime': '2018-10-09 13:32:26.395974', 'mgs': 0, 'volt': 0.8936, 'depth': 1.462, 'time': 267, 'pitch': -3.19, 'roll': -1.78, 'pres': 183}
{'lipoC2': 7.36, 'lipoC3S1': 3.92, 'temp': 30.38, 'lipoC3S3': 11.85, 'lipoC3S2': 7.84, 'rot1': 1468, 'rot0': 1456, 'rot3': 737, 'rot2': 682, 'state': 'normal', 'yaw': -6.99, 'datetime': '2018-10-09 13:32:26.500348', 'mgs': 0, 'volt': 0.8936, 'depth': 1.462, 'time': 267, 'pitch': -4.4, 'roll': -1.92, 'pres': 183}
{'lipoC2': 7.36, 'lipoC3S1': 3.92, 'temp': 30.38, 'lipoC3S3': 11.85, 'lipoC3S2': 7.84, 'rot1': 1468, 'rot0': 1456, 'rot3': 737, 'rot2': 682, 'state': 'normal', 'yaw': -6.41, 'datetime': '2018-10-09 13:32:26.606089', 'mgs': 0, 'volt': 0.8936, 'depth': 1.462, 'time': 267, 'pitch': -5.2, 'roll': -2.08, 'pres': 183}
{'lipoC2': 7.36, 'lipoC3S1': 3.92, 'temp': 30.38, 'lipoC3S3': 11.85, 'lipoC3S2': 7.84, 'rot1': 1468, 'rot0': 1456, 'rot3': 737, 'rot2': 682, 'state': 'normal', 'yaw': -5.95, 'datetime': '2018-10-09 13:32:26.710482', 'mgs': 0, 'volt': 0.8936, 'depth': 1.462, 'time': 267, 'pitch': -5.55, 'roll': -2.1, 'pres': 183}
{'lipoC2': 7.36, 'lipoC3S1': 3.92, 'temp': 30.38, 'lipoC3S3': 11.85, 'lipoC3S2': 7.84, 'rot1': 1468, 'rot0': 1456, 'rot3': 737, 'rot2': 682, 'state': 'normal', 'yaw': -5.7, 'datetime': '2018-10-09 13:32:26.816149', 'mgs': 0, 'volt': 0.8936, 'depth': 1.462, 'time': 267, 'pitch': -5.39, 'roll': -1.95, 'pres': 183}
{'lipoC2': 7.36, 'lipoC3S1': 3.92, 'temp': 30.44, 'lipoC3S3': 11.85, 'lipoC3S2': 7.84, 'rot1': 1468, 'rot0': 1456, 'rot3': 737, 'rot2': 682, 'state': 'normal', 'yaw': -5.55, 'datetime': '2018-10-09 13:32:26.920524', 'mgs': 0, 'volt': 0.8936, 'depth': 1.462, 'time': 267, 'pitch': -5.05, 'roll': -1.68, 'pres': 183}
{'lipoC2': 7.36, 'lipoC3S1': 3.92, 'temp': 30.44, 'lipoC3S3': 11.85, 'lipoC3S2': 7.84, 'rot1': 1468, 'rot0': 1456, 'rot3': 737, 'rot2': 682, 'state': 'normal', 'yaw': -5.55, 'datetime': '2018-10-09 13:32:27.024977', 'mgs': 0, 'volt': 0.8936, 'depth': 1.462, 'time': 267, 'pitch': -4.94, 'roll': -1.42, 'pres': 183}
{'lipoC2': 7.36, 'lipoC3S1': 3.92, 'temp': 30.38, 'lipoC3S3': 11.85, 'lipoC3S2': 7.84, 'rot1': 1468, 'rot0': 1456, 'rot3': 737, 'rot2': 682, 'state': 'normal', 'yaw': -5.58, 'datetime': '2018-10-09 13:32:27.129512', 'mgs': 0, 'volt': 0.8936, 'depth': 1.462, 'time': 268, 'pitch': -5.04, 'roll': -1.26, 'pres': 183}
{'lipoC2': 7.36, 'lipoC3S1': 3.92, 'temp': 30.38, 'lipoC3S3': 11.85, 'lipoC3S2': 7.84, 'rot1': 1468, 'rot0': 1456, 'rot3': 737, 'rot2': 682, 'state': 'normal', 'yaw': -5.53, 'datetime': '2018-10-09 13:32:27.233977', 'mgs': 0, 'volt': 0.8936, 'depth': 1.462, 'time': 268, 'pitch': -5.39, 'roll': -1.28, 'pres': 183}
{'lipoC2': 7.36, 'lipoC3S1': 3.92, 'temp': 30.44, 'lipoC3S3': 11.85, 'lipoC3S2': 7.84, 'rot1': 1468, 'rot0': 1456, 'rot3': 737, 'rot2': 682, 'state': 'normal', 'yaw': -5.33, 'datetime': '2018-10-09 13:32:27.338403', 'mgs': 0, 'volt': 0.8936, 'depth': 1.462, 'time': 268, 'pitch': -5.89, 'roll': -1.47, 'pres': 183}
{'lipoC2': 7.36, 'lipoC3S1': 3.92, 'temp': 30.44, 'lipoC3S3': 11.85, 'lipoC3S2': 7.84, 'rot1': 1468, 'rot0': 1456, 'rot3': 737, 'rot2': 682, 'state': 'normal', 'yaw': -5.07, 'datetime': '2018-10-09 13:32:27.442759', 'mgs': 0, 'volt': 0.8936, 'depth': 1.462, 'time': 268, 'pitch': -6.43, 'roll': -1.66, 'pres': 183}
{'lipoC2': 7.36, 'lipoC3S1': 3.92, 'temp': 30.44, 'lipoC3S3': 11.85, 'lipoC3S2': 7.84, 'rot1': 1468, 'rot0': 1456, 'rot3': 737, 'rot2': 682, 'state': 'normal', 'yaw': -4.85, 'datetime': '2018-10-09 13:32:27.547259', 'mgs': 0, 'volt': 0.8936, 'depth': 1.462, 'time': 268, 'pitch': -6.36, 'roll': -1.69, 'pres': 183}
{'lipoC2': 7.36, 'lipoC3S1': 3.92, 'temp': 30.44, 'lipoC3S3': 11.85, 'lipoC3S2': 7.84, 'rot1': 1468, 'rot0': 1456, 'rot3': 737, 'rot2': 682, 'state': 'normal', 'yaw': -4.78, 'datetime': '2018-10-09 13:32:27.651696', 'mgs': 0, 'volt': 0.8936, 'depth': 1.462, 'time': 268, 'pitch': -5.55, 'roll': -1.46, 'pres': 183}
{'lipoC2': 7.36, 'lipoC3S1': 3.92, 'temp': 30.44, 'lipoC3S3': 11.85, 'lipoC3S2': 7.84, 'rot1': 1468, 'rot0': 1456, 'rot3': 737, 'rot2': 682, 'state': 'normal', 'yaw': -4.81, 'datetime': '2018-10-09 13:32:27.756115', 'mgs': 0, 'volt': 0.8936, 'depth': 1.462, 'time': 268, 'pitch': -4.4, 'roll': -1.07, 'pres': 183}
{'lipoC2': 7.36, 'lipoC3S1': 3.92, 'temp': 30.44, 'lipoC3S3': 11.85, 'lipoC3S2': 7.84, 'rot1': 1468, 'rot0': 1456, 'rot3': 737, 'rot2': 682, 'state': 'normal', 'yaw': -4.8, 'datetime': '2018-10-09 13:32:27.861078', 'mgs': 0, 'volt': 0.8936, 'depth': 1.462, 'time': 268, 'pitch': -3.17, 'roll': -0.72, 'pres': 183}
{'lipoC2': 7.36, 'lipoC3S1': 3.92, 'temp': 30.44, 'lipoC3S3': 11.85, 'lipoC3S2': 7.84, 'rot1': 1468, 'rot0': 1456, 'rot3': 737, 'rot2': 682, 'state': 'normal', 'yaw': -4.66, 'datetime': '2018-10-09 13:32:27.965543', 'mgs': 0, 'volt': 0.8936, 'depth': 1.462, 'time': 268, 'pitch': -2.19, 'roll': -0.67, 'pres': 183}
{'lipoC2': 7.36, 'lipoC3S1': 3.92, 'temp': 30.44, 'lipoC3S3': 11.85, 'lipoC3S2': 7.84, 'rot1': 1468, 'rot0': 1456, 'rot3': 737, 'rot2': 682, 'state': 'normal', 'yaw': -4.6, 'datetime': '2018-10-09 13:32:28.071196', 'mgs': 0, 'volt': 0.8936, 'depth': 1.462, 'time': 268, 'pitch': -1.54, 'roll': -0.91, 'pres': 183}
{'lipoC2': 7.36, 'lipoC3S1': 3.92, 'temp': 30.44, 'lipoC3S3': 11.85, 'lipoC3S2': 7.84, 'rot1': 1468, 'rot0': 1456, 'rot3': 737, 'rot2': 682, 'state': 'normal', 'yaw': -4.69, 'datetime': '2018-10-09 13:32:28.175617', 'mgs': 0, 'volt': 0.8936, 'depth': 1.462, 'time': 269, 'pitch': -0.99, 'roll': -1.29, 'pres': 183}
{'lipoC2': 7.36, 'lipoC3S1': 3.92, 'temp': 30.44, 'lipoC3S3': 11.85, 'lipoC3S2': 7.84, 'rot1': 1468, 'rot0': 1456, 'rot3': 737, 'rot2': 682, 'state': 'normal', 'yaw': -4.83, 'datetime': '2018-10-09 13:32:28.280022', 'mgs': 0, 'volt': 0.8936, 'depth': 1.462, 'time': 269, 'pitch': -0.88, 'roll': -1.7, 'pres': 183}
{'lipoC2': 7.36, 'lipoC3S1': 3.92, 'temp': 30.38, 'lipoC3S3': 11.85, 'lipoC3S2': 7.84, 'rot1': 1468, 'rot0': 1456, 'rot3': 737, 'rot2': 682, 'state': 'normal', 'yaw': -4.91, 'datetime': '2018-10-09 13:32:28.384444', 'mgs': 0, 'volt': 0.8936, 'depth': 1.462, 'time': 269, 'pitch': -1.13, 'roll': -2.17, 'pres': 183}
{'lipoC2': 7.36, 'lipoC3S1': 3.92, 'temp': 30.38, 'lipoC3S3': 11.85, 'lipoC3S2': 7.84, 'rot1': 1468, 'rot0': 1456, 'rot3': 737, 'rot2': 682, 'state': 'normal', 'yaw': -4.92, 'datetime': '2018-10-09 13:32:28.488883', 'mgs': 0, 'volt': 0.8936, 'depth': 1.462, 'time': 269, 'pitch': -1.31, 'roll': -2.53, 'pres': 183}
{'lipoC2': 7.36, 'lipoC3S1': 3.92, 'temp': 30.44, 'lipoC3S3': 11.85, 'lipoC3S2': 7.84, 'rot1': 1468, 'rot0': 1456, 'rot3': 737, 'rot2': 682, 'state': 'normal', 'yaw': -4.96, 'datetime': '2018-10-09 13:32:28.593272', 'mgs': 0, 'volt': 0.8936, 'depth': 1.462, 'time': 269, 'pitch': -1.12, 'roll': -2.78, 'pres': 183}
{'lipoC2': 7.36, 'lipoC3S1': 3.92, 'temp': 30.44, 'lipoC3S3': 11.85, 'lipoC3S2': 7.84, 'rot1': 1468, 'rot0': 1456, 'rot3': 737, 'rot2': 682, 'state': 'normal', 'yaw': -4.98, 'datetime': '2018-10-09 13:32:28.697738', 'mgs': 0, 'volt': 0.8984, 'depth': 1.538, 'time': 269, 'pitch': -0.67, 'roll': -2.94, 'pres': 184}
{'lipoC2': 7.36, 'lipoC3S1': 3.92, 'temp': 30.44, 'lipoC3S3': 11.85, 'lipoC3S2': 7.84, 'rot1': 1468, 'rot0': 1456, 'rot3': 737, 'rot2': 682, 'state': 'normal', 'yaw': -5.01, 'datetime': '2018-10-09 13:32:28.802798', 'mgs': 0, 'volt': 0.8936, 'depth': 1.462, 'time': 269, 'pitch': -0.16, 'roll': -3.1, 'pres': 183}
{'lipoC2': 7.36, 'lipoC3S1': 3.92, 'temp': 30.44, 'lipoC3S3': 11.85, 'lipoC3S2': 7.84, 'rot1': 1468, 'rot0': 1456, 'rot3': 737, 'rot2': 682, 'state': 'normal', 'yaw': -5.03, 'datetime': '2018-10-09 13:32:28.907162', 'mgs': 0, 'volt': 0.8984, 'depth': 1.538, 'time': 269, 'pitch': 0.21, 'roll': -3.27, 'pres': 184}
{'lipoC2': 7.36, 'lipoC3S1': 3.92, 'temp': 30.44, 'lipoC3S3': 11.85, 'lipoC3S2': 7.84, 'rot1': 1468, 'rot0': 1456, 'rot3': 737, 'rot2': 682, 'state': 'normal', 'yaw': -5.06, 'datetime': '2018-10-09 13:32:29.012884', 'mgs': 0, 'volt': 0.8936, 'depth': 1.462, 'time': 269, 'pitch': 0.41, 'roll': -3.37, 'pres': 183}
{'lipoC2': 7.36, 'lipoC3S1': 3.92, 'temp': 30.44, 'lipoC3S3': 11.85, 'lipoC3S2': 7.84, 'rot1': 1468, 'rot0': 1456, 'rot3': 737, 'rot2': 682, 'state': 'normal', 'yaw': -5.08, 'datetime': '2018-10-09 13:32:29.117296', 'mgs': 0, 'volt': 0.8936, 'depth': 1.462, 'time': 270, 'pitch': 0.61, 'roll': -3.35, 'pres': 183}
{'lipoC2': 7.36, 'lipoC3S1': 3.92, 'temp': 30.44, 'lipoC3S3': 11.85, 'lipoC3S2': 7.84, 'rot1': 1468, 'rot0': 1456, 'rot3': 737, 'rot2': 682, 'state': 'normal', 'yaw': -5.18, 'datetime': '2018-10-09 13:32:29.223033', 'mgs': 0, 'volt': 0.8936, 'depth': 1.462, 'time': 270, 'pitch': 0.37, 'roll': -3.18, 'pres': 183}
{'lipoC2': 7.36, 'lipoC3S1': 3.92, 'temp': 30.44, 'lipoC3S3': 11.85, 'lipoC3S2': 7.84, 'rot1': 1468, 'rot0': 1456, 'rot3': 737, 'rot2': 682, 'state': 'normal', 'yaw': -5.19, 'datetime': '2018-10-09 13:32:29.327468', 'mgs': 0, 'volt': 0.8984, 'depth': 1.538, 'time': 270, 'pitch': -0.37, 'roll': -2.88, 'pres': 184}
{'lipoC2': 7.36, 'lipoC3S1': 3.92, 'temp': 30.44, 'lipoC3S3': 11.85, 'lipoC3S2': 7.84, 'rot1': 1468, 'rot0': 1456, 'rot3': 737, 'rot2': 682, 'state': 'normal', 'yaw': -5.25, 'datetime': '2018-10-09 13:32:29.431868', 'mgs': 0, 'volt': 0.8936, 'depth': 1.462, 'time': 270, 'pitch': -1.14, 'roll': -2.58, 'pres': 183}
{'lipoC2': 7.36, 'lipoC3S1': 3.92, 'temp': 30.44, 'lipoC3S3': 11.85, 'lipoC3S2': 7.84, 'rot1': 1468, 'rot0': 1456, 'rot3': 737, 'rot2': 682, 'state': 'normal', 'yaw': -5.4, 'datetime': '2018-10-09 13:32:29.536244', 'mgs': 0, 'volt': 0.8984, 'depth': 1.538, 'time': 270, 'pitch': -1.83, 'roll': -2.26, 'pres': 184}
{'lipoC2': 7.36, 'lipoC3S1': 3.92, 'temp': 30.44, 'lipoC3S3': 11.85, 'lipoC3S2': 7.84, 'rot1': 1468, 'rot0': 1456, 'rot3': 737, 'rot2': 682, 'state': 'normal', 'yaw': -5.54, 'datetime': '2018-10-09 13:32:29.640712', 'mgs': 0, 'volt': 0.8984, 'depth': 1.538, 'time': 270, 'pitch': -2.27, 'roll': -2.07, 'pres': 184}
{'lipoC2': 7.36, 'lipoC3S1': 3.92, 'temp': 30.38, 'lipoC3S3': 11.85, 'lipoC3S2': 7.84, 'rot1': 1468, 'rot0': 1456, 'rot3': 737, 'rot2': 682, 'state': 'normal', 'yaw': -5.66, 'datetime': '2018-10-09 13:32:29.745350', 'mgs': 0, 'volt': 0.8984, 'depth': 1.538, 'time': 270, 'pitch': -2.59, 'roll': -1.94, 'pres': 184}
{'lipoC2': 7.36, 'lipoC3S1': 3.92, 'temp': 30.38, 'lipoC3S3': 11.85, 'lipoC3S2': 7.84, 'rot1': 1468, 'rot0': 1456, 'rot3': 737, 'rot2': 682, 'state': 'normal', 'yaw': -5.65, 'datetime': '2018-10-09 13:32:29.849709', 'mgs': 0, 'volt': 0.8984, 'depth': 1.538, 'time': 270, 'pitch': -2.92, 'roll': -1.81, 'pres': 184}
{'lipoC2': 7.36, 'lipoC3S1': 3.92, 'temp': 30.38, 'lipoC3S3': 11.85, 'lipoC3S2': 7.84, 'rot1': 1468, 'rot0': 1456, 'rot3': 737, 'rot2': 682, 'state': 'normal', 'yaw': -5.46, 'datetime': '2018-10-09 13:32:29.954134', 'mgs': 0, 'volt': 0.9033, 'depth': 1.614, 'time': 270, 'pitch': -3.16, 'roll': -1.69, 'pres': 185}
{'lipoC2': 7.36, 'lipoC3S1': 3.92, 'temp': 30.44, 'lipoC3S3': 11.85, 'lipoC3S2': 7.84, 'rot1': 1468, 'rot0': 1456, 'rot3': 737, 'rot2': 682, 'state': 'normal', 'yaw': -4.84, 'datetime': '2018-10-09 13:32:30.058537', 'mgs': 0, 'volt': 0.9033, 'depth': 1.614, 'time': 270, 'pitch': -3.37, 'roll': -1.63, 'pres': 185}
{'lipoC2': 7.36, 'lipoC3S1': 3.92, 'temp': 30.44, 'lipoC3S3': 11.85, 'lipoC3S2': 7.84, 'rot1': 1468, 'rot0': 1456, 'rot3': 737, 'rot2': 682, 'state': 'normal', 'yaw': -3.81, 'datetime': '2018-10-09 13:32:30.164260', 'mgs': 0, 'volt': 0.9033, 'depth': 1.614, 'time': 271, 'pitch': -3.46, 'roll': -1.84, 'pres': 185}
{'lipoC2': 7.36, 'lipoC3S1': 3.92, 'temp': 30.44, 'lipoC3S3': 11.85, 'lipoC3S2': 7.84, 'rot1': 1468, 'rot0': 1456, 'rot3': 737, 'rot2': 682, 'state': 'normal', 'yaw': -2.31, 'datetime': '2018-10-09 13:32:30.268618', 'mgs': 0, 'volt': 0.9033, 'depth': 1.614, 'time': 271, 'pitch': -3.19, 'roll': -2.4, 'pres': 185}
{'lipoC2': 7.36, 'lipoC3S1': 3.92, 'temp': 30.44, 'lipoC3S3': 11.85, 'lipoC3S2': 7.84, 'rot1': 1468, 'rot0': 1456, 'rot3': 737, 'rot2': 682, 'state': 'normal', 'yaw': -0.93, 'datetime': '2018-10-09 13:32:30.374253', 'mgs': 0, 'volt': 0.9033, 'depth': 1.614, 'time': 271, 'pitch': -2.72, 'roll': -3.07, 'pres': 185}
{'lipoC2': 7.36, 'lipoC3S1': 3.92, 'temp': 30.44, 'lipoC3S3': 11.85, 'lipoC3S2': 7.84, 'rot1': 1468, 'rot0': 1456, 'rot3': 737, 'rot2': 682, 'state': 'normal', 'yaw': 0.43, 'datetime': '2018-10-09 13:32:30.478697', 'mgs': 0, 'volt': 0.8984, 'depth': 1.538, 'time': 271, 'pitch': -2.31, 'roll': -3.84, 'pres': 184}
{'lipoC2': 7.36, 'lipoC3S1': 3.92, 'temp': 30.44, 'lipoC3S3': 11.85, 'lipoC3S2': 7.84, 'rot1': 1468, 'rot0': 1456, 'rot3': 737, 'rot2': 682, 'state': 'normal', 'yaw': 1.55, 'datetime': '2018-10-09 13:32:30.583083', 'mgs': 0, 'volt': 0.9033, 'depth': 1.614, 'time': 271, 'pitch': -2.28, 'roll': -4.4, 'pres': 185}
{'lipoC2': 7.36, 'lipoC3S1': 3.92, 'temp': 30.44, 'lipoC3S3': 11.85, 'lipoC3S2': 7.84, 'rot1': 1468, 'rot0': 1456, 'rot3': 737, 'rot2': 682, 'state': 'normal', 'yaw': 2.48, 'datetime': '2018-10-09 13:32:30.687685', 'mgs': 0, 'volt': 0.9033, 'depth': 1.614, 'time': 271, 'pitch': -2.52, 'roll': -4.64, 'pres': 185}
{'lipoC2': 7.36, 'lipoC3S1': 3.92, 'temp': 30.38, 'lipoC3S3': 11.85, 'lipoC3S2': 7.84, 'rot1': 1468, 'rot0': 1456, 'rot3': 737, 'rot2': 682, 'state': 'normal', 'yaw': 3.28, 'datetime': '2018-10-09 13:32:30.792083', 'mgs': 0, 'volt': 0.9033, 'depth': 1.614, 'time': 271, 'pitch': -2.89, 'roll': -4.54, 'pres': 185}
{'lipoC2': 7.36, 'lipoC3S1': 3.92, 'temp': 30.38, 'lipoC3S3': 11.85, 'lipoC3S2': 7.84, 'rot1': 1468, 'rot0': 1456, 'rot3': 737, 'rot2': 682, 'state': 'normal', 'yaw': 3.98, 'datetime': '2018-10-09 13:32:30.896500', 'mgs': 0, 'volt': 0.9033, 'depth': 1.614, 'time': 271, 'pitch': -3.33, 'roll': -4.28, 'pres': 185}
{'lipoC2': 7.36, 'lipoC3S1': 3.92, 'temp': 30.44, 'lipoC3S3': 11.85, 'lipoC3S2': 7.84, 'rot1': 1468, 'rot0': 1456, 'rot3': 737, 'rot2': 682, 'state': 'normal', 'yaw': 4.83, 'datetime': '2018-10-09 13:32:31.000861', 'mgs': 0, 'volt': 0.8984, 'depth': 1.538, 'time': 271, 'pitch': -4.04, 'roll': -4.05, 'pres': 184}
{'lipoC2': 7.36, 'lipoC3S1': 3.92, 'temp': 30.44, 'lipoC3S3': 11.85, 'lipoC3S2': 7.84, 'rot1': 1468, 'rot0': 1456, 'rot3': 737, 'rot2': 682, 'state': 'normal', 'yaw': 5.67, 'datetime': '2018-10-09 13:32:31.105397', 'mgs': 0, 'volt': 0.8984, 'depth': 1.538, 'time': 272, 'pitch': -4.86, 'roll': -3.95, 'pres': 184}
{'lipoC2': 7.36, 'lipoC3S1': 3.92, 'temp': 30.44, 'lipoC3S3': 11.85, 'lipoC3S2': 7.84, 'rot1': 1468, 'rot0': 1456, 'rot3': 737, 'rot2': 682, 'state': 'normal', 'yaw': 6.39, 'datetime': '2018-10-09 13:32:31.209661', 'mgs': 0, 'volt': 0.9033, 'depth': 1.614, 'time': 272, 'pitch': -5.78, 'roll': -3.73, 'pres': 185}
{'lipoC2': 7.36, 'lipoC3S1': 3.92, 'temp': 30.44, 'lipoC3S3': 11.85, 'lipoC3S2': 7.84, 'rot1': 1468, 'rot0': 1456, 'rot3': 737, 'rot2': 682, 'state': 'normal', 'yaw': 6.7, 'datetime': '2018-10-09 13:32:31.314978', 'mgs': 0, 'volt': 0.9033, 'depth': 1.614, 'time': 272, 'pitch': -6.31, 'roll': -3.26, 'pres': 185}
{'lipoC2': 7.36, 'lipoC3S1': 3.92, 'temp': 30.44, 'lipoC3S3': 11.85, 'lipoC3S2': 7.84, 'rot1': 1468, 'rot0': 1456, 'rot3': 737, 'rot2': 682, 'state': 'normal', 'yaw': 6.72, 'datetime': '2018-10-09 13:32:31.419364', 'mgs': 0, 'volt': 0.9033, 'depth': 1.614, 'time': 272, 'pitch': -6.32, 'roll': -2.51, 'pres': 185}
{'lipoC2': 7.36, 'lipoC3S1': 3.92, 'temp': 30.44, 'lipoC3S3': 11.85, 'lipoC3S2': 7.84, 'rot1': 1468, 'rot0': 1456, 'rot3': 737, 'rot2': 682, 'state': 'normal', 'yaw': 6.57, 'datetime': '2018-10-09 13:32:31.523878', 'mgs': 0, 'volt': 0.9033, 'depth': 1.614, 'time': 272, 'pitch': -5.97, 'roll': -1.83, 'pres': 185}
{'lipoC2': 7.36, 'lipoC3S1': 3.92, 'temp': 30.44, 'lipoC3S3': 11.85, 'lipoC3S2': 7.84, 'rot1': 1468, 'rot0': 1456, 'rot3': 737, 'rot2': 682, 'state': 'normal', 'yaw': 6.35, 'datetime': '2018-10-09 13:32:31.629292', 'mgs': 0, 'volt': 0.9033, 'depth': 1.614, 'time': 272, 'pitch': -5.57, 'roll': -1.28, 'pres': 185}
{'lipoC2': 7.36, 'lipoC3S1': 3.92, 'temp': 30.44, 'lipoC3S3': 11.85, 'lipoC3S2': 7.84, 'rot1': 1468, 'rot0': 1456, 'rot3': 737, 'rot2': 682, 'state': 'normal', 'yaw': 5.98, 'datetime': '2018-10-09 13:32:31.733814', 'mgs': 0, 'volt': 0.9033, 'depth': 1.614, 'time': 272, 'pitch': -5.6, 'roll': -1.02, 'pres': 185}
{'lipoC2': 7.36, 'lipoC3S1': 3.92, 'temp': 30.44, 'lipoC3S3': 11.85, 'lipoC3S2': 7.84, 'rot1': 1468, 'rot0': 1456, 'rot3': 737, 'rot2': 682, 'state': 'normal', 'yaw': 5.53, 'datetime': '2018-10-09 13:32:31.838105', 'mgs': 0, 'volt': 0.9033, 'depth': 1.614, 'time': 272, 'pitch': -5.9, 'roll': -0.99, 'pres': 185}
{'lipoC2': 7.36, 'lipoC3S1': 3.92, 'temp': 30.38, 'lipoC3S3': 11.85, 'lipoC3S2': 7.84, 'rot1': 1468, 'rot0': 1456, 'rot3': 737, 'rot2': 682, 'state': 'normal', 'yaw': 5.07, 'datetime': '2018-10-09 13:32:31.942565', 'mgs': 0, 'volt': 0.9033, 'depth': 1.614, 'time': 272, 'pitch': -6.38, 'roll': -1.1, 'pres': 185}
{'lipoC2': 7.36, 'lipoC3S1': 3.92, 'temp': 30.38, 'lipoC3S3': 11.85, 'lipoC3S2': 7.84, 'rot1': 1468, 'rot0': 1456, 'rot3': 737, 'rot2': 682, 'state': 'normal', 'yaw': 4.74, 'datetime': '2018-10-09 13:32:32.046965', 'mgs': 0, 'volt': 0.9033, 'depth': 1.614, 'time': 272, 'pitch': -6.83, 'roll': -1.3, 'pres': 185}
{'lipoC2': 7.36, 'lipoC3S1': 3.92, 'temp': 30.38, 'lipoC3S3': 11.85, 'lipoC3S2': 7.84, 'rot1': 1468, 'rot0': 1456, 'rot3': 737, 'rot2': 682, 'state': 'normal', 'yaw': 4.58, 'datetime': '2018-10-09 13:32:32.151452', 'mgs': 0, 'volt': 0.9033, 'depth': 1.614, 'time': 273, 'pitch': -7.37, 'roll': -1.69, 'pres': 185}
{'lipoC2': 7.36, 'lipoC3S1': 3.92, 'temp': 30.44, 'lipoC3S3': 11.85, 'lipoC3S2': 7.84, 'rot1': 1468, 'rot0': 1456, 'rot3': 737, 'rot2': 682, 'state': 'normal', 'yaw': 4.73, 'datetime': '2018-10-09 13:32:32.255875', 'mgs': 0, 'volt': 0.9033, 'depth': 1.614, 'time': 273, 'pitch': -7.6, 'roll': -2.34, 'pres': 185}
{'lipoC2': 7.36, 'lipoC3S1': 3.92, 'temp': 30.44, 'lipoC3S3': 11.85, 'lipoC3S2': 7.84, 'rot1': 1468, 'rot0': 1456, 'rot3': 737, 'rot2': 682, 'state': 'normal', 'yaw': 4.95, 'datetime': '2018-10-09 13:32:32.360601', 'mgs': 0, 'volt': 0.8984, 'depth': 1.538, 'time': 273, 'pitch': -7.41, 'roll': -3.15, 'pres': 184}
{'lipoC2': 7.36, 'lipoC3S1': 3.92, 'temp': 30.44, 'lipoC3S3': 11.85, 'lipoC3S2': 7.84, 'rot1': 1468, 'rot0': 1456, 'rot3': 737, 'rot2': 682, 'state': 'normal', 'yaw': 5.11, 'datetime': '2018-10-09 13:32:32.465149', 'mgs': 0, 'volt': 0.8984, 'depth': 1.538, 'time': 273, 'pitch': -6.91, 'roll': -4.03, 'pres': 184}
{'lipoC2': 7.36, 'lipoC3S1': 3.92, 'temp': 30.44, 'lipoC3S3': 11.85, 'lipoC3S2': 7.84, 'rot1': 1468, 'rot0': 1456, 'rot3': 737, 'rot2': 682, 'state': 'normal', 'yaw': 5.26, 'datetime': '2018-10-09 13:32:32.570667', 'mgs': 0, 'volt': 0.8984, 'depth': 1.538, 'time': 273, 'pitch': -6.59, 'roll': -4.72, 'pres': 184}
{'lipoC2': 7.36, 'lipoC3S1': 3.92, 'temp': 30.38, 'lipoC3S3': 11.85, 'lipoC3S2': 7.84, 'rot1': 1468, 'rot0': 1456, 'rot3': 737, 'rot2': 682, 'state': 'normal', 'yaw': 5.55, 'datetime': '2018-10-09 13:32:32.675203', 'mgs': 0, 'volt': 0.8936, 'depth': 1.462, 'time': 273, 'pitch': -6.49, 'roll': -5.33, 'pres': 183}
{'lipoC2': 7.36, 'lipoC3S1': 3.92, 'temp': 30.38, 'lipoC3S3': 11.85, 'lipoC3S2': 7.84, 'rot1': 1468, 'rot0': 1456, 'rot3': 737, 'rot2': 682, 'state': 'normal', 'yaw': 5.93, 'datetime': '2018-10-09 13:32:32.780832', 'mgs': 0, 'volt': 0.8984, 'depth': 1.538, 'time': 273, 'pitch': -6.55, 'roll': -5.78, 'pres': 184}
{'lipoC2': 7.36, 'lipoC3S1': 3.92, 'temp': 30.38, 'lipoC3S3': 11.85, 'lipoC3S2': 7.84, 'rot1': 1468, 'rot0': 1456, 'rot3': 737, 'rot2': 682, 'state': 'normal', 'yaw': 6.49, 'datetime': '2018-10-09 13:32:32.885347', 'mgs': 0, 'volt': 0.8984, 'depth': 1.538, 'time': 273, 'pitch': -6.45, 'roll': -6.2, 'pres': 184}
{'lipoC2': 7.36, 'lipoC3S1': 3.92, 'temp': 30.38, 'lipoC3S3': 11.85, 'lipoC3S2': 7.84, 'rot1': 1468, 'rot0': 1456, 'rot3': 737, 'rot2': 682, 'state': 'normal', 'yaw': 7.15, 'datetime': '2018-10-09 13:32:32.989771', 'mgs': 0, 'volt': 0.8984, 'depth': 1.538, 'time': 273, 'pitch': -5.96, 'roll': -6.5, 'pres': 184}
{'lipoC2': 7.36, 'lipoC3S1': 3.92, 'temp': 30.38, 'lipoC3S3': 11.85, 'lipoC3S2': 7.84, 'rot1': 1468, 'rot0': 1456, 'rot3': 737, 'rot2': 682, 'state': 'normal', 'yaw': 8.04, 'datetime': '2018-10-09 13:32:33.094157', 'mgs': 0, 'volt': 0.8984, 'depth': 1.538, 'time': 274, 'pitch': -4.99, 'roll': -6.63, 'pres': 184}
{'lipoC2': 7.36, 'lipoC3S1': 3.92, 'temp': 30.38, 'lipoC3S3': 11.85, 'lipoC3S2': 7.84, 'rot1': 1468, 'rot0': 1456, 'rot3': 737, 'rot2': 682, 'state': 'normal', 'yaw': 8.87, 'datetime': '2018-10-09 13:32:33.198619', 'mgs': 0, 'volt': 0.8984, 'depth': 1.538, 'time': 274, 'pitch': -3.92, 'roll': -6.44, 'pres': 184}
{'lipoC2': 7.36, 'lipoC3S1': 3.92, 'temp': 30.38, 'lipoC3S3': 11.85, 'lipoC3S2': 7.84, 'rot1': 1468, 'rot0': 1456, 'rot3': 737, 'rot2': 682, 'state': 'normal', 'yaw': 9.62, 'datetime': '2018-10-09 13:32:33.303230', 'mgs': 0, 'volt': 0.8984, 'depth': 1.538, 'time': 274, 'pitch': -2.93, 'roll': -5.9, 'pres': 184}
{'lipoC2': 7.36, 'lipoC3S1': 3.92, 'temp': 30.44, 'lipoC3S3': 11.85, 'lipoC3S2': 7.84, 'rot1': 1468, 'rot0': 1456, 'rot3': 737, 'rot2': 682, 'state': 'normal', 'yaw': 10.37, 'datetime': '2018-10-09 13:32:33.407638', 'mgs': 0, 'volt': 0.8984, 'depth': 1.538, 'time': 274, 'pitch': -2.16, 'roll': -5.07, 'pres': 184}
{'lipoC2': 7.36, 'lipoC3S1': 3.92, 'temp': 30.44, 'lipoC3S3': 11.85, 'lipoC3S2': 7.84, 'rot1': 1468, 'rot0': 1456, 'rot3': 737, 'rot2': 682, 'state': 'normal', 'yaw': 10.96, 'datetime': '2018-10-09 13:32:33.513161', 'mgs': 0, 'volt': 0.8984, 'depth': 1.538, 'time': 274, 'pitch': -1.79, 'roll': -4.26, 'pres': 184}
{'lipoC2': 7.36, 'lipoC3S1': 3.92, 'temp': 30.38, 'lipoC3S3': 11.85, 'lipoC3S2': 7.84, 'rot1': 1468, 'rot0': 1456, 'rot3': 737, 'rot2': 682, 'state': 'normal', 'yaw': 11.45, 'datetime': '2018-10-09 13:32:33.617574', 'mgs': 0, 'volt': 0.8984, 'depth': 1.538, 'time': 274, 'pitch': -1.59, 'roll': -3.44, 'pres': 184}
{'lipoC2': 7.36, 'lipoC3S1': 3.92, 'temp': 30.38, 'lipoC3S3': 11.85, 'lipoC3S2': 7.84, 'rot1': 1468, 'rot0': 1456, 'rot3': 737, 'rot2': 682, 'state': 'normal', 'yaw': 11.8, 'datetime': '2018-10-09 13:32:33.723274', 'mgs': 0, 'volt': 0.8984, 'depth': 1.538, 'time': 274, 'pitch': -1.61, 'roll': -2.92, 'pres': 184}
{'lipoC2': 7.36, 'lipoC3S1': 3.92, 'temp': 30.38, 'lipoC3S3': 11.85, 'lipoC3S2': 7.84, 'rot1': 1468, 'rot0': 1456, 'rot3': 737, 'rot2': 682, 'state': 'normal', 'yaw': 12.09, 'datetime': '2018-10-09 13:32:33.827728', 'mgs': 0, 'volt': 0.8984, 'depth': 1.538, 'time': 274, 'pitch': -1.76, 'roll': -2.49, 'pres': 184}
{'lipoC2': 7.36, 'lipoC3S1': 3.92, 'temp': 30.38, 'lipoC3S3': 11.85, 'lipoC3S2': 7.84, 'rot1': 1468, 'rot0': 1456, 'rot3': 737, 'rot2': 682, 'state': 'normal', 'yaw': 12.26, 'datetime': '2018-10-09 13:32:33.933436', 'mgs': 0, 'volt': 0.8984, 'depth': 1.538, 'time': 274, 'pitch': -1.89, 'roll': -2.17, 'pres': 184}
{'lipoC2': 7.36, 'lipoC3S1': 3.92, 'temp': 30.38, 'lipoC3S3': 11.85, 'lipoC3S2': 7.84, 'rot1': 1468, 'rot0': 1456, 'rot3': 737, 'rot2': 682, 'state': 'normal', 'yaw': 12.04, 'datetime': '2018-10-09 13:32:34.037840', 'mgs': 0, 'volt': 0.8984, 'depth': 1.538, 'time': 274, 'pitch': -1.79, 'roll': -1.7, 'pres': 184}
{'lipoC2': 7.36, 'lipoC3S1': 3.92, 'temp': 30.38, 'lipoC3S3': 11.85, 'lipoC3S2': 7.84, 'rot1': 1468, 'rot0': 1456, 'rot3': 737, 'rot2': 682, 'state': 'normal', 'yaw': 11.36, 'datetime': '2018-10-09 13:32:34.142216', 'mgs': 0, 'volt': 0.9033, 'depth': 1.614, 'time': 275, 'pitch': -1.19, 'roll': -1.05, 'pres': 185}
{'lipoC2': 7.36, 'lipoC3S1': 3.92, 'temp': 30.38, 'lipoC3S3': 11.85, 'lipoC3S2': 7.84, 'rot1': 1468, 'rot0': 1456, 'rot3': 737, 'rot2': 682, 'state': 'normal', 'yaw': 10.15, 'datetime': '2018-10-09 13:32:34.246663', 'mgs': 0, 'volt': 0.9082, 'depth': 1.691, 'time': 275, 'pitch': 0.08, 'roll': -0.14, 'pres': 186}
{'lipoC2': 7.36, 'lipoC3S1': 3.92, 'temp': 30.44, 'lipoC3S3': 11.85, 'lipoC3S2': 7.84, 'rot1': 1468, 'rot0': 1456, 'rot3': 737, 'rot2': 682, 'state': 'normal', 'yaw': 8.89, 'datetime': '2018-10-09 13:32:34.351040', 'mgs': 0, 'volt': 0.9082, 'depth': 1.691, 'time': 275, 'pitch': 1.65, 'roll': 0.63, 'pres': 186}
{'lipoC2': 7.36, 'lipoC3S1': 3.92, 'temp': 30.44, 'lipoC3S3': 11.85, 'lipoC3S2': 7.84, 'rot1': 1468, 'rot0': 1456, 'rot3': 737, 'rot2': 682, 'state': 'normal', 'yaw': 7.71, 'datetime': '2018-10-09 13:32:34.455645', 'mgs': 0, 'volt': 0.9131, 'depth': 1.767, 'time': 275, 'pitch': 3.26, 'roll': 1.07, 'pres': 187}
{'lipoC2': 7.36, 'lipoC3S1': 3.92, 'temp': 30.44, 'lipoC3S3': 11.85, 'lipoC3S2': 7.84, 'rot1': 1468, 'rot0': 1456, 'rot3': 737, 'rot2': 682, 'state': 'normal', 'yaw': 6.48, 'datetime': '2018-10-09 13:32:34.560022', 'mgs': 0, 'volt': 0.9082, 'depth': 1.691, 'time': 275, 'pitch': 4.83, 'roll': 1.08, 'pres': 186}
{'lipoC2': 7.36, 'lipoC3S1': 3.92, 'temp': 30.38, 'lipoC3S3': 11.85, 'lipoC3S2': 7.84, 'rot1': 1468, 'rot0': 1456, 'rot3': 737, 'rot2': 682, 'state': 'normal', 'yaw': 5.44, 'datetime': '2018-10-09 13:32:34.664466', 'mgs': 0, 'volt': 0.9131, 'depth': 1.767, 'time': 275, 'pitch': 5.72, 'roll': 0.67, 'pres': 187}
{'lipoC2': 7.36, 'lipoC3S1': 3.92, 'temp': 30.38, 'lipoC3S3': 11.85, 'lipoC3S2': 7.84, 'rot1': 1468, 'rot0': 1456, 'rot3': 737, 'rot2': 682, 'state': 'normal', 'yaw': 4.52, 'datetime': '2018-10-09 13:32:34.768920', 'mgs': 0, 'volt': 0.9131, 'depth': 1.767, 'time': 275, 'pitch': 5.94, 'roll': -0.05, 'pres': 187}
{'lipoC2': 7.36, 'lipoC3S1': 3.92, 'temp': 30.38, 'lipoC3S3': 11.85, 'lipoC3S2': 7.84, 'rot1': 1468, 'rot0': 1456, 'rot3': 737, 'rot2': 682, 'state': 'normal', 'yaw': 4.0, 'datetime': '2018-10-09 13:32:34.874606', 'mgs': 0, 'volt': 0.9131, 'depth': 1.767, 'time': 275, 'pitch': 5.91, 'roll': -0.76, 'pres': 187}
{'lipoC2': 7.36, 'lipoC3S1': 3.92, 'temp': 30.38, 'lipoC3S3': 11.85, 'lipoC3S2': 7.84, 'rot1': 1468, 'rot0': 1456, 'rot3': 737, 'rot2': 682, 'state': 'normal', 'yaw': 3.74, 'datetime': '2018-10-09 13:32:34.979025', 'mgs': 0, 'volt': 0.9131, 'depth': 1.767, 'time': 275, 'pitch': 6.02, 'roll': -1.62, 'pres': 187}
