{'lipoC2': 0.0, 'lipoC3S1': 4.05, 'temp': 26.25, 'lipoC3S3': 12.23, 'lipoC3S2': 8.09, 'rot1': 0, 'rot0': 0, 'rot3': 0, 'rot2': 0, 'state': 'normal', 'yaw': -22.55, 'datetime': '2018-10-03 16:37:05.067734', 'mgs': 0, 'volt': 1.0205, 'depth': 3.445, 'time': 1321, 'pitch': -5.73, 'roll': 6.63, 'pres': 209}
{'lipoC2': 0.0, 'lipoC3S1': 4.04, 'temp': 26.25, 'lipoC3S3': 12.23, 'lipoC3S2': 8.09, 'rot1': 0, 'rot0': 0, 'rot3': 0, 'rot2': 0, 'state': 'normal', 'yaw': -22.54, 'datetime': '2018-10-03 16:37:05.091992', 'mgs': 0, 'volt': 1.0205, 'depth': 3.445, 'time': 1321, 'pitch': -5.6, 'roll': 6.77, 'pres': 209}
{'lipoC2': 0.0, 'lipoC3S1': 4.04, 'temp': 26.19, 'lipoC3S3': 12.22, 'lipoC3S2': 8.09, 'rot1': 0, 'rot0': 0, 'rot3': 0, 'rot2': 0, 'state': 'normal', 'yaw': 0.0, 'datetime': '2018-10-03 16:37:05.115397', 'mgs': 0, 'volt': 1.0205, 'depth': 3.445, 'time': 1, 'pitch': -5.84, 'roll': 6.52, 'pres': 209}
{'lipoC2': 0.0, 'lipoC3S1': 4.04, 'temp': 26.19, 'lipoC3S3': 12.22, 'lipoC3S2': 8.09, 'rot1': 0, 'rot0': 0, 'rot3': 0, 'rot2': 0, 'state': 'normal', 'yaw': -0.01, 'datetime': '2018-10-03 16:37:05.138771', 'mgs': 0, 'volt': 1.0205, 'depth': 3.445, 'time': 1, 'pitch': -5.9, 'roll': 6.5, 'pres': 209}
{'lipoC2': 0.0, 'lipoC3S1': 4.04, 'temp': 26.25, 'lipoC3S3': 12.22, 'lipoC3S2': 8.09, 'rot1': 0, 'rot0': 0, 'rot3': 0, 'rot2': 0, 'state': 'normal', 'yaw': -0.01, 'datetime': '2018-10-03 16:37:05.159773', 'mgs': 0, 'volt': 1.0205, 'depth': 3.445, 'time': 1, 'pitch': -5.9, 'roll': 6.5, 'pres': 209}
{'lipoC2': 0.0, 'lipoC3S1': 4.04, 'temp': 26.25, 'lipoC3S3': 12.22, 'lipoC3S2': 8.09, 'rot1': 0, 'rot0': 0, 'rot3': 0, 'rot2': 0, 'state': 'normal', 'yaw': -0.01, 'datetime': '2018-10-03 16:37:05.169753', 'mgs': 0, 'volt': 1.0205, 'depth': 3.445, 'time': 1, 'pitch': -5.9, 'roll': 6.5, 'pres': 209}
{'lipoC2': 0.0, 'lipoC3S1': 4.04, 'temp': 26.25, 'lipoC3S3': 12.22, 'lipoC3S2': 8.09, 'rot1': 0, 'rot0': 0, 'rot3': 0, 'rot2': 0, 'state': 'normal', 'yaw': -0.01, 'datetime': '2018-10-03 16:37:05.179857', 'mgs': 0, 'volt': 1.0205, 'depth': 3.445, 'time': 1, 'pitch': -5.9, 'roll': 6.56, 'pres': 209}
{'lipoC2': 0.0, 'lipoC3S1': 4.04, 'temp': 26.19, 'lipoC3S3': 12.22, 'lipoC3S2': 8.09, 'rot1': 0, 'rot0': 0, 'rot3': 0, 'rot2': 0, 'state': 'normal', 'yaw': -0.0, 'datetime': '2018-10-03 16:37:05.189896', 'mgs': 0, 'volt': 1.0254, 'depth': 3.522, 'time': 1, 'pitch': -5.88, 'roll': 6.64, 'pres': 210}
{'lipoC2': 0.0, 'lipoC3S1': 4.04, 'temp': 26.19, 'lipoC3S3': 12.22, 'lipoC3S2': 8.09, 'rot1': 0, 'rot0': 0, 'rot3': 0, 'rot2': 0, 'state': 'normal', 'yaw': 0.01, 'datetime': '2018-10-03 16:37:05.199963', 'mgs': 0, 'volt': 1.0254, 'depth': 3.522, 'time': 1, 'pitch': -5.81, 'roll': 6.72, 'pres': 210}
{'lipoC2': 0.0, 'lipoC3S1': 4.04, 'temp': 26.19, 'lipoC3S3': 12.22, 'lipoC3S2': 8.09, 'rot1': 0, 'rot0': 0, 'rot3': 0, 'rot2': 0, 'state': 'normal', 'yaw': 0.03, 'datetime': '2018-10-03 16:37:05.209927', 'mgs': 0, 'volt': 1.0254, 'depth': 3.522, 'time': 1, 'pitch': -5.69, 'roll': 6.66, 'pres': 210}
{'lipoC2': 0.0, 'lipoC3S1': 4.04, 'temp': 26.19, 'lipoC3S3': 12.22, 'lipoC3S2': 8.09, 'rot1': 0, 'rot0': 0, 'rot3': 0, 'rot2': 0, 'state': 'normal', 'yaw': 0.07, 'datetime': '2018-10-03 16:37:05.219962', 'mgs': 0, 'volt': 1.0254, 'depth': 3.522, 'time': 2, 'pitch': -5.62, 'roll': 6.52, 'pres': 210}
{'lipoC2': 0.0, 'lipoC3S1': 4.04, 'temp': 26.25, 'lipoC3S3': 12.22, 'lipoC3S2': 8.09, 'rot1': 0, 'rot0': 0, 'rot3': 0, 'rot2': 0, 'state': 'normal', 'yaw': 0.11, 'datetime': '2018-10-03 16:37:05.229947', 'mgs': 0, 'volt': 1.0254, 'depth': 3.522, 'time': 2, 'pitch': -5.61, 'roll': 6.37, 'pres': 210}
{'lipoC2': 0.0, 'lipoC3S1': 4.04, 'temp': 26.25, 'lipoC3S3': 12.22, 'lipoC3S2': 8.09, 'rot1': 0, 'rot0': 0, 'rot3': 0, 'rot2': 0, 'state': 'normal', 'yaw': 0.11, 'datetime': '2018-10-03 16:37:05.239999', 'mgs': 0, 'volt': 1.0254, 'depth': 3.522, 'time': 2, 'pitch': -5.75, 'roll': 6.32, 'pres': 210}
{'lipoC2': 0.0, 'lipoC3S1': 4.04, 'temp': 26.25, 'lipoC3S3': 12.22, 'lipoC3S2': 8.09, 'rot1': 0, 'rot0': 0, 'rot3': 0, 'rot2': 0, 'state': 'normal', 'yaw': 0.09, 'datetime': '2018-10-03 16:37:05.250014', 'mgs': 0, 'volt': 1.0254, 'depth': 3.522, 'time': 2, 'pitch': -5.9, 'roll': 6.32, 'pres': 210}
{'lipoC2': 0.0, 'lipoC3S1': 4.04, 'temp': 26.25, 'lipoC3S3': 12.22, 'lipoC3S2': 8.09, 'rot1': 0, 'rot0': 0, 'rot3': 0, 'rot2': 0, 'state': 'normal', 'yaw': 0.08, 'datetime': '2018-10-03 16:37:05.260154', 'mgs': 0, 'volt': 1.0205, 'depth': 3.445, 'time': 2, 'pitch': -5.95, 'roll': 6.32, 'pres': 209}
{'lipoC2': 0.0, 'lipoC3S1': 4.04, 'temp': 26.25, 'lipoC3S3': 12.22, 'lipoC3S2': 8.09, 'rot1': 0, 'rot0': 0, 'rot3': 0, 'rot2': 0, 'state': 'normal', 'yaw': 0.08, 'datetime': '2018-10-03 16:37:05.271035', 'mgs': 0, 'volt': 1.0205, 'depth': 3.445, 'time': 2, 'pitch': -5.95, 'roll': 6.32, 'pres': 209}
{'lipoC2': 0.0, 'lipoC3S1': 4.04, 'temp': 26.31, 'lipoC3S3': 12.22, 'lipoC3S2': 8.09, 'rot1': 0, 'rot0': 0, 'rot3': 0, 'rot2': 0, 'state': 'normal', 'yaw': 0.08, 'datetime': '2018-10-03 16:37:05.281193', 'mgs': 0, 'volt': 1.0205, 'depth': 3.445, 'time': 2, 'pitch': -5.95, 'roll': 6.32, 'pres': 209}
{'lipoC2': 0.0, 'lipoC3S1': 4.04, 'temp': 26.31, 'lipoC3S3': 12.22, 'lipoC3S2': 8.09, 'rot1': 0, 'rot0': 0, 'rot3': 0, 'rot2': 0, 'state': 'normal', 'yaw': 0.08, 'datetime': '2018-10-03 16:37:05.291218', 'mgs': 0, 'volt': 1.0205, 'depth': 3.445, 'time': 2, 'pitch': -5.95, 'roll': 6.39, 'pres': 209}
{'lipoC2': 0.0, 'lipoC3S1': 4.04, 'temp': 26.19, 'lipoC3S3': 12.22, 'lipoC3S2': 8.09, 'rot1': 0, 'rot0': 0, 'rot3': 0, 'rot2': 0, 'state': 'normal', 'yaw': 0.08, 'datetime': '2018-10-03 16:37:05.301591', 'mgs': 0, 'volt': 1.0205, 'depth': 3.445, 'time': 2, 'pitch': -5.95, 'roll': 6.47, 'pres': 209}
{'lipoC2': 0.0, 'lipoC3S1': 4.04, 'temp': 26.19, 'lipoC3S3': 12.22, 'lipoC3S2': 8.09, 'rot1': 0, 'rot0': 0, 'rot3': 0, 'rot2': 0, 'state': 'normal', 'yaw': 0.08, 'datetime': '2018-10-03 16:37:05.311660', 'mgs': 0, 'volt': 1.0205, 'depth': 3.445, 'time': 3, 'pitch': -5.95, 'roll': 6.54, 'pres': 209}
{'lipoC2': 0.0, 'lipoC3S1': 4.04, 'temp': 26.19, 'lipoC3S3': 12.22, 'lipoC3S2': 8.09, 'rot1': 0, 'rot0': 0, 'rot3': 0, 'rot2': 0, 'state': 'normal', 'yaw': 0.09, 'datetime': '2018-10-03 16:37:05.321627', 'mgs': 0, 'volt': 1.0205, 'depth': 3.445, 'time': 3, 'pitch': -5.91, 'roll': 6.58, 'pres': 209}
{'lipoC2': 0.0, 'lipoC3S1': 4.04, 'temp': 26.25, 'lipoC3S3': 12.22, 'lipoC3S2': 8.09, 'rot1': 0, 'rot0': 0, 'rot3': 0, 'rot2': 0, 'state': 'normal', 'yaw': 0.1, 'datetime': '2018-10-03 16:37:05.331598', 'mgs': 0, 'volt': 1.0205, 'depth': 3.445, 'time': 3, 'pitch': -5.8, 'roll': 6.58, 'pres': 209}
{'lipoC2': 0.0, 'lipoC3S1': 4.04, 'temp': 26.25, 'lipoC3S3': 12.22, 'lipoC3S2': 8.09, 'rot1': 0, 'rot0': 0, 'rot3': 0, 'rot2': 0, 'state': 'normal', 'yaw': 0.16, 'datetime': '2018-10-03 16:37:05.341575', 'mgs': 0, 'volt': 1.0205, 'depth': 3.445, 'time': 3, 'pitch': -5.76, 'roll': 6.51, 'pres': 209}
{'lipoC2': 0.0, 'lipoC3S1': 4.04, 'temp': 26.19, 'lipoC3S3': 12.22, 'lipoC3S2': 8.09, 'rot1': 0, 'rot0': 0, 'rot3': 0, 'rot2': 0, 'state': 'normal', 'yaw': 0.24, 'datetime': '2018-10-03 16:37:05.351584', 'mgs': 0, 'volt': 1.0156, 'depth': 3.369, 'time': 3, 'pitch': -5.72, 'roll': 6.46, 'pres': 208}
{'lipoC2': 0.0, 'lipoC3S1': 4.04, 'temp': 26.19, 'lipoC3S3': 12.22, 'lipoC3S2': 8.09, 'rot1': 0, 'rot0': 0, 'rot3': 0, 'rot2': 0, 'state': 'normal', 'yaw': 0.33, 'datetime': '2018-10-03 16:37:05.361532', 'mgs': 0, 'volt': 1.0156, 'depth': 3.369, 'time': 3, 'pitch': -5.61, 'roll': 6.46, 'pres': 208}
{'lipoC2': 0.0, 'lipoC3S1': 4.04, 'temp': 26.25, 'lipoC3S3': 12.22, 'lipoC3S2': 8.09, 'rot1': 0, 'rot0': 0, 'rot3': 0, 'rot2': 0, 'state': 'normal', 'yaw': 0.37, 'datetime': '2018-10-03 16:37:05.371472', 'mgs': 0, 'volt': 1.0156, 'depth': 3.369, 'time': 3, 'pitch': -5.5, 'roll': 6.45, 'pres': 208}
{'lipoC2': 0.0, 'lipoC3S1': 4.04, 'temp': 26.25, 'lipoC3S3': 12.22, 'lipoC3S2': 8.09, 'rot1': 0, 'rot0': 0, 'rot3': 0, 'rot2': 0, 'state': 'normal', 'yaw': 0.39, 'datetime': '2018-10-03 16:37:05.381431', 'mgs': 0, 'volt': 1.0156, 'depth': 3.369, 'time': 3, 'pitch': -5.36, 'roll': 6.5, 'pres': 208}
{'lipoC2': 0.0, 'lipoC3S1': 4.04, 'temp': 26.25, 'lipoC3S3': 12.22, 'lipoC3S2': 8.09, 'rot1': 0, 'rot0': 0, 'rot3': 0, 'rot2': 0, 'state': 'normal', 'yaw': 0.4, 'datetime': '2018-10-03 16:37:05.391411', 'mgs': 0, 'volt': 1.0156, 'depth': 3.369, 'time': 3, 'pitch': -5.22, 'roll': 6.6, 'pres': 208}
{'lipoC2': 0.0, 'lipoC3S1': 4.04, 'temp': 26.25, 'lipoC3S3': 12.22, 'lipoC3S2': 8.09, 'rot1': 0, 'rot0': 0, 'rot3': 0, 'rot2': 0, 'state': 'normal', 'yaw': 0.41, 'datetime': '2018-10-03 16:37:05.401606', 'mgs': 0, 'volt': 1.0205, 'depth': 3.445, 'time': 3, 'pitch': -5.13, 'roll': 6.72, 'pres': 209}
{'lipoC2': 0.0, 'lipoC3S1': 4.04, 'temp': 26.25, 'lipoC3S3': 12.22, 'lipoC3S2': 8.09, 'rot1': 0, 'rot0': 0, 'rot3': 0, 'rot2': 0, 'state': 'normal', 'yaw': 0.41, 'datetime': '2018-10-03 16:37:05.411630', 'mgs': 0, 'volt': 1.0205, 'depth': 3.445, 'time': 4, 'pitch': -5.11, 'roll': 6.88, 'pres': 209}
{'lipoC2': 0.0, 'lipoC3S1': 4.04, 'temp': 26.25, 'lipoC3S3': 12.22, 'lipoC3S2': 8.09, 'rot1': 0, 'rot0': 0, 'rot3': 0, 'rot2': 0, 'state': 'normal', 'yaw': 0.41, 'datetime': '2018-10-03 16:37:05.421634', 'mgs': 0, 'volt': 1.0205, 'depth': 3.445, 'time': 4, 'pitch': -5.13, 'roll': 7.03, 'pres': 209}
{'lipoC2': 0.0, 'lipoC3S1': 4.04, 'temp': 26.25, 'lipoC3S3': 12.22, 'lipoC3S2': 8.09, 'rot1': 0, 'rot0': 0, 'rot3': 0, 'rot2': 0, 'state': 'normal', 'yaw': 0.4, 'datetime': '2018-10-03 16:37:05.431592', 'mgs': 0, 'volt': 1.0205, 'depth': 3.445, 'time': 4, 'pitch': -5.23, 'roll': 7.19, 'pres': 209}
{'lipoC2': 0.0, 'lipoC3S1': 4.04, 'temp': 26.25, 'lipoC3S3': 12.22, 'lipoC3S2': 8.09, 'rot1': 0, 'rot0': 0, 'rot3': 0, 'rot2': 0, 'state': 'normal', 'yaw': 0.39, 'datetime': '2018-10-03 16:37:05.441571', 'mgs': 0, 'volt': 1.0205, 'depth': 3.445, 'time': 4, 'pitch': -5.36, 'roll': 7.31, 'pres': 209}
{'lipoC2': 0.0, 'lipoC3S1': 4.04, 'temp': 26.25, 'lipoC3S3': 12.22, 'lipoC3S2': 8.09, 'rot1': 0, 'rot0': 0, 'rot3': 0, 'rot2': 0, 'state': 'normal', 'yaw': 0.37, 'datetime': '2018-10-03 16:37:05.451516', 'mgs': 0, 'volt': 1.0205, 'depth': 3.445, 'time': 4, 'pitch': -5.49, 'roll': 7.25, 'pres': 209}
{'lipoC2': 0.0, 'lipoC3S1': 4.04, 'temp': 26.25, 'lipoC3S3': 12.22, 'lipoC3S2': 8.09, 'rot1': 0, 'rot0': 0, 'rot3': 0, 'rot2': 0, 'state': 'normal', 'yaw': 0.36, 'datetime': '2018-10-03 16:37:05.461499', 'mgs': 0, 'volt': 1.0205, 'depth': 3.445, 'time': 4, 'pitch': -5.59, 'roll': 7.17, 'pres': 209}
{'lipoC2': 0.0, 'lipoC3S1': 4.04, 'temp': 26.25, 'lipoC3S3': 12.22, 'lipoC3S2': 8.09, 'rot1': 0, 'rot0': 0, 'rot3': 0, 'rot2': 0, 'state': 'normal', 'yaw': 0.35, 'datetime': '2018-10-03 16:37:05.471441', 'mgs': 0, 'volt': 1.0205, 'depth': 3.445, 'time': 4, 'pitch': -5.62, 'roll': 7.08, 'pres': 209}
{'lipoC2': 0.0, 'lipoC3S1': 4.04, 'temp': 26.25, 'lipoC3S3': 12.22, 'lipoC3S2': 8.09, 'rot1': 0, 'rot0': 0, 'rot3': 0, 'rot2': 0, 'state': 'normal', 'yaw': 0.35, 'datetime': '2018-10-03 16:37:05.481442', 'mgs': 0, 'volt': 1.0205, 'depth': 3.445, 'time': 4, 'pitch': -5.62, 'roll': 6.98, 'pres': 209}
{'lipoC2': 0.0, 'lipoC3S1': 4.04, 'temp': 26.19, 'lipoC3S3': 12.22, 'lipoC3S2': 8.09, 'rot1': 0, 'rot0': 0, 'rot3': 0, 'rot2': 0, 'state': 'normal', 'yaw': 0.35, 'datetime': '2018-10-03 16:37:05.491419', 'mgs': 0, 'volt': 1.0205, 'depth': 3.445, 'time': 4, 'pitch': -5.62, 'roll': 6.88, 'pres': 209}
{'lipoC2': 0.0, 'lipoC3S1': 4.04, 'temp': 26.19, 'lipoC3S3': 12.22, 'lipoC3S2': 8.09, 'rot1': 0, 'rot0': 0, 'rot3': 0, 'rot2': 0, 'state': 'normal', 'yaw': 0.35, 'datetime': '2018-10-03 16:37:05.501396', 'mgs': 0, 'volt': 1.0205, 'depth': 3.445, 'time': 4, 'pitch': -5.63, 'roll': 6.79, 'pres': 209}
{'lipoC2': 0.0, 'lipoC3S1': 4.04, 'temp': 26.25, 'lipoC3S3': 12.22, 'lipoC3S2': 8.09, 'rot1': 0, 'rot0': 0, 'rot3': 0, 'rot2': 0, 'state': 'normal', 'yaw': 0.34, 'datetime': '2018-10-03 16:37:05.511378', 'mgs': 0, 'volt': 1.0205, 'depth': 3.445, 'time': 5, 'pitch': -5.71, 'roll': 6.71, 'pres': 209}
{'lipoC2': 0.0, 'lipoC3S1': 4.04, 'temp': 26.25, 'lipoC3S3': 12.22, 'lipoC3S2': 8.09, 'rot1': 0, 'rot0': 0, 'rot3': 0, 'rot2': 0, 'state': 'normal', 'yaw': 0.33, 'datetime': '2018-10-03 16:37:05.521350', 'mgs': 0, 'volt': 1.0205, 'depth': 3.445, 'time': 5, 'pitch': -5.78, 'roll': 6.66, 'pres': 209}
{'lipoC2': 0.0, 'lipoC3S1': 4.04, 'temp': 26.25, 'lipoC3S3': 12.22, 'lipoC3S2': 8.09, 'rot1': 0, 'rot0': 0, 'rot3': 0, 'rot2': 0, 'state': 'normal', 'yaw': 0.33, 'datetime': '2018-10-03 16:37:05.531517', 'mgs': 0, 'volt': 1.0205, 'depth': 3.445, 'time': 5, 'pitch': -5.81, 'roll': 6.61, 'pres': 209}
{'lipoC2': 0.0, 'lipoC3S1': 4.04, 'temp': 26.25, 'lipoC3S3': 12.22, 'lipoC3S2': 8.09, 'rot1': 0, 'rot0': 0, 'rot3': 0, 'rot2': 0, 'state': 'normal', 'yaw': 0.33, 'datetime': '2018-10-03 16:37:05.541527', 'mgs': 0, 'volt': 1.0205, 'depth': 3.445, 'time': 5, 'pitch': -5.75, 'roll': 6.44, 'pres': 209}
{'lipoC2': 0.0, 'lipoC3S1': 4.04, 'temp': 26.25, 'lipoC3S3': 12.22, 'lipoC3S2': 8.09, 'rot1': 0, 'rot0': 0, 'rot3': 0, 'rot2': 0, 'state': 'normal', 'yaw': 0.34, 'datetime': '2018-10-03 16:37:05.551513', 'mgs': 0, 'volt': 1.0205, 'depth': 3.445, 'time': 5, 'pitch': -5.65, 'roll': 6.34, 'pres': 209}
{'lipoC2': 0.0, 'lipoC3S1': 4.04, 'temp': 26.19, 'lipoC3S3': 12.22, 'lipoC3S2': 8.09, 'rot1': 0, 'rot0': 0, 'rot3': 0, 'rot2': 0, 'state': 'normal', 'yaw': 0.36, 'datetime': '2018-10-03 16:37:05.561483', 'mgs': 0, 'volt': 1.0205, 'depth': 3.445, 'time': 5, 'pitch': -5.54, 'roll': 6.33, 'pres': 209}
{'lipoC2': 0.0, 'lipoC3S1': 4.04, 'temp': 26.19, 'lipoC3S3': 12.22, 'lipoC3S2': 8.09, 'rot1': 0, 'rot0': 0, 'rot3': 0, 'rot2': 0, 'state': 'normal', 'yaw': 0.37, 'datetime': '2018-10-03 16:37:05.571457', 'mgs': 0, 'volt': 1.0254, 'depth': 3.522, 'time': 5, 'pitch': -5.42, 'roll': 6.33, 'pres': 210}
{'lipoC2': 0.0, 'lipoC3S1': 4.04, 'temp': 26.25, 'lipoC3S3': 12.22, 'lipoC3S2': 8.09, 'rot1': 0, 'rot0': 0, 'rot3': 0, 'rot2': 0, 'state': 'normal', 'yaw': 0.35, 'datetime': '2018-10-03 16:37:05.581460', 'mgs': 0, 'volt': 1.0254, 'depth': 3.522, 'time': 5, 'pitch': -5.31, 'roll': 6.33, 'pres': 210}
{'lipoC2': 0.0, 'lipoC3S1': 4.04, 'temp': 26.25, 'lipoC3S3': 12.23, 'lipoC3S2': 8.09, 'rot1': 0, 'rot0': 0, 'rot3': 0, 'rot2': 0, 'state': 'normal', 'yaw': 0.29, 'datetime': '2018-10-03 16:37:05.591530', 'mgs': 0, 'volt': 1.0254, 'depth': 3.522, 'time': 5, 'pitch': -5.25, 'roll': 6.34, 'pres': 210}
{'lipoC2': 0.0, 'lipoC3S1': 4.04, 'temp': 26.25, 'lipoC3S3': 12.22, 'lipoC3S2': 8.09, 'rot1': 0, 'rot0': 0, 'rot3': 0, 'rot2': 0, 'state': 'normal', 'yaw': 0.2, 'datetime': '2018-10-03 16:37:05.601495', 'mgs': 0, 'volt': 1.0254, 'depth': 3.522, 'time': 6, 'pitch': -5.24, 'roll': 6.35, 'pres': 210}
{'lipoC2': 0.0, 'lipoC3S1': 4.04, 'temp': 26.19, 'lipoC3S3': 12.22, 'lipoC3S2': 8.09, 'rot1': 0, 'rot0': 0, 'rot3': 0, 'rot2': 0, 'state': 'normal', 'yaw': 0.13, 'datetime': '2018-10-03 16:37:05.611479', 'mgs': 0, 'volt': 1.0254, 'depth': 3.522, 'time': 6, 'pitch': -5.25, 'roll': 6.35, 'pres': 210}
{'lipoC2': 0.0, 'lipoC3S1': 4.04, 'temp': 26.19, 'lipoC3S3': 12.22, 'lipoC3S2': 8.09, 'rot1': 0, 'rot0': 0, 'rot3': 0, 'rot2': 0, 'state': 'normal', 'yaw': 0.04, 'datetime': '2018-10-03 16:37:05.621454', 'mgs': 0, 'volt': 1.0254, 'depth': 3.522, 'time': 6, 'pitch': -5.35, 'roll': 6.36, 'pres': 210}
{'lipoC2': 0.0, 'lipoC3S1': 4.04, 'temp': 26.19, 'lipoC3S3': 12.22, 'lipoC3S2': 8.09, 'rot1': 0, 'rot0': 0, 'rot3': 0, 'rot2': 0, 'state': 'normal', 'yaw': -0.04, 'datetime': '2018-10-03 16:37:05.631456', 'mgs': 0, 'volt': 1.0254, 'depth': 3.522, 'time': 6, 'pitch': -5.5, 'roll': 6.37, 'pres': 210}
{'lipoC2': 0.0, 'lipoC3S1': 4.04, 'temp': 26.19, 'lipoC3S3': 12.22, 'lipoC3S2': 8.09, 'rot1': 0, 'rot0': 0, 'rot3': 0, 'rot2': 0, 'state': 'normal', 'yaw': -0.09, 'datetime': '2018-10-03 16:37:05.641438', 'mgs': 0, 'volt': 1.0205, 'depth': 3.445, 'time': 6, 'pitch': -5.66, 'roll': 6.37, 'pres': 209}
{'lipoC2': 0.0, 'lipoC3S1': 4.04, 'temp': 26.19, 'lipoC3S3': 12.22, 'lipoC3S2': 8.09, 'rot1': 0, 'rot0': 0, 'rot3': 0, 'rot2': 0, 'state': 'normal', 'yaw': -0.11, 'datetime': '2018-10-03 16:37:05.651400', 'mgs': 0, 'volt': 1.0205, 'depth': 3.445, 'time': 6, 'pitch': -5.82, 'roll': 6.38, 'pres': 209}
{'lipoC2': 0.0, 'lipoC3S1': 4.04, 'temp': 26.19, 'lipoC3S3': 12.22, 'lipoC3S2': 8.09, 'rot1': 0, 'rot0': 0, 'rot3': 0, 'rot2': 0, 'state': 'normal', 'yaw': -0.13, 'datetime': '2018-10-03 16:37:05.661337', 'mgs': 0, 'volt': 1.0205, 'depth': 3.445, 'time': 6, 'pitch': -5.94, 'roll': 6.38, 'pres': 209}
{'lipoC2': 0.0, 'lipoC3S1': 4.04, 'temp': 26.19, 'lipoC3S3': 12.22, 'lipoC3S2': 8.09, 'rot1': 0, 'rot0': 0, 'rot3': 0, 'rot2': 0, 'state': 'normal', 'yaw': -0.13, 'datetime': '2018-10-03 16:37:05.671456', 'mgs': 0, 'volt': 1.0205, 'depth': 3.445, 'time': 6, 'pitch': -5.97, 'roll': 6.38, 'pres': 209}
{'lipoC2': 0.0, 'lipoC3S1': 4.04, 'temp': 26.25, 'lipoC3S3': 12.22, 'lipoC3S2': 8.09, 'rot1': 0, 'rot0': 0, 'rot3': 0, 'rot2': 0, 'state': 'normal', 'yaw': -0.13, 'datetime': '2018-10-03 16:37:05.681472', 'mgs': 0, 'volt': 1.0156, 'depth': 3.369, 'time': 6, 'pitch': -5.97, 'roll': 6.38, 'pres': 208}
{'lipoC2': 0.0, 'lipoC3S1': 4.04, 'temp': 26.25, 'lipoC3S3': 12.22, 'lipoC3S2': 8.09, 'rot1': 0, 'rot0': 0, 'rot3': 0, 'rot2': 0, 'state': 'normal', 'yaw': -0.17, 'datetime': '2018-10-03 16:37:05.691468', 'mgs': 0, 'volt': 1.0156, 'depth': 3.369, 'time': 6, 'pitch': -5.86, 'roll': 6.41, 'pres': 208}
{'lipoC2': 0.0, 'lipoC3S1': 4.04, 'temp': 26.19, 'lipoC3S3': 12.22, 'lipoC3S2': 8.09, 'rot1': 0, 'rot0': 0, 'rot3': 0, 'rot2': 0, 'state': 'normal', 'yaw': -0.58, 'datetime': '2018-10-03 16:37:05.701441', 'mgs': 0, 'volt': 1.0156, 'depth': 3.369, 'time': 7, 'pitch': -5.59, 'roll': 6.56, 'pres': 208}
{'lipoC2': 0.0, 'lipoC3S1': 4.04, 'temp': 26.19, 'lipoC3S3': 12.22, 'lipoC3S2': 8.09, 'rot1': 0, 'rot0': 0, 'rot3': 0, 'rot2': 0, 'state': 'normal', 'yaw': -1.43, 'datetime': '2018-10-03 16:37:05.711422', 'mgs': 0, 'volt': 1.0156, 'depth': 3.369, 'time': 7, 'pitch': -5.8, 'roll': 6.78, 'pres': 208}
{'lipoC2': 0.0, 'lipoC3S1': 4.04, 'temp': 26.19, 'lipoC3S3': 12.22, 'lipoC3S2': 8.09, 'rot1': 0, 'rot0': 0, 'rot3': 0, 'rot2': 0, 'state': 'normal', 'yaw': -2.44, 'datetime': '2018-10-03 16:37:05.721426', 'mgs': 0, 'volt': 1.0156, 'depth': 3.369, 'time': 7, 'pitch': -5.83, 'roll': 6.88, 'pres': 208}
{'lipoC2': 0.0, 'lipoC3S1': 4.04, 'temp': 26.19, 'lipoC3S3': 12.22, 'lipoC3S2': 8.09, 'rot1': 0, 'rot0': 0, 'rot3': 0, 'rot2': 0, 'state': 'normal', 'yaw': -3.42, 'datetime': '2018-10-03 16:37:05.731418', 'mgs': 0, 'volt': 1.0156, 'depth': 3.369, 'time': 7, 'pitch': -5.5, 'roll': 6.97, 'pres': 208}
{'lipoC2': 0.0, 'lipoC3S1': 4.04, 'temp': 26.19, 'lipoC3S3': 12.22, 'lipoC3S2': 8.09, 'rot1': 0, 'rot0': 0, 'rot3': 0, 'rot2': 0, 'state': 'normal', 'yaw': -4.47, 'datetime': '2018-10-03 16:37:05.741379', 'mgs': 0, 'volt': 1.0156, 'depth': 3.369, 'time': 7, 'pitch': -4.98, 'roll': 7.07, 'pres': 208}
{'lipoC2': 0.0, 'lipoC3S1': 4.04, 'temp': 26.19, 'lipoC3S3': 12.22, 'lipoC3S2': 8.09, 'rot1': 0, 'rot0': 0, 'rot3': 0, 'rot2': 0, 'state': 'normal', 'yaw': -5.42, 'datetime': '2018-10-03 16:37:05.751420', 'mgs': 0, 'volt': 1.0156, 'depth': 3.369, 'time': 7, 'pitch': -4.21, 'roll': 7.09, 'pres': 208}
{'lipoC2': 0.0, 'lipoC3S1': 4.04, 'temp': 26.19, 'lipoC3S3': 12.22, 'lipoC3S2': 8.09, 'rot1': 0, 'rot0': 0, 'rot3': 0, 'rot2': 0, 'state': 'normal', 'yaw': -6.0, 'datetime': '2018-10-03 16:37:05.761473', 'mgs': 0, 'volt': 1.0156, 'depth': 3.369, 'time': 7, 'pitch': -3.84, 'roll': 6.88, 'pres': 208}
{'lipoC2': 0.0, 'lipoC3S1': 4.04, 'temp': 26.19, 'lipoC3S3': 12.22, 'lipoC3S2': 8.09, 'rot1': 0, 'rot0': 0, 'rot3': 0, 'rot2': 0, 'state': 'normal', 'yaw': -6.31, 'datetime': '2018-10-03 16:37:05.771499', 'mgs': 0, 'volt': 1.0156, 'depth': 3.369, 'time': 7, 'pitch': -3.86, 'roll': 6.5, 'pres': 208}
{'lipoC2': 0.0, 'lipoC3S1': 4.04, 'temp': 26.19, 'lipoC3S3': 12.22, 'lipoC3S2': 8.09, 'rot1': 0, 'rot0': 0, 'rot3': 0, 'rot2': 0, 'state': 'normal', 'yaw': -6.39, 'datetime': '2018-10-03 16:37:05.781547', 'mgs': 0, 'volt': 1.0156, 'depth': 3.369, 'time': 7, 'pitch': -4.0, 'roll': 5.95, 'pres': 208}
{'lipoC2': 0.0, 'lipoC3S1': 4.04, 'temp': 26.19, 'lipoC3S3': 12.22, 'lipoC3S2': 8.09, 'rot1': 0, 'rot0': 0, 'rot3': 0, 'rot2': 0, 'state': 'normal', 'yaw': -6.48, 'datetime': '2018-10-03 16:37:05.791590', 'mgs': 0, 'volt': 1.0156, 'depth': 3.369, 'time': 7, 'pitch': -4.0, 'roll': 5.53, 'pres': 208}
{'lipoC2': 0.0, 'lipoC3S1': 4.04, 'temp': 26.19, 'lipoC3S3': 12.22, 'lipoC3S2': 8.09, 'rot1': 0, 'rot0': 0, 'rot3': 0, 'rot2': 0, 'state': 'normal', 'yaw': -6.65, 'datetime': '2018-10-03 16:37:05.801558', 'mgs': 0, 'volt': 1.0156, 'depth': 3.369, 'time': 8, 'pitch': -3.98, 'roll': 5.23, 'pres': 208}
{'lipoC2': 0.0, 'lipoC3S1': 4.04, 'temp': 26.19, 'lipoC3S3': 12.22, 'lipoC3S2': 8.09, 'rot1': 0, 'rot0': 0, 'rot3': 0, 'rot2': 0, 'state': 'normal', 'yaw': -6.86, 'datetime': '2018-10-03 16:37:05.811749', 'mgs': 0, 'volt': 1.0107, 'depth': 3.293, 'time': 8, 'pitch': -4.07, 'roll': 5.03, 'pres': 207}
{'lipoC2': 0.0, 'lipoC3S1': 4.04, 'temp': 26.19, 'lipoC3S3': 12.22, 'lipoC3S2': 8.09, 'rot1': 0, 'rot0': 0, 'rot3': 0, 'rot2': 0, 'state': 'normal', 'yaw': -7.05, 'datetime': '2018-10-03 16:37:05.821771', 'mgs': 0, 'volt': 1.0156, 'depth': 3.369, 'time': 8, 'pitch': -4.18, 'roll': 4.95, 'pres': 208}
{'lipoC2': 0.0, 'lipoC3S1': 4.04, 'temp': 26.19, 'lipoC3S3': 12.22, 'lipoC3S2': 8.09, 'rot1': 0, 'rot0': 0, 'rot3': 0, 'rot2': 0, 'state': 'normal', 'yaw': -7.25, 'datetime': '2018-10-03 16:37:05.831756', 'mgs': 0, 'volt': 1.0107, 'depth': 3.293, 'time': 8, 'pitch': -4.3, 'roll': 4.98, 'pres': 207}
{'lipoC2': 0.0, 'lipoC3S1': 4.04, 'temp': 26.25, 'lipoC3S3': 12.22, 'lipoC3S2': 8.09, 'rot1': 0, 'rot0': 0, 'rot3': 0, 'rot2': 0, 'state': 'normal', 'yaw': -7.48, 'datetime': '2018-10-03 16:37:05.841716', 'mgs': 0, 'volt': 1.0107, 'depth': 3.293, 'time': 8, 'pitch': -4.42, 'roll': 5.14, 'pres': 207}
{'lipoC2': 0.0, 'lipoC3S1': 4.04, 'temp': 26.25, 'lipoC3S3': 12.22, 'lipoC3S2': 8.09, 'rot1': 0, 'rot0': 0, 'rot3': 0, 'rot2': 0, 'state': 'normal', 'yaw': -7.68, 'datetime': '2018-10-03 16:37:05.851658', 'mgs': 0, 'volt': 1.0107, 'depth': 3.293, 'time': 8, 'pitch': -4.53, 'roll': 5.37, 'pres': 207}
{'lipoC2': 0.0, 'lipoC3S1': 4.04, 'temp': 26.25, 'lipoC3S3': 12.22, 'lipoC3S2': 8.09, 'rot1': 0, 'rot0': 0, 'rot3': 0, 'rot2': 0, 'state': 'normal', 'yaw': -7.89, 'datetime': '2018-10-03 16:37:05.861632', 'mgs': 0, 'volt': 1.0156, 'depth': 3.369, 'time': 8, 'pitch': -4.64, 'roll': 5.69, 'pres': 208}
{'lipoC2': 0.0, 'lipoC3S1': 4.04, 'temp': 26.19, 'lipoC3S3': 12.22, 'lipoC3S2': 8.09, 'rot1': 0, 'rot0': 0, 'rot3': 0, 'rot2': 0, 'state': 'normal', 'yaw': -8.11, 'datetime': '2018-10-03 16:37:05.871642', 'mgs': 0, 'volt': 1.0156, 'depth': 3.369, 'time': 8, 'pitch': -4.77, 'roll': 6.09, 'pres': 208}
{'lipoC2': 0.0, 'lipoC3S1': 4.04, 'temp': 26.19, 'lipoC3S3': 12.22, 'lipoC3S2': 8.09, 'rot1': 0, 'rot0': 0, 'rot3': 0, 'rot2': 0, 'state': 'normal', 'yaw': -8.31, 'datetime': '2018-10-03 16:37:05.881650', 'mgs': 0, 'volt': 1.0156, 'depth': 3.369, 'time': 8, 'pitch': -4.87, 'roll': 6.48, 'pres': 208}
{'lipoC2': 0.0, 'lipoC3S1': 4.04, 'temp': 26.19, 'lipoC3S3': 12.22, 'lipoC3S2': 8.09, 'rot1': 0, 'rot0': 0, 'rot3': 0, 'rot2': 0, 'state': 'normal', 'yaw': -8.49, 'datetime': '2018-10-03 16:37:05.891650', 'mgs': 0, 'volt': 1.0156, 'depth': 3.369, 'time': 9, 'pitch': -4.98, 'roll': 6.85, 'pres': 208}
{'lipoC2': 0.0, 'lipoC3S1': 4.04, 'temp': 26.19, 'lipoC3S3': 12.22, 'lipoC3S2': 8.09, 'rot1': 0, 'rot0': 0, 'rot3': 0, 'rot2': 0, 'state': 'normal', 'yaw': -8.66, 'datetime': '2018-10-03 16:37:05.901622', 'mgs': 0, 'volt': 1.0156, 'depth': 3.369, 'time': 9, 'pitch': -5.07, 'roll': 7.2, 'pres': 208}
{'lipoC2': 0.0, 'lipoC3S1': 4.04, 'temp': 26.19, 'lipoC3S3': 12.22, 'lipoC3S2': 8.09, 'rot1': 0, 'rot0': 0, 'rot3': 0, 'rot2': 0, 'state': 'normal', 'yaw': -8.82, 'datetime': '2018-10-03 16:37:05.911616', 'mgs': 0, 'volt': 1.0156, 'depth': 3.369, 'time': 9, 'pitch': -5.1, 'roll': 7.51, 'pres': 208}
{'lipoC2': 0.0, 'lipoC3S1': 4.04, 'temp': 26.19, 'lipoC3S3': 12.22, 'lipoC3S2': 8.09, 'rot1': 0, 'rot0': 0, 'rot3': 0, 'rot2': 0, 'state': 'normal', 'yaw': -8.92, 'datetime': '2018-10-03 16:37:05.921574', 'mgs': 0, 'volt': 1.0156, 'depth': 3.369, 'time': 9, 'pitch': -5.09, 'roll': 7.7, 'pres': 208}
{'lipoC2': 0.0, 'lipoC3S1': 4.04, 'temp': 26.19, 'lipoC3S3': 12.22, 'lipoC3S2': 8.09, 'rot1': 0, 'rot0': 0, 'rot3': 0, 'rot2': 0, 'state': 'normal', 'yaw': -9.0, 'datetime': '2018-10-03 16:37:05.931559', 'mgs': 0, 'volt': 1.0156, 'depth': 3.369, 'time': 9, 'pitch': -5.08, 'roll': 7.82, 'pres': 208}
{'lipoC2': 0.0, 'lipoC3S1': 4.04, 'temp': 26.25, 'lipoC3S3': 12.22, 'lipoC3S2': 8.09, 'rot1': 0, 'rot0': 0, 'rot3': 0, 'rot2': 0, 'state': 'normal', 'yaw': -9.07, 'datetime': '2018-10-03 16:37:05.941740', 'mgs': 0, 'volt': 1.0156, 'depth': 3.369, 'time': 9, 'pitch': -5.02, 'roll': 7.83, 'pres': 208}
{'lipoC2': 0.0, 'lipoC3S1': 4.04, 'temp': 26.25, 'lipoC3S3': 12.22, 'lipoC3S2': 8.09, 'rot1': 0, 'rot0': 0, 'rot3': 0, 'rot2': 0, 'state': 'normal', 'yaw': -9.07, 'datetime': '2018-10-03 16:37:05.951755', 'mgs': 0, 'volt': 1.0156, 'depth': 3.369, 'time': 9, 'pitch': -4.9, 'roll': 7.79, 'pres': 208}
{'lipoC2': 0.0, 'lipoC3S1': 4.04, 'temp': 26.25, 'lipoC3S3': 12.22, 'lipoC3S2': 8.09, 'rot1': 0, 'rot0': 0, 'rot3': 0, 'rot2': 0, 'state': 'normal', 'yaw': -9.05, 'datetime': '2018-10-03 16:37:05.961676', 'mgs': 0, 'volt': 1.0156, 'depth': 3.369, 'time': 9, 'pitch': -4.78, 'roll': 7.67, 'pres': 208}
{'lipoC2': 0.0, 'lipoC3S1': 4.04, 'temp': 26.25, 'lipoC3S3': 12.22, 'lipoC3S2': 8.09, 'rot1': 0, 'rot0': 0, 'rot3': 0, 'rot2': 0, 'state': 'normal', 'yaw': -9.04, 'datetime': '2018-10-03 16:37:05.971656', 'mgs': 0, 'volt': 1.0205, 'depth': 3.445, 'time': 9, 'pitch': -4.65, 'roll': 7.48, 'pres': 209}
{'lipoC2': 0.0, 'lipoC3S1': 4.04, 'temp': 26.19, 'lipoC3S3': 12.22, 'lipoC3S2': 8.09, 'rot1': 0, 'rot0': 0, 'rot3': 0, 'rot2': 0, 'state': 'normal', 'yaw': -9.05, 'datetime': '2018-10-03 16:37:05.981675', 'mgs': 0, 'volt': 1.0156, 'depth': 3.369, 'time': 9, 'pitch': -4.55, 'roll': 7.26, 'pres': 208}
{'lipoC2': 0.0, 'lipoC3S1': 4.04, 'temp': 26.19, 'lipoC3S3': 12.22, 'lipoC3S2': 8.09, 'rot1': 0, 'rot0': 0, 'rot3': 0, 'rot2': 0, 'state': 'normal', 'yaw': -9.05, 'datetime': '2018-10-03 16:37:05.991704', 'mgs': 0, 'volt': 1.0156, 'depth': 3.369, 'time': 10, 'pitch': -4.53, 'roll': 7.02, 'pres': 208}
{'lipoC2': 0.0, 'lipoC3S1': 4.04, 'temp': 26.19, 'lipoC3S3': 12.22, 'lipoC3S2': 8.09, 'rot1': 0, 'rot0': 0, 'rot3': 0, 'rot2': 0, 'state': 'normal', 'yaw': -9.08, 'datetime': '2018-10-03 16:37:06.001726', 'mgs': 0, 'volt': 1.0205, 'depth': 3.445, 'time': 10, 'pitch': -4.53, 'roll': 6.73, 'pres': 209}
{'lipoC2': 0.0, 'lipoC3S1': 4.04, 'temp': 26.25, 'lipoC3S3': 12.22, 'lipoC3S2': 8.09, 'rot1': 0, 'rot0': 0, 'rot3': 0, 'rot2': 0, 'state': 'normal', 'yaw': -9.29, 'datetime': '2018-10-03 16:37:06.011742', 'mgs': 0, 'volt': 1.0205, 'depth': 3.445, 'time': 10, 'pitch': -4.24, 'roll': 6.6, 'pres': 209}
{'lipoC2': 0.0, 'lipoC3S1': 4.04, 'temp': 26.25, 'lipoC3S3': 12.22, 'lipoC3S2': 8.09, 'rot1': 0, 'rot0': 0, 'rot3': 0, 'rot2': 0, 'state': 'normal', 'yaw': -9.33, 'datetime': '2018-10-03 16:37:06.021747', 'mgs': 0, 'volt': 1.0205, 'depth': 3.445, 'time': 10, 'pitch': -4.22, 'roll': 6.34, 'pres': 209}
{'lipoC2': 0.0, 'lipoC3S1': 4.04, 'temp': 26.25, 'lipoC3S3': 12.22, 'lipoC3S2': 8.09, 'rot1': 0, 'rot0': 0, 'rot3': 0, 'rot2': 0, 'state': 'normal', 'yaw': -8.86, 'datetime': '2018-10-03 16:37:06.031749', 'mgs': 0, 'volt': 1.0156, 'depth': 3.369, 'time': 10, 'pitch': -5.13, 'roll': 5.79, 'pres': 208}
{'lipoC2': 0.0, 'lipoC3S1': 4.04, 'temp': 26.25, 'lipoC3S3': 12.22, 'lipoC3S2': 8.09, 'rot1': 0, 'rot0': 0, 'rot3': 0, 'rot2': 0, 'state': 'normal', 'yaw': -8.18, 'datetime': '2018-10-03 16:37:06.041740', 'mgs': 0, 'volt': 1.0156, 'depth': 3.369, 'time': 10, 'pitch': -6.24, 'roll': 5.18, 'pres': 208}
{'lipoC2': 0.0, 'lipoC3S1': 4.04, 'temp': 26.25, 'lipoC3S3': 12.22, 'lipoC3S2': 8.09, 'rot1': 0, 'rot0': 0, 'rot3': 0, 'rot2': 0, 'state': 'normal', 'yaw': -7.72, 'datetime': '2018-10-03 16:37:06.051752', 'mgs': 0, 'volt': 1.0156, 'depth': 3.369, 'time': 10, 'pitch': -6.31, 'roll': 5.67, 'pres': 208}
{'lipoC2': 0.0, 'lipoC3S1': 4.04, 'temp': 26.25, 'lipoC3S3': 12.22, 'lipoC3S2': 8.09, 'rot1': 0, 'rot0': 0, 'rot3': 0, 'rot2': 0, 'state': 'normal', 'yaw': -7.13, 'datetime': '2018-10-03 16:37:06.061733', 'mgs': 0, 'volt': 1.0156, 'depth': 3.369, 'time': 10, 'pitch': -6.17, 'roll': 6.37, 'pres': 208}
{'lipoC2': 0.0, 'lipoC3S1': 4.04, 'temp': 26.25, 'lipoC3S3': 12.22, 'lipoC3S2': 8.09, 'rot1': 0, 'rot0': 0, 'rot3': 0, 'rot2': 0, 'state': 'normal', 'yaw': -6.46, 'datetime': '2018-10-03 16:37:06.071756', 'mgs': 0, 'volt': 1.0156, 'depth': 3.369, 'time': 10, 'pitch': -5.82, 'roll': 6.93, 'pres': 208}
{'lipoC2': 0.0, 'lipoC3S1': 4.04, 'temp': 26.25, 'lipoC3S3': 12.22, 'lipoC3S2': 8.09, 'rot1': 0, 'rot0': 0, 'rot3': 0, 'rot2': 0, 'state': 'normal', 'yaw': -5.67, 'datetime': '2018-10-03 16:37:06.082018', 'mgs': 0, 'volt': 1.0156, 'depth': 3.369, 'time': 10, 'pitch': -5.41, 'roll': 7.39, 'pres': 208}
{'lipoC2': 0.0, 'lipoC3S1': 4.04, 'temp': 26.25, 'lipoC3S3': 12.22, 'lipoC3S2': 8.09, 'rot1': 0, 'rot0': 0, 'rot3': 0, 'rot2': 0, 'state': 'normal', 'yaw': -4.74, 'datetime': '2018-10-03 16:37:06.092094', 'mgs': 0, 'volt': 1.0156, 'depth': 3.369, 'time': 11, 'pitch': -4.78, 'roll': 7.82, 'pres': 208}
{'lipoC2': 0.0, 'lipoC3S1': 4.04, 'temp': 26.25, 'lipoC3S3': 12.22, 'lipoC3S2': 8.09, 'rot1': 0, 'rot0': 0, 'rot3': 0, 'rot2': 0, 'state': 'normal', 'yaw': -4.01, 'datetime': '2018-10-03 16:37:06.102137', 'mgs': 0, 'volt': 1.0156, 'depth': 3.369, 'time': 11, 'pitch': -4.28, 'roll': 8.21, 'pres': 208}
{'lipoC2': 0.0, 'lipoC3S1': 4.04, 'temp': 26.25, 'lipoC3S3': 12.22, 'lipoC3S2': 8.09, 'rot1': 0, 'rot0': 0, 'rot3': 0, 'rot2': 0, 'state': 'normal', 'yaw': -3.6, 'datetime': '2018-10-03 16:37:06.112333', 'mgs': 0, 'volt': 1.0156, 'depth': 3.369, 'time': 11, 'pitch': -4.05, 'roll': 8.34, 'pres': 208}
{'lipoC2': 0.0, 'lipoC3S1': 4.04, 'temp': 26.25, 'lipoC3S3': 12.22, 'lipoC3S2': 8.09, 'rot1': 0, 'rot0': 0, 'rot3': 0, 'rot2': 0, 'state': 'normal', 'yaw': -3.56, 'datetime': '2018-10-03 16:37:06.122516', 'mgs': 0, 'volt': 1.0156, 'depth': 3.369, 'time': 11, 'pitch': -3.63, 'roll': 8.33, 'pres': 208}
{'lipoC2': 0.0, 'lipoC3S1': 4.04, 'temp': 26.25, 'lipoC3S3': 12.22, 'lipoC3S2': 8.09, 'rot1': 0, 'rot0': 0, 'rot3': 0, 'rot2': 0, 'state': 'normal', 'yaw': -3.76, 'datetime': '2018-10-03 16:37:06.132630', 'mgs': 0, 'volt': 1.0156, 'depth': 3.369, 'time': 11, 'pitch': -3.35, 'roll': 8.34, 'pres': 208}
{'lipoC2': 0.0, 'lipoC3S1': 4.04, 'temp': 26.25, 'lipoC3S3': 12.22, 'lipoC3S2': 8.09, 'rot1': 0, 'rot0': 0, 'rot3': 0, 'rot2': 0, 'state': 'normal', 'yaw': -4.18, 'datetime': '2018-10-03 16:37:06.142745', 'mgs': 0, 'volt': 1.0156, 'depth': 3.369, 'time': 11, 'pitch': -3.71, 'roll': 8.38, 'pres': 208}
{'lipoC2': 0.0, 'lipoC3S1': 4.04, 'temp': 26.19, 'lipoC3S3': 12.22, 'lipoC3S2': 8.09, 'rot1': 0, 'rot0': 0, 'rot3': 0, 'rot2': 0, 'state': 'normal', 'yaw': -4.58, 'datetime': '2018-10-03 16:37:06.152758', 'mgs': 0, 'volt': 1.0156, 'depth': 3.369, 'time': 11, 'pitch': -4.3, 'roll': 8.31, 'pres': 208}
{'lipoC2': 0.0, 'lipoC3S1': 4.04, 'temp': 26.19, 'lipoC3S3': 12.22, 'lipoC3S2': 8.09, 'rot1': 0, 'rot0': 0, 'rot3': 0, 'rot2': 0, 'state': 'normal', 'yaw': -4.8, 'datetime': '2018-10-03 16:37:06.162757', 'mgs': 0, 'volt': 1.0156, 'depth': 3.369, 'time': 11, 'pitch': -4.78, 'roll': 8.11, 'pres': 208}
{'lipoC2': 0.0, 'lipoC3S1': 4.04, 'temp': 26.19, 'lipoC3S3': 12.22, 'lipoC3S2': 8.09, 'rot1': 0, 'rot0': 0, 'rot3': 0, 'rot2': 0, 'state': 'normal', 'yaw': -4.97, 'datetime': '2018-10-03 16:37:06.172741', 'mgs': 0, 'volt': 1.0156, 'depth': 3.369, 'time': 11, 'pitch': -5.22, 'roll': 7.82, 'pres': 208}
{'lipoC2': 0.0, 'lipoC3S1': 4.04, 'temp': 26.19, 'lipoC3S3': 12.22, 'lipoC3S2': 8.09, 'rot1': 0, 'rot0': 0, 'rot3': 0, 'rot2': 0, 'state': 'normal', 'yaw': -5.13, 'datetime': '2018-10-03 16:37:06.182802', 'mgs': 0, 'volt': 1.0156, 'depth': 3.369, 'time': 12, 'pitch': -5.63, 'roll': 7.44, 'pres': 208}
{'lipoC2': 0.0, 'lipoC3S1': 4.04, 'temp': 26.19, 'lipoC3S3': 12.22, 'lipoC3S2': 8.09, 'rot1': 0, 'rot0': 0, 'rot3': 0, 'rot2': 0, 'state': 'normal', 'yaw': -5.25, 'datetime': '2018-10-03 16:37:06.192886', 'mgs': 0, 'volt': 1.0156, 'depth': 3.369, 'time': 12, 'pitch': -5.93, 'roll': 7.06, 'pres': 208}
{'lipoC2': 0.0, 'lipoC3S1': 4.04, 'temp': 26.19, 'lipoC3S3': 12.22, 'lipoC3S2': 8.09, 'rot1': 0, 'rot0': 0, 'rot3': 0, 'rot2': 0, 'state': 'normal', 'yaw': -5.36, 'datetime': '2018-10-03 16:37:06.202879', 'mgs': 0, 'volt': 1.0107, 'depth': 3.293, 'time': 12, 'pitch': -6.15, 'roll': 6.66, 'pres': 207}
{'lipoC2': 0.0, 'lipoC3S1': 4.04, 'temp': 26.19, 'lipoC3S3': 12.22, 'lipoC3S2': 8.09, 'rot1': 0, 'rot0': 0, 'rot3': 0, 'rot2': 0, 'state': 'normal', 'yaw': -5.46, 'datetime': '2018-10-03 16:37:06.212896', 'mgs': 0, 'volt': 1.0107, 'depth': 3.293, 'time': 12, 'pitch': -6.31, 'roll': 6.25, 'pres': 207}
{'lipoC2': 0.0, 'lipoC3S1': 4.04, 'temp': 26.25, 'lipoC3S3': 12.22, 'lipoC3S2': 8.09, 'rot1': 0, 'rot0': 0, 'rot3': 0, 'rot2': 0, 'state': 'normal', 'yaw': -5.53, 'datetime': '2018-10-03 16:37:06.223112', 'mgs': 0, 'volt': 1.0107, 'depth': 3.293, 'time': 12, 'pitch': -6.35, 'roll': 5.89, 'pres': 207}
{'lipoC2': 0.0, 'lipoC3S1': 4.04, 'temp': 26.25, 'lipoC3S3': 12.22, 'lipoC3S2': 8.09, 'rot1': 0, 'rot0': 0, 'rot3': 0, 'rot2': 0, 'state': 'normal', 'yaw': -5.62, 'datetime': '2018-10-03 16:37:06.233142', 'mgs': 0, 'volt': 1.0107, 'depth': 3.293, 'time': 12, 'pitch': -6.33, 'roll': 5.6, 'pres': 207}
{'lipoC2': 0.0, 'lipoC3S1': 4.04, 'temp': 26.25, 'lipoC3S3': 12.22, 'lipoC3S2': 8.09, 'rot1': 0, 'rot0': 0, 'rot3': 0, 'rot2': 0, 'state': 'normal', 'yaw': -5.69, 'datetime': '2018-10-03 16:37:06.243154', 'mgs': 0, 'volt': 1.0107, 'depth': 3.293, 'time': 12, 'pitch': -6.21, 'roll': 5.37, 'pres': 207}
{'lipoC2': 0.0, 'lipoC3S1': 4.04, 'temp': 26.25, 'lipoC3S3': 12.22, 'lipoC3S2': 8.09, 'rot1': 0, 'rot0': 0, 'rot3': 0, 'rot2': 0, 'state': 'normal', 'yaw': -5.78, 'datetime': '2018-10-03 16:37:06.253154', 'mgs': 0, 'volt': 1.0156, 'depth': 3.369, 'time': 12, 'pitch': -5.98, 'roll': 5.21, 'pres': 208}
{'lipoC2': 0.0, 'lipoC3S1': 4.04, 'temp': 26.25, 'lipoC3S3': 12.22, 'lipoC3S2': 8.09, 'rot1': 0, 'rot0': 0, 'rot3': 0, 'rot2': 0, 'state': 'normal', 'yaw': -5.85, 'datetime': '2018-10-03 16:37:06.263158', 'mgs': 0, 'volt': 1.0107, 'depth': 3.293, 'time': 12, 'pitch': -5.7, 'roll': 5.17, 'pres': 207}
{'lipoC2': 0.0, 'lipoC3S1': 4.04, 'temp': 26.25, 'lipoC3S3': 12.22, 'lipoC3S2': 8.09, 'rot1': 0, 'rot0': 0, 'rot3': 0, 'rot2': 0, 'state': 'normal', 'yaw': -5.94, 'datetime': '2018-10-03 16:37:06.273163', 'mgs': 0, 'volt': 1.0156, 'depth': 3.369, 'time': 12, 'pitch': -5.35, 'roll': 5.18, 'pres': 208}
{'lipoC2': 0.0, 'lipoC3S1': 4.04, 'temp': 26.25, 'lipoC3S3': 12.22, 'lipoC3S2': 8.09, 'rot1': 0, 'rot0': 0, 'rot3': 0, 'rot2': 0, 'state': 'normal', 'yaw': -6.01, 'datetime': '2018-10-03 16:37:06.283179', 'mgs': 0, 'volt': 1.0156, 'depth': 3.369, 'time': 13, 'pitch': -5.03, 'roll': 5.28, 'pres': 208}
{'lipoC2': 0.0, 'lipoC3S1': 4.04, 'temp': 26.25, 'lipoC3S3': 12.22, 'lipoC3S2': 8.09, 'rot1': 0, 'rot0': 0, 'rot3': 0, 'rot2': 0, 'state': 'normal', 'yaw': -6.09, 'datetime': '2018-10-03 16:37:06.293237', 'mgs': 1, 'volt': 1.0156, 'depth': 3.369, 'time': 13, 'pitch': -4.73, 'roll': 5.45, 'pres': 208}
{'lipoC2': 0.0, 'lipoC3S1': 4.04, 'temp': 26.25, 'lipoC3S3': 12.22, 'lipoC3S2': 8.09, 'rot1': 0, 'rot0': 0, 'rot3': 0, 'rot2': 0, 'state': 'normal', 'yaw': -6.15, 'datetime': '2018-10-03 16:37:12.324548', 'mgs': 1, 'volt': 1.0156, 'depth': 3.369, 'time': 13, 'pitch': -4.37, 'roll': 5.6, 'pres': 208}
{'lipoC2': 0.0, 'lipoC3S1': 4.04, 'temp': 26.19, 'lipoC3S3': 12.22, 'lipoC3S2': 8.09, 'rot1': 0, 'rot0': 0, 'rot3': 0, 'rot2': 0, 'state': 'normal', 'yaw': -6.13, 'datetime': '2018-10-03 16:37:15.366333', 'mgs': 1, 'volt': 1.0205, 'depth': 3.445, 'time': 13, 'pitch': -4.04, 'roll': 5.6, 'pres': 209}
{'lipoC2': 0.0, 'lipoC3S1': 4.04, 'temp': 26.19, 'lipoC3S3': 12.22, 'lipoC3S2': 8.09, 'rot1': 0, 'rot0': 0, 'rot3': 0, 'rot2': 0, 'state': 'normal', 'yaw': -6.1, 'datetime': '2018-10-03 16:37:15.396713', 'mgs': 1, 'volt': 1.0205, 'depth': 3.445, 'time': 13, 'pitch': -3.74, 'roll': 5.53, 'pres': 209}
{'lipoC2': 0.0, 'lipoC3S1': 4.04, 'temp': 26.25, 'lipoC3S3': 12.22, 'lipoC3S2': 8.09, 'rot1': 0, 'rot0': 0, 'rot3': 0, 'rot2': 0, 'state': 'normal', 'yaw': -5.99, 'datetime': '2018-10-03 16:37:15.432481', 'mgs': 1, 'volt': 1.0205, 'depth': 3.445, 'time': 13, 'pitch': -3.41, 'roll': 5.32, 'pres': 209}
{'lipoC2': 0.0, 'lipoC3S1': 4.04, 'temp': 26.25, 'lipoC3S3': 12.22, 'lipoC3S2': 8.09, 'rot1': 0, 'rot0': 0, 'rot3': 0, 'rot2': 0, 'state': 'normal', 'yaw': -6.14, 'datetime': '2018-10-03 16:37:15.462833', 'mgs': 1, 'volt': 1.0205, 'depth': 3.445, 'time': 13, 'pitch': -3.6, 'roll': 5.63, 'pres': 209}
{'lipoC2': 0.0, 'lipoC3S1': 4.04, 'temp': 26.25, 'lipoC3S3': 12.22, 'lipoC3S2': 8.09, 'rot1': 0, 'rot0': 0, 'rot3': 0, 'rot2': 0, 'state': 'normal', 'yaw': -6.39, 'datetime': '2018-10-03 16:37:15.495619', 'mgs': 1, 'volt': 1.0205, 'depth': 3.445, 'time': 13, 'pitch': -4.02, 'roll': 6.27, 'pres': 209}
{'lipoC2': 0.0, 'lipoC3S1': 4.04, 'temp': 26.25, 'lipoC3S3': 12.22, 'lipoC3S2': 8.09, 'rot1': 0, 'rot0': 0, 'rot3': 0, 'rot2': 0, 'state': 'normal', 'yaw': -6.62, 'datetime': '2018-10-03 16:37:15.512030', 'mgs': 1, 'volt': 1.0205, 'depth': 3.445, 'time': 13, 'pitch': -4.54, 'roll': 6.39, 'pres': 209}
{'lipoC2': 0.0, 'lipoC3S1': 4.04, 'temp': 26.25, 'lipoC3S3': 12.22, 'lipoC3S2': 8.09, 'rot1': 0, 'rot0': 0, 'rot3': 0, 'rot2': 0, 'state': 'normal', 'yaw': -6.87, 'datetime': '2018-10-03 16:37:15.531066', 'mgs': 1, 'volt': 1.0205, 'depth': 3.445, 'time': 13, 'pitch': -5.05, 'roll': 6.41, 'pres': 209}
{'lipoC2': 0.0, 'lipoC3S1': 4.04, 'temp': 26.19, 'lipoC3S3': 12.22, 'lipoC3S2': 8.09, 'rot1': 0, 'rot0': 0, 'rot3': 0, 'rot2': 0, 'state': 'normal', 'yaw': -7.07, 'datetime': '2018-10-03 16:37:15.547098', 'mgs': 1, 'volt': 1.0205, 'depth': 3.445, 'time': 14, 'pitch': -5.44, 'roll': 6.41, 'pres': 209}
{'lipoC2': 0.0, 'lipoC3S1': 4.04, 'temp': 26.19, 'lipoC3S3': 12.22, 'lipoC3S2': 8.09, 'rot1': 0, 'rot0': 0, 'rot3': 0, 'rot2': 0, 'state': 'normal', 'yaw': -7.22, 'datetime': '2018-10-03 16:37:15.565962', 'mgs': 1, 'volt': 1.0205, 'depth': 3.445, 'time': 14, 'pitch': -5.51, 'roll': 6.21, 'pres': 209}
{'lipoC2': 0.0, 'lipoC3S1': 4.04, 'temp': 26.25, 'lipoC3S3': 12.22, 'lipoC3S2': 8.09, 'rot1': 0, 'rot0': 0, 'rot3': 0, 'rot2': 0, 'state': 'normal', 'yaw': -7.37, 'datetime': '2018-10-03 16:37:15.582327', 'mgs': 1, 'volt': 1.0156, 'depth': 3.369, 'time': 14, 'pitch': -5.5, 'roll': 6.02, 'pres': 208}
{'lipoC2': 0.0, 'lipoC3S1': 4.04, 'temp': 26.25, 'lipoC3S3': 12.22, 'lipoC3S2': 8.09, 'rot1': 0, 'rot0': 0, 'rot3': 0, 'rot2': 0, 'state': 'normal', 'yaw': -7.5, 'datetime': '2018-10-03 16:37:15.601132', 'mgs': 1, 'volt': 1.0156, 'depth': 3.369, 'time': 14, 'pitch': -5.47, 'roll': 5.88, 'pres': 208}
{'lipoC2': 0.0, 'lipoC3S1': 4.04, 'temp': 26.25, 'lipoC3S3': 12.22, 'lipoC3S2': 8.09, 'rot1': 0, 'rot0': 0, 'rot3': 0, 'rot2': 0, 'state': 'normal', 'yaw': -7.63, 'datetime': '2018-10-03 16:37:15.617115', 'mgs': 1, 'volt': 1.0205, 'depth': 3.445, 'time': 14, 'pitch': -5.35, 'roll': 5.78, 'pres': 209}
{'lipoC2': 0.0, 'lipoC3S1': 4.04, 'temp': 26.19, 'lipoC3S3': 12.22, 'lipoC3S2': 8.09, 'rot1': 0, 'rot0': 0, 'rot3': 0, 'rot2': 0, 'state': 'normal', 'yaw': -7.76, 'datetime': '2018-10-03 16:37:15.635891', 'mgs': 1, 'volt': 1.0205, 'depth': 3.445, 'time': 14, 'pitch': -5.16, 'roll': 5.75, 'pres': 209}
{'lipoC2': 0.0, 'lipoC3S1': 4.04, 'temp': 26.19, 'lipoC3S3': 12.22, 'lipoC3S2': 8.09, 'rot1': 0, 'rot0': 0, 'rot3': 0, 'rot2': 0, 'state': 'normal', 'yaw': -7.88, 'datetime': '2018-10-03 16:37:15.651772', 'mgs': 1, 'volt': 1.0205, 'depth': 3.445, 'time': 14, 'pitch': -4.93, 'roll': 5.76, 'pres': 209}
{'lipoC2': 0.0, 'lipoC3S1': 4.04, 'temp': 26.19, 'lipoC3S3': 12.22, 'lipoC3S2': 8.09, 'rot1': 0, 'rot0': 0, 'rot3': 0, 'rot2': 0, 'state': 'normal', 'yaw': -7.99, 'datetime': '2018-10-03 16:37:15.670517', 'mgs': 1, 'volt': 1.0205, 'depth': 3.445, 'time': 14, 'pitch': -4.67, 'roll': 5.77, 'pres': 209}
{'lipoC2': 0.0, 'lipoC3S1': 4.04, 'temp': 26.19, 'lipoC3S3': 12.22, 'lipoC3S2': 8.09, 'rot1': 0, 'rot0': 0, 'rot3': 0, 'rot2': 0, 'state': 'normal', 'yaw': -8.17, 'datetime': '2018-10-03 16:37:15.686483', 'mgs': 1, 'volt': 1.0156, 'depth': 3.369, 'time': 14, 'pitch': -4.49, 'roll': 5.9, 'pres': 208}
{'lipoC2': 0.0, 'lipoC3S1': 4.04, 'temp': 26.25, 'lipoC3S3': 12.22, 'lipoC3S2': 8.09, 'rot1': 0, 'rot0': 0, 'rot3': 0, 'rot2': 0, 'state': 'normal', 'yaw': -8.31, 'datetime': '2018-10-03 16:37:15.705309', 'mgs': 1, 'volt': 1.0156, 'depth': 3.369, 'time': 15, 'pitch': -4.61, 'roll': 5.91, 'pres': 208}
{'lipoC2': 0.0, 'lipoC3S1': 4.04, 'temp': 26.25, 'lipoC3S3': 12.22, 'lipoC3S2': 8.09, 'rot1': 0, 'rot0': 0, 'rot3': 0, 'rot2': 0, 'state': 'normal', 'yaw': -8.46, 'datetime': '2018-10-03 16:37:15.721164', 'mgs': 1, 'volt': 1.0205, 'depth': 3.445, 'time': 15, 'pitch': -4.71, 'roll': 5.92, 'pres': 209}
{'lipoC2': 0.0, 'lipoC3S1': 4.04, 'temp': 26.25, 'lipoC3S3': 12.22, 'lipoC3S2': 8.09, 'rot1': 0, 'rot0': 0, 'rot3': 0, 'rot2': 0, 'state': 'normal', 'yaw': -8.59, 'datetime': '2018-10-03 16:37:15.740121', 'mgs': 1, 'volt': 1.0156, 'depth': 3.369, 'time': 15, 'pitch': -4.79, 'roll': 5.93, 'pres': 208}
{'lipoC2': 0.0, 'lipoC3S1': 4.04, 'temp': 26.25, 'lipoC3S3': 12.22, 'lipoC3S2': 8.09, 'rot1': 0, 'rot0': 0, 'rot3': 0, 'rot2': 0, 'state': 'normal', 'yaw': -8.7, 'datetime': '2018-10-03 16:37:15.756075', 'mgs': 1, 'volt': 1.0156, 'depth': 3.369, 'time': 15, 'pitch': -4.79, 'roll': 5.94, 'pres': 208}
{'lipoC2': 0.0, 'lipoC3S1': 4.04, 'temp': 26.25, 'lipoC3S3': 12.22, 'lipoC3S2': 8.09, 'rot1': 0, 'rot0': 0, 'rot3': 0, 'rot2': 0, 'state': 'normal', 'yaw': -8.8, 'datetime': '2018-10-03 16:37:15.774783', 'mgs': 1, 'volt': 1.0156, 'depth': 3.369, 'time': 15, 'pitch': -4.78, 'roll': 5.96, 'pres': 208}
{'lipoC2': 0.0, 'lipoC3S1': 4.04, 'temp': 26.19, 'lipoC3S3': 12.22, 'lipoC3S2': 8.09, 'rot1': 0, 'rot0': 0, 'rot3': 0, 'rot2': 0, 'state': 'normal', 'yaw': -8.92, 'datetime': '2018-10-03 16:37:15.790735', 'mgs': 1, 'volt': 1.0156, 'depth': 3.369, 'time': 15, 'pitch': -4.68, 'roll': 6.05, 'pres': 208}
{'lipoC2': 0.0, 'lipoC3S1': 4.04, 'temp': 26.19, 'lipoC3S3': 12.22, 'lipoC3S2': 8.09, 'rot1': 0, 'rot0': 0, 'rot3': 0, 'rot2': 0, 'state': 'normal', 'yaw': -9.01, 'datetime': '2018-10-03 16:37:15.809516', 'mgs': 1, 'volt': 1.0205, 'depth': 3.445, 'time': 15, 'pitch': -4.55, 'roll': 6.15, 'pres': 209}
{'lipoC2': 0.0, 'lipoC3S1': 4.04, 'temp': 26.25, 'lipoC3S3': 12.22, 'lipoC3S2': 8.09, 'rot1': 0, 'rot0': 0, 'rot3': 0, 'rot2': 0, 'state': 'normal', 'yaw': -9.09, 'datetime': '2018-10-03 16:37:15.825386', 'mgs': 1, 'volt': 1.0205, 'depth': 3.445, 'time': 15, 'pitch': -4.42, 'roll': 6.26, 'pres': 209}
{'lipoC2': 0.0, 'lipoC3S1': 4.04, 'temp': 26.25, 'lipoC3S3': 12.22, 'lipoC3S2': 8.09, 'rot1': 0, 'rot0': 0, 'rot3': 0, 'rot2': 0, 'state': 'normal', 'yaw': -9.18, 'datetime': '2018-10-03 16:37:15.844122', 'mgs': 1, 'volt': 1.0205, 'depth': 3.445, 'time': 15, 'pitch': -4.28, 'roll': 6.29, 'pres': 209}
{'lipoC2': 0.0, 'lipoC3S1': 4.04, 'temp': 26.25, 'lipoC3S3': 12.22, 'lipoC3S2': 8.09, 'rot1': 0, 'rot0': 0, 'rot3': 0, 'rot2': 0, 'state': 'normal', 'yaw': -9.26, 'datetime': '2018-10-03 16:37:15.860104', 'mgs': 1, 'volt': 1.0254, 'depth': 3.522, 'time': 15, 'pitch': -4.2, 'roll': 6.29, 'pres': 210}
{'lipoC2': 0.0, 'lipoC3S1': 4.04, 'temp': 26.25, 'lipoC3S3': 12.22, 'lipoC3S2': 8.09, 'rot1': 0, 'rot0': 0, 'rot3': 0, 'rot2': 0, 'state': 'normal', 'yaw': -9.34, 'datetime': '2018-10-03 16:37:15.878876', 'mgs': 1, 'volt': 1.0205, 'depth': 3.445, 'time': 16, 'pitch': -4.19, 'roll': 6.24, 'pres': 209}
{'lipoC2': 0.0, 'lipoC3S1': 4.04, 'temp': 26.25, 'lipoC3S3': 12.22, 'lipoC3S2': 8.09, 'rot1': 0, 'rot0': 0, 'rot3': 0, 'rot2': 0, 'state': 'normal', 'yaw': -9.42, 'datetime': '2018-10-03 16:37:15.894778', 'mgs': 1, 'volt': 1.0254, 'depth': 3.522, 'time': 16, 'pitch': -4.19, 'roll': 6.14, 'pres': 210}
{'lipoC2': 0.0, 'lipoC3S1': 4.04, 'temp': 26.19, 'lipoC3S3': 12.22, 'lipoC3S2': 8.09, 'rot1': 0, 'rot0': 0, 'rot3': 0, 'rot2': 0, 'state': 'normal', 'yaw': -9.46, 'datetime': '2018-10-03 16:37:15.913538', 'mgs': 1, 'volt': 1.0254, 'depth': 3.522, 'time': 16, 'pitch': -4.19, 'roll': 6.06, 'pres': 210}
{'lipoC2': 0.0, 'lipoC3S1': 4.04, 'temp': 26.19, 'lipoC3S3': 12.22, 'lipoC3S2': 8.09, 'rot1': 0, 'rot0': 0, 'rot3': 0, 'rot2': 0, 'state': 'normal', 'yaw': -9.48, 'datetime': '2018-10-03 16:37:15.929397', 'mgs': 1, 'volt': 1.0254, 'depth': 3.522, 'time': 16, 'pitch': -4.19, 'roll': 5.98, 'pres': 210}
{'lipoC2': 0.0, 'lipoC3S1': 4.04, 'temp': 26.25, 'lipoC3S3': 12.22, 'lipoC3S2': 8.09, 'rot1': 0, 'rot0': 0, 'rot3': 0, 'rot2': 0, 'state': 'normal', 'yaw': -9.48, 'datetime': '2018-10-03 16:37:15.948151', 'mgs': 1, 'volt': 1.0254, 'depth': 3.522, 'time': 16, 'pitch': -4.22, 'roll': 5.89, 'pres': 210}
{'lipoC2': 0.0, 'lipoC3S1': 4.04, 'temp': 26.25, 'lipoC3S3': 12.22, 'lipoC3S2': 8.09, 'rot1': 0, 'rot0': 0, 'rot3': 0, 'rot2': 0, 'state': 'normal', 'yaw': -9.49, 'datetime': '2018-10-03 16:37:15.964226', 'mgs': 1, 'volt': 1.0254, 'depth': 3.522, 'time': 16, 'pitch': -4.31, 'roll': 5.79, 'pres': 210}
{'lipoC2': 0.0, 'lipoC3S1': 4.04, 'temp': 26.25, 'lipoC3S3': 12.22, 'lipoC3S2': 8.09, 'rot1': 0, 'rot0': 0, 'rot3': 0, 'rot2': 0, 'state': 'normal', 'yaw': -9.51, 'datetime': '2018-10-03 16:37:15.983009', 'mgs': 1, 'volt': 1.0254, 'depth': 3.522, 'time': 16, 'pitch': -4.54, 'roll': 5.79, 'pres': 210}
{'lipoC2': 0.0, 'lipoC3S1': 4.04, 'temp': 26.25, 'lipoC3S3': 12.22, 'lipoC3S2': 8.09, 'rot1': 0, 'rot0': 0, 'rot3': 0, 'rot2': 0, 'state': 'normal', 'yaw': -9.53, 'datetime': '2018-10-03 16:37:15.999041', 'mgs': 1, 'volt': 1.0254, 'depth': 3.522, 'time': 16, 'pitch': -4.79, 'roll': 5.68, 'pres': 210}
{'lipoC2': 0.0, 'lipoC3S1': 4.04, 'temp': 26.25, 'lipoC3S3': 12.22, 'lipoC3S2': 8.09, 'rot1': 0, 'rot0': 0, 'rot3': 0, 'rot2': 0, 'state': 'normal', 'yaw': -9.5, 'datetime': '2018-10-03 16:37:16.017798', 'mgs': 1, 'volt': 1.0205, 'depth': 3.445, 'time': 16, 'pitch': -4.97, 'roll': 5.61, 'pres': 209}
{'lipoC2': 0.0, 'lipoC3S1': 4.04, 'temp': 26.25, 'lipoC3S3': 12.22, 'lipoC3S2': 8.09, 'rot1': 0, 'rot0': 0, 'rot3': 0, 'rot2': 0, 'state': 'normal', 'yaw': -9.51, 'datetime': '2018-10-03 16:37:16.033716', 'mgs': 1, 'volt': 1.0205, 'depth': 3.445, 'time': 16, 'pitch': -5.07, 'roll': 5.61, 'pres': 209}
{'lipoC2': 0.0, 'lipoC3S1': 4.04, 'temp': 26.25, 'lipoC3S3': 12.22, 'lipoC3S2': 8.09, 'rot1': 0, 'rot0': 0, 'rot3': 0, 'rot2': 0, 'state': 'normal', 'yaw': -9.51, 'datetime': '2018-10-03 16:37:16.052520', 'mgs': 1, 'volt': 1.0205, 'depth': 3.445, 'time': 17, 'pitch': -5.08, 'roll': 5.61, 'pres': 209}
{'lipoC2': 0.0, 'lipoC3S1': 4.04, 'temp': 26.19, 'lipoC3S3': 12.22, 'lipoC3S2': 8.09, 'rot1': 0, 'rot0': 0, 'rot3': 0, 'rot2': 0, 'state': 'normal', 'yaw': -9.51, 'datetime': '2018-10-03 16:37:16.068476', 'mgs': 1, 'volt': 1.0205, 'depth': 3.445, 'time': 17, 'pitch': -5.08, 'roll': 5.61, 'pres': 209}
{'lipoC2': 0.0, 'lipoC3S1': 4.04, 'temp': 26.19, 'lipoC3S3': 12.22, 'lipoC3S2': 8.09, 'rot1': 0, 'rot0': 0, 'rot3': 0, 'rot2': 0, 'state': 'normal', 'yaw': -9.51, 'datetime': '2018-10-03 16:37:16.087233', 'mgs': 1, 'volt': 1.0156, 'depth': 3.369, 'time': 17, 'pitch': -5.04, 'roll': 5.66, 'pres': 208}
{'lipoC2': 0.0, 'lipoC3S1': 4.04, 'temp': 26.19, 'lipoC3S3': 12.22, 'lipoC3S2': 8.09, 'rot1': 0, 'rot0': 0, 'rot3': 0, 'rot2': 0, 'state': 'normal', 'yaw': -9.5, 'datetime': '2018-10-03 16:37:16.103141', 'mgs': 1, 'volt': 1.0205, 'depth': 3.445, 'time': 17, 'pitch': -4.93, 'roll': 5.78, 'pres': 209}
{'lipoC2': 0.0, 'lipoC3S1': 4.04, 'temp': 26.19, 'lipoC3S3': 12.22, 'lipoC3S2': 8.09, 'rot1': 0, 'rot0': 0, 'rot3': 0, 'rot2': 0, 'state': 'normal', 'yaw': -9.48, 'datetime': '2018-10-03 16:37:16.121846', 'mgs': 1, 'volt': 1.0205, 'depth': 3.445, 'time': 17, 'pitch': -4.73, 'roll': 5.95, 'pres': 209}
{'lipoC2': 0.0, 'lipoC3S1': 4.04, 'temp': 26.19, 'lipoC3S3': 12.22, 'lipoC3S2': 8.09, 'rot1': 0, 'rot0': 0, 'rot3': 0, 'rot2': 0, 'state': 'normal', 'yaw': -9.46, 'datetime': '2018-10-03 16:37:16.137804', 'mgs': 1, 'volt': 1.0205, 'depth': 3.445, 'time': 17, 'pitch': -4.53, 'roll': 6.14, 'pres': 209}
{'lipoC2': 0.0, 'lipoC3S1': 4.04, 'temp': 26.25, 'lipoC3S3': 12.22, 'lipoC3S2': 8.09, 'rot1': 0, 'rot0': 0, 'rot3': 0, 'rot2': 0, 'state': 'normal', 'yaw': -9.43, 'datetime': '2018-10-03 16:37:16.156565', 'mgs': 1, 'volt': 1.0205, 'depth': 3.445, 'time': 17, 'pitch': -4.3, 'roll': 6.35, 'pres': 209}
{'lipoC2': 0.0, 'lipoC3S1': 4.04, 'temp': 26.25, 'lipoC3S3': 12.22, 'lipoC3S2': 8.09, 'rot1': 0, 'rot0': 0, 'rot3': 0, 'rot2': 0, 'state': 'normal', 'yaw': -9.41, 'datetime': '2018-10-03 16:37:16.172516', 'mgs': 1, 'volt': 1.0205, 'depth': 3.445, 'time': 17, 'pitch': -4.15, 'roll': 6.53, 'pres': 209}
{'lipoC2': 0.0, 'lipoC3S1': 4.04, 'temp': 26.25, 'lipoC3S3': 12.22, 'lipoC3S2': 8.09, 'rot1': 0, 'rot0': 0, 'rot3': 0, 'rot2': 0, 'state': 'normal', 'yaw': -9.33, 'datetime': '2018-10-03 16:37:16.191321', 'mgs': 1, 'volt': 1.0205, 'depth': 3.445, 'time': 17, 'pitch': -4.1, 'roll': 6.66, 'pres': 209}
{'lipoC2': 0.0, 'lipoC3S1': 4.04, 'temp': 26.25, 'lipoC3S3': 12.22, 'lipoC3S2': 8.09, 'rot1': 0, 'rot0': 0, 'rot3': 0, 'rot2': 0, 'state': 'normal', 'yaw': -9.26, 'datetime': '2018-10-03 16:37:16.207429', 'mgs': 1, 'volt': 1.0205, 'depth': 3.445, 'time': 18, 'pitch': -4.12, 'roll': 6.65, 'pres': 209}
{'lipoC2': 0.0, 'lipoC3S1': 4.04, 'temp': 26.25, 'lipoC3S3': 12.22, 'lipoC3S2': 8.09, 'rot1': 0, 'rot0': 0, 'rot3': 0, 'rot2': 0, 'state': 'normal', 'yaw': -9.25, 'datetime': '2018-10-03 16:37:16.226160', 'mgs': 1, 'volt': 1.0205, 'depth': 3.445, 'time': 18, 'pitch': -4.13, 'roll': 6.49, 'pres': 209}
{'lipoC2': 0.0, 'lipoC3S1': 4.04, 'temp': 26.19, 'lipoC3S3': 12.22, 'lipoC3S2': 8.09, 'rot1': 0, 'rot0': 0, 'rot3': 0, 'rot2': 0, 'state': 'normal', 'yaw': -9.25, 'datetime': '2018-10-03 16:37:16.242108', 'mgs': 1, 'volt': 1.0205, 'depth': 3.445, 'time': 18, 'pitch': -4.13, 'roll': 6.33, 'pres': 209}
{'lipoC2': 0.0, 'lipoC3S1': 4.04, 'temp': 26.19, 'lipoC3S3': 12.22, 'lipoC3S2': 8.09, 'rot1': 0, 'rot0': 0, 'rot3': 0, 'rot2': 0, 'state': 'normal', 'yaw': -9.25, 'datetime': '2018-10-03 16:37:16.260852', 'mgs': 1, 'volt': 1.0205, 'depth': 3.445, 'time': 18, 'pitch': -4.12, 'roll': 6.17, 'pres': 209}
{'lipoC2': 0.0, 'lipoC3S1': 4.04, 'temp': 26.25, 'lipoC3S3': 12.22, 'lipoC3S2': 8.09, 'rot1': 0, 'rot0': 0, 'rot3': 0, 'rot2': 0, 'state': 'normal', 'yaw': -9.25, 'datetime': '2018-10-03 16:37:16.276813', 'mgs': 1, 'volt': 1.0205, 'depth': 3.445, 'time': 18, 'pitch': -4.08, 'roll': 6.04, 'pres': 209}
{'lipoC2': 0.0, 'lipoC3S1': 4.04, 'temp': 26.25, 'lipoC3S3': 12.22, 'lipoC3S2': 8.09, 'rot1': 0, 'rot0': 0, 'rot3': 0, 'rot2': 0, 'state': 'normal', 'yaw': -9.27, 'datetime': '2018-10-03 16:37:16.295597', 'mgs': 1, 'volt': 1.0205, 'depth': 3.445, 'time': 18, 'pitch': -3.99, 'roll': 5.94, 'pres': 209}
{'lipoC2': 0.0, 'lipoC3S1': 4.04, 'temp': 26.25, 'lipoC3S3': 12.22, 'lipoC3S2': 8.09, 'rot1': 0, 'rot0': 0, 'rot3': 0, 'rot2': 0, 'state': 'normal', 'yaw': -9.32, 'datetime': '2018-10-03 16:37:16.311537', 'mgs': 1, 'volt': 1.0205, 'depth': 3.445, 'time': 18, 'pitch': -3.94, 'roll': 5.89, 'pres': 209}
{'lipoC2': 0.0, 'lipoC3S1': 4.04, 'temp': 26.25, 'lipoC3S3': 12.22, 'lipoC3S2': 8.09, 'rot1': 0, 'rot0': 0, 'rot3': 0, 'rot2': 0, 'state': 'normal', 'yaw': -9.39, 'datetime': '2018-10-03 16:37:16.330278', 'mgs': 1, 'volt': 1.0205, 'depth': 3.445, 'time': 18, 'pitch': -3.93, 'roll': 5.9, 'pres': 209}
{'lipoC2': 0.0, 'lipoC3S1': 4.04, 'temp': 26.25, 'lipoC3S3': 12.22, 'lipoC3S2': 8.09, 'rot1': 0, 'rot0': 0, 'rot3': 0, 'rot2': 0, 'state': 'normal', 'yaw': -9.47, 'datetime': '2018-10-03 16:37:16.346200', 'mgs': 1, 'volt': 1.0156, 'depth': 3.369, 'time': 18, 'pitch': -3.95, 'roll': 5.87, 'pres': 208}
{'lipoC2': 0.0, 'lipoC3S1': 4.04, 'temp': 26.25, 'lipoC3S3': 12.22, 'lipoC3S2': 8.09, 'rot1': 0, 'rot0': 0, 'rot3': 0, 'rot2': 0, 'state': 'normal', 'yaw': -9.52, 'datetime': '2018-10-03 16:37:16.364950', 'mgs': 1, 'volt': 1.0156, 'depth': 3.369, 'time': 18, 'pitch': -4.02, 'roll': 5.78, 'pres': 208}
{'lipoC2': 0.0, 'lipoC3S1': 4.04, 'temp': 26.25, 'lipoC3S3': 12.22, 'lipoC3S2': 8.09, 'rot1': 0, 'rot0': 0, 'rot3': 0, 'rot2': 0, 'state': 'normal', 'yaw': -9.52, 'datetime': '2018-10-03 16:37:16.380867', 'mgs': 1, 'volt': 1.0205, 'depth': 3.445, 'time': 19, 'pitch': -4.03, 'roll': 5.86, 'pres': 209}
{'lipoC2': 0.0, 'lipoC3S1': 4.04, 'temp': 26.25, 'lipoC3S3': 12.22, 'lipoC3S2': 8.09, 'rot1': 0, 'rot0': 0, 'rot3': 0, 'rot2': 0, 'state': 'normal', 'yaw': -9.53, 'datetime': '2018-10-03 16:37:16.399622', 'mgs': 1, 'volt': 1.0205, 'depth': 3.445, 'time': 19, 'pitch': -4.03, 'roll': 5.86, 'pres': 209}
{'lipoC2': 0.0, 'lipoC3S1': 4.04, 'temp': 26.25, 'lipoC3S3': 12.22, 'lipoC3S2': 8.09, 'rot1': 0, 'rot0': 0, 'rot3': 0, 'rot2': 0, 'state': 'normal', 'yaw': -9.54, 'datetime': '2018-10-03 16:37:16.415572', 'mgs': 1, 'volt': 1.0205, 'depth': 3.445, 'time': 19, 'pitch': -4.03, 'roll': 5.86, 'pres': 209}
{'lipoC2': 0.0, 'lipoC3S1': 4.04, 'temp': 26.25, 'lipoC3S3': 12.22, 'lipoC3S2': 8.09, 'rot1': 0, 'rot0': 0, 'rot3': 0, 'rot2': 0, 'state': 'normal', 'yaw': -9.54, 'datetime': '2018-10-03 16:37:16.434485', 'mgs': 1, 'volt': 1.0205, 'depth': 3.445, 'time': 19, 'pitch': -4.03, 'roll': 5.86, 'pres': 209}
{'lipoC2': 0.0, 'lipoC3S1': 4.04, 'temp': 26.25, 'lipoC3S3': 12.22, 'lipoC3S2': 8.09, 'rot1': 0, 'rot0': 0, 'rot3': 0, 'rot2': 0, 'state': 'normal', 'yaw': -9.54, 'datetime': '2018-10-03 16:37:16.450420', 'mgs': 1, 'volt': 1.0205, 'depth': 3.445, 'time': 19, 'pitch': -4.02, 'roll': 5.86, 'pres': 209}
{'lipoC2': 0.0, 'lipoC3S1': 4.04, 'temp': 26.25, 'lipoC3S3': 12.22, 'lipoC3S2': 8.09, 'rot1': 0, 'rot0': 0, 'rot3': 0, 'rot2': 0, 'state': 'normal', 'yaw': -9.54, 'datetime': '2018-10-03 16:37:16.469251', 'mgs': 1, 'volt': 1.0205, 'depth': 3.445, 'time': 19, 'pitch': -4.03, 'roll': 5.88, 'pres': 209}
{'lipoC2': 0.0, 'lipoC3S1': 4.04, 'temp': 26.25, 'lipoC3S3': 12.22, 'lipoC3S2': 8.09, 'rot1': 0, 'rot0': 0, 'rot3': 0, 'rot2': 0, 'state': 'normal', 'yaw': -9.54, 'datetime': '2018-10-03 16:37:16.485213', 'mgs': 1, 'volt': 1.0205, 'depth': 3.445, 'time': 19, 'pitch': -4.03, 'roll': 5.88, 'pres': 209}
{'lipoC2': 0.0, 'lipoC3S1': 4.04, 'temp': 26.25, 'lipoC3S3': 12.22, 'lipoC3S2': 8.09, 'rot1': 0, 'rot0': 0, 'rot3': 0, 'rot2': 0, 'state': 'normal', 'yaw': -9.5, 'datetime': '2018-10-03 16:37:16.503963', 'mgs': 1, 'volt': 1.0205, 'depth': 3.445, 'time': 19, 'pitch': -4.03, 'roll': 5.88, 'pres': 209}
{'lipoC2': 0.0, 'lipoC3S1': 4.04, 'temp': 26.25, 'lipoC3S3': 12.22, 'lipoC3S2': 8.09, 'rot1': 0, 'rot0': 0, 'rot3': 0, 'rot2': 0, 'state': 'normal', 'yaw': -9.46, 'datetime': '2018-10-03 16:37:16.519854', 'mgs': 1, 'volt': 1.0254, 'depth': 3.522, 'time': 19, 'pitch': -4.09, 'roll': 5.86, 'pres': 210}
{'lipoC2': 0.0, 'lipoC3S1': 4.04, 'temp': 26.25, 'lipoC3S3': 12.22, 'lipoC3S2': 8.09, 'rot1': 0, 'rot0': 0, 'rot3': 0, 'rot2': 0, 'state': 'normal', 'yaw': -9.39, 'datetime': '2018-10-03 16:37:16.538628', 'mgs': 1, 'volt': 1.0254, 'depth': 3.522, 'time': 19, 'pitch': -4.09, 'roll': 5.71, 'pres': 210}
{'lipoC2': 0.0, 'lipoC3S1': 4.04, 'temp': 26.19, 'lipoC3S3': 12.22, 'lipoC3S2': 8.09, 'rot1': 0, 'rot0': 0, 'rot3': 0, 'rot2': 0, 'state': 'normal', 'yaw': -9.36, 'datetime': '2018-10-03 16:37:16.554534', 'mgs': 1, 'volt': 1.0254, 'depth': 3.522, 'time': 20, 'pitch': -4.18, 'roll': 5.57, 'pres': 210}
{'lipoC2': 0.0, 'lipoC3S1': 4.04, 'temp': 26.19, 'lipoC3S3': 12.22, 'lipoC3S2': 8.09, 'rot1': 0, 'rot0': 0, 'rot3': 0, 'rot2': 0, 'state': 'normal', 'yaw': -9.35, 'datetime': '2018-10-03 16:37:16.573249', 'mgs': 1, 'volt': 1.0254, 'depth': 3.522, 'time': 20, 'pitch': -4.28, 'roll': 5.58, 'pres': 210}
{'lipoC2': 0.0, 'lipoC3S1': 4.04, 'temp': 26.19, 'lipoC3S3': 12.22, 'lipoC3S2': 8.09, 'rot1': 0, 'rot0': 0, 'rot3': 0, 'rot2': 0, 'state': 'normal', 'yaw': -9.37, 'datetime': '2018-10-03 16:37:16.589197', 'mgs': 1, 'volt': 1.0254, 'depth': 3.522, 'time': 20, 'pitch': -4.45, 'roll': 5.58, 'pres': 210}
{'lipoC2': 0.0, 'lipoC3S1': 4.04, 'temp': 26.25, 'lipoC3S3': 12.22, 'lipoC3S2': 8.09, 'rot1': 0, 'rot0': 0, 'rot3': 0, 'rot2': 0, 'state': 'normal', 'yaw': -9.39, 'datetime': '2018-10-03 16:37:16.607943', 'mgs': 1, 'volt': 1.0205, 'depth': 3.445, 'time': 20, 'pitch': -4.62, 'roll': 5.55, 'pres': 209}
{'lipoC2': 0.0, 'lipoC3S1': 4.04, 'temp': 26.25, 'lipoC3S3': 12.22, 'lipoC3S2': 8.09, 'rot1': 0, 'rot0': 0, 'rot3': 0, 'rot2': 0, 'state': 'normal', 'yaw': -9.4, 'datetime': '2018-10-03 16:37:16.623842', 'mgs': 1, 'volt': 1.0205, 'depth': 3.445, 'time': 20, 'pitch': -4.72, 'roll': 5.48, 'pres': 209}
{'lipoC2': 0.0, 'lipoC3S1': 4.04, 'temp': 26.25, 'lipoC3S3': 12.22, 'lipoC3S2': 8.09, 'rot1': 0, 'rot0': 0, 'rot3': 0, 'rot2': 0, 'state': 'normal', 'yaw': -9.45, 'datetime': '2018-10-03 16:37:16.642545', 'mgs': 1, 'volt': 1.0254, 'depth': 3.522, 'time': 20, 'pitch': -4.72, 'roll': 5.48, 'pres': 210}
{'lipoC2': 0.0, 'lipoC3S1': 4.04, 'temp': 26.25, 'lipoC3S3': 12.22, 'lipoC3S2': 8.09, 'rot1': 0, 'rot0': 0, 'rot3': 0, 'rot2': 0, 'state': 'normal', 'yaw': -9.58, 'datetime': '2018-10-03 16:37:16.658432', 'mgs': 1, 'volt': 1.0205, 'depth': 3.445, 'time': 20, 'pitch': -4.62, 'roll': 5.49, 'pres': 209}
{'lipoC2': 0.0, 'lipoC3S1': 4.04, 'temp': 26.25, 'lipoC3S3': 12.22, 'lipoC3S2': 8.09, 'rot1': 0, 'rot0': 0, 'rot3': 0, 'rot2': 0, 'state': 'normal', 'yaw': -9.76, 'datetime': '2018-10-03 16:37:16.677347', 'mgs': 1, 'volt': 1.0254, 'depth': 3.522, 'time': 20, 'pitch': -4.53, 'roll': 5.5, 'pres': 210}
{'lipoC2': 0.0, 'lipoC3S1': 4.04, 'temp': 26.25, 'lipoC3S3': 12.22, 'lipoC3S2': 8.09, 'rot1': 0, 'rot0': 0, 'rot3': 0, 'rot2': 0, 'state': 'normal', 'yaw': -9.91, 'datetime': '2018-10-03 16:37:16.693303', 'mgs': 1, 'volt': 1.0254, 'depth': 3.522, 'time': 20, 'pitch': -4.52, 'roll': 5.52, 'pres': 210}
{'lipoC2': 0.0, 'lipoC3S1': 4.04, 'temp': 26.25, 'lipoC3S3': 12.22, 'lipoC3S2': 8.09, 'rot1': 0, 'rot0': 0, 'rot3': 0, 'rot2': 0, 'state': 'normal', 'yaw': -9.96, 'datetime': '2018-10-03 16:37:16.712073', 'mgs': 1, 'volt': 1.0205, 'depth': 3.445, 'time': 21, 'pitch': -4.49, 'roll': 5.52, 'pres': 209}
{'lipoC2': 0.0, 'lipoC3S1': 4.04, 'temp': 26.25, 'lipoC3S3': 12.22, 'lipoC3S2': 8.09, 'rot1': 0, 'rot0': 0, 'rot3': 0, 'rot2': 0, 'state': 'normal', 'yaw': -9.96, 'datetime': '2018-10-03 16:37:16.727959', 'mgs': 1, 'volt': 1.0205, 'depth': 3.445, 'time': 21, 'pitch': -4.44, 'roll': 5.52, 'pres': 209}
{'lipoC2': 0.0, 'lipoC3S1': 4.04, 'temp': 26.25, 'lipoC3S3': 12.22, 'lipoC3S2': 8.09, 'rot1': 0, 'rot0': 0, 'rot3': 0, 'rot2': 0, 'state': 'normal', 'yaw': -9.95, 'datetime': '2018-10-03 16:37:16.746628', 'mgs': 1, 'volt': 1.0205, 'depth': 3.445, 'time': 21, 'pitch': -4.39, 'roll': 5.52, 'pres': 209}
{'lipoC2': 0.0, 'lipoC3S1': 4.04, 'temp': 26.25, 'lipoC3S3': 12.22, 'lipoC3S2': 8.09, 'rot1': 0, 'rot0': 0, 'rot3': 0, 'rot2': 0, 'state': 'normal', 'yaw': -9.94, 'datetime': '2018-10-03 16:37:16.762525', 'mgs': 1, 'volt': 1.0205, 'depth': 3.445, 'time': 21, 'pitch': -4.25, 'roll': 5.52, 'pres': 209}
{'lipoC2': 0.0, 'lipoC3S1': 4.04, 'temp': 26.25, 'lipoC3S3': 12.22, 'lipoC3S2': 8.09, 'rot1': 0, 'rot0': 0, 'rot3': 0, 'rot2': 0, 'state': 'normal', 'yaw': -9.92, 'datetime': '2018-10-03 16:37:16.781320', 'mgs': 1, 'volt': 1.0205, 'depth': 3.445, 'time': 21, 'pitch': -3.94, 'roll': 5.52, 'pres': 209}
{'lipoC2': 0.0, 'lipoC3S1': 4.04, 'temp': 26.25, 'lipoC3S3': 12.22, 'lipoC3S2': 8.09, 'rot1': 0, 'rot0': 0, 'rot3': 0, 'rot2': 0, 'state': 'normal', 'yaw': -9.88, 'datetime': '2018-10-03 16:37:16.797307', 'mgs': 1, 'volt': 1.0156, 'depth': 3.369, 'time': 21, 'pitch': -3.57, 'roll': 5.51, 'pres': 208}
