{'lipoC2': 7.76, 'lipoC3S1': 3.87, 'temp': 28.31, 'lipoC3S3': 11.71, 'lipoC3S2': 7.74, 'rot1': 307, 'rot0': 347, 'rot3': 264, 'rot2': 221, 'state': 'normal', 'yaw': 17.78, 'datetime': '2018-10-05 20:07:03.048579', 'mgs': 0, 'volt': 0.8301, 'depth': 0.47, 'time': 80, 'pitch': -26.63, 'roll': 0.51, 'pres': 170}
{'lipoC2': 7.76, 'lipoC3S1': 3.87, 'temp': 28.38, 'lipoC3S3': 11.71, 'lipoC3S2': 7.74, 'rot1': 307, 'rot0': 347, 'rot3': 264, 'rot2': 221, 'state': 'normal', 'yaw': 17.07, 'datetime': '2018-10-05 20:07:03.071229', 'mgs': 0, 'volt': 0.8301, 'depth': 0.47, 'time': 80, 'pitch': -26.37, 'roll': 0.63, 'pres': 170}
{'lipoC2': 7.76, 'lipoC3S1': 3.87, 'temp': 28.38, 'lipoC3S3': 11.71, 'lipoC3S2': 7.74, 'rot1': 307, 'rot0': 347, 'rot3': 264, 'rot2': 221, 'state': 'normal', 'yaw': 16.69, 'datetime': '2018-10-05 20:07:03.094108', 'mgs': 0, 'volt': 0.8301, 'depth': 0.47, 'time': 80, 'pitch': -25.87, 'roll': 0.67, 'pres': 170}
{'lipoC2': 7.76, 'lipoC3S1': 3.87, 'temp': 28.44, 'lipoC3S3': 11.71, 'lipoC3S2': 7.74, 'rot1': 307, 'rot0': 347, 'rot3': 264, 'rot2': 221, 'state': 'normal', 'yaw': 16.41, 'datetime': '2018-10-05 20:07:03.117120', 'mgs': 0, 'volt': 0.8301, 'depth': 0.47, 'time': 80, 'pitch': -25.4, 'roll': 0.73, 'pres': 170}
{'lipoC2': 7.76, 'lipoC3S1': 3.87, 'temp': 28.44, 'lipoC3S3': 11.71, 'lipoC3S2': 7.74, 'rot1': 307, 'rot0': 347, 'rot3': 264, 'rot2': 221, 'state': 'normal', 'yaw': 15.9, 'datetime': '2018-10-05 20:07:03.129409', 'mgs': 0, 'volt': 0.8301, 'depth': 0.47, 'time': 80, 'pitch': -25.26, 'roll': 1.09, 'pres': 170}
{'lipoC2': 7.76, 'lipoC3S1': 3.87, 'temp': 28.44, 'lipoC3S3': 11.71, 'lipoC3S2': 7.74, 'rot1': 307, 'rot0': 347, 'rot3': 264, 'rot2': 221, 'state': 'normal', 'yaw': 15.0, 'datetime': '2018-10-05 20:07:03.139400', 'mgs': 0, 'volt': 0.8301, 'depth': 0.47, 'time': 80, 'pitch': -25.23, 'roll': 1.85, 'pres': 170}
{'lipoC2': 7.76, 'lipoC3S1': 3.87, 'temp': 28.38, 'lipoC3S3': 11.71, 'lipoC3S2': 7.74, 'rot1': 307, 'rot0': 347, 'rot3': 264, 'rot2': 221, 'state': 'normal', 'yaw': 14.05, 'datetime': '2018-10-05 20:07:03.149445', 'mgs': 0, 'volt': 0.8301, 'depth': 0.47, 'time': 80, 'pitch': -25.04, 'roll': 2.67, 'pres': 170}
{'lipoC2': 7.76, 'lipoC3S1': 3.87, 'temp': 28.38, 'lipoC3S3': 11.71, 'lipoC3S2': 7.74, 'rot1': 307, 'rot0': 347, 'rot3': 264, 'rot2': 221, 'state': 'normal', 'yaw': 13.28, 'datetime': '2018-10-05 20:07:03.159356', 'mgs': 0, 'volt': 0.8301, 'depth': 0.47, 'time': 80, 'pitch': -24.57, 'roll': 3.34, 'pres': 170}
{'lipoC2': 7.76, 'lipoC3S1': 3.87, 'temp': 28.38, 'lipoC3S3': 11.71, 'lipoC3S2': 7.73, 'rot1': 307, 'rot0': 347, 'rot3': 264, 'rot2': 221, 'state': 'normal', 'yaw': 12.69, 'datetime': '2018-10-05 20:07:03.169295', 'mgs': 0, 'volt': 0.8301, 'depth': 0.47, 'time': 80, 'pitch': -24.01, 'roll': 3.84, 'pres': 170}
{'lipoC2': 7.76, 'lipoC3S1': 3.87, 'temp': 28.38, 'lipoC3S3': 11.71, 'lipoC3S2': 7.73, 'rot1': 307, 'rot0': 347, 'rot3': 264, 'rot2': 221, 'state': 'normal', 'yaw': 12.09, 'datetime': '2018-10-05 20:07:03.179232', 'mgs': 0, 'volt': 0.8252, 'depth': 0.394, 'time': 80, 'pitch': -23.69, 'roll': 4.26, 'pres': 169}
{'lipoC2': 7.76, 'lipoC3S1': 3.87, 'temp': 28.38, 'lipoC3S3': 11.69, 'lipoC3S2': 7.73, 'rot1': 307, 'rot0': 347, 'rot3': 264, 'rot2': 221, 'state': 'normal', 'yaw': 10.95, 'datetime': '2018-10-05 20:07:03.189186', 'mgs': 0, 'volt': 0.8252, 'depth': 0.394, 'time': 81, 'pitch': -23.49, 'roll': 5.01, 'pres': 169}
{'lipoC2': 7.76, 'lipoC3S1': 3.87, 'temp': 28.38, 'lipoC3S3': 11.71, 'lipoC3S2': 7.73, 'rot1': 307, 'rot0': 347, 'rot3': 264, 'rot2': 221, 'state': 'normal', 'yaw': 9.77, 'datetime': '2018-10-05 20:07:03.199113', 'mgs': 0, 'volt': 0.8252, 'depth': 0.394, 'time': 81, 'pitch': -23.37, 'roll': 5.76, 'pres': 169}
{'lipoC2': 7.76, 'lipoC3S1': 3.87, 'temp': 28.38, 'lipoC3S3': 11.71, 'lipoC3S2': 7.73, 'rot1': 307, 'rot0': 347, 'rot3': 264, 'rot2': 221, 'state': 'normal', 'yaw': 8.91, 'datetime': '2018-10-05 20:07:03.209057', 'mgs': 0, 'volt': 0.8252, 'depth': 0.394, 'time': 81, 'pitch': -23.15, 'roll': 6.13, 'pres': 169}
{'lipoC2': 7.75, 'lipoC3S1': 3.87, 'temp': 28.38, 'lipoC3S3': 11.71, 'lipoC3S2': 7.73, 'rot1': 307, 'rot0': 347, 'rot3': 264, 'rot2': 221, 'state': 'normal', 'yaw': 8.29, 'datetime': '2018-10-05 20:07:03.218982', 'mgs': 0, 'volt': 0.8252, 'depth': 0.394, 'time': 81, 'pitch': -22.82, 'roll': 6.14, 'pres': 169}
{'lipoC2': 7.75, 'lipoC3S1': 3.87, 'temp': 28.38, 'lipoC3S3': 11.71, 'lipoC3S2': 7.73, 'rot1': 307, 'rot0': 347, 'rot3': 264, 'rot2': 221, 'state': 'normal', 'yaw': 7.61, 'datetime': '2018-10-05 20:07:03.230482', 'mgs': 0, 'volt': 0.8203, 'depth': 0.317, 'time': 81, 'pitch': -22.58, 'roll': 6.2, 'pres': 168}
{'lipoC2': 7.75, 'lipoC3S1': 3.87, 'temp': 28.38, 'lipoC3S3': 11.71, 'lipoC3S2': 7.73, 'rot1': 307, 'rot0': 347, 'rot3': 264, 'rot2': 221, 'state': 'normal', 'yaw': 6.55, 'datetime': '2018-10-05 20:07:03.245466', 'mgs': 0, 'volt': 0.8203, 'depth': 0.317, 'time': 81, 'pitch': -22.36, 'roll': 6.55, 'pres': 168}
{'lipoC2': 7.75, 'lipoC3S1': 3.87, 'temp': 28.38, 'lipoC3S3': 11.71, 'lipoC3S2': 7.73, 'rot1': 307, 'rot0': 347, 'rot3': 264, 'rot2': 221, 'state': 'normal', 'yaw': 5.7, 'datetime': '2018-10-05 20:07:03.350992', 'mgs': 0, 'volt': 0.8203, 'depth': 0.317, 'time': 81, 'pitch': -22.32, 'roll': 6.88, 'pres': 168}
{'lipoC2': 7.76, 'lipoC3S1': 3.87, 'temp': 28.25, 'lipoC3S3': 11.69, 'lipoC3S2': 7.73, 'rot1': 307, 'rot0': 347, 'rot3': 264, 'rot2': 221, 'state': 'normal', 'yaw': 5.33, 'datetime': '2018-10-05 20:07:03.455188', 'mgs': 0, 'volt': 0.8203, 'depth': 0.317, 'time': 81, 'pitch': -22.51, 'roll': 6.88, 'pres': 168}
{'lipoC2': 7.76, 'lipoC3S1': 3.87, 'temp': 28.25, 'lipoC3S3': 11.71, 'lipoC3S2': 7.73, 'rot1': 307, 'rot0': 347, 'rot3': 264, 'rot2': 221, 'state': 'normal', 'yaw': 5.31, 'datetime': '2018-10-05 20:07:03.559392', 'mgs': 0, 'volt': 0.8203, 'depth': 0.317, 'time': 81, 'pitch': -22.55, 'roll': 6.81, 'pres': 168}
{'lipoC2': 7.76, 'lipoC3S1': 3.87, 'temp': 28.25, 'lipoC3S3': 11.71, 'lipoC3S2': 7.73, 'rot1': 307, 'rot0': 347, 'rot3': 264, 'rot2': 221, 'state': 'normal', 'yaw': 5.26, 'datetime': '2018-10-05 20:07:03.663606', 'mgs': 0, 'volt': 0.8154, 'depth': 0.241, 'time': 82, 'pitch': -22.55, 'roll': 6.95, 'pres': 167}
{'lipoC2': 7.76, 'lipoC3S1': 3.87, 'temp': 28.31, 'lipoC3S3': 11.71, 'lipoC3S2': 7.73, 'rot1': 307, 'rot0': 347, 'rot3': 264, 'rot2': 221, 'state': 'normal', 'yaw': 5.14, 'datetime': '2018-10-05 20:07:03.767820', 'mgs': 0, 'volt': 0.8154, 'depth': 0.241, 'time': 82, 'pitch': -22.52, 'roll': 7.25, 'pres': 167}
{'lipoC2': 7.76, 'lipoC3S1': 3.87, 'temp': 28.31, 'lipoC3S3': 11.71, 'lipoC3S2': 7.73, 'rot1': 307, 'rot0': 347, 'rot3': 264, 'rot2': 221, 'state': 'normal', 'yaw': 5.27, 'datetime': '2018-10-05 20:07:03.879114', 'mgs': 0, 'volt': 0.8154, 'depth': 0.241, 'time': 82, 'pitch': -22.34, 'roll': 7.46, 'pres': 167}
{'lipoC2': 7.76, 'lipoC3S1': 3.87, 'temp': 28.38, 'lipoC3S3': 11.71, 'lipoC3S2': 7.73, 'rot1': 307, 'rot0': 347, 'rot3': 264, 'rot2': 221, 'state': 'normal', 'yaw': 5.69, 'datetime': '2018-10-05 20:07:03.983454', 'mgs': 0, 'volt': 0.8154, 'depth': 0.241, 'time': 82, 'pitch': -22.12, 'roll': 7.49, 'pres': 167}
{'lipoC2': 7.76, 'lipoC3S1': 3.87, 'temp': 28.38, 'lipoC3S3': 11.71, 'lipoC3S2': 7.73, 'rot1': 307, 'rot0': 347, 'rot3': 264, 'rot2': 221, 'state': 'normal', 'yaw': 6.01, 'datetime': '2018-10-05 20:07:04.088748', 'mgs': 0, 'volt': 0.8154, 'depth': 0.241, 'time': 82, 'pitch': -22.03, 'roll': 7.54, 'pres': 167}
{'lipoC2': 7.76, 'lipoC3S1': 3.87, 'temp': 28.38, 'lipoC3S3': 11.71, 'lipoC3S2': 7.73, 'rot1': 307, 'rot0': 347, 'rot3': 264, 'rot2': 221, 'state': 'normal', 'yaw': 6.24, 'datetime': '2018-10-05 20:07:04.193076', 'mgs': 0, 'volt': 0.8154, 'depth': 0.241, 'time': 82, 'pitch': -21.93, 'roll': 7.65, 'pres': 167}
{'lipoC2': 7.76, 'lipoC3S1': 3.87, 'temp': 28.38, 'lipoC3S3': 11.71, 'lipoC3S2': 7.73, 'rot1': 307, 'rot0': 347, 'rot3': 264, 'rot2': 221, 'state': 'normal', 'yaw': 6.46, 'datetime': '2018-10-05 20:07:04.298519', 'mgs': 0, 'volt': 0.8154, 'depth': 0.241, 'time': 82, 'pitch': -21.81, 'roll': 7.74, 'pres': 167}
{'lipoC2': 7.76, 'lipoC3S1': 3.87, 'temp': 28.38, 'lipoC3S3': 11.71, 'lipoC3S2': 7.73, 'rot1': 307, 'rot0': 347, 'rot3': 264, 'rot2': 221, 'state': 'normal', 'yaw': 6.8, 'datetime': '2018-10-05 20:07:04.402719', 'mgs': 0, 'volt': 0.8154, 'depth': 0.241, 'time': 82, 'pitch': -21.75, 'roll': 7.72, 'pres': 167}
{'lipoC2': 7.76, 'lipoC3S1': 3.87, 'temp': 28.38, 'lipoC3S3': 11.71, 'lipoC3S2': 7.73, 'rot1': 307, 'rot0': 347, 'rot3': 264, 'rot2': 221, 'state': 'normal', 'yaw': 7.15, 'datetime': '2018-10-05 20:07:04.507841', 'mgs': 0, 'volt': 0.8154, 'depth': 0.241, 'time': 82, 'pitch': -21.79, 'roll': 7.56, 'pres': 167}
{'lipoC2': 7.75, 'lipoC3S1': 3.87, 'temp': 28.38, 'lipoC3S3': 11.71, 'lipoC3S2': 7.73, 'rot1': 307, 'rot0': 347, 'rot3': 264, 'rot2': 221, 'state': 'normal', 'yaw': 7.46, 'datetime': '2018-10-05 20:07:04.612842', 'mgs': 0, 'volt': 0.8154, 'depth': 0.241, 'time': 82, 'pitch': -21.81, 'roll': 7.31, 'pres': 167}
{'lipoC2': 7.76, 'lipoC3S1': 3.87, 'temp': 28.38, 'lipoC3S3': 11.71, 'lipoC3S2': 7.74, 'rot1': 307, 'rot0': 347, 'rot3': 264, 'rot2': 221, 'state': 'normal', 'yaw': 7.74, 'datetime': '2018-10-05 20:07:04.716944', 'mgs': 0, 'volt': 0.8154, 'depth': 0.241, 'time': 83, 'pitch': -21.67, 'roll': 7.02, 'pres': 167}
{'lipoC2': 7.76, 'lipoC3S1': 3.87, 'temp': 28.38, 'lipoC3S3': 11.71, 'lipoC3S2': 7.73, 'rot1': 307, 'rot0': 347, 'rot3': 264, 'rot2': 221, 'state': 'normal', 'yaw': 7.81, 'datetime': '2018-10-05 20:07:04.821250', 'mgs': 0, 'volt': 0.8154, 'depth': 0.241, 'time': 83, 'pitch': -21.46, 'roll': 6.84, 'pres': 167}
{'lipoC2': 7.75, 'lipoC3S1': 3.87, 'temp': 28.38, 'lipoC3S3': 11.71, 'lipoC3S2': 7.73, 'rot1': 307, 'rot0': 347, 'rot3': 264, 'rot2': 221, 'state': 'normal', 'yaw': 7.77, 'datetime': '2018-10-05 20:07:04.925361', 'mgs': 0, 'volt': 0.8154, 'depth': 0.241, 'time': 83, 'pitch': -21.09, 'roll': 6.69, 'pres': 167}
{'lipoC2': 7.76, 'lipoC3S1': 3.87, 'temp': 28.38, 'lipoC3S3': 11.71, 'lipoC3S2': 7.73, 'rot1': 307, 'rot0': 347, 'rot3': 264, 'rot2': 221, 'state': 'normal', 'yaw': 7.77, 'datetime': '2018-10-05 20:07:05.029668', 'mgs': 0, 'volt': 0.8154, 'depth': 0.241, 'time': 83, 'pitch': -20.76, 'roll': 6.5, 'pres': 167}
{'lipoC2': 7.76, 'lipoC3S1': 3.87, 'temp': 28.38, 'lipoC3S3': 11.71, 'lipoC3S2': 7.74, 'rot1': 307, 'rot0': 347, 'rot3': 264, 'rot2': 221, 'state': 'normal', 'yaw': 8.04, 'datetime': '2018-10-05 20:07:05.134060', 'mgs': 0, 'volt': 0.8105, 'depth': 0.165, 'time': 83, 'pitch': -20.7, 'roll': 6.14, 'pres': 166}
{'lipoC2': 7.76, 'lipoC3S1': 3.87, 'temp': 28.38, 'lipoC3S3': 11.69, 'lipoC3S2': 7.74, 'rot1': 307, 'rot0': 347, 'rot3': 264, 'rot2': 221, 'state': 'normal', 'yaw': 8.63, 'datetime': '2018-10-05 20:07:05.236761', 'mgs': 0, 'volt': 0.8154, 'depth': 0.241, 'time': 83, 'pitch': -21.05, 'roll': 5.6, 'pres': 167}
{'lipoC2': 7.76, 'lipoC3S1': 3.87, 'temp': 28.38, 'lipoC3S3': 11.71, 'lipoC3S2': 7.74, 'rot1': 307, 'rot0': 347, 'rot3': 264, 'rot2': 221, 'state': 'normal', 'yaw': 9.23, 'datetime': '2018-10-05 20:07:05.337502', 'mgs': 0, 'volt': 0.8154, 'depth': 0.241, 'time': 83, 'pitch': -21.39, 'roll': 5.19, 'pres': 167}
{'lipoC2': 7.76, 'lipoC3S1': 3.87, 'temp': 28.38, 'lipoC3S3': 11.69, 'lipoC3S2': 7.74, 'rot1': 307, 'rot0': 347, 'rot3': 264, 'rot2': 221, 'state': 'normal', 'yaw': 9.78, 'datetime': '2018-10-05 20:07:05.442041', 'mgs': 0, 'volt': 0.8105, 'depth': 0.165, 'time': 83, 'pitch': -21.52, 'roll': 4.96, 'pres': 166}
{'lipoC2': 7.76, 'lipoC3S1': 3.87, 'temp': 28.38, 'lipoC3S3': 11.69, 'lipoC3S2': 7.73, 'rot1': 307, 'rot0': 347, 'rot3': 264, 'rot2': 221, 'state': 'normal', 'yaw': 10.16, 'datetime': '2018-10-05 20:07:05.547227', 'mgs': 0, 'volt': 0.8105, 'depth': 0.165, 'time': 83, 'pitch': -21.52, 'roll': 4.86, 'pres': 166}
{'lipoC2': 7.76, 'lipoC3S1': 3.87, 'temp': 28.38, 'lipoC3S3': 11.71, 'lipoC3S2': 7.73, 'rot1': 307, 'rot0': 347, 'rot3': 264, 'rot2': 221, 'state': 'normal', 'yaw': 10.55, 'datetime': '2018-10-05 20:07:05.651407', 'mgs': 0, 'volt': 0.8154, 'depth': 0.241, 'time': 84, 'pitch': -21.63, 'roll': 4.8, 'pres': 167}
{'lipoC2': 7.76, 'lipoC3S1': 3.87, 'temp': 28.38, 'lipoC3S3': 11.71, 'lipoC3S2': 7.74, 'rot1': 307, 'rot0': 347, 'rot3': 264, 'rot2': 221, 'state': 'normal', 'yaw': 11.22, 'datetime': '2018-10-05 20:07:05.756917', 'mgs': 0, 'volt': 0.8154, 'depth': 0.241, 'time': 84, 'pitch': -21.56, 'roll': 4.55, 'pres': 167}
{'lipoC2': 7.76, 'lipoC3S1': 3.87, 'temp': 28.38, 'lipoC3S3': 11.71, 'lipoC3S2': 7.74, 'rot1': 307, 'rot0': 347, 'rot3': 264, 'rot2': 221, 'state': 'normal', 'yaw': 12.15, 'datetime': '2018-10-05 20:07:05.861101', 'mgs': 0, 'volt': 0.8154, 'depth': 0.241, 'time': 84, 'pitch': -21.29, 'roll': 4.21, 'pres': 167}
{'lipoC2': 7.76, 'lipoC3S1': 3.87, 'temp': 28.38, 'lipoC3S3': 11.71, 'lipoC3S2': 7.73, 'rot1': 307, 'rot0': 347, 'rot3': 264, 'rot2': 221, 'state': 'normal', 'yaw': 13.13, 'datetime': '2018-10-05 20:07:05.965335', 'mgs': 0, 'volt': 0.8154, 'depth': 0.241, 'time': 84, 'pitch': -20.9, 'roll': 3.86, 'pres': 167}
{'lipoC2': 7.76, 'lipoC3S1': 3.87, 'temp': 28.38, 'lipoC3S3': 11.71, 'lipoC3S2': 7.74, 'rot1': 307, 'rot0': 347, 'rot3': 264, 'rot2': 221, 'state': 'normal', 'yaw': 14.01, 'datetime': '2018-10-05 20:07:06.069763', 'mgs': 0, 'volt': 0.8203, 'depth': 0.317, 'time': 84, 'pitch': -20.6, 'roll': 3.61, 'pres': 168}
{'lipoC2': 7.75, 'lipoC3S1': 3.87, 'temp': 28.38, 'lipoC3S3': 11.71, 'lipoC3S2': 7.73, 'rot1': 307, 'rot0': 347, 'rot3': 264, 'rot2': 221, 'state': 'normal', 'yaw': 14.68, 'datetime': '2018-10-05 20:07:06.173923', 'mgs': 0, 'volt': 0.8154, 'depth': 0.241, 'time': 84, 'pitch': -20.71, 'roll': 3.59, 'pres': 167}
{'lipoC2': 7.76, 'lipoC3S1': 3.87, 'temp': 28.38, 'lipoC3S3': 11.69, 'lipoC3S2': 7.74, 'rot1': 307, 'rot0': 347, 'rot3': 264, 'rot2': 221, 'state': 'normal', 'yaw': 15.15, 'datetime': '2018-10-05 20:07:06.278128', 'mgs': 0, 'volt': 0.8203, 'depth': 0.317, 'time': 84, 'pitch': -20.99, 'roll': 3.73, 'pres': 168}
{'lipoC2': 7.76, 'lipoC3S1': 3.87, 'temp': 28.38, 'lipoC3S3': 11.71, 'lipoC3S2': 7.74, 'rot1': 307, 'rot0': 347, 'rot3': 264, 'rot2': 221, 'state': 'normal', 'yaw': 15.91, 'datetime': '2018-10-05 20:07:06.382310', 'mgs': 0, 'volt': 0.8203, 'depth': 0.317, 'time': 84, 'pitch': -21.48, 'roll': 3.73, 'pres': 168}
{'lipoC2': 7.76, 'lipoC3S1': 3.87, 'temp': 28.38, 'lipoC3S3': 11.71, 'lipoC3S2': 7.73, 'rot1': 307, 'rot0': 347, 'rot3': 264, 'rot2': 221, 'state': 'normal', 'yaw': 16.33, 'datetime': '2018-10-05 20:07:06.486576', 'mgs': 0, 'volt': 0.8203, 'depth': 0.317, 'time': 84, 'pitch': -22.1, 'roll': 4.01, 'pres': 168}
{'lipoC2': 7.76, 'lipoC3S1': 3.87, 'temp': 28.31, 'lipoC3S3': 11.69, 'lipoC3S2': 7.74, 'rot1': 307, 'rot0': 347, 'rot3': 264, 'rot2': 221, 'state': 'normal', 'yaw': 16.19, 'datetime': '2018-10-05 20:07:06.591317', 'mgs': 0, 'volt': 0.8252, 'depth': 0.394, 'time': 84, 'pitch': -22.65, 'roll': 4.74, 'pres': 169}
{'lipoC2': 7.75, 'lipoC3S1': 3.87, 'temp': 28.31, 'lipoC3S3': 11.71, 'lipoC3S2': 7.73, 'rot1': 307, 'rot0': 347, 'rot3': 264, 'rot2': 221, 'state': 'normal', 'yaw': 15.67, 'datetime': '2018-10-05 20:07:06.695543', 'mgs': 0, 'volt': 0.8252, 'depth': 0.394, 'time': 85, 'pitch': -22.9, 'roll': 5.75, 'pres': 169}
{'lipoC2': 7.75, 'lipoC3S1': 3.87, 'temp': 28.31, 'lipoC3S3': 11.71, 'lipoC3S2': 7.73, 'rot1': 307, 'rot0': 347, 'rot3': 264, 'rot2': 221, 'state': 'normal', 'yaw': 14.99, 'datetime': '2018-10-05 20:07:06.801090', 'mgs': 0, 'volt': 0.8301, 'depth': 0.47, 'time': 85, 'pitch': -22.93, 'roll': 6.66, 'pres': 170}
{'lipoC2': 7.76, 'lipoC3S1': 3.87, 'temp': 28.31, 'lipoC3S3': 11.69, 'lipoC3S2': 7.73, 'rot1': 307, 'rot0': 347, 'rot3': 264, 'rot2': 221, 'state': 'normal', 'yaw': 14.43, 'datetime': '2018-10-05 20:07:06.905323', 'mgs': 0, 'volt': 0.8301, 'depth': 0.47, 'time': 85, 'pitch': -23.06, 'roll': 7.18, 'pres': 170}
{'lipoC2': 7.76, 'lipoC3S1': 3.87, 'temp': 28.31, 'lipoC3S3': 11.69, 'lipoC3S2': 7.73, 'rot1': 307, 'rot0': 347, 'rot3': 264, 'rot2': 221, 'state': 'normal', 'yaw': 14.16, 'datetime': '2018-10-05 20:07:07.010847', 'mgs': 0, 'volt': 0.8301, 'depth': 0.47, 'time': 85, 'pitch': -23.49, 'roll': 7.13, 'pres': 170}
{'lipoC2': 7.76, 'lipoC3S1': 3.87, 'temp': 28.31, 'lipoC3S3': 11.71, 'lipoC3S2': 7.74, 'rot1': 307, 'rot0': 347, 'rot3': 264, 'rot2': 221, 'state': 'normal', 'yaw': 13.97, 'datetime': '2018-10-05 20:07:07.115051', 'mgs': 0, 'volt': 0.8301, 'depth': 0.47, 'time': 85, 'pitch': -24.12, 'roll': 6.61, 'pres': 170}
{'lipoC2': 7.75, 'lipoC3S1': 3.87, 'temp': 28.31, 'lipoC3S3': 11.71, 'lipoC3S2': 7.73, 'rot1': 307, 'rot0': 347, 'rot3': 264, 'rot2': 221, 'state': 'normal', 'yaw': 13.66, 'datetime': '2018-10-05 20:07:07.219251', 'mgs': 0, 'volt': 0.8252, 'depth': 0.394, 'time': 85, 'pitch': -24.65, 'roll': 6.0, 'pres': 169}
{'lipoC2': 7.75, 'lipoC3S1': 3.87, 'temp': 28.31, 'lipoC3S3': 11.71, 'lipoC3S2': 7.73, 'rot1': 307, 'rot0': 347, 'rot3': 264, 'rot2': 221, 'state': 'normal', 'yaw': 13.02, 'datetime': '2018-10-05 20:07:07.323454', 'mgs': 0, 'volt': 0.8252, 'depth': 0.394, 'time': 85, 'pitch': -25.17, 'roll': 5.48, 'pres': 169}
{'lipoC2': 7.75, 'lipoC3S1': 3.87, 'temp': 28.31, 'lipoC3S3': 11.71, 'lipoC3S2': 7.73, 'rot1': 307, 'rot0': 347, 'rot3': 264, 'rot2': 221, 'state': 'normal', 'yaw': 12.13, 'datetime': '2018-10-05 20:07:07.427687', 'mgs': 0, 'volt': 0.8252, 'depth': 0.394, 'time': 85, 'pitch': -25.55, 'roll': 5.02, 'pres': 169}
{'lipoC2': 7.76, 'lipoC3S1': 3.87, 'temp': 28.31, 'lipoC3S3': 11.71, 'lipoC3S2': 7.73, 'rot1': 307, 'rot0': 347, 'rot3': 264, 'rot2': 221, 'state': 'normal', 'yaw': 11.66, 'datetime': '2018-10-05 20:07:07.531864', 'mgs': 0, 'volt': 0.8301, 'depth': 0.47, 'time': 85, 'pitch': -25.63, 'roll': 4.36, 'pres': 170}
{'lipoC2': 7.76, 'lipoC3S1': 3.87, 'temp': 28.31, 'lipoC3S3': 11.71, 'lipoC3S2': 7.73, 'rot1': 307, 'rot0': 347, 'rot3': 264, 'rot2': 221, 'state': 'normal', 'yaw': 11.46, 'datetime': '2018-10-05 20:07:07.636061', 'mgs': 0, 'volt': 0.8252, 'depth': 0.394, 'time': 85, 'pitch': -25.38, 'roll': 3.49, 'pres': 169}
{'lipoC2': 7.76, 'lipoC3S1': 3.87, 'temp': 28.31, 'lipoC3S3': 11.71, 'lipoC3S2': 7.73, 'rot1': 307, 'rot0': 347, 'rot3': 264, 'rot2': 221, 'state': 'normal', 'yaw': 11.18, 'datetime': '2018-10-05 20:07:07.740279', 'mgs': 0, 'volt': 0.8252, 'depth': 0.394, 'time': 86, 'pitch': -25.16, 'roll': 2.99, 'pres': 169}
{'lipoC2': 7.76, 'lipoC3S1': 3.87, 'temp': 28.38, 'lipoC3S3': 11.71, 'lipoC3S2': 7.74, 'rot1': 307, 'rot0': 347, 'rot3': 264, 'rot2': 221, 'state': 'normal', 'yaw': 10.58, 'datetime': '2018-10-05 20:07:07.844716', 'mgs': 0, 'volt': 0.8252, 'depth': 0.394, 'time': 86, 'pitch': -25.25, 'roll': 3.05, 'pres': 169}
{'lipoC2': 7.75, 'lipoC3S1': 3.87, 'temp': 28.38, 'lipoC3S3': 11.71, 'lipoC3S2': 7.74, 'rot1': 307, 'rot0': 347, 'rot3': 264, 'rot2': 221, 'state': 'normal', 'yaw': 10.14, 'datetime': '2018-10-05 20:07:07.948926', 'mgs': 0, 'volt': 0.8252, 'depth': 0.394, 'time': 86, 'pitch': -25.51, 'roll': 3.43, 'pres': 169}
{'lipoC2': 7.76, 'lipoC3S1': 3.87, 'temp': 28.31, 'lipoC3S3': 11.71, 'lipoC3S2': 7.74, 'rot1': 307, 'rot0': 347, 'rot3': 264, 'rot2': 221, 'state': 'normal', 'yaw': 10.02, 'datetime': '2018-10-05 20:07:08.054356', 'mgs': 0, 'volt': 0.8252, 'depth': 0.394, 'time': 86, 'pitch': -25.67, 'roll': 3.9, 'pres': 169}
{'lipoC2': 7.75, 'lipoC3S1': 3.87, 'temp': 28.31, 'lipoC3S3': 11.71, 'lipoC3S2': 7.73, 'rot1': 307, 'rot0': 347, 'rot3': 264, 'rot2': 221, 'state': 'normal', 'yaw': 10.24, 'datetime': '2018-10-05 20:07:08.158544', 'mgs': 0, 'volt': 0.8252, 'depth': 0.394, 'time': 86, 'pitch': -25.6, 'roll': 4.44, 'pres': 169}
{'lipoC2': 7.76, 'lipoC3S1': 3.87, 'temp': 28.31, 'lipoC3S3': 11.71, 'lipoC3S2': 7.74, 'rot1': 307, 'rot0': 347, 'rot3': 264, 'rot2': 221, 'state': 'normal', 'yaw': 10.47, 'datetime': '2018-10-05 20:07:08.264047', 'mgs': 0, 'volt': 0.8252, 'depth': 0.394, 'time': 86, 'pitch': -25.45, 'roll': 5.07, 'pres': 169}
{'lipoC2': 7.75, 'lipoC3S1': 3.87, 'temp': 28.31, 'lipoC3S3': 11.71, 'lipoC3S2': 7.73, 'rot1': 307, 'rot0': 347, 'rot3': 264, 'rot2': 221, 'state': 'normal', 'yaw': 10.57, 'datetime': '2018-10-05 20:07:08.368209', 'mgs': 0, 'volt': 0.8203, 'depth': 0.317, 'time': 86, 'pitch': -25.33, 'roll': 5.89, 'pres': 168}
{'lipoC2': 7.75, 'lipoC3S1': 3.87, 'temp': 28.31, 'lipoC3S3': 11.71, 'lipoC3S2': 7.73, 'rot1': 307, 'rot0': 347, 'rot3': 264, 'rot2': 221, 'state': 'normal', 'yaw': 10.59, 'datetime': '2018-10-05 20:07:08.472527', 'mgs': 0, 'volt': 0.8252, 'depth': 0.394, 'time': 86, 'pitch': -25.2, 'roll': 6.57, 'pres': 169}
{'lipoC2': 7.76, 'lipoC3S1': 3.87, 'temp': 28.38, 'lipoC3S3': 11.71, 'lipoC3S2': 7.74, 'rot1': 307, 'rot0': 347, 'rot3': 264, 'rot2': 221, 'state': 'normal', 'yaw': 10.6, 'datetime': '2018-10-05 20:07:08.576730', 'mgs': 1, 'volt': 0.8203, 'depth': 0.317, 'time': 86, 'pitch': -25.01, 'roll': 7.06, 'pres': 168}
{'lipoC2': 7.75, 'lipoC3S1': 3.87, 'temp': 28.38, 'lipoC3S3': 11.71, 'lipoC3S2': 7.73, 'rot1': 0, 'rot0': 0, 'rot3': 0, 'rot2': 0, 'state': 'normal', 'yaw': 0.0, 'datetime': '2018-10-05 20:07:14.608258', 'mgs': 0, 'volt': 0.8105, 'depth': 0.165, 'time': 1, 'pitch': -22.76, 'roll': 7.46, 'pres': 166}
{'lipoC2': 7.75, 'lipoC3S1': 3.87, 'temp': 28.38, 'lipoC3S3': 11.71, 'lipoC3S2': 7.74, 'rot1': 0, 'rot0': 0, 'rot3': 0, 'rot2': 0, 'state': 'normal', 'yaw': -0.08, 'datetime': '2018-10-05 20:07:17.650351', 'mgs': 0, 'volt': 0.8105, 'depth': 0.165, 'time': 1, 'pitch': -22.51, 'roll': 7.73, 'pres': 166}
{'lipoC2': 7.76, 'lipoC3S1': 3.87, 'temp': 28.38, 'lipoC3S3': 11.71, 'lipoC3S2': 7.74, 'rot1': 0, 'rot0': 0, 'rot3': 0, 'rot2': 0, 'state': 'normal', 'yaw': -0.21, 'datetime': '2018-10-05 20:07:17.686081', 'mgs': 0, 'volt': 0.8105, 'depth': 0.165, 'time': 1, 'pitch': -22.29, 'roll': 7.94, 'pres': 166}
{'lipoC2': 7.76, 'lipoC3S1': 3.87, 'temp': 28.38, 'lipoC3S3': 11.71, 'lipoC3S2': 7.74, 'rot1': 0, 'rot0': 0, 'rot3': 0, 'rot2': 0, 'state': 'normal', 'yaw': -0.22, 'datetime': '2018-10-05 20:07:17.707432', 'mgs': 0, 'volt': 0.8105, 'depth': 0.165, 'time': 1, 'pitch': -22.16, 'roll': 7.99, 'pres': 166}
{'lipoC2': 7.76, 'lipoC3S1': 3.87, 'temp': 28.38, 'lipoC3S3': 11.71, 'lipoC3S2': 7.74, 'rot1': 0, 'rot0': 0, 'rot3': 0, 'rot2': 0, 'state': 'normal', 'yaw': -0.19, 'datetime': '2018-10-05 20:07:17.723400', 'mgs': 0, 'volt': 0.8105, 'depth': 0.165, 'time': 1, 'pitch': -22.22, 'roll': 7.97, 'pres': 166}
{'lipoC2': 7.76, 'lipoC3S1': 3.87, 'temp': 28.38, 'lipoC3S3': 11.71, 'lipoC3S2': 7.74, 'rot1': 0, 'rot0': 0, 'rot3': 0, 'rot2': 0, 'state': 'normal', 'yaw': -0.03, 'datetime': '2018-10-05 20:07:17.739382', 'mgs': 0, 'volt': 0.8105, 'depth': 0.165, 'time': 1, 'pitch': -22.42, 'roll': 7.89, 'pres': 166}
{'lipoC2': 7.76, 'lipoC3S1': 3.87, 'temp': 28.38, 'lipoC3S3': 11.71, 'lipoC3S2': 7.74, 'rot1': 0, 'rot0': 0, 'rot3': 0, 'rot2': 0, 'state': 'normal', 'yaw': 0.14, 'datetime': '2018-10-05 20:07:17.749382', 'mgs': 0, 'volt': 0.8105, 'depth': 0.165, 'time': 1, 'pitch': -22.64, 'roll': 7.76, 'pres': 166}
{'lipoC2': 7.75, 'lipoC3S1': 3.87, 'temp': 28.38, 'lipoC3S3': 11.71, 'lipoC3S2': 7.74, 'rot1': 0, 'rot0': 0, 'rot3': 0, 'rot2': 0, 'state': 'normal', 'yaw': 0.2, 'datetime': '2018-10-05 20:07:17.765279', 'mgs': 0, 'volt': 0.8105, 'depth': 0.165, 'time': 1, 'pitch': -22.72, 'roll': 7.74, 'pres': 166}
{'lipoC2': 7.76, 'lipoC3S1': 3.87, 'temp': 28.38, 'lipoC3S3': 11.71, 'lipoC3S2': 7.74, 'rot1': 0, 'rot0': 0, 'rot3': 0, 'rot2': 0, 'state': 'normal', 'yaw': 0.2, 'datetime': '2018-10-05 20:07:17.781280', 'mgs': 0, 'volt': 0.8105, 'depth': 0.165, 'time': 2, 'pitch': -22.69, 'roll': 7.73, 'pres': 166}
{'lipoC2': 7.76, 'lipoC3S1': 3.87, 'temp': 28.38, 'lipoC3S3': 11.71, 'lipoC3S2': 7.73, 'rot1': 0, 'rot0': 0, 'rot3': 0, 'rot2': 0, 'state': 'normal', 'yaw': 0.21, 'datetime': '2018-10-05 20:07:17.791244', 'mgs': 0, 'volt': 0.8105, 'depth': 0.165, 'time': 2, 'pitch': -22.65, 'roll': 7.71, 'pres': 166}
{'lipoC2': 7.76, 'lipoC3S1': 3.87, 'temp': 28.38, 'lipoC3S3': 11.71, 'lipoC3S2': 7.74, 'rot1': 0, 'rot0': 0, 'rot3': 0, 'rot2': 0, 'state': 'normal', 'yaw': 0.2, 'datetime': '2018-10-05 20:07:17.807139', 'mgs': 0, 'volt': 0.8105, 'depth': 0.165, 'time': 2, 'pitch': -22.69, 'roll': 7.7, 'pres': 166}
{'lipoC2': 7.76, 'lipoC3S1': 3.87, 'temp': 28.38, 'lipoC3S3': 11.71, 'lipoC3S2': 7.73, 'rot1': 0, 'rot0': 0, 'rot3': 0, 'rot2': 0, 'state': 'normal', 'yaw': 0.25, 'datetime': '2018-10-05 20:07:17.823105', 'mgs': 0, 'volt': 0.8154, 'depth': 0.241, 'time': 2, 'pitch': -22.74, 'roll': 7.68, 'pres': 167}
{'lipoC2': 7.76, 'lipoC3S1': 3.87, 'temp': 28.38, 'lipoC3S3': 11.71, 'lipoC3S2': 7.74, 'rot1': 0, 'rot0': 0, 'rot3': 0, 'rot2': 0, 'state': 'normal', 'yaw': 0.29, 'datetime': '2018-10-05 20:07:17.833183', 'mgs': 0, 'volt': 0.8154, 'depth': 0.241, 'time': 2, 'pitch': -22.75, 'roll': 7.67, 'pres': 167}
{'lipoC2': 7.76, 'lipoC3S1': 3.87, 'temp': 28.38, 'lipoC3S3': 11.71, 'lipoC3S2': 7.74, 'rot1': 0, 'rot0': 0, 'rot3': 0, 'rot2': 0, 'state': 'normal', 'yaw': 0.31, 'datetime': '2018-10-05 20:07:17.849304', 'mgs': 0, 'volt': 0.8154, 'depth': 0.241, 'time': 2, 'pitch': -22.79, 'roll': 7.66, 'pres': 167}
{'lipoC2': 7.76, 'lipoC3S1': 3.87, 'temp': 28.38, 'lipoC3S3': 11.71, 'lipoC3S2': 7.74, 'rot1': 0, 'rot0': 0, 'rot3': 0, 'rot2': 0, 'state': 'normal', 'yaw': 0.26, 'datetime': '2018-10-05 20:07:17.865227', 'mgs': 0, 'volt': 0.8154, 'depth': 0.241, 'time': 2, 'pitch': -23.05, 'roll': 7.65, 'pres': 167}
{'lipoC2': 7.76, 'lipoC3S1': 3.87, 'temp': 28.38, 'lipoC3S3': 11.71, 'lipoC3S2': 7.74, 'rot1': 0, 'rot0': 0, 'rot3': 0, 'rot2': 0, 'state': 'normal', 'yaw': 0.22, 'datetime': '2018-10-05 20:07:17.875252', 'mgs': 0, 'volt': 0.8154, 'depth': 0.241, 'time': 2, 'pitch': -23.33, 'roll': 7.57, 'pres': 167}
{'lipoC2': 7.76, 'lipoC3S1': 3.87, 'temp': 28.38, 'lipoC3S3': 11.71, 'lipoC3S2': 7.74, 'rot1': 0, 'rot0': 0, 'rot3': 0, 'rot2': 0, 'state': 'normal', 'yaw': 0.24, 'datetime': '2018-10-05 20:07:17.891172', 'mgs': 0, 'volt': 0.8154, 'depth': 0.241, 'time': 2, 'pitch': -23.38, 'roll': 7.5, 'pres': 167}
{'lipoC2': 7.76, 'lipoC3S1': 3.87, 'temp': 28.38, 'lipoC3S3': 11.71, 'lipoC3S2': 7.74, 'rot1': 0, 'rot0': 0, 'rot3': 0, 'rot2': 0, 'state': 'normal', 'yaw': 0.3, 'datetime': '2018-10-05 20:07:17.907181', 'mgs': 0, 'volt': 0.8154, 'depth': 0.241, 'time': 3, 'pitch': -23.4, 'roll': 7.47, 'pres': 167}
{'lipoC2': 7.76, 'lipoC3S1': 3.87, 'temp': 28.38, 'lipoC3S3': 11.71, 'lipoC3S2': 7.73, 'rot1': 0, 'rot0': 0, 'rot3': 0, 'rot2': 0, 'state': 'normal', 'yaw': 0.31, 'datetime': '2018-10-05 20:07:17.917169', 'mgs': 0, 'volt': 0.8154, 'depth': 0.241, 'time': 3, 'pitch': -23.52, 'roll': 7.52, 'pres': 167}
{'lipoC2': 7.76, 'lipoC3S1': 3.87, 'temp': 28.38, 'lipoC3S3': 11.71, 'lipoC3S2': 7.74, 'rot1': 0, 'rot0': 0, 'rot3': 0, 'rot2': 0, 'state': 'normal', 'yaw': 0.24, 'datetime': '2018-10-05 20:07:17.933089', 'mgs': 0, 'volt': 0.8154, 'depth': 0.241, 'time': 3, 'pitch': -23.59, 'roll': 7.72, 'pres': 167}
{'lipoC2': 7.75, 'lipoC3S1': 3.87, 'temp': 28.38, 'lipoC3S3': 11.71, 'lipoC3S2': 7.74, 'rot1': 0, 'rot0': 0, 'rot3': 0, 'rot2': 0, 'state': 'normal', 'yaw': 0.16, 'datetime': '2018-10-05 20:07:17.949069', 'mgs': 0, 'volt': 0.8154, 'depth': 0.241, 'time': 3, 'pitch': -23.58, 'roll': 7.95, 'pres': 167}
{'lipoC2': 7.76, 'lipoC3S1': 3.87, 'temp': 28.38, 'lipoC3S3': 11.71, 'lipoC3S2': 7.74, 'rot1': 0, 'rot0': 0, 'rot3': 0, 'rot2': 0, 'state': 'normal', 'yaw': 0.15, 'datetime': '2018-10-05 20:07:17.959092', 'mgs': 0, 'volt': 0.8154, 'depth': 0.241, 'time': 3, 'pitch': -23.66, 'roll': 8.12, 'pres': 167}
{'lipoC2': 7.76, 'lipoC3S1': 3.87, 'temp': 28.38, 'lipoC3S3': 11.71, 'lipoC3S2': 7.74, 'rot1': 0, 'rot0': 0, 'rot3': 0, 'rot2': 0, 'state': 'normal', 'yaw': 0.22, 'datetime': '2018-10-05 20:07:17.975026', 'mgs': 0, 'volt': 0.8154, 'depth': 0.241, 'time': 3, 'pitch': -23.92, 'roll': 8.13, 'pres': 167}
{'lipoC2': 7.76, 'lipoC3S1': 3.87, 'temp': 28.38, 'lipoC3S3': 11.71, 'lipoC3S2': 7.74, 'rot1': 0, 'rot0': 0, 'rot3': 0, 'rot2': 0, 'state': 'normal', 'yaw': 0.35, 'datetime': '2018-10-05 20:07:17.990990', 'mgs': 0, 'volt': 0.8154, 'depth': 0.241, 'time': 3, 'pitch': -24.19, 'roll': 8.08, 'pres': 167}
{'lipoC2': 7.76, 'lipoC3S1': 3.87, 'temp': 28.38, 'lipoC3S3': 11.71, 'lipoC3S2': 7.74, 'rot1': 0, 'rot0': 0, 'rot3': 0, 'rot2': 0, 'state': 'normal', 'yaw': 0.48, 'datetime': '2018-10-05 20:07:18.001036', 'mgs': 0, 'volt': 0.8154, 'depth': 0.241, 'time': 3, 'pitch': -24.35, 'roll': 8.03, 'pres': 167}
{'lipoC2': 7.76, 'lipoC3S1': 3.87, 'temp': 28.38, 'lipoC3S3': 11.71, 'lipoC3S2': 7.74, 'rot1': 0, 'rot0': 0, 'rot3': 0, 'rot2': 0, 'state': 'normal', 'yaw': 0.6, 'datetime': '2018-10-05 20:07:18.017005', 'mgs': 0, 'volt': 0.8203, 'depth': 0.317, 'time': 3, 'pitch': -24.37, 'roll': 7.99, 'pres': 168}
{'lipoC2': 7.76, 'lipoC3S1': 3.87, 'temp': 28.38, 'lipoC3S3': 11.71, 'lipoC3S2': 7.74, 'rot1': 0, 'rot0': 0, 'rot3': 0, 'rot2': 0, 'state': 'normal', 'yaw': 0.74, 'datetime': '2018-10-05 20:07:18.033095', 'mgs': 0, 'volt': 0.8154, 'depth': 0.241, 'time': 3, 'pitch': -24.39, 'roll': 8.0, 'pres': 167}
{'lipoC2': 7.76, 'lipoC3S1': 3.87, 'temp': 28.38, 'lipoC3S3': 11.71, 'lipoC3S2': 7.74, 'rot1': 0, 'rot0': 0, 'rot3': 0, 'rot2': 0, 'state': 'normal', 'yaw': 0.92, 'datetime': '2018-10-05 20:07:18.043112', 'mgs': 0, 'volt': 0.8154, 'depth': 0.241, 'time': 4, 'pitch': -24.41, 'roll': 8.03, 'pres': 167}
{'lipoC2': 7.76, 'lipoC3S1': 3.87, 'temp': 28.38, 'lipoC3S3': 11.71, 'lipoC3S2': 7.74, 'rot1': 0, 'rot0': 0, 'rot3': 0, 'rot2': 0, 'state': 'normal', 'yaw': 1.09, 'datetime': '2018-10-05 20:07:18.059062', 'mgs': 0, 'volt': 0.8154, 'depth': 0.241, 'time': 4, 'pitch': -24.43, 'roll': 8.08, 'pres': 167}
{'lipoC2': 7.76, 'lipoC3S1': 3.87, 'temp': 28.38, 'lipoC3S3': 11.71, 'lipoC3S2': 7.74, 'rot1': 0, 'rot0': 0, 'rot3': 0, 'rot2': 0, 'state': 'normal', 'yaw': 1.22, 'datetime': '2018-10-05 20:07:18.075028', 'mgs': 0, 'volt': 0.8154, 'depth': 0.241, 'time': 4, 'pitch': -24.43, 'roll': 8.2, 'pres': 167}
{'lipoC2': 7.76, 'lipoC3S1': 3.87, 'temp': 28.38, 'lipoC3S3': 11.71, 'lipoC3S2': 7.74, 'rot1': 0, 'rot0': 0, 'rot3': 0, 'rot2': 0, 'state': 'normal', 'yaw': 1.32, 'datetime': '2018-10-05 20:07:18.085077', 'mgs': 0, 'volt': 0.8154, 'depth': 0.241, 'time': 4, 'pitch': -24.44, 'roll': 8.27, 'pres': 167}
{'lipoC2': 7.76, 'lipoC3S1': 3.87, 'temp': 28.38, 'lipoC3S3': 11.71, 'lipoC3S2': 7.74, 'rot1': 0, 'rot0': 0, 'rot3': 0, 'rot2': 0, 'state': 'normal', 'yaw': 1.4, 'datetime': '2018-10-05 20:07:18.101036', 'mgs': 0, 'volt': 0.8203, 'depth': 0.317, 'time': 4, 'pitch': -24.43, 'roll': 8.26, 'pres': 168}
{'lipoC2': 7.76, 'lipoC3S1': 3.87, 'temp': 28.38, 'lipoC3S3': 11.71, 'lipoC3S2': 7.74, 'rot1': 0, 'rot0': 0, 'rot3': 0, 'rot2': 0, 'state': 'normal', 'yaw': 1.41, 'datetime': '2018-10-05 20:07:18.117045', 'mgs': 0, 'volt': 0.8203, 'depth': 0.317, 'time': 4, 'pitch': -24.43, 'roll': 8.23, 'pres': 168}
{'lipoC2': 7.76, 'lipoC3S1': 3.87, 'temp': 28.38, 'lipoC3S3': 11.71, 'lipoC3S2': 7.74, 'rot1': 0, 'rot0': 0, 'rot3': 0, 'rot2': 0, 'state': 'normal', 'yaw': 1.41, 'datetime': '2018-10-05 20:07:18.127065', 'mgs': 0, 'volt': 0.8203, 'depth': 0.317, 'time': 4, 'pitch': -24.35, 'roll': 8.05, 'pres': 168}
{'lipoC2': 7.76, 'lipoC3S1': 3.87, 'temp': 28.38, 'lipoC3S3': 11.71, 'lipoC3S2': 7.74, 'rot1': 0, 'rot0': 0, 'rot3': 0, 'rot2': 0, 'state': 'normal', 'yaw': 1.44, 'datetime': '2018-10-05 20:07:18.143008', 'mgs': 0, 'volt': 0.8203, 'depth': 0.317, 'time': 4, 'pitch': -24.17, 'roll': 7.85, 'pres': 168}
{'lipoC2': 7.76, 'lipoC3S1': 3.87, 'temp': 28.38, 'lipoC3S3': 11.71, 'lipoC3S2': 7.74, 'rot1': 0, 'rot0': 0, 'rot3': 0, 'rot2': 0, 'state': 'normal', 'yaw': 1.46, 'datetime': '2018-10-05 20:07:18.159005', 'mgs': 0, 'volt': 0.8203, 'depth': 0.317, 'time': 4, 'pitch': -24.02, 'roll': 7.63, 'pres': 168}
{'lipoC2': 7.76, 'lipoC3S1': 3.87, 'temp': 28.38, 'lipoC3S3': 11.71, 'lipoC3S2': 7.74, 'rot1': 0, 'rot0': 0, 'rot3': 0, 'rot2': 0, 'state': 'normal', 'yaw': 1.53, 'datetime': '2018-10-05 20:07:18.168999', 'mgs': 0, 'volt': 0.8154, 'depth': 0.241, 'time': 4, 'pitch': -24.0, 'roll': 7.39, 'pres': 167}
{'lipoC2': 7.76, 'lipoC3S1': 3.87, 'temp': 28.38, 'lipoC3S3': 11.71, 'lipoC3S2': 7.73, 'rot1': 0, 'rot0': 0, 'rot3': 0, 'rot2': 0, 'state': 'normal', 'yaw': 1.68, 'datetime': '2018-10-05 20:07:18.184868', 'mgs': 0, 'volt': 0.8154, 'depth': 0.241, 'time': 5, 'pitch': -24.02, 'roll': 7.11, 'pres': 167}
{'lipoC2': 7.76, 'lipoC3S1': 3.87, 'temp': 28.38, 'lipoC3S3': 11.71, 'lipoC3S2': 7.74, 'rot1': 0, 'rot0': 0, 'rot3': 0, 'rot2': 0, 'state': 'normal', 'yaw': 1.71, 'datetime': '2018-10-05 20:07:18.200856', 'mgs': 0, 'volt': 0.8154, 'depth': 0.241, 'time': 5, 'pitch': -23.98, 'roll': 6.93, 'pres': 167}
{'lipoC2': 7.76, 'lipoC3S1': 3.87, 'temp': 28.38, 'lipoC3S3': 11.71, 'lipoC3S2': 7.74, 'rot1': 0, 'rot0': 0, 'rot3': 0, 'rot2': 0, 'state': 'normal', 'yaw': 1.76, 'datetime': '2018-10-05 20:07:18.210856', 'mgs': 0, 'volt': 0.8154, 'depth': 0.241, 'time': 5, 'pitch': -23.63, 'roll': 6.76, 'pres': 167}
{'lipoC2': 7.76, 'lipoC3S1': 3.87, 'temp': 28.38, 'lipoC3S3': 11.71, 'lipoC3S2': 7.73, 'rot1': 0, 'rot0': 0, 'rot3': 0, 'rot2': 0, 'state': 'normal', 'yaw': 1.81, 'datetime': '2018-10-05 20:07:18.226930', 'mgs': 0, 'volt': 0.8203, 'depth': 0.317, 'time': 5, 'pitch': -23.26, 'roll': 6.55, 'pres': 168}
{'lipoC2': 7.76, 'lipoC3S1': 3.87, 'temp': 28.38, 'lipoC3S3': 11.71, 'lipoC3S2': 7.74, 'rot1': 0, 'rot0': 0, 'rot3': 0, 'rot2': 0, 'state': 'normal', 'yaw': 1.71, 'datetime': '2018-10-05 20:07:18.242875', 'mgs': 0, 'volt': 0.8154, 'depth': 0.241, 'time': 5, 'pitch': -23.34, 'roll': 6.4, 'pres': 167}
{'lipoC2': 7.76, 'lipoC3S1': 3.87, 'temp': 28.38, 'lipoC3S3': 11.71, 'lipoC3S2': 7.74, 'rot1': 0, 'rot0': 0, 'rot3': 0, 'rot2': 0, 'state': 'normal', 'yaw': 1.54, 'datetime': '2018-10-05 20:07:18.252924', 'mgs': 0, 'volt': 0.8203, 'depth': 0.317, 'time': 5, 'pitch': -23.66, 'roll': 6.35, 'pres': 168}
{'lipoC2': 7.76, 'lipoC3S1': 3.87, 'temp': 28.38, 'lipoC3S3': 11.71, 'lipoC3S2': 7.74, 'rot1': 0, 'rot0': 0, 'rot3': 0, 'rot2': 0, 'state': 'normal', 'yaw': 1.57, 'datetime': '2018-10-05 20:07:18.268896', 'mgs': 0, 'volt': 0.8203, 'depth': 0.317, 'time': 5, 'pitch': -23.62, 'roll': 6.26, 'pres': 168}
{'lipoC2': 7.76, 'lipoC3S1': 3.87, 'temp': 28.38, 'lipoC3S3': 11.71, 'lipoC3S2': 7.74, 'rot1': 0, 'rot0': 0, 'rot3': 0, 'rot2': 0, 'state': 'normal', 'yaw': 1.86, 'datetime': '2018-10-05 20:07:18.284839', 'mgs': 0, 'volt': 0.8203, 'depth': 0.317, 'time': 5, 'pitch': -23.25, 'roll': 6.09, 'pres': 168}
{'lipoC2': 7.75, 'lipoC3S1': 3.87, 'temp': 28.38, 'lipoC3S3': 11.71, 'lipoC3S2': 7.73, 'rot1': 0, 'rot0': 0, 'rot3': 0, 'rot2': 0, 'state': 'normal', 'yaw': 2.06, 'datetime': '2018-10-05 20:07:18.294866', 'mgs': 0, 'volt': 0.8154, 'depth': 0.241, 'time': 5, 'pitch': -23.0, 'roll': 6.02, 'pres': 167}
{'lipoC2': 7.75, 'lipoC3S1': 3.83, 'temp': 28.38, 'lipoC3S3': 11.56, 'lipoC3S2': 7.68, 'rot1': 0, 'rot0': 0, 'rot3': 1, 'rot2': 0, 'state': 'normal', 'yaw': 1.91, 'datetime': '2018-10-05 20:07:18.310764', 'mgs': 0, 'volt': 0.8301, 'depth': 0.47, 'time': 6, 'pitch': -23.28, 'roll': 6.15, 'pres': 170}
{'lipoC2': 7.75, 'lipoC3S1': 3.84, 'temp': 28.38, 'lipoC3S3': 11.58, 'lipoC3S2': 7.7, 'rot1': 0, 'rot0': 0, 'rot3': 2, 'rot2': 1, 'state': 'normal', 'yaw': 1.62, 'datetime': '2018-10-05 20:07:18.326784', 'mgs': 0, 'volt': 0.835, 'depth': 0.546, 'time': 6, 'pitch': -23.34, 'roll': 6.55, 'pres': 171}
{'lipoC2': 7.75, 'lipoC3S1': 3.84, 'temp': 28.38, 'lipoC3S3': 11.58, 'lipoC3S2': 7.69, 'rot1': 0, 'rot0': 0, 'rot3': 3, 'rot2': 2, 'state': 'normal', 'yaw': 1.43, 'datetime': '2018-10-05 20:07:18.337038', 'mgs': 0, 'volt': 0.8301, 'depth': 0.47, 'time': 6, 'pitch': -22.88, 'roll': 6.96, 'pres': 170}
{'lipoC2': 7.75, 'lipoC3S1': 3.83, 'temp': 28.38, 'lipoC3S3': 11.64, 'lipoC3S2': 7.68, 'rot1': 0, 'rot0': 0, 'rot3': 3, 'rot2': 3, 'state': 'normal', 'yaw': 1.73, 'datetime': '2018-10-05 20:07:18.353025', 'mgs': 0, 'volt': 0.835, 'depth': 0.546, 'time': 6, 'pitch': -22.1, 'roll': 7.05, 'pres': 171}
{'lipoC2': 7.75, 'lipoC3S1': 3.83, 'temp': 28.38, 'lipoC3S3': 11.64, 'lipoC3S2': 7.69, 'rot1': 0, 'rot0': 0, 'rot3': 4, 'rot2': 3, 'state': 'normal', 'yaw': 2.27, 'datetime': '2018-10-05 20:07:18.368996', 'mgs': 0, 'volt': 0.8252, 'depth': 0.394, 'time': 6, 'pitch': -21.72, 'roll': 7.04, 'pres': 169}
{'lipoC2': 7.75, 'lipoC3S1': 3.84, 'temp': 28.38, 'lipoC3S3': 11.64, 'lipoC3S2': 7.7, 'rot1': 0, 'rot0': 0, 'rot3': 5, 'rot2': 4, 'state': 'normal', 'yaw': 2.77, 'datetime': '2018-10-05 20:07:18.379003', 'mgs': 0, 'volt': 0.8252, 'depth': 0.394, 'time': 6, 'pitch': -21.82, 'roll': 7.06, 'pres': 169}
{'lipoC2': 7.75, 'lipoC3S1': 3.84, 'temp': 28.38, 'lipoC3S3': 11.61, 'lipoC3S2': 7.71, 'rot1': 0, 'rot0': 0, 'rot3': 7, 'rot2': 5, 'state': 'normal', 'yaw': 3.12, 'datetime': '2018-10-05 20:07:18.394932', 'mgs': 0, 'volt': 0.8203, 'depth': 0.317, 'time': 6, 'pitch': -21.93, 'roll': 7.09, 'pres': 168}
{'lipoC2': 7.75, 'lipoC3S1': 3.84, 'temp': 28.38, 'lipoC3S3': 11.65, 'lipoC3S2': 7.71, 'rot1': 0, 'rot0': 0, 'rot3': 8, 'rot2': 6, 'state': 'normal', 'yaw': 3.26, 'datetime': '2018-10-05 20:07:18.411172', 'mgs': 0, 'volt': 0.8154, 'depth': 0.241, 'time': 6, 'pitch': -21.94, 'roll': 7.21, 'pres': 167}
{'lipoC2': 7.75, 'lipoC3S1': 3.84, 'temp': 28.38, 'lipoC3S3': 11.65, 'lipoC3S2': 7.71, 'rot1': 0, 'rot0': 0, 'rot3': 9, 'rot2': 7, 'state': 'normal', 'yaw': 3.03, 'datetime': '2018-10-05 20:07:18.421359', 'mgs': 0, 'volt': 0.8105, 'depth': 0.165, 'time': 6, 'pitch': -22.09, 'roll': 7.63, 'pres': 166}
{'lipoC2': 7.75, 'lipoC3S1': 3.85, 'temp': 28.38, 'lipoC3S3': 11.61, 'lipoC3S2': 7.71, 'rot1': 0, 'rot0': 0, 'rot3': 10, 'rot2': 8, 'state': 'normal', 'yaw': 2.73, 'datetime': '2018-10-05 20:07:18.437364', 'mgs': 0, 'volt': 0.8154, 'depth': 0.241, 'time': 6, 'pitch': -22.36, 'roll': 7.99, 'pres': 167}
{'lipoC2': 7.75, 'lipoC3S1': 3.83, 'temp': 28.38, 'lipoC3S3': 11.65, 'lipoC3S2': 7.69, 'rot1': 0, 'rot0': 0, 'rot3': 11, 'rot2': 9, 'state': 'normal', 'yaw': 2.46, 'datetime': '2018-10-05 20:07:18.453397', 'mgs': 0, 'volt': 0.8154, 'depth': 0.241, 'time': 7, 'pitch': -22.54, 'roll': 8.23, 'pres': 167}
{'lipoC2': 7.76, 'lipoC3S1': 3.84, 'temp': 28.38, 'lipoC3S3': 11.64, 'lipoC3S2': 7.68, 'rot1': 0, 'rot0': 0, 'rot3': 13, 'rot2': 10, 'state': 'normal', 'yaw': 2.01, 'datetime': '2018-10-05 20:07:18.463478', 'mgs': 0, 'volt': 0.8008, 'depth': 0.012, 'time': 7, 'pitch': -22.59, 'roll': 8.57, 'pres': 164}
{'lipoC2': 7.75, 'lipoC3S1': 3.85, 'temp': 28.38, 'lipoC3S3': 11.65, 'lipoC3S2': 7.71, 'rot1': 0, 'rot0': 0, 'rot3': 14, 'rot2': 11, 'state': 'normal', 'yaw': 1.73, 'datetime': '2018-10-05 20:07:18.479491', 'mgs': 0, 'volt': 0.8154, 'depth': 0.241, 'time': 7, 'pitch': -22.28, 'roll': 8.79, 'pres': 167}
{'lipoC2': 7.75, 'lipoC3S1': 3.83, 'temp': 28.38, 'lipoC3S3': 11.65, 'lipoC3S2': 7.69, 'rot1': 0, 'rot0': 0, 'rot3': 15, 'rot2': 12, 'state': 'normal', 'yaw': 1.55, 'datetime': '2018-10-05 20:07:18.495551', 'mgs': 0, 'volt': 0.8154, 'depth': 0.241, 'time': 7, 'pitch': -21.59, 'roll': 8.87, 'pres': 167}
{'lipoC2': 7.75, 'lipoC3S1': 3.84, 'temp': 28.38, 'lipoC3S3': 11.65, 'lipoC3S2': 7.71, 'rot1': 0, 'rot0': 0, 'rot3': 16, 'rot2': 13, 'state': 'normal', 'yaw': 1.42, 'datetime': '2018-10-05 20:07:18.505604', 'mgs': 0, 'volt': 0.8154, 'depth': 0.241, 'time': 7, 'pitch': -20.8, 'roll': 8.89, 'pres': 167}
{'lipoC2': 7.76, 'lipoC3S1': 3.83, 'temp': 28.31, 'lipoC3S3': 11.64, 'lipoC3S2': 7.68, 'rot1': 0, 'rot0': 0, 'rot3': 17, 'rot2': 14, 'state': 'normal', 'yaw': 1.28, 'datetime': '2018-10-05 20:07:18.521605', 'mgs': 0, 'volt': 0.8057, 'depth': 0.089, 'time': 7, 'pitch': -20.01, 'roll': 8.76, 'pres': 165}
{'lipoC2': 7.75, 'lipoC3S1': 3.85, 'temp': 28.31, 'lipoC3S3': 11.61, 'lipoC3S2': 7.67, 'rot1': 0, 'rot0': 0, 'rot3': 19, 'rot2': 14, 'state': 'normal', 'yaw': 1.18, 'datetime': '2018-10-05 20:07:18.537654', 'mgs': 0, 'volt': 0.8057, 'depth': 0.089, 'time': 7, 'pitch': -19.2, 'roll': 8.42, 'pres': 165}
{'lipoC2': 7.76, 'lipoC3S1': 3.83, 'temp': 28.38, 'lipoC3S3': 11.64, 'lipoC3S2': 7.68, 'rot1': 0, 'rot0': 0, 'rot3': 20, 'rot2': 15, 'state': 'normal', 'yaw': 1.09, 'datetime': '2018-10-05 20:07:18.547759', 'mgs': 0, 'volt': 0.7959, 'depth': -0.064, 'time': 7, 'pitch': -18.57, 'roll': 8.05, 'pres': 163}
{'lipoC2': 7.75, 'lipoC3S1': 3.85, 'temp': 28.38, 'lipoC3S3': 11.61, 'lipoC3S2': 7.67, 'rot1': 0, 'rot0': 0, 'rot3': 21, 'rot2': 16, 'state': 'normal', 'yaw': 0.92, 'datetime': '2018-10-05 20:07:18.563739', 'mgs': 0, 'volt': 0.8105, 'depth': 0.165, 'time': 7, 'pitch': -18.0, 'roll': 7.63, 'pres': 166}
{'lipoC2': 7.75, 'lipoC3S1': 3.84, 'temp': 28.38, 'lipoC3S3': 11.64, 'lipoC3S2': 7.71, 'rot1': 0, 'rot0': 0, 'rot3': 22, 'rot2': 17, 'state': 'normal', 'yaw': 0.78, 'datetime': '2018-10-05 20:07:18.579801', 'mgs': 0, 'volt': 0.8203, 'depth': 0.317, 'time': 7, 'pitch': -17.56, 'roll': 7.38, 'pres': 168}
{'lipoC2': 7.75, 'lipoC3S1': 3.83, 'temp': 28.38, 'lipoC3S3': 11.64, 'lipoC3S2': 7.69, 'rot1': 0, 'rot0': 0, 'rot3': 23, 'rot2': 18, 'state': 'normal', 'yaw': 0.6, 'datetime': '2018-10-05 20:07:18.589868', 'mgs': 0, 'volt': 0.8252, 'depth': 0.394, 'time': 8, 'pitch': -17.18, 'roll': 7.35, 'pres': 169}
{'lipoC2': 7.75, 'lipoC3S1': 3.85, 'temp': 28.38, 'lipoC3S3': 11.61, 'lipoC3S2': 7.67, 'rot1': 0, 'rot0': 0, 'rot3': 25, 'rot2': 19, 'state': 'normal', 'yaw': 0.35, 'datetime': '2018-10-05 20:07:18.605972', 'mgs': 0, 'volt': 0.8105, 'depth': 0.165, 'time': 8, 'pitch': -16.88, 'roll': 7.49, 'pres': 166}
{'lipoC2': 7.75, 'lipoC3S1': 3.85, 'temp': 28.38, 'lipoC3S3': 11.61, 'lipoC3S2': 7.71, 'rot1': 0, 'rot0': 0, 'rot3': 26, 'rot2': 20, 'state': 'normal', 'yaw': 0.12, 'datetime': '2018-10-05 20:07:18.621533', 'mgs': 0, 'volt': 0.8203, 'depth': 0.317, 'time': 8, 'pitch': -16.7, 'roll': 7.69, 'pres': 168}
{'lipoC2': 7.75, 'lipoC3S1': 3.83, 'temp': 28.38, 'lipoC3S3': 11.67, 'lipoC3S2': 7.69, 'rot1': 0, 'rot0': 0, 'rot3': 27, 'rot2': 21, 'state': 'normal', 'yaw': -0.12, 'datetime': '2018-10-05 20:07:18.631058', 'mgs': 0, 'volt': 0.8252, 'depth': 0.394, 'time': 8, 'pitch': -16.66, 'roll': 7.91, 'pres': 169}
{'lipoC2': 7.75, 'lipoC3S1': 3.83, 'temp': 28.38, 'lipoC3S3': 11.61, 'lipoC3S2': 7.67, 'rot1': 0, 'rot0': 0, 'rot3': 28, 'rot2': 22, 'state': 'normal', 'yaw': -0.41, 'datetime': '2018-10-05 20:07:18.646527', 'mgs': 0, 'volt': 0.8105, 'depth': 0.165, 'time': 8, 'pitch': -16.62, 'roll': 8.12, 'pres': 166}
{'lipoC2': 7.75, 'lipoC3S1': 3.85, 'temp': 28.38, 'lipoC3S3': 11.6, 'lipoC3S2': 7.72, 'rot1': 0, 'rot0': 0, 'rot3': 29, 'rot2': 23, 'state': 'normal', 'yaw': -0.58, 'datetime': '2018-10-05 20:07:18.662068', 'mgs': 0, 'volt': 0.8203, 'depth': 0.317, 'time': 8, 'pitch': -16.59, 'roll': 8.19, 'pres': 168}
{'lipoC2': 7.75, 'lipoC3S1': 3.83, 'temp': 28.38, 'lipoC3S3': 11.65, 'lipoC3S2': 7.69, 'rot1': 0, 'rot0': 0, 'rot3': 30, 'rot2': 24, 'state': 'normal', 'yaw': -0.68, 'datetime': '2018-10-05 20:07:18.671604', 'mgs': 0, 'volt': 0.8301, 'depth': 0.47, 'time': 8, 'pitch': -16.51, 'roll': 8.22, 'pres': 170}
{'lipoC2': 7.75, 'lipoC3S1': 3.83, 'temp': 28.38, 'lipoC3S3': 11.63, 'lipoC3S2': 7.68, 'rot1': 0, 'rot0': 0, 'rot3': 32, 'rot2': 25, 'state': 'normal', 'yaw': -0.87, 'datetime': '2018-10-05 20:07:18.687067', 'mgs': 0, 'volt': 0.8105, 'depth': 0.165, 'time': 8, 'pitch': -16.42, 'roll': 8.27, 'pres': 166}
{'lipoC2': 7.76, 'lipoC3S1': 3.84, 'temp': 28.38, 'lipoC3S3': 11.64, 'lipoC3S2': 7.7, 'rot1': 0, 'rot0': 0, 'rot3': 33, 'rot2': 26, 'state': 'normal', 'yaw': -0.97, 'datetime': '2018-10-05 20:07:18.702562', 'mgs': 0, 'volt': 0.8252, 'depth': 0.394, 'time': 8, 'pitch': -16.4, 'roll': 8.3, 'pres': 169}
{'lipoC2': 7.75, 'lipoC3S1': 3.84, 'temp': 28.44, 'lipoC3S3': 11.63, 'lipoC3S2': 7.69, 'rot1': 0, 'rot0': 0, 'rot3': 34, 'rot2': 27, 'state': 'normal', 'yaw': -0.87, 'datetime': '2018-10-05 20:07:18.712056', 'mgs': 0, 'volt': 0.8154, 'depth': 0.241, 'time': 9, 'pitch': -16.43, 'roll': 8.25, 'pres': 167}
{'lipoC2': 7.75, 'lipoC3S1': 3.75, 'temp': 28.44, 'lipoC3S3': 11.51, 'lipoC3S2': 7.6, 'rot1': 0, 'rot0': 0, 'rot3': 34, 'rot2': 27, 'state': 'normal', 'yaw': -0.67, 'datetime': '2018-10-05 20:07:18.727507', 'mgs': 0, 'volt': 0.8301, 'depth': 0.47, 'time': 9, 'pitch': -16.65, 'roll': 8.19, 'pres': 170}
{'lipoC2': 7.73, 'lipoC3S1': 3.84, 'temp': 28.31, 'lipoC3S3': 11.55, 'lipoC3S2': 7.63, 'rot1': 1, 'rot0': 1, 'rot3': 36, 'rot2': 28, 'state': 'normal', 'yaw': -0.44, 'datetime': '2018-10-05 20:07:18.742970', 'mgs': 0, 'volt': 0.8789, 'depth': 1.233, 'time': 9, 'pitch': -16.67, 'roll': 8.22, 'pres': 180}
{'lipoC2': 7.75, 'lipoC3S1': 3.72, 'temp': 28.31, 'lipoC3S3': 11.55, 'lipoC3S2': 7.58, 'rot1': 2, 'rot0': 2, 'rot3': 37, 'rot2': 29, 'state': 'normal', 'yaw': -0.11, 'datetime': '2018-10-05 20:07:18.752571', 'mgs': 0, 'volt': 0.835, 'depth': 0.546, 'time': 9, 'pitch': -16.15, 'roll': 8.33, 'pres': 171}
{'lipoC2': 7.75, 'lipoC3S1': 3.82, 'temp': 28.25, 'lipoC3S3': 11.44, 'lipoC3S2': 7.61, 'rot1': 3, 'rot0': 3, 'rot3': 38, 'rot2': 30, 'state': 'normal', 'yaw': 0.22, 'datetime': '2018-10-05 20:07:18.768096', 'mgs': 0, 'volt': 0.8447, 'depth': 0.699, 'time': 9, 'pitch': -15.43, 'roll': 8.34, 'pres': 173}
{'lipoC2': 7.75, 'lipoC3S1': 3.79, 'temp': 28.25, 'lipoC3S3': 11.54, 'lipoC3S2': 7.62, 'rot1': 4, 'rot0': 5, 'rot3': 40, 'rot2': 31, 'state': 'normal', 'yaw': 0.49, 'datetime': '2018-10-05 20:07:18.783592', 'mgs': 0, 'volt': 0.8203, 'depth': 0.317, 'time': 9, 'pitch': -14.7, 'roll': 8.28, 'pres': 168}
{'lipoC2': 7.73, 'lipoC3S1': 3.73, 'temp': 28.25, 'lipoC3S3': 11.52, 'lipoC3S2': 7.58, 'rot1': 5, 'rot0': 6, 'rot3': 41, 'rot2': 32, 'state': 'normal', 'yaw': 0.72, 'datetime': '2018-10-05 20:07:18.793222', 'mgs': 0, 'volt': 0.8496, 'depth': 0.775, 'time': 9, 'pitch': -14.02, 'roll': 8.14, 'pres': 174}
{'lipoC2': 7.75, 'lipoC3S1': 3.81, 'temp': 28.25, 'lipoC3S3': 11.48, 'lipoC3S2': 7.56, 'rot1': 6, 'rot0': 7, 'rot3': 42, 'rot2': 33, 'state': 'normal', 'yaw': 0.91, 'datetime': '2018-10-05 20:07:18.808689', 'mgs': 0, 'volt': 0.8545, 'depth': 0.851, 'time': 9, 'pitch': -13.43, 'roll': 7.99, 'pres': 175}
{'lipoC2': 7.76, 'lipoC3S1': 3.81, 'temp': 28.25, 'lipoC3S3': 11.52, 'lipoC3S2': 7.6, 'rot1': 8, 'rot0': 8, 'rot3': 43, 'rot2': 34, 'state': 'normal', 'yaw': 1.03, 'datetime': '2018-10-05 20:07:18.824155', 'mgs': 0, 'volt': 0.8838, 'depth': 1.309, 'time': 9, 'pitch': -12.79, 'roll': 7.82, 'pres': 181}
{'lipoC2': 7.75, 'lipoC3S1': 3.76, 'temp': 28.25, 'lipoC3S3': 11.51, 'lipoC3S2': 7.61, 'rot1': 9, 'rot0': 9, 'rot3': 45, 'rot2': 35, 'state': 'normal', 'yaw': 1.12, 'datetime': '2018-10-05 20:07:18.833641', 'mgs': 0, 'volt': 0.8594, 'depth': 0.928, 'time': 9, 'pitch': -12.25, 'roll': 7.59, 'pres': 176}
{'lipoC2': 7.73, 'lipoC3S1': 3.8, 'temp': 28.25, 'lipoC3S3': 11.38, 'lipoC3S2': 7.59, 'rot1': 10, 'rot0': 10, 'rot3': 46, 'rot2': 36, 'state': 'normal', 'yaw': 1.11, 'datetime': '2018-10-05 20:07:18.849189', 'mgs': 0, 'volt': 0.8691, 'depth': 1.08, 'time': 10, 'pitch': -11.85, 'roll': 7.3, 'pres': 178}
{'lipoC2': 7.75, 'lipoC3S1': 3.72, 'temp': 28.31, 'lipoC3S3': 11.54, 'lipoC3S2': 7.56, 'rot1': 11, 'rot0': 11, 'rot3': 47, 'rot2': 36, 'state': 'normal', 'yaw': 1.04, 'datetime': '2018-10-05 20:07:18.873163', 'mgs': 0, 'volt': 0.8691, 'depth': 1.08, 'time': 10, 'pitch': -11.54, 'roll': 6.95, 'pres': 178}
{'lipoC2': 7.75, 'lipoC3S1': 3.8, 'temp': 28.31, 'lipoC3S3': 11.52, 'lipoC3S2': 7.53, 'rot1': 12, 'rot0': 12, 'rot3': 48, 'rot2': 37, 'state': 'normal', 'yaw': 0.94, 'datetime': '2018-10-05 20:07:18.978557', 'mgs': 0, 'volt': 0.874, 'depth': 1.157, 'time': 10, 'pitch': -11.33, 'roll': 6.61, 'pres': 179}
{'lipoC2': 7.75, 'lipoC3S1': 3.8, 'temp': 28.31, 'lipoC3S3': 11.52, 'lipoC3S2': 7.6, 'rot1': 13, 'rot0': 13, 'rot3': 49, 'rot2': 38, 'state': 'normal', 'yaw': 0.73, 'datetime': '2018-10-05 20:07:19.082538', 'mgs': 0, 'volt': 0.9229, 'depth': 1.92, 'time': 10, 'pitch': -11.2, 'roll': 6.24, 'pres': 189}
{'lipoC2': 7.75, 'lipoC3S1': 3.79, 'temp': 28.38, 'lipoC3S3': 11.51, 'lipoC3S2': 7.6, 'rot1': 14, 'rot0': 14, 'rot3': 51, 'rot2': 39, 'state': 'normal', 'yaw': 0.46, 'datetime': '2018-10-05 20:07:19.186964', 'mgs': 0, 'volt': 0.9473, 'depth': 2.301, 'time': 10, 'pitch': -11.21, 'roll': 6.01, 'pres': 194}
{'lipoC2': 7.75, 'lipoC3S1': 3.8, 'temp': 28.38, 'lipoC3S3': 11.51, 'lipoC3S2': 7.6, 'rot1': 15, 'rot0': 16, 'rot3': 52, 'rot2': 40, 'state': 'normal', 'yaw': 0.17, 'datetime': '2018-10-05 20:07:19.292050', 'mgs': 0, 'volt': 0.9326, 'depth': 2.072, 'time': 10, 'pitch': -11.38, 'roll': 5.85, 'pres': 191}
{'lipoC2': 7.75, 'lipoC3S1': 3.84, 'temp': 28.31, 'lipoC3S3': 11.47, 'lipoC3S2': 7.62, 'rot1': 16, 'rot0': 17, 'rot3': 53, 'rot2': 41, 'state': 'normal', 'yaw': -0.18, 'datetime': '2018-10-05 20:07:19.396161', 'mgs': 0, 'volt': 0.874, 'depth': 1.157, 'time': 10, 'pitch': -11.75, 'roll': 5.81, 'pres': 179}
{'lipoC2': 7.75, 'lipoC3S1': 3.75, 'temp': 28.31, 'lipoC3S3': 11.6, 'lipoC3S2': 7.67, 'rot1': 17, 'rot0': 18, 'rot3': 54, 'rot2': 42, 'state': 'normal', 'yaw': -0.49, 'datetime': '2018-10-05 20:07:19.500158', 'mgs': 0, 'volt': 0.8984, 'depth': 1.538, 'time': 10, 'pitch': -12.06, 'roll': 5.99, 'pres': 184}
{'lipoC2': 7.73, 'lipoC3S1': 3.84, 'temp': 28.38, 'lipoC3S3': 11.54, 'lipoC3S2': 7.66, 'rot1': 18, 'rot0': 19, 'rot3': 54, 'rot2': 42, 'state': 'normal', 'yaw': -0.86, 'datetime': '2018-10-05 20:07:19.604108', 'mgs': 0, 'volt': 0.9229, 'depth': 1.92, 'time': 10, 'pitch': -12.37, 'roll': 6.34, 'pres': 189}
{'lipoC2': 7.75, 'lipoC3S1': 3.81, 'temp': 28.38, 'lipoC3S3': 11.5, 'lipoC3S2': 7.62, 'rot1': 19, 'rot0': 20, 'rot3': 55, 'rot2': 43, 'state': 'normal', 'yaw': -1.15, 'datetime': '2018-10-05 20:07:19.708205', 'mgs': 0, 'volt': 0.8887, 'depth': 1.385, 'time': 11, 'pitch': -12.64, 'roll': 6.74, 'pres': 182}
{'lipoC2': 7.75, 'lipoC3S1': 3.77, 'temp': 28.38, 'lipoC3S3': 11.6, 'lipoC3S2': 7.67, 'rot1': 21, 'rot0': 21, 'rot3': 56, 'rot2': 44, 'state': 'normal', 'yaw': -1.39, 'datetime': '2018-10-05 20:07:19.812196', 'mgs': 0, 'volt': 0.9033, 'depth': 1.614, 'time': 11, 'pitch': -12.94, 'roll': 7.05, 'pres': 185}
{'lipoC2': 7.73, 'lipoC3S1': 3.84, 'temp': 28.31, 'lipoC3S3': 11.55, 'lipoC3S2': 7.66, 'rot1': 22, 'rot0': 22, 'rot3': 57, 'rot2': 44, 'state': 'normal', 'yaw': -1.58, 'datetime': '2018-10-05 20:07:19.916889', 'mgs': 0, 'volt': 0.918, 'depth': 1.843, 'time': 11, 'pitch': -13.23, 'roll': 7.28, 'pres': 188}
{'lipoC2': 7.75, 'lipoC3S1': 3.84, 'temp': 28.31, 'lipoC3S3': 11.4, 'lipoC3S2': 7.62, 'rot1': 23, 'rot0': 23, 'rot3': 57, 'rot2': 45, 'state': 'normal', 'yaw': -1.63, 'datetime': '2018-10-05 20:07:20.022063', 'mgs': 0, 'volt': 0.9033, 'depth': 1.614, 'time': 11, 'pitch': -13.41, 'roll': 7.41, 'pres': 185}
{'lipoC2': 7.75, 'lipoC3S1': 3.76, 'temp': 28.38, 'lipoC3S3': 11.6, 'lipoC3S2': 7.6, 'rot1': 24, 'rot0': 25, 'rot3': 58, 'rot2': 46, 'state': 'normal', 'yaw': -1.6, 'datetime': '2018-10-05 20:07:20.126114', 'mgs': 0, 'volt': 0.918, 'depth': 1.843, 'time': 11, 'pitch': -13.51, 'roll': 7.45, 'pres': 188}
{'lipoC2': 7.75, 'lipoC3S1': 3.82, 'temp': 28.38, 'lipoC3S3': 11.4, 'lipoC3S2': 7.61, 'rot1': 25, 'rot0': 26, 'rot3': 59, 'rot2': 46, 'state': 'normal', 'yaw': -1.5, 'datetime': '2018-10-05 20:07:20.230629', 'mgs': 0, 'volt': 0.9082, 'depth': 1.691, 'time': 11, 'pitch': -13.52, 'roll': 7.44, 'pres': 186}
{'lipoC2': 7.75, 'lipoC3S1': 3.83, 'temp': 28.38, 'lipoC3S3': 11.51, 'lipoC3S2': 7.65, 'rot1': 26, 'rot0': 27, 'rot3': 60, 'rot2': 47, 'state': 'normal', 'yaw': -1.4, 'datetime': '2018-10-05 20:07:20.335491', 'mgs': 0, 'volt': 0.9912, 'depth': 2.988, 'time': 11, 'pitch': -13.53, 'roll': 7.42, 'pres': 203}
{'lipoC2': 7.73, 'lipoC3S1': 3.81, 'temp': 28.38, 'lipoC3S3': 11.52, 'lipoC3S2': 7.61, 'rot1': 27, 'rot0': 28, 'rot3': 61, 'rot2': 48, 'state': 'normal', 'yaw': -1.31, 'datetime': '2018-10-05 20:07:20.442538', 'mgs': 0, 'volt': 0.918, 'depth': 1.843, 'time': 11, 'pitch': -13.53, 'roll': 7.33, 'pres': 188}
{'lipoC2': 7.73, 'lipoC3S1': 3.8, 'temp': 28.38, 'lipoC3S3': 11.52, 'lipoC3S2': 7.6, 'rot1': 28, 'rot0': 29, 'rot3': 62, 'rot2': 49, 'state': 'normal', 'yaw': -1.2, 'datetime': '2018-10-05 20:07:20.544787', 'mgs': 0, 'volt': 0.9229, 'depth': 1.92, 'time': 11, 'pitch': -13.54, 'roll': 7.21, 'pres': 189}
{'lipoC2': 7.75, 'lipoC3S1': 3.81, 'temp': 28.38, 'lipoC3S3': 11.6, 'lipoC3S2': 7.55, 'rot1': 29, 'rot0': 30, 'rot3': 63, 'rot2': 49, 'state': 'normal', 'yaw': -1.1, 'datetime': '2018-10-05 20:07:20.648821', 'mgs': 0, 'volt': 0.918, 'depth': 1.843, 'time': 11, 'pitch': -13.56, 'roll': 7.13, 'pres': 188}
{'lipoC2': 7.75, 'lipoC3S1': 3.83, 'temp': 28.38, 'lipoC3S3': 11.59, 'lipoC3S2': 7.66, 'rot1': 30, 'rot0': 31, 'rot3': 64, 'rot2': 50, 'state': 'normal', 'yaw': -1.1, 'datetime': '2018-10-05 20:07:20.752874', 'mgs': 0, 'volt': 0.9521, 'depth': 2.377, 'time': 12, 'pitch': -13.51, 'roll': 7.04, 'pres': 195}
{'lipoC2': 7.75, 'lipoC3S1': 3.84, 'temp': 28.38, 'lipoC3S3': 11.52, 'lipoC3S2': 7.66, 'rot1': 32, 'rot0': 33, 'rot3': 65, 'rot2': 51, 'state': 'normal', 'yaw': -1.08, 'datetime': '2018-10-05 20:07:20.857035', 'mgs': 0, 'volt': 0.9814, 'depth': 2.835, 'time': 12, 'pitch': -13.36, 'roll': 6.9, 'pres': 201}
{'lipoC2': 7.76, 'lipoC3S1': 3.84, 'temp': 28.38, 'lipoC3S3': 11.5, 'lipoC3S2': 7.67, 'rot1': 33, 'rot0': 34, 'rot3': 65, 'rot2': 51, 'state': 'normal', 'yaw': -1.05, 'datetime': '2018-10-05 20:07:20.961132', 'mgs': 0, 'volt': 0.9424, 'depth': 2.225, 'time': 12, 'pitch': -13.11, 'roll': 6.71, 'pres': 193}
{'lipoC2': 7.76, 'lipoC3S1': 3.76, 'temp': 28.31, 'lipoC3S3': 11.63, 'lipoC3S2': 7.66, 'rot1': 34, 'rot0': 35, 'rot3': 65, 'rot2': 51, 'state': 'normal', 'yaw': -1.0, 'datetime': '2018-10-05 20:07:21.065119', 'mgs': 0, 'volt': 0.9424, 'depth': 2.225, 'time': 12, 'pitch': -12.67, 'roll': 6.63, 'pres': 193}
{'lipoC2': 7.76, 'lipoC3S1': 3.85, 'temp': 28.31, 'lipoC3S3': 11.61, 'lipoC3S2': 7.69, 'rot1': 35, 'rot0': 36, 'rot3': 65, 'rot2': 51, 'state': 'normal', 'yaw': -0.91, 'datetime': '2018-10-05 20:07:21.169060', 'mgs': 0, 'volt': 0.9863, 'depth': 2.911, 'time': 12, 'pitch': -12.08, 'roll': 6.61, 'pres': 202}
{'lipoC2': 7.75, 'lipoC3S1': 3.84, 'temp': 28.31, 'lipoC3S3': 11.52, 'lipoC3S2': 7.67, 'rot1': 36, 'rot0': 37, 'rot3': 65, 'rot2': 51, 'state': 'normal', 'yaw': -0.72, 'datetime': '2018-10-05 20:07:21.273180', 'mgs': 0, 'volt': 0.9521, 'depth': 2.377, 'time': 12, 'pitch': -11.54, 'roll': 6.64, 'pres': 195}
{'lipoC2': 7.75, 'lipoC3S1': 3.81, 'temp': 28.31, 'lipoC3S3': 11.63, 'lipoC3S2': 7.69, 'rot1': 37, 'rot0': 39, 'rot3': 65, 'rot2': 51, 'state': 'normal', 'yaw': -0.48, 'datetime': '2018-10-05 20:07:21.378041', 'mgs': 0, 'volt': 0.957, 'depth': 2.454, 'time': 12, 'pitch': -11.06, 'roll': 6.73, 'pres': 196}
{'lipoC2': 7.73, 'lipoC3S1': 3.85, 'temp': 28.31, 'lipoC3S3': 11.61, 'lipoC3S2': 7.68, 'rot1': 38, 'rot0': 40, 'rot3': 65, 'rot2': 51, 'state': 'normal', 'yaw': -0.19, 'datetime': '2018-10-05 20:07:21.481926', 'mgs': 0, 'volt': 0.957, 'depth': 2.454, 'time': 12, 'pitch': -10.59, 'roll': 6.87, 'pres': 196}
{'lipoC2': 7.73, 'lipoC3S1': 3.84, 'temp': 28.38, 'lipoC3S3': 11.6, 'lipoC3S2': 7.67, 'rot1': 39, 'rot0': 41, 'rot3': 65, 'rot2': 52, 'state': 'normal', 'yaw': 0.06, 'datetime': '2018-10-05 20:07:21.587380', 'mgs': 0, 'volt': 0.9717, 'depth': 2.682, 'time': 12, 'pitch': -10.26, 'roll': 7.03, 'pres': 199}
{'lipoC2': 7.75, 'lipoC3S1': 3.84, 'temp': 28.38, 'lipoC3S3': 11.55, 'lipoC3S2': 7.56, 'rot1': 40, 'rot0': 42, 'rot3': 66, 'rot2': 52, 'state': 'normal', 'yaw': 0.32, 'datetime': '2018-10-05 20:07:21.691416', 'mgs': 0, 'volt': 0.9619, 'depth': 2.53, 'time': 12, 'pitch': -10.04, 'roll': 7.18, 'pres': 197}
{'lipoC2': 7.75, 'lipoC3S1': 3.84, 'temp': 28.38, 'lipoC3S3': 11.55, 'lipoC3S2': 7.55, 'rot1': 41, 'rot0': 43, 'rot3': 66, 'rot2': 52, 'state': 'normal', 'yaw': 0.6, 'datetime': '2018-10-05 20:07:21.796684', 'mgs': 0, 'volt': 0.9619, 'depth': 2.53, 'time': 13, 'pitch': -9.96, 'roll': 7.27, 'pres': 197}
{'lipoC2': 7.76, 'lipoC3S1': 3.76, 'temp': 28.38, 'lipoC3S3': 11.61, 'lipoC3S2': 7.69, 'rot1': 43, 'rot0': 44, 'rot3': 66, 'rot2': 53, 'state': 'normal', 'yaw': 0.95, 'datetime': '2018-10-05 20:07:21.900784', 'mgs': 0, 'volt': 0.9619, 'depth': 2.53, 'time': 13, 'pitch': -9.99, 'roll': 7.38, 'pres': 197}
{'lipoC2': 7.73, 'lipoC3S1': 3.84, 'temp': 28.38, 'lipoC3S3': 11.6, 'lipoC3S2': 7.68, 'rot1': 44, 'rot0': 46, 'rot3': 67, 'rot2': 53, 'state': 'normal', 'yaw': 1.29, 'datetime': '2018-10-05 20:07:22.004799', 'mgs': 0, 'volt': 0.9912, 'depth': 2.988, 'time': 13, 'pitch': -10.04, 'roll': 7.44, 'pres': 203}
{'lipoC2': 7.75, 'lipoC3S1': 3.84, 'temp': 28.38, 'lipoC3S3': 11.51, 'lipoC3S2': 7.67, 'rot1': 45, 'rot0': 47, 'rot3': 67, 'rot2': 53, 'state': 'normal', 'yaw': 1.66, 'datetime': '2018-10-05 20:07:22.108703', 'mgs': 0, 'volt': 0.9619, 'depth': 2.53, 'time': 13, 'pitch': -10.17, 'roll': 7.44, 'pres': 197}
{'lipoC2': 7.75, 'lipoC3S1': 3.75, 'temp': 28.38, 'lipoC3S3': 11.61, 'lipoC3S2': 7.68, 'rot1': 46, 'rot0': 48, 'rot3': 67, 'rot2': 54, 'state': 'normal', 'yaw': 2.11, 'datetime': '2018-10-05 20:07:22.212851', 'mgs': 0, 'volt': 0.9668, 'depth': 2.606, 'time': 13, 'pitch': -10.37, 'roll': 7.38, 'pres': 198}
{'lipoC2': 7.76, 'lipoC3S1': 3.84, 'temp': 28.31, 'lipoC3S3': 11.6, 'lipoC3S2': 7.68, 'rot1': 47, 'rot0': 49, 'rot3': 68, 'rot2': 54, 'state': 'normal', 'yaw': 2.55, 'datetime': '2018-10-05 20:07:22.316929', 'mgs': 0, 'volt': 1.0107, 'depth': 3.293, 'time': 13, 'pitch': -10.56, 'roll': 7.3, 'pres': 207}
{'lipoC2': 7.75, 'lipoC3S1': 3.84, 'temp': 28.31, 'lipoC3S3': 11.6, 'lipoC3S2': 7.68, 'rot1': 48, 'rot0': 50, 'rot3': 68, 'rot2': 54, 'state': 'normal', 'yaw': 2.99, 'datetime': '2018-10-05 20:07:22.421073', 'mgs': 0, 'volt': 0.9961, 'depth': 3.064, 'time': 13, 'pitch': -10.75, 'roll': 7.22, 'pres': 204}
{'lipoC2': 7.75, 'lipoC3S1': 3.84, 'temp': 28.38, 'lipoC3S3': 11.54, 'lipoC3S2': 7.67, 'rot1': 49, 'rot0': 51, 'rot3': 68, 'rot2': 54, 'state': 'normal', 'yaw': 3.51, 'datetime': '2018-10-05 20:07:22.525270', 'mgs': 0, 'volt': 0.9619, 'depth': 2.53, 'time': 13, 'pitch': -10.95, 'roll': 7.12, 'pres': 197}
{'lipoC2': 7.75, 'lipoC3S1': 3.84, 'temp': 28.38, 'lipoC3S3': 11.52, 'lipoC3S2': 7.67, 'rot1': 50, 'rot0': 52, 'rot3': 68, 'rot2': 54, 'state': 'normal', 'yaw': 3.99, 'datetime': '2018-10-05 20:07:22.630530', 'mgs': 0, 'volt': 0.9619, 'depth': 2.53, 'time': 13, 'pitch': -11.05, 'roll': 7.03, 'pres': 197}
{'lipoC2': 7.75, 'lipoC3S1': 3.77, 'temp': 28.38, 'lipoC3S3': 11.63, 'lipoC3S2': 7.68, 'rot1': 51, 'rot0': 53, 'rot3': 68, 'rot2': 54, 'state': 'normal', 'yaw': 4.52, 'datetime': '2018-10-05 20:07:22.734486', 'mgs': 0, 'volt': 0.9619, 'depth': 2.53, 'time': 14, 'pitch': -11.11, 'roll': 6.92, 'pres': 197}
{'lipoC2': 7.75, 'lipoC3S1': 3.76, 'temp': 28.38, 'lipoC3S3': 11.61, 'lipoC3S2': 7.63, 'rot1': 53, 'rot0': 55, 'rot3': 68, 'rot2': 54, 'state': 'normal', 'yaw': 5.01, 'datetime': '2018-10-05 20:07:22.839947', 'mgs': 0, 'volt': 0.9619, 'depth': 2.53, 'time': 14, 'pitch': -11.17, 'roll': 6.75, 'pres': 197}
{'lipoC2': 7.75, 'lipoC3S1': 3.85, 'temp': 28.38, 'lipoC3S3': 11.61, 'lipoC3S2': 7.68, 'rot1': 54, 'rot0': 56, 'rot3': 68, 'rot2': 55, 'state': 'normal', 'yaw': 5.55, 'datetime': '2018-10-05 20:07:22.943943', 'mgs': 0, 'volt': 1.0156, 'depth': 3.369, 'time': 14, 'pitch': -11.31, 'roll': 6.54, 'pres': 208}
{'lipoC2': 7.75, 'lipoC3S1': 3.85, 'temp': 28.38, 'lipoC3S3': 11.61, 'lipoC3S2': 7.69, 'rot1': 55, 'rot0': 57, 'rot3': 69, 'rot2': 55, 'state': 'normal', 'yaw': 5.93, 'datetime': '2018-10-05 20:07:23.049190', 'mgs': 0, 'volt': 1.0205, 'depth': 3.445, 'time': 14, 'pitch': -11.53, 'roll': 6.35, 'pres': 209}
{'lipoC2': 7.75, 'lipoC3S1': 3.84, 'temp': 28.38, 'lipoC3S3': 11.56, 'lipoC3S2': 7.68, 'rot1': 56, 'rot0': 58, 'rot3': 69, 'rot2': 55, 'state': 'normal', 'yaw': 6.18, 'datetime': '2018-10-05 20:07:23.153344', 'mgs': 0, 'volt': 0.957, 'depth': 2.454, 'time': 14, 'pitch': -11.82, 'roll': 6.21, 'pres': 196}
