{'lipoC2': 7.36, 'lipoC3S1': 3.91, 'temp': 26.5, 'lipoC3S3': 11.81, 'lipoC3S2': 7.82, 'rot1': 0, 'rot0': 0, 'rot3': 10, 'rot2': 10, 'state': 'normal', 'yaw': 55.03, 'datetime': '2018-10-09 19:46:21.299391', 'mgs': 0, 'volt': 0.8984, 'depth': 1.538, 'time': 174, 'pitch': -4.38, 'roll': 0.3, 'pres': 184}
{'lipoC2': 7.36, 'lipoC3S1': 3.91, 'temp': 26.5, 'lipoC3S3': 11.81, 'lipoC3S2': 7.82, 'rot1': 0, 'rot0': 0, 'rot3': 10, 'rot2': 10, 'state': 'normal', 'yaw': 55.02, 'datetime': '2018-10-09 19:46:24.330403', 'mgs': 0, 'volt': 0.8984, 'depth': 1.538, 'time': 174, 'pitch': -4.36, 'roll': 0.28, 'pres': 184}
{'lipoC2': 7.36, 'lipoC3S1': 3.91, 'temp': 26.5, 'lipoC3S3': 11.81, 'lipoC3S2': 7.81, 'rot1': 0, 'rot0': 0, 'rot3': 10, 'rot2': 10, 'state': 'normal', 'yaw': 55.05, 'datetime': '2018-10-09 19:46:24.372735', 'mgs': 0, 'volt': 0.8984, 'depth': 1.538, 'time': 174, 'pitch': -4.34, 'roll': 0.2, 'pres': 184}
{'lipoC2': 7.36, 'lipoC3S1': 3.91, 'temp': 26.5, 'lipoC3S3': 11.81, 'lipoC3S2': 7.82, 'rot1': 0, 'rot0': 0, 'rot3': 10, 'rot2': 10, 'state': 'normal', 'yaw': 55.15, 'datetime': '2018-10-09 19:46:24.404858', 'mgs': 0, 'volt': 0.8936, 'depth': 1.462, 'time': 174, 'pitch': -4.31, 'roll': 0.03, 'pres': 183}
{'lipoC2': 7.36, 'lipoC3S1': 3.91, 'temp': 26.5, 'lipoC3S3': 11.81, 'lipoC3S2': 7.82, 'rot1': 0, 'rot0': 0, 'rot3': 10, 'rot2': 10, 'state': 'normal', 'yaw': 55.26, 'datetime': '2018-10-09 19:46:24.424857', 'mgs': 0, 'volt': 0.8984, 'depth': 1.538, 'time': 174, 'pitch': -4.3, 'roll': -0.15, 'pres': 184}
{'lipoC2': 7.36, 'lipoC3S1': 3.91, 'temp': 26.5, 'lipoC3S3': 11.81, 'lipoC3S2': 7.82, 'rot1': 0, 'rot0': 0, 'rot3': 10, 'rot2': 10, 'state': 'normal', 'yaw': 55.42, 'datetime': '2018-10-09 19:46:24.441078', 'mgs': 0, 'volt': 0.8984, 'depth': 1.538, 'time': 174, 'pitch': -4.29, 'roll': -0.35, 'pres': 184}
{'lipoC2': 7.36, 'lipoC3S1': 3.91, 'temp': 26.5, 'lipoC3S3': 11.81, 'lipoC3S2': 7.82, 'rot1': 0, 'rot0': 0, 'rot3': 10, 'rot2': 10, 'state': 'normal', 'yaw': 55.61, 'datetime': '2018-10-09 19:46:24.460400', 'mgs': 0, 'volt': 0.8984, 'depth': 1.538, 'time': 174, 'pitch': -4.29, 'roll': -0.57, 'pres': 184}
{'lipoC2': 7.36, 'lipoC3S1': 3.91, 'temp': 26.56, 'lipoC3S3': 11.81, 'lipoC3S2': 7.81, 'rot1': 0, 'rot0': 0, 'rot3': 10, 'rot2': 10, 'state': 'normal', 'yaw': 55.79, 'datetime': '2018-10-09 19:46:24.479828', 'mgs': 0, 'volt': 0.8984, 'depth': 1.538, 'time': 174, 'pitch': -4.25, 'roll': -0.76, 'pres': 184}
{'lipoC2': 7.36, 'lipoC3S1': 3.91, 'temp': 26.56, 'lipoC3S3': 11.81, 'lipoC3S2': 7.81, 'rot1': 0, 'rot0': 0, 'rot3': 10, 'rot2': 10, 'state': 'normal', 'yaw': 55.97, 'datetime': '2018-10-09 19:46:24.499273', 'mgs': 0, 'volt': 0.8936, 'depth': 1.462, 'time': 175, 'pitch': -4.1, 'roll': -0.92, 'pres': 183}
{'lipoC2': 7.36, 'lipoC3S1': 3.91, 'temp': 26.5, 'lipoC3S3': 11.81, 'lipoC3S2': 7.82, 'rot1': 0, 'rot0': 0, 'rot3': 10, 'rot2': 10, 'state': 'normal', 'yaw': 56.13, 'datetime': '2018-10-09 19:46:24.518902', 'mgs': 0, 'volt': 0.8984, 'depth': 1.538, 'time': 175, 'pitch': -3.98, 'roll': -1.01, 'pres': 184}
{'lipoC2': 7.36, 'lipoC3S1': 3.91, 'temp': 26.5, 'lipoC3S3': 11.81, 'lipoC3S2': 7.81, 'rot1': 0, 'rot0': 0, 'rot3': 10, 'rot2': 10, 'state': 'normal', 'yaw': 56.23, 'datetime': '2018-10-09 19:46:24.538684', 'mgs': 0, 'volt': 0.8936, 'depth': 1.462, 'time': 175, 'pitch': -3.95, 'roll': -1.02, 'pres': 183}
{'lipoC2': 7.36, 'lipoC3S1': 3.91, 'temp': 26.56, 'lipoC3S3': 11.81, 'lipoC3S2': 7.81, 'rot1': 0, 'rot0': 0, 'rot3': 10, 'rot2': 10, 'state': 'normal', 'yaw': 56.28, 'datetime': '2018-10-09 19:46:24.558133', 'mgs': 0, 'volt': 0.8936, 'depth': 1.462, 'time': 175, 'pitch': -4.05, 'roll': -0.96, 'pres': 183}
{'lipoC2': 7.36, 'lipoC3S1': 3.91, 'temp': 26.56, 'lipoC3S3': 11.81, 'lipoC3S2': 7.81, 'rot1': 0, 'rot0': 0, 'rot3': 10, 'rot2': 10, 'state': 'normal', 'yaw': 56.28, 'datetime': '2018-10-09 19:46:24.577532', 'mgs': 0, 'volt': 0.8936, 'depth': 1.462, 'time': 175, 'pitch': -4.24, 'roll': -0.79, 'pres': 183}
{'lipoC2': 7.36, 'lipoC3S1': 3.91, 'temp': 26.56, 'lipoC3S3': 11.81, 'lipoC3S2': 7.81, 'rot1': 0, 'rot0': 0, 'rot3': 10, 'rot2': 10, 'state': 'normal', 'yaw': 56.29, 'datetime': '2018-10-09 19:46:24.596913', 'mgs': 0, 'volt': 0.8984, 'depth': 1.538, 'time': 175, 'pitch': -4.43, 'roll': -0.6, 'pres': 184}
{'lipoC2': 7.36, 'lipoC3S1': 3.91, 'temp': 26.44, 'lipoC3S3': 11.81, 'lipoC3S2': 7.81, 'rot1': 0, 'rot0': 0, 'rot3': 10, 'rot2': 10, 'state': 'normal', 'yaw': 56.29, 'datetime': '2018-10-09 19:46:24.617345', 'mgs': 0, 'volt': 0.8984, 'depth': 1.538, 'time': 175, 'pitch': -4.57, 'roll': -0.39, 'pres': 184}
{'lipoC2': 7.36, 'lipoC3S1': 3.91, 'temp': 26.44, 'lipoC3S3': 11.81, 'lipoC3S2': 7.81, 'rot1': 0, 'rot0': 0, 'rot3': 10, 'rot2': 10, 'state': 'normal', 'yaw': 56.29, 'datetime': '2018-10-09 19:46:24.637674', 'mgs': 0, 'volt': 0.8984, 'depth': 1.538, 'time': 175, 'pitch': -4.68, 'roll': -0.14, 'pres': 184}
{'lipoC2': 7.36, 'lipoC3S1': 3.91, 'temp': 26.5, 'lipoC3S3': 11.81, 'lipoC3S2': 7.81, 'rot1': 0, 'rot0': 0, 'rot3': 10, 'rot2': 10, 'state': 'normal', 'yaw': 56.29, 'datetime': '2018-10-09 19:46:24.657131', 'mgs': 0, 'volt': 0.8984, 'depth': 1.538, 'time': 175, 'pitch': -4.74, 'roll': 0.08, 'pres': 184}
{'lipoC2': 7.36, 'lipoC3S1': 3.91, 'temp': 26.5, 'lipoC3S3': 11.81, 'lipoC3S2': 7.81, 'rot1': 0, 'rot0': 0, 'rot3': 10, 'rot2': 10, 'state': 'normal', 'yaw': 56.3, 'datetime': '2018-10-09 19:46:24.676505', 'mgs': 0, 'volt': 0.8984, 'depth': 1.538, 'time': 175, 'pitch': -4.79, 'roll': 0.26, 'pres': 184}
{'lipoC2': 7.36, 'lipoC3S1': 3.91, 'temp': 26.5, 'lipoC3S3': 11.81, 'lipoC3S2': 7.81, 'rot1': 0, 'rot0': 0, 'rot3': 10, 'rot2': 10, 'state': 'normal', 'yaw': 56.29, 'datetime': '2018-10-09 19:46:24.695933', 'mgs': 0, 'volt': 0.8984, 'depth': 1.538, 'time': 176, 'pitch': -4.78, 'roll': 0.39, 'pres': 184}
{'lipoC2': 7.36, 'lipoC3S1': 3.91, 'temp': 26.5, 'lipoC3S3': 11.81, 'lipoC3S2': 7.81, 'rot1': 0, 'rot0': 0, 'rot3': 10, 'rot2': 10, 'state': 'normal', 'yaw': 56.3, 'datetime': '2018-10-09 19:46:24.715294', 'mgs': 0, 'volt': 0.8936, 'depth': 1.462, 'time': 176, 'pitch': -4.75, 'roll': 0.46, 'pres': 183}
{'lipoC2': 7.36, 'lipoC3S1': 3.91, 'temp': 26.5, 'lipoC3S3': 11.81, 'lipoC3S2': 7.81, 'rot1': 0, 'rot0': 0, 'rot3': 10, 'rot2': 10, 'state': 'normal', 'yaw': 56.3, 'datetime': '2018-10-09 19:46:24.733667', 'mgs': 0, 'volt': 0.8984, 'depth': 1.538, 'time': 176, 'pitch': -4.7, 'roll': 0.45, 'pres': 184}
{'lipoC2': 7.36, 'lipoC3S1': 3.91, 'temp': 26.56, 'lipoC3S3': 11.81, 'lipoC3S2': 7.81, 'rot1': 0, 'rot0': 0, 'rot3': 10, 'rot2': 10, 'state': 'normal', 'yaw': 56.3, 'datetime': '2018-10-09 19:46:24.749849', 'mgs': 0, 'volt': 0.8984, 'depth': 1.538, 'time': 176, 'pitch': -4.67, 'roll': 0.41, 'pres': 184}
{'lipoC2': 7.36, 'lipoC3S1': 3.91, 'temp': 26.56, 'lipoC3S3': 11.81, 'lipoC3S2': 7.81, 'rot1': 0, 'rot0': 0, 'rot3': 10, 'rot2': 10, 'state': 'normal', 'yaw': 56.29, 'datetime': '2018-10-09 19:46:24.765996', 'mgs': 0, 'volt': 0.8984, 'depth': 1.538, 'time': 176, 'pitch': -4.68, 'roll': 0.31, 'pres': 184}
{'lipoC2': 7.36, 'lipoC3S1': 3.91, 'temp': 26.5, 'lipoC3S3': 11.81, 'lipoC3S2': 7.81, 'rot1': 0, 'rot0': 0, 'rot3': 10, 'rot2': 10, 'state': 'normal', 'yaw': 56.3, 'datetime': '2018-10-09 19:46:24.782142', 'mgs': 0, 'volt': 0.8984, 'depth': 1.538, 'time': 176, 'pitch': -4.67, 'roll': 0.16, 'pres': 184}
{'lipoC2': 7.36, 'lipoC3S1': 3.91, 'temp': 26.5, 'lipoC3S3': 11.81, 'lipoC3S2': 7.81, 'rot1': 0, 'rot0': 0, 'rot3': 10, 'rot2': 10, 'state': 'normal', 'yaw': 56.3, 'datetime': '2018-10-09 19:46:24.801478', 'mgs': 0, 'volt': 0.8984, 'depth': 1.538, 'time': 176, 'pitch': -4.68, 'roll': -0.02, 'pres': 184}
{'lipoC2': 7.36, 'lipoC3S1': 3.91, 'temp': 26.5, 'lipoC3S3': 11.81, 'lipoC3S2': 7.81, 'rot1': 0, 'rot0': 0, 'rot3': 0, 'rot2': 0, 'state': 'normal', 'yaw': -0.0, 'datetime': '2018-10-09 19:46:24.821331', 'mgs': 0, 'volt': 0.9033, 'depth': 1.614, 'time': 1, 'pitch': -4.63, 'roll': -0.16, 'pres': 185}
{'lipoC2': 7.36, 'lipoC3S1': 3.91, 'temp': 26.5, 'lipoC3S3': 11.81, 'lipoC3S2': 7.81, 'rot1': 0, 'rot0': 0, 'rot3': 0, 'rot2': 0, 'state': 'normal', 'yaw': 0.01, 'datetime': '2018-10-09 19:46:24.840389', 'mgs': 0, 'volt': 0.8984, 'depth': 1.538, 'time': 1, 'pitch': -4.59, 'roll': 0.02, 'pres': 184}
{'lipoC2': 7.36, 'lipoC3S1': 3.91, 'temp': 26.5, 'lipoC3S3': 11.81, 'lipoC3S2': 7.81, 'rot1': 0, 'rot0': 0, 'rot3': 0, 'rot2': 0, 'state': 'normal', 'yaw': 0.01, 'datetime': '2018-10-09 19:46:24.859746', 'mgs': 0, 'volt': 0.8984, 'depth': 1.538, 'time': 1, 'pitch': -4.57, 'roll': 0.2, 'pres': 184}
{'lipoC2': 7.36, 'lipoC3S1': 3.91, 'temp': 26.5, 'lipoC3S3': 11.81, 'lipoC3S2': 7.81, 'rot1': 0, 'rot0': 0, 'rot3': 0, 'rot2': 0, 'state': 'normal', 'yaw': 0.01, 'datetime': '2018-10-09 19:46:24.878966', 'mgs': 0, 'volt': 0.8984, 'depth': 1.538, 'time': 1, 'pitch': -4.62, 'roll': 0.33, 'pres': 184}
{'lipoC2': 7.36, 'lipoC3S1': 3.91, 'temp': 26.5, 'lipoC3S3': 11.83, 'lipoC3S2': 7.82, 'rot1': 0, 'rot0': 0, 'rot3': 0, 'rot2': 0, 'state': 'normal', 'yaw': 0.01, 'datetime': '2018-10-09 19:46:24.898185', 'mgs': 0, 'volt': 0.9033, 'depth': 1.614, 'time': 1, 'pitch': -4.69, 'roll': 0.4, 'pres': 185}
{'lipoC2': 7.36, 'lipoC3S1': 3.91, 'temp': 26.5, 'lipoC3S3': 11.81, 'lipoC3S2': 7.81, 'rot1': 0, 'rot0': 0, 'rot3': 0, 'rot2': 0, 'state': 'normal', 'yaw': 0.01, 'datetime': '2018-10-09 19:46:24.917195', 'mgs': 0, 'volt': 0.8984, 'depth': 1.538, 'time': 1, 'pitch': -4.71, 'roll': 0.41, 'pres': 184}
{'lipoC2': 7.36, 'lipoC3S1': 3.91, 'temp': 26.5, 'lipoC3S3': 11.83, 'lipoC3S2': 7.81, 'rot1': 0, 'rot0': 0, 'rot3': 0, 'rot2': 0, 'state': 'normal', 'yaw': 0.01, 'datetime': '2018-10-09 19:46:24.933914', 'mgs': 0, 'volt': 0.8984, 'depth': 1.538, 'time': 1, 'pitch': -4.68, 'roll': 0.39, 'pres': 184}
{'lipoC2': 7.36, 'lipoC3S1': 3.91, 'temp': 26.5, 'lipoC3S3': 11.81, 'lipoC3S2': 7.81, 'rot1': 0, 'rot0': 0, 'rot3': 0, 'rot2': 0, 'state': 'normal', 'yaw': 0.01, 'datetime': '2018-10-09 19:46:24.949491', 'mgs': 0, 'volt': 0.8984, 'depth': 1.538, 'time': 1, 'pitch': -4.63, 'roll': 0.39, 'pres': 184}
{'lipoC2': 7.36, 'lipoC3S1': 3.91, 'temp': 26.5, 'lipoC3S3': 11.81, 'lipoC3S2': 7.81, 'rot1': 0, 'rot0': 0, 'rot3': 0, 'rot2': 0, 'state': 'normal', 'yaw': 0.01, 'datetime': '2018-10-09 19:46:24.965133', 'mgs': 0, 'volt': 0.8984, 'depth': 1.538, 'time': 2, 'pitch': -4.52, 'roll': 0.33, 'pres': 184}
{'lipoC2': 7.36, 'lipoC3S1': 3.91, 'temp': 26.5, 'lipoC3S3': 11.81, 'lipoC3S2': 7.81, 'rot1': 0, 'rot0': 0, 'rot3': 0, 'rot2': 0, 'state': 'normal', 'yaw': 0.01, 'datetime': '2018-10-09 19:46:24.980816', 'mgs': 0, 'volt': 0.8984, 'depth': 1.538, 'time': 2, 'pitch': -4.43, 'roll': 0.21, 'pres': 184}
{'lipoC2': 7.36, 'lipoC3S1': 3.91, 'temp': 26.5, 'lipoC3S3': 11.81, 'lipoC3S2': 7.81, 'rot1': 0, 'rot0': 0, 'rot3': 0, 'rot2': 0, 'state': 'normal', 'yaw': 0.01, 'datetime': '2018-10-09 19:46:24.996470', 'mgs': 0, 'volt': 0.8984, 'depth': 1.538, 'time': 2, 'pitch': -4.41, 'roll': 0.06, 'pres': 184}
{'lipoC2': 7.36, 'lipoC3S1': 3.91, 'temp': 26.5, 'lipoC3S3': 11.81, 'lipoC3S2': 7.81, 'rot1': 0, 'rot0': 0, 'rot3': 0, 'rot2': 0, 'state': 'normal', 'yaw': 0.01, 'datetime': '2018-10-09 19:46:25.012157', 'mgs': 0, 'volt': 0.8984, 'depth': 1.538, 'time': 2, 'pitch': -4.41, 'roll': -0.12, 'pres': 184}
{'lipoC2': 7.36, 'lipoC3S1': 3.91, 'temp': 26.5, 'lipoC3S3': 11.81, 'lipoC3S2': 7.82, 'rot1': 0, 'rot0': 0, 'rot3': 0, 'rot2': 0, 'state': 'normal', 'yaw': 0.01, 'datetime': '2018-10-09 19:46:25.029193', 'mgs': 0, 'volt': 0.8984, 'depth': 1.538, 'time': 2, 'pitch': -4.41, 'roll': -0.32, 'pres': 184}
{'lipoC2': 7.36, 'lipoC3S1': 3.91, 'temp': 26.5, 'lipoC3S3': 11.81, 'lipoC3S2': 7.82, 'rot1': 0, 'rot0': 0, 'rot3': 0, 'rot2': 0, 'state': 'normal', 'yaw': 0.01, 'datetime': '2018-10-09 19:46:25.046338', 'mgs': 0, 'volt': 0.9033, 'depth': 1.614, 'time': 2, 'pitch': -4.41, 'roll': -0.46, 'pres': 185}
{'lipoC2': 7.36, 'lipoC3S1': 3.91, 'temp': 26.5, 'lipoC3S3': 11.81, 'lipoC3S2': 7.82, 'rot1': 0, 'rot0': 0, 'rot3': 0, 'rot2': 0, 'state': 'normal', 'yaw': 0.01, 'datetime': '2018-10-09 19:46:25.062003', 'mgs': 0, 'volt': 0.8984, 'depth': 1.538, 'time': 2, 'pitch': -4.37, 'roll': -0.58, 'pres': 184}
{'lipoC2': 7.36, 'lipoC3S1': 3.91, 'temp': 26.5, 'lipoC3S3': 11.81, 'lipoC3S2': 7.82, 'rot1': 0, 'rot0': 0, 'rot3': 0, 'rot2': 0, 'state': 'normal', 'yaw': 0.02, 'datetime': '2018-10-09 19:46:25.077583', 'mgs': 0, 'volt': 0.8984, 'depth': 1.538, 'time': 2, 'pitch': -4.37, 'roll': -0.66, 'pres': 184}
{'lipoC2': 7.36, 'lipoC3S1': 3.91, 'temp': 26.44, 'lipoC3S3': 11.81, 'lipoC3S2': 7.81, 'rot1': 0, 'rot0': 0, 'rot3': 0, 'rot2': 0, 'state': 'normal', 'yaw': 0.02, 'datetime': '2018-10-09 19:46:25.093317', 'mgs': 0, 'volt': 0.8984, 'depth': 1.538, 'time': 2, 'pitch': -4.37, 'roll': -0.7, 'pres': 184}
{'lipoC2': 7.35, 'lipoC3S1': 3.89, 'temp': 26.44, 'lipoC3S3': 11.67, 'lipoC3S2': 7.76, 'rot1': 0, 'rot0': 0, 'rot3': 0, 'rot2': 0, 'state': 'normal', 'yaw': 0.02, 'datetime': '2018-10-09 19:46:25.108915', 'mgs': 0, 'volt': 0.9033, 'depth': 1.614, 'time': 3, 'pitch': -4.39, 'roll': -0.73, 'pres': 185}
{'lipoC2': 7.36, 'lipoC3S1': 3.89, 'temp': 26.44, 'lipoC3S3': 11.73, 'lipoC3S2': 7.73, 'rot1': 0, 'rot0': 0, 'rot3': 1, 'rot2': 1, 'state': 'normal', 'yaw': -0.01, 'datetime': '2018-10-09 19:46:25.124495', 'mgs': 0, 'volt': 0.8984, 'depth': 1.538, 'time': 3, 'pitch': -4.32, 'roll': -0.65, 'pres': 184}
{'lipoC2': 7.35, 'lipoC3S1': 3.86, 'temp': 26.5, 'lipoC3S3': 11.77, 'lipoC3S2': 7.78, 'rot1': 0, 'rot0': 0, 'rot3': 1, 'rot2': 1, 'state': 'normal', 'yaw': -0.29, 'datetime': '2018-10-09 19:46:25.142063', 'mgs': 0, 'volt': 0.8984, 'depth': 1.538, 'time': 3, 'pitch': -4.08, 'roll': -0.39, 'pres': 184}
{'lipoC2': 7.35, 'lipoC3S1': 3.87, 'temp': 26.5, 'lipoC3S3': 11.77, 'lipoC3S2': 7.71, 'rot1': 1, 'rot0': 1, 'rot3': 2, 'rot2': 2, 'state': 'normal', 'yaw': -0.8, 'datetime': '2018-10-09 19:46:25.158610', 'mgs': 0, 'volt': 0.8984, 'depth': 1.538, 'time': 3, 'pitch': -3.72, 'roll': -0.05, 'pres': 184}
{'lipoC2': 7.35, 'lipoC3S1': 3.88, 'temp': 26.44, 'lipoC3S3': 11.77, 'lipoC3S2': 7.78, 'rot1': 1, 'rot0': 1, 'rot3': 3, 'rot2': 2, 'state': 'normal', 'yaw': -1.54, 'datetime': '2018-10-09 19:46:25.177280', 'mgs': 0, 'volt': 0.9082, 'depth': 1.691, 'time': 3, 'pitch': -3.27, 'roll': 0.38, 'pres': 186}
{'lipoC2': 7.35, 'lipoC3S1': 3.9, 'temp': 26.44, 'lipoC3S3': 11.71, 'lipoC3S2': 7.78, 'rot1': 1, 'rot0': 2, 'rot3': 3, 'rot2': 3, 'state': 'normal', 'yaw': -2.33, 'datetime': '2018-10-09 19:46:25.192718', 'mgs': 0, 'volt': 0.9131, 'depth': 1.767, 'time': 3, 'pitch': -2.85, 'roll': 0.79, 'pres': 187}
{'lipoC2': 7.36, 'lipoC3S1': 3.89, 'temp': 26.5, 'lipoC3S3': 11.75, 'lipoC3S2': 7.73, 'rot1': 2, 'rot0': 2, 'rot3': 4, 'rot2': 4, 'state': 'normal', 'yaw': -2.95, 'datetime': '2018-10-09 19:46:25.208128', 'mgs': 0, 'volt': 0.8887, 'depth': 1.385, 'time': 3, 'pitch': -2.5, 'roll': 1.11, 'pres': 182}
{'lipoC2': 7.35, 'lipoC3S1': 3.86, 'temp': 26.5, 'lipoC3S3': 11.77, 'lipoC3S2': 7.76, 'rot1': 2, 'rot0': 2, 'rot3': 5, 'rot2': 4, 'state': 'normal', 'yaw': -3.46, 'datetime': '2018-10-09 19:46:25.223608', 'mgs': 0, 'volt': 0.8887, 'depth': 1.385, 'time': 3, 'pitch': -2.18, 'roll': 1.39, 'pres': 182}
{'lipoC2': 7.35, 'lipoC3S1': 3.88, 'temp': 26.5, 'lipoC3S3': 11.77, 'lipoC3S2': 7.79, 'rot1': 2, 'rot0': 2, 'rot3': 5, 'rot2': 5, 'state': 'normal', 'yaw': -3.82, 'datetime': '2018-10-09 19:46:25.250402', 'mgs': 0, 'volt': 0.9082, 'depth': 1.691, 'time': 3, 'pitch': -1.91, 'roll': 1.52, 'pres': 186}
{'lipoC2': 7.35, 'lipoC3S1': 3.9, 'temp': 26.44, 'lipoC3S3': 11.76, 'lipoC3S2': 7.78, 'rot1': 2, 'rot0': 2, 'rot3': 6, 'rot2': 5, 'state': 'normal', 'yaw': -4.12, 'datetime': '2018-10-09 19:46:25.353553', 'mgs': 0, 'volt': 0.8936, 'depth': 1.462, 'time': 3, 'pitch': -1.74, 'roll': 1.6, 'pres': 183}
{'lipoC2': 7.36, 'lipoC3S1': 3.89, 'temp': 26.44, 'lipoC3S3': 11.76, 'lipoC3S2': 7.78, 'rot1': 3, 'rot0': 3, 'rot3': 7, 'rot2': 6, 'state': 'normal', 'yaw': -4.35, 'datetime': '2018-10-09 19:46:25.457134', 'mgs': 0, 'volt': 0.8984, 'depth': 1.538, 'time': 4, 'pitch': -1.58, 'roll': 1.58, 'pres': 184}
{'lipoC2': 7.35, 'lipoC3S1': 3.9, 'temp': 26.5, 'lipoC3S3': 11.77, 'lipoC3S2': 7.78, 'rot1': 3, 'rot0': 3, 'rot3': 7, 'rot2': 7, 'state': 'normal', 'yaw': -4.56, 'datetime': '2018-10-09 19:46:25.560374', 'mgs': 0, 'volt': 0.8838, 'depth': 1.309, 'time': 4, 'pitch': -1.44, 'roll': 1.53, 'pres': 181}
{'lipoC2': 7.36, 'lipoC3S1': 3.86, 'temp': 26.5, 'lipoC3S3': 11.77, 'lipoC3S2': 7.77, 'rot1': 3, 'rot0': 3, 'rot3': 8, 'rot2': 7, 'state': 'normal', 'yaw': -4.7, 'datetime': '2018-10-09 19:46:25.664155', 'mgs': 0, 'volt': 0.874, 'depth': 1.157, 'time': 4, 'pitch': -1.39, 'roll': 1.45, 'pres': 179}
{'lipoC2': 7.36, 'lipoC3S1': 3.9, 'temp': 26.44, 'lipoC3S3': 11.8, 'lipoC3S2': 7.8, 'rot1': 3, 'rot0': 3, 'rot3': 9, 'rot2': 8, 'state': 'normal', 'yaw': -4.79, 'datetime': '2018-10-09 19:46:25.767922', 'mgs': 0, 'volt': 0.8691, 'depth': 1.08, 'time': 4, 'pitch': -1.35, 'roll': 1.3, 'pres': 178}
{'lipoC2': 7.36, 'lipoC3S1': 3.9, 'temp': 26.44, 'lipoC3S3': 11.75, 'lipoC3S2': 7.8, 'rot1': 4, 'rot0': 4, 'rot3': 9, 'rot2': 8, 'state': 'normal', 'yaw': -4.84, 'datetime': '2018-10-09 19:46:25.875532', 'mgs': 0, 'volt': 0.8691, 'depth': 1.08, 'time': 4, 'pitch': -1.49, 'roll': 1.02, 'pres': 178}
{'lipoC2': 7.36, 'lipoC3S1': 3.9, 'temp': 26.44, 'lipoC3S3': 11.8, 'lipoC3S2': 7.8, 'rot1': 4, 'rot0': 4, 'rot3': 9, 'rot2': 8, 'state': 'normal', 'yaw': -4.83, 'datetime': '2018-10-09 19:46:25.982236', 'mgs': 0, 'volt': 0.8643, 'depth': 1.004, 'time': 4, 'pitch': -1.8, 'roll': 0.72, 'pres': 177}
{'lipoC2': 7.36, 'lipoC3S1': 3.9, 'temp': 26.5, 'lipoC3S3': 11.8, 'lipoC3S2': 7.8, 'rot1': 4, 'rot0': 4, 'rot3': 9, 'rot2': 8, 'state': 'normal', 'yaw': -4.72, 'datetime': '2018-10-09 19:46:26.086000', 'mgs': 0, 'volt': 0.8643, 'depth': 1.004, 'time': 4, 'pitch': -2.17, 'roll': 0.39, 'pres': 177}
{'lipoC2': 7.36, 'lipoC3S1': 3.9, 'temp': 26.5, 'lipoC3S3': 11.84, 'lipoC3S2': 7.8, 'rot1': 5, 'rot0': 5, 'rot3': 9, 'rot2': 8, 'state': 'normal', 'yaw': -4.56, 'datetime': '2018-10-09 19:46:26.189299', 'mgs': 0, 'volt': 0.8594, 'depth': 0.928, 'time': 4, 'pitch': -2.5, 'roll': 0.11, 'pres': 176}
{'lipoC2': 7.36, 'lipoC3S1': 3.9, 'temp': 26.56, 'lipoC3S3': 11.8, 'lipoC3S2': 7.83, 'rot1': 5, 'rot0': 5, 'rot3': 9, 'rot2': 8, 'state': 'normal', 'yaw': -4.34, 'datetime': '2018-10-09 19:46:26.292502', 'mgs': 0, 'volt': 0.8594, 'depth': 0.928, 'time': 4, 'pitch': -2.8, 'roll': -0.12, 'pres': 176}
{'lipoC2': 7.36, 'lipoC3S1': 3.9, 'temp': 26.56, 'lipoC3S3': 11.8, 'lipoC3S2': 7.8, 'rot1': 5, 'rot0': 5, 'rot3': 9, 'rot2': 8, 'state': 'normal', 'yaw': -4.07, 'datetime': '2018-10-09 19:46:26.397196', 'mgs': 0, 'volt': 0.8594, 'depth': 0.928, 'time': 4, 'pitch': -3.08, 'roll': -0.32, 'pres': 176}
{'lipoC2': 7.36, 'lipoC3S1': 3.9, 'temp': 26.5, 'lipoC3S3': 11.8, 'lipoC3S2': 7.8, 'rot1': 5, 'rot0': 5, 'rot3': 9, 'rot2': 8, 'state': 'normal', 'yaw': -3.73, 'datetime': '2018-10-09 19:46:26.497966', 'mgs': 0, 'volt': 0.8545, 'depth': 0.851, 'time': 5, 'pitch': -3.32, 'roll': -0.54, 'pres': 175}
{'lipoC2': 7.36, 'lipoC3S1': 3.9, 'temp': 26.5, 'lipoC3S3': 11.8, 'lipoC3S2': 7.8, 'rot1': 6, 'rot0': 6, 'rot3': 9, 'rot2': 8, 'state': 'normal', 'yaw': -3.39, 'datetime': '2018-10-09 19:46:26.602346', 'mgs': 0, 'volt': 0.8545, 'depth': 0.851, 'time': 5, 'pitch': -3.47, 'roll': -0.67, 'pres': 175}
{'lipoC2': 7.36, 'lipoC3S1': 3.9, 'temp': 26.5, 'lipoC3S3': 11.8, 'lipoC3S2': 7.8, 'rot1': 6, 'rot0': 6, 'rot3': 9, 'rot2': 8, 'state': 'normal', 'yaw': -2.99, 'datetime': '2018-10-09 19:46:26.705443', 'mgs': 0, 'volt': 0.8545, 'depth': 0.851, 'time': 5, 'pitch': -3.57, 'roll': -0.75, 'pres': 175}
{'lipoC2': 7.36, 'lipoC3S1': 3.9, 'temp': 26.5, 'lipoC3S3': 11.76, 'lipoC3S2': 7.8, 'rot1': 6, 'rot0': 6, 'rot3': 9, 'rot2': 8, 'state': 'normal', 'yaw': -2.55, 'datetime': '2018-10-09 19:46:26.808940', 'mgs': 0, 'volt': 0.8545, 'depth': 0.851, 'time': 5, 'pitch': -3.55, 'roll': -0.83, 'pres': 175}
{'lipoC2': 7.36, 'lipoC3S1': 3.9, 'temp': 26.5, 'lipoC3S3': 11.8, 'lipoC3S2': 7.8, 'rot1': 6, 'rot0': 7, 'rot3': 9, 'rot2': 8, 'state': 'normal', 'yaw': -2.09, 'datetime': '2018-10-09 19:46:26.911923', 'mgs': 0, 'volt': 0.8594, 'depth': 0.928, 'time': 5, 'pitch': -3.53, 'roll': -0.84, 'pres': 176}
{'lipoC2': 7.36, 'lipoC3S1': 3.9, 'temp': 26.44, 'lipoC3S3': 11.8, 'lipoC3S2': 7.8, 'rot1': 7, 'rot0': 7, 'rot3': 9, 'rot2': 8, 'state': 'normal', 'yaw': -1.61, 'datetime': '2018-10-09 19:46:27.015325', 'mgs': 0, 'volt': 0.8594, 'depth': 0.928, 'time': 5, 'pitch': -3.48, 'roll': -0.78, 'pres': 176}
{'lipoC2': 7.36, 'lipoC3S1': 3.9, 'temp': 26.44, 'lipoC3S3': 11.8, 'lipoC3S2': 7.8, 'rot1': 7, 'rot0': 7, 'rot3': 9, 'rot2': 8, 'state': 'normal', 'yaw': -1.03, 'datetime': '2018-10-09 19:46:27.118487', 'mgs': 0, 'volt': 0.8545, 'depth': 0.851, 'time': 5, 'pitch': -3.35, 'roll': -0.65, 'pres': 175}
{'lipoC2': 7.36, 'lipoC3S1': 3.9, 'temp': 26.5, 'lipoC3S3': 11.8, 'lipoC3S2': 7.8, 'rot1': 7, 'rot0': 7, 'rot3': 9, 'rot2': 8, 'state': 'normal', 'yaw': -0.45, 'datetime': '2018-10-09 19:46:27.221721', 'mgs': 0, 'volt': 0.8594, 'depth': 0.928, 'time': 5, 'pitch': -3.16, 'roll': -0.46, 'pres': 176}
{'lipoC2': 7.36, 'lipoC3S1': 3.9, 'temp': 26.5, 'lipoC3S3': 11.8, 'lipoC3S2': 7.8, 'rot1': 7, 'rot0': 8, 'rot3': 9, 'rot2': 8, 'state': 'normal', 'yaw': 0.17, 'datetime': '2018-10-09 19:46:27.325917', 'mgs': 0, 'volt': 0.8594, 'depth': 0.928, 'time': 5, 'pitch': -2.91, 'roll': -0.26, 'pres': 176}
{'lipoC2': 7.35, 'lipoC3S1': 3.9, 'temp': 26.5, 'lipoC3S3': 11.8, 'lipoC3S2': 7.8, 'rot1': 8, 'rot0': 8, 'rot3': 9, 'rot2': 8, 'state': 'normal', 'yaw': 0.9, 'datetime': '2018-10-09 19:46:27.429545', 'mgs': 0, 'volt': 0.8594, 'depth': 0.928, 'time': 6, 'pitch': -2.6, 'roll': -0.05, 'pres': 176}
{'lipoC2': 7.36, 'lipoC3S1': 3.9, 'temp': 26.5, 'lipoC3S3': 11.79, 'lipoC3S2': 7.8, 'rot1': 8, 'rot0': 8, 'rot3': 9, 'rot2': 8, 'state': 'normal', 'yaw': 1.6, 'datetime': '2018-10-09 19:46:27.532573', 'mgs': 0, 'volt': 0.8643, 'depth': 1.004, 'time': 6, 'pitch': -2.35, 'roll': 0.09, 'pres': 177}
{'lipoC2': 7.36, 'lipoC3S1': 3.9, 'temp': 26.5, 'lipoC3S3': 11.8, 'lipoC3S2': 7.77, 'rot1': 8, 'rot0': 8, 'rot3': 9, 'rot2': 8, 'state': 'normal', 'yaw': 2.33, 'datetime': '2018-10-09 19:46:27.636779', 'mgs': 0, 'volt': 0.8643, 'depth': 1.004, 'time': 6, 'pitch': -2.17, 'roll': 0.21, 'pres': 177}
{'lipoC2': 7.36, 'lipoC3S1': 3.9, 'temp': 26.5, 'lipoC3S3': 11.8, 'lipoC3S2': 7.8, 'rot1': 8, 'rot0': 9, 'rot3': 9, 'rot2': 8, 'state': 'normal', 'yaw': 3.17, 'datetime': '2018-10-09 19:46:27.740342', 'mgs': 0, 'volt': 0.8643, 'depth': 1.004, 'time': 6, 'pitch': -2.05, 'roll': 0.34, 'pres': 177}
{'lipoC2': 7.36, 'lipoC3S1': 3.9, 'temp': 26.5, 'lipoC3S3': 11.8, 'lipoC3S2': 7.8, 'rot1': 9, 'rot0': 9, 'rot3': 9, 'rot2': 8, 'state': 'normal', 'yaw': 3.95, 'datetime': '2018-10-09 19:46:27.836697', 'mgs': 0, 'volt': 0.8691, 'depth': 1.08, 'time': 6, 'pitch': -1.96, 'roll': 0.44, 'pres': 178}
{'lipoC2': 7.36, 'lipoC3S1': 3.9, 'temp': 26.5, 'lipoC3S3': 11.8, 'lipoC3S2': 7.8, 'rot1': 9, 'rot0': 9, 'rot3': 9, 'rot2': 8, 'state': 'normal', 'yaw': 4.73, 'datetime': '2018-10-09 19:46:27.939883', 'mgs': 0, 'volt': 0.8691, 'depth': 1.08, 'time': 6, 'pitch': -1.92, 'roll': 0.53, 'pres': 178}
{'lipoC2': 7.36, 'lipoC3S1': 3.9, 'temp': 26.5, 'lipoC3S3': 11.8, 'lipoC3S2': 7.8, 'rot1': 9, 'rot0': 9, 'rot3': 9, 'rot2': 8, 'state': 'normal', 'yaw': 5.54, 'datetime': '2018-10-09 19:46:28.043273', 'mgs': 0, 'volt': 0.874, 'depth': 1.157, 'time': 6, 'pitch': -1.89, 'roll': 0.57, 'pres': 179}
{'lipoC2': 7.36, 'lipoC3S1': 3.9, 'temp': 26.5, 'lipoC3S3': 11.8, 'lipoC3S2': 7.8, 'rot1': 9, 'rot0': 9, 'rot3': 9, 'rot2': 8, 'state': 'normal', 'yaw': 6.42, 'datetime': '2018-10-09 19:46:28.146483', 'mgs': 0, 'volt': 0.874, 'depth': 1.157, 'time': 6, 'pitch': -1.91, 'roll': 0.53, 'pres': 179}
{'lipoC2': 7.35, 'lipoC3S1': 3.9, 'temp': 26.5, 'lipoC3S3': 11.8, 'lipoC3S2': 7.8, 'rot1': 9, 'rot0': 9, 'rot3': 9, 'rot2': 8, 'state': 'normal', 'yaw': 7.22, 'datetime': '2018-10-09 19:46:28.249660', 'mgs': 0, 'volt': 0.874, 'depth': 1.157, 'time': 6, 'pitch': -2.04, 'roll': 0.48, 'pres': 179}
{'lipoC2': 7.36, 'lipoC3S1': 3.9, 'temp': 26.5, 'lipoC3S3': 11.8, 'lipoC3S2': 7.77, 'rot1': 10, 'rot0': 10, 'rot3': 9, 'rot2': 8, 'state': 'normal', 'yaw': 8.0, 'datetime': '2018-10-09 19:46:28.353203', 'mgs': 0, 'volt': 0.8789, 'depth': 1.233, 'time': 6, 'pitch': -2.24, 'roll': 0.4, 'pres': 180}
{'lipoC2': 7.36, 'lipoC3S1': 3.86, 'temp': 26.44, 'lipoC3S3': 11.77, 'lipoC3S2': 7.76, 'rot1': 10, 'rot0': 10, 'rot3': 9, 'rot2': 8, 'state': 'normal', 'yaw': 8.84, 'datetime': '2018-10-09 19:46:28.456699', 'mgs': 0, 'volt': 0.874, 'depth': 1.157, 'time': 7, 'pitch': -2.51, 'roll': 0.34, 'pres': 179}
{'lipoC2': 7.36, 'lipoC3S1': 3.86, 'temp': 26.44, 'lipoC3S3': 11.8, 'lipoC3S2': 7.75, 'rot1': 10, 'rot0': 10, 'rot3': 9, 'rot2': 8, 'state': 'normal', 'yaw': 9.59, 'datetime': '2018-10-09 19:46:28.567252', 'mgs': 0, 'volt': 0.8789, 'depth': 1.233, 'time': 7, 'pitch': -2.67, 'roll': 0.33, 'pres': 180}
{'lipoC2': 7.36, 'lipoC3S1': 3.89, 'temp': 26.44, 'lipoC3S3': 11.75, 'lipoC3S2': 7.73, 'rot1': 10, 'rot0': 10, 'rot3': 10, 'rot2': 9, 'state': 'normal', 'yaw': 10.29, 'datetime': '2018-10-09 19:46:28.671681', 'mgs': 0, 'volt': 0.8789, 'depth': 1.233, 'time': 7, 'pitch': -2.67, 'roll': 0.31, 'pres': 180}
{'lipoC2': 7.35, 'lipoC3S1': 3.9, 'temp': 26.44, 'lipoC3S3': 11.77, 'lipoC3S2': 7.78, 'rot1': 10, 'rot0': 10, 'rot3': 11, 'rot2': 10, 'state': 'normal', 'yaw': 11.0, 'datetime': '2018-10-09 19:46:28.774820', 'mgs': 0, 'volt': 0.8838, 'depth': 1.309, 'time': 7, 'pitch': -2.62, 'roll': 0.29, 'pres': 181}
{'lipoC2': 7.36, 'lipoC3S1': 3.87, 'temp': 26.44, 'lipoC3S3': 11.77, 'lipoC3S2': 7.77, 'rot1': 10, 'rot0': 10, 'rot3': 11, 'rot2': 10, 'state': 'normal', 'yaw': 11.61, 'datetime': '2018-10-09 19:46:28.878691', 'mgs': 0, 'volt': 0.8789, 'depth': 1.233, 'time': 7, 'pitch': -2.52, 'roll': 0.3, 'pres': 180}
{'lipoC2': 7.35, 'lipoC3S1': 3.89, 'temp': 26.5, 'lipoC3S3': 11.71, 'lipoC3S2': 7.78, 'rot1': 10, 'rot0': 10, 'rot3': 12, 'rot2': 11, 'state': 'normal', 'yaw': 12.17, 'datetime': '2018-10-09 19:46:28.983443', 'mgs': 0, 'volt': 0.8789, 'depth': 1.233, 'time': 7, 'pitch': -2.42, 'roll': 0.35, 'pres': 180}
{'lipoC2': 7.36, 'lipoC3S1': 3.87, 'temp': 26.5, 'lipoC3S3': 11.77, 'lipoC3S2': 7.81, 'rot1': 10, 'rot0': 10, 'rot3': 12, 'rot2': 11, 'state': 'normal', 'yaw': 12.74, 'datetime': '2018-10-09 19:46:29.087349', 'mgs': 0, 'volt': 0.8789, 'depth': 1.233, 'time': 7, 'pitch': -2.31, 'roll': 0.43, 'pres': 180}
{'lipoC2': 7.36, 'lipoC3S1': 3.89, 'temp': 26.5, 'lipoC3S3': 11.77, 'lipoC3S2': 7.79, 'rot1': 10, 'rot0': 10, 'rot3': 13, 'rot2': 12, 'state': 'normal', 'yaw': 13.22, 'datetime': '2018-10-09 19:46:29.192539', 'mgs': 0, 'volt': 0.9033, 'depth': 1.614, 'time': 7, 'pitch': -2.22, 'roll': 0.53, 'pres': 185}
{'lipoC2': 7.36, 'lipoC3S1': 3.9, 'temp': 26.5, 'lipoC3S3': 11.75, 'lipoC3S2': 7.73, 'rot1': 10, 'rot0': 10, 'rot3': 14, 'rot2': 13, 'state': 'normal', 'yaw': 13.72, 'datetime': '2018-10-09 19:46:29.296403', 'mgs': 0, 'volt': 0.8789, 'depth': 1.233, 'time': 7, 'pitch': -2.12, 'roll': 0.67, 'pres': 180}
{'lipoC2': 7.35, 'lipoC3S1': 3.87, 'temp': 26.5, 'lipoC3S3': 11.61, 'lipoC3S2': 7.74, 'rot1': 10, 'rot0': 10, 'rot3': 14, 'rot2': 13, 'state': 'normal', 'yaw': 14.15, 'datetime': '2018-10-09 19:46:29.395608', 'mgs': 0, 'volt': 0.9033, 'depth': 1.614, 'time': 7, 'pitch': -2.04, 'roll': 0.81, 'pres': 185}
{'lipoC2': 7.36, 'lipoC3S1': 3.85, 'temp': 26.5, 'lipoC3S3': 11.59, 'lipoC3S2': 7.72, 'rot1': 11, 'rot0': 10, 'rot3': 15, 'rot2': 14, 'state': 'normal', 'yaw': 14.61, 'datetime': '2018-10-09 19:46:29.501826', 'mgs': 0, 'volt': 0.8838, 'depth': 1.309, 'time': 8, 'pitch': -2.33, 'roll': 0.69, 'pres': 181}
{'lipoC2': 7.35, 'lipoC3S1': 3.89, 'temp': 26.5, 'lipoC3S3': 11.63, 'lipoC3S2': 7.74, 'rot1': 11, 'rot0': 12, 'rot3': 16, 'rot2': 15, 'state': 'normal', 'yaw': 14.9, 'datetime': '2018-10-09 19:46:29.607989', 'mgs': 0, 'volt': 0.9229, 'depth': 1.92, 'time': 8, 'pitch': -2.51, 'roll': 0.46, 'pres': 189}
{'lipoC2': 7.36, 'lipoC3S1': 3.84, 'temp': 26.5, 'lipoC3S3': 11.65, 'lipoC3S2': 7.64, 'rot1': 12, 'rot0': 13, 'rot3': 17, 'rot2': 15, 'state': 'normal', 'yaw': 14.84, 'datetime': '2018-10-09 19:46:29.711875', 'mgs': 0, 'volt': 0.8838, 'depth': 1.309, 'time': 8, 'pitch': -2.24, 'roll': 0.13, 'pres': 181}
{'lipoC2': 7.35, 'lipoC3S1': 3.82, 'temp': 26.5, 'lipoC3S3': 11.71, 'lipoC3S2': 7.75, 'rot1': 13, 'rot0': 14, 'rot3': 18, 'rot2': 16, 'state': 'normal', 'yaw': 14.49, 'datetime': '2018-10-09 19:46:29.816146', 'mgs': 0, 'volt': 0.9082, 'depth': 1.691, 'time': 8, 'pitch': -1.69, 'roll': -0.21, 'pres': 186}
{'lipoC2': 7.36, 'lipoC3S1': 3.84, 'temp': 26.5, 'lipoC3S3': 11.55, 'lipoC3S2': 7.71, 'rot1': 14, 'rot0': 15, 'rot3': 19, 'rot2': 17, 'state': 'normal', 'yaw': 13.8, 'datetime': '2018-10-09 19:46:29.915642', 'mgs': 0, 'volt': 0.8936, 'depth': 1.462, 'time': 8, 'pitch': -0.85, 'roll': -0.52, 'pres': 183}
{'lipoC2': 7.35, 'lipoC3S1': 3.84, 'temp': 26.5, 'lipoC3S3': 11.71, 'lipoC3S2': 7.74, 'rot1': 15, 'rot0': 16, 'rot3': 19, 'rot2': 17, 'state': 'normal', 'yaw': 12.98, 'datetime': '2018-10-09 19:46:30.023499', 'mgs': 0, 'volt': 0.8984, 'depth': 1.538, 'time': 8, 'pitch': 0.07, 'roll': -0.72, 'pres': 184}
{'lipoC2': 7.36, 'lipoC3S1': 3.85, 'temp': 26.5, 'lipoC3S3': 11.56, 'lipoC3S2': 7.71, 'rot1': 16, 'rot0': 18, 'rot3': 20, 'rot2': 18, 'state': 'normal', 'yaw': 11.9, 'datetime': '2018-10-09 19:46:30.127184', 'mgs': 0, 'volt': 0.9033, 'depth': 1.614, 'time': 8, 'pitch': 1.16, 'roll': -0.9, 'pres': 185}
{'lipoC2': 7.35, 'lipoC3S1': 3.87, 'temp': 26.5, 'lipoC3S3': 11.63, 'lipoC3S2': 7.74, 'rot1': 16, 'rot0': 19, 'rot3': 21, 'rot2': 19, 'state': 'normal', 'yaw': 10.73, 'datetime': '2018-10-09 19:46:30.231158', 'mgs': 0, 'volt': 0.9521, 'depth': 2.377, 'time': 8, 'pitch': 2.19, 'roll': -1.09, 'pres': 195}
{'lipoC2': 7.36, 'lipoC3S1': 3.88, 'temp': 26.5, 'lipoC3S3': 11.64, 'lipoC3S2': 7.74, 'rot1': 17, 'rot0': 20, 'rot3': 22, 'rot2': 20, 'state': 'normal', 'yaw': 9.44, 'datetime': '2018-10-09 19:46:30.336328', 'mgs': 0, 'volt': 0.9473, 'depth': 2.301, 'time': 8, 'pitch': 3.13, 'roll': -1.23, 'pres': 194}
{'lipoC2': 7.36, 'lipoC3S1': 3.84, 'temp': 26.5, 'lipoC3S3': 11.73, 'lipoC3S2': 7.62, 'rot1': 18, 'rot0': 21, 'rot3': 23, 'rot2': 20, 'state': 'normal', 'yaw': 7.91, 'datetime': '2018-10-09 19:46:30.440148', 'mgs': 0, 'volt': 0.918, 'depth': 1.843, 'time': 9, 'pitch': 4.04, 'roll': -1.37, 'pres': 188}
{'lipoC2': 7.36, 'lipoC3S1': 3.78, 'temp': 26.5, 'lipoC3S3': 11.72, 'lipoC3S2': 7.75, 'rot1': 19, 'rot0': 22, 'rot3': 24, 'rot2': 21, 'state': 'normal', 'yaw': 6.56, 'datetime': '2018-10-09 19:46:30.545340', 'mgs': 0, 'volt': 0.9424, 'depth': 2.225, 'time': 9, 'pitch': 4.72, 'roll': -1.42, 'pres': 193}
{'lipoC2': 7.35, 'lipoC3S1': 3.88, 'temp': 26.5, 'lipoC3S3': 11.59, 'lipoC3S2': 7.7, 'rot1': 20, 'rot0': 23, 'rot3': 24, 'rot2': 22, 'state': 'normal', 'yaw': 5.12, 'datetime': '2018-10-09 19:46:30.649140', 'mgs': 0, 'volt': 0.9229, 'depth': 1.92, 'time': 9, 'pitch': 5.28, 'roll': -1.38, 'pres': 189}
{'lipoC2': 7.35, 'lipoC3S1': 3.81, 'temp': 26.5, 'lipoC3S3': 11.71, 'lipoC3S2': 7.74, 'rot1': 21, 'rot0': 25, 'rot3': 25, 'rot2': 22, 'state': 'normal', 'yaw': 3.86, 'datetime': '2018-10-09 19:46:30.753078', 'mgs': 0, 'volt': 0.9473, 'depth': 2.301, 'time': 9, 'pitch': 5.62, 'roll': -1.28, 'pres': 194}
{'lipoC2': 7.36, 'lipoC3S1': 3.87, 'temp': 26.5, 'lipoC3S3': 11.51, 'lipoC3S2': 7.68, 'rot1': 22, 'rot0': 26, 'rot3': 26, 'rot2': 23, 'state': 'normal', 'yaw': 2.62, 'datetime': '2018-10-09 19:46:30.856883', 'mgs': 0, 'volt': 0.9326, 'depth': 2.072, 'time': 9, 'pitch': 5.8, 'roll': -1.08, 'pres': 191}
{'lipoC2': 7.35, 'lipoC3S1': 3.84, 'temp': 26.5, 'lipoC3S3': 11.69, 'lipoC3S2': 7.74, 'rot1': 23, 'rot0': 27, 'rot3': 27, 'rot2': 24, 'state': 'normal', 'yaw': 1.31, 'datetime': '2018-10-09 19:46:30.960765', 'mgs': 0, 'volt': 0.9521, 'depth': 2.377, 'time': 9, 'pitch': 5.84, 'roll': -0.82, 'pres': 195}
{'lipoC2': 7.36, 'lipoC3S1': 3.83, 'temp': 26.5, 'lipoC3S3': 11.55, 'lipoC3S2': 7.68, 'rot1': 24, 'rot0': 28, 'rot3': 27, 'rot2': 24, 'state': 'normal', 'yaw': 0.16, 'datetime': '2018-10-09 19:46:31.064723', 'mgs': 0, 'volt': 0.9424, 'depth': 2.225, 'time': 9, 'pitch': 5.77, 'roll': -0.58, 'pres': 193}
{'lipoC2': 7.36, 'lipoC3S1': 3.77, 'temp': 26.44, 'lipoC3S3': 11.71, 'lipoC3S2': 7.73, 'rot1': 25, 'rot0': 29, 'rot3': 28, 'rot2': 26, 'state': 'normal', 'yaw': -0.82, 'datetime': '2018-10-09 19:46:31.168676', 'mgs': 0, 'volt': 0.9619, 'depth': 2.53, 'time': 9, 'pitch': 5.63, 'roll': -0.35, 'pres': 197}
{'lipoC2': 7.35, 'lipoC3S1': 3.87, 'temp': 26.44, 'lipoC3S3': 11.69, 'lipoC3S2': 7.67, 'rot1': 26, 'rot0': 30, 'rot3': 29, 'rot2': 27, 'state': 'normal', 'yaw': -1.69, 'datetime': '2018-10-09 19:46:31.272631', 'mgs': 0, 'volt': 0.9473, 'depth': 2.301, 'time': 9, 'pitch': 5.45, 'roll': -0.07, 'pres': 194}
{'lipoC2': 7.36, 'lipoC3S1': 3.79, 'temp': 26.5, 'lipoC3S3': 11.71, 'lipoC3S2': 7.74, 'rot1': 27, 'rot0': 31, 'rot3': 30, 'rot2': 27, 'state': 'normal', 'yaw': -2.33, 'datetime': '2018-10-09 19:46:31.376485', 'mgs': 0, 'volt': 0.9717, 'depth': 2.682, 'time': 9, 'pitch': 5.32, 'roll': 0.2, 'pres': 199}
{'lipoC2': 7.35, 'lipoC3S1': 3.87, 'temp': 26.5, 'lipoC3S3': 11.63, 'lipoC3S2': 7.67, 'rot1': 28, 'rot0': 33, 'rot3': 30, 'rot2': 28, 'state': 'normal', 'yaw': -2.89, 'datetime': '2018-10-09 19:46:31.482597', 'mgs': 0, 'volt': 0.9521, 'depth': 2.377, 'time': 10, 'pitch': 5.19, 'roll': 0.51, 'pres': 195}
{'lipoC2': 7.36, 'lipoC3S1': 3.85, 'temp': 26.5, 'lipoC3S3': 11.71, 'lipoC3S2': 7.64, 'rot1': 30, 'rot0': 34, 'rot3': 32, 'rot2': 29, 'state': 'normal', 'yaw': -3.33, 'datetime': '2018-10-09 19:46:31.584608', 'mgs': 0, 'volt': 0.957, 'depth': 2.454, 'time': 10, 'pitch': 5.07, 'roll': 0.75, 'pres': 196}
{'lipoC2': 7.36, 'lipoC3S1': 3.81, 'temp': 26.5, 'lipoC3S3': 11.71, 'lipoC3S2': 7.68, 'rot1': 31, 'rot0': 35, 'rot3': 33, 'rot2': 29, 'state': 'normal', 'yaw': -3.72, 'datetime': '2018-10-09 19:46:31.689795', 'mgs': 0, 'volt': 0.9766, 'depth': 2.759, 'time': 10, 'pitch': 4.94, 'roll': 0.92, 'pres': 200}
{'lipoC2': 7.36, 'lipoC3S1': 3.88, 'temp': 26.5, 'lipoC3S3': 11.61, 'lipoC3S2': 7.73, 'rot1': 32, 'rot0': 36, 'rot3': 34, 'rot2': 30, 'state': 'normal', 'yaw': -4.11, 'datetime': '2018-10-09 19:46:31.794103', 'mgs': 0, 'volt': 1.0059, 'depth': 3.217, 'time': 10, 'pitch': 4.78, 'roll': 1.01, 'pres': 206}
{'lipoC2': 7.34, 'lipoC3S1': 3.88, 'temp': 26.5, 'lipoC3S3': 11.69, 'lipoC3S2': 7.74, 'rot1': 33, 'rot0': 37, 'rot3': 34, 'rot2': 31, 'state': 'normal', 'yaw': -4.45, 'datetime': '2018-10-09 19:46:31.903061', 'mgs': 0, 'volt': 0.9912, 'depth': 2.988, 'time': 10, 'pitch': 4.61, 'roll': 0.99, 'pres': 203}
{'lipoC2': 7.36, 'lipoC3S1': 3.87, 'temp': 26.5, 'lipoC3S3': 11.63, 'lipoC3S2': 7.51, 'rot1': 34, 'rot0': 39, 'rot3': 35, 'rot2': 31, 'state': 'normal', 'yaw': -4.85, 'datetime': '2018-10-09 19:46:32.006988', 'mgs': 0, 'volt': 0.9619, 'depth': 2.53, 'time': 10, 'pitch': 4.47, 'roll': 0.96, 'pres': 197}
{'lipoC2': 7.36, 'lipoC3S1': 3.83, 'temp': 26.5, 'lipoC3S3': 11.71, 'lipoC3S2': 7.74, 'rot1': 35, 'rot0': 40, 'rot3': 35, 'rot2': 32, 'state': 'normal', 'yaw': -5.21, 'datetime': '2018-10-09 19:46:32.110960', 'mgs': 0, 'volt': 0.9863, 'depth': 2.911, 'time': 10, 'pitch': 4.35, 'roll': 0.93, 'pres': 202}
{'lipoC2': 7.35, 'lipoC3S1': 3.88, 'temp': 26.5, 'lipoC3S3': 11.68, 'lipoC3S2': 7.73, 'rot1': 36, 'rot0': 41, 'rot3': 36, 'rot2': 32, 'state': 'normal', 'yaw': -5.58, 'datetime': '2018-10-09 19:46:32.208636', 'mgs': 0, 'volt': 1.0352, 'depth': 3.674, 'time': 10, 'pitch': 4.25, 'roll': 0.84, 'pres': 212}
{'lipoC2': 7.36, 'lipoC3S1': 3.87, 'temp': 26.44, 'lipoC3S3': 11.56, 'lipoC3S2': 7.69, 'rot1': 37, 'rot0': 42, 'rot3': 38, 'rot2': 33, 'state': 'normal', 'yaw': -5.96, 'datetime': '2018-10-09 19:46:32.312653', 'mgs': 0, 'volt': 0.9717, 'depth': 2.682, 'time': 10, 'pitch': 4.12, 'roll': 0.71, 'pres': 199}
{'lipoC2': 7.36, 'lipoC3S1': 3.8, 'temp': 26.44, 'lipoC3S3': 11.71, 'lipoC3S2': 7.74, 'rot1': 39, 'rot0': 43, 'rot3': 38, 'rot2': 33, 'state': 'normal', 'yaw': -6.18, 'datetime': '2018-10-09 19:46:32.416687', 'mgs': 0, 'volt': 0.9961, 'depth': 3.064, 'time': 10, 'pitch': 3.9, 'roll': 0.57, 'pres': 204}
{'lipoC2': 7.34, 'lipoC3S1': 3.88, 'temp': 26.44, 'lipoC3S3': 11.63, 'lipoC3S2': 7.73, 'rot1': 40, 'rot0': 44, 'rot3': 39, 'rot2': 34, 'state': 'normal', 'yaw': -6.23, 'datetime': '2018-10-09 19:46:32.520599', 'mgs': 0, 'volt': 0.9766, 'depth': 2.759, 'time': 11, 'pitch': 3.54, 'roll': 0.38, 'pres': 200}
{'lipoC2': 7.36, 'lipoC3S1': 3.84, 'temp': 26.5, 'lipoC3S3': 11.72, 'lipoC3S2': 7.64, 'rot1': 41, 'rot0': 45, 'rot3': 40, 'rot2': 36, 'state': 'normal', 'yaw': -6.16, 'datetime': '2018-10-09 19:46:32.624560', 'mgs': 0, 'volt': 0.9814, 'depth': 2.835, 'time': 11, 'pitch': 3.21, 'roll': 0.19, 'pres': 201}
{'lipoC2': 7.36, 'lipoC3S1': 3.84, 'temp': 26.5, 'lipoC3S3': 11.71, 'lipoC3S2': 7.74, 'rot1': 42, 'rot0': 46, 'rot3': 40, 'rot2': 36, 'state': 'normal', 'yaw': -6.0, 'datetime': '2018-10-09 19:46:32.728999', 'mgs': 0, 'volt': 0.9912, 'depth': 2.988, 'time': 11, 'pitch': 2.9, 'roll': 0.02, 'pres': 203}
{'lipoC2': 7.35, 'lipoC3S1': 3.88, 'temp': 26.5, 'lipoC3S3': 11.56, 'lipoC3S2': 7.73, 'rot1': 43, 'rot0': 47, 'rot3': 41, 'rot2': 37, 'state': 'normal', 'yaw': -5.77, 'datetime': '2018-10-09 19:46:32.839848', 'mgs': 0, 'volt': 0.9863, 'depth': 2.911, 'time': 11, 'pitch': 2.62, 'roll': -0.14, 'pres': 202}
{'lipoC2': 7.36, 'lipoC3S1': 3.76, 'temp': 26.5, 'lipoC3S3': 11.71, 'lipoC3S2': 7.68, 'rot1': 44, 'rot0': 48, 'rot3': 41, 'rot2': 37, 'state': 'normal', 'yaw': -5.47, 'datetime': '2018-10-09 19:46:32.944448', 'mgs': 0, 'volt': 0.9912, 'depth': 2.988, 'time': 11, 'pitch': 2.4, 'roll': -0.2, 'pres': 203}
{'lipoC2': 7.35, 'lipoC3S1': 3.88, 'temp': 26.5, 'lipoC3S3': 11.69, 'lipoC3S2': 7.74, 'rot1': 45, 'rot0': 49, 'rot3': 42, 'rot2': 39, 'state': 'normal', 'yaw': -5.02, 'datetime': '2018-10-09 19:46:33.048667', 'mgs': 0, 'volt': 1.0498, 'depth': 3.903, 'time': 11, 'pitch': 2.25, 'roll': -0.28, 'pres': 215}
{'lipoC2': 7.36, 'lipoC3S1': 3.87, 'temp': 26.5, 'lipoC3S3': 11.55, 'lipoC3S2': 7.66, 'rot1': 46, 'rot0': 50, 'rot3': 42, 'rot2': 39, 'state': 'normal', 'yaw': -4.54, 'datetime': '2018-10-09 19:46:33.146408', 'mgs': 0, 'volt': 0.9961, 'depth': 3.064, 'time': 11, 'pitch': 2.18, 'roll': -0.33, 'pres': 204}
{'lipoC2': 7.36, 'lipoC3S1': 3.87, 'temp': 26.5, 'lipoC3S3': 11.6, 'lipoC3S2': 7.7, 'rot1': 48, 'rot0': 51, 'rot3': 42, 'rot2': 39, 'state': 'normal', 'yaw': -4.02, 'datetime': '2018-10-09 19:46:33.251263', 'mgs': 0, 'volt': 0.9912, 'depth': 2.988, 'time': 11, 'pitch': 2.35, 'roll': -0.33, 'pres': 203}
{'lipoC2': 7.36, 'lipoC3S1': 3.82, 'temp': 26.5, 'lipoC3S3': 11.69, 'lipoC3S2': 7.74, 'rot1': 49, 'rot0': 52, 'rot3': 43, 'rot2': 40, 'state': 'normal', 'yaw': -3.6, 'datetime': '2018-10-09 19:46:33.351753', 'mgs': 0, 'volt': 1.0156, 'depth': 3.369, 'time': 11, 'pitch': 2.88, 'roll': -0.22, 'pres': 208}
{'lipoC2': 7.35, 'lipoC3S1': 3.88, 'temp': 26.5, 'lipoC3S3': 11.73, 'lipoC3S2': 7.74, 'rot1': 50, 'rot0': 53, 'rot3': 43, 'rot2': 40, 'state': 'normal', 'yaw': -3.36, 'datetime': '2018-10-09 19:46:33.455734', 'mgs': 0, 'volt': 0.9961, 'depth': 3.064, 'time': 12, 'pitch': 3.55, 'roll': -0.11, 'pres': 204}
{'lipoC2': 7.36, 'lipoC3S1': 3.93, 'temp': 26.5, 'lipoC3S3': 11.73, 'lipoC3S2': 7.69, 'rot1': 51, 'rot0': 55, 'rot3': 43, 'rot2': 40, 'state': 'normal', 'yaw': -3.24, 'datetime': '2018-10-09 19:46:33.559730', 'mgs': 0, 'volt': 1.001, 'depth': 3.14, 'time': 12, 'pitch': 4.29, 'roll': 0.01, 'pres': 205}
{'lipoC2': 7.36, 'lipoC3S1': 3.88, 'temp': 26.5, 'lipoC3S3': 11.72, 'lipoC3S2': 7.75, 'rot1': 52, 'rot0': 56, 'rot3': 43, 'rot2': 40, 'state': 'normal', 'yaw': -3.24, 'datetime': '2018-10-09 19:46:33.663697', 'mgs': 0, 'volt': 1.04, 'depth': 3.751, 'time': 12, 'pitch': 4.92, 'roll': 0.11, 'pres': 213}
{'lipoC2': 7.36, 'lipoC3S1': 3.87, 'temp': 26.44, 'lipoC3S3': 11.64, 'lipoC3S2': 7.56, 'rot1': 53, 'rot0': 57, 'rot3': 43, 'rot2': 40, 'state': 'normal', 'yaw': -3.25, 'datetime': '2018-10-09 19:46:33.767664', 'mgs': 0, 'volt': 1.001, 'depth': 3.14, 'time': 12, 'pitch': 5.52, 'roll': 0.21, 'pres': 205}
{'lipoC2': 7.36, 'lipoC3S1': 3.85, 'temp': 26.44, 'lipoC3S3': 11.69, 'lipoC3S2': 7.74, 'rot1': 54, 'rot0': 58, 'rot3': 44, 'rot2': 41, 'state': 'normal', 'yaw': -3.29, 'datetime': '2018-10-09 19:46:33.871692', 'mgs': 0, 'volt': 1.0791, 'depth': 4.361, 'time': 12, 'pitch': 6.28, 'roll': 0.34, 'pres': 221}
{'lipoC2': 7.35, 'lipoC3S1': 3.87, 'temp': 26.44, 'lipoC3S3': 11.48, 'lipoC3S2': 7.76, 'rot1': 55, 'rot0': 59, 'rot3': 44, 'rot2': 41, 'state': 'normal', 'yaw': -3.37, 'datetime': '2018-10-09 19:46:33.975598', 'mgs': 0, 'volt': 1.001, 'depth': 3.14, 'time': 12, 'pitch': 7.06, 'roll': 0.44, 'pres': 205}
{'lipoC2': 7.36, 'lipoC3S1': 3.82, 'temp': 26.5, 'lipoC3S3': 11.68, 'lipoC3S2': 7.73, 'rot1': 57, 'rot0': 60, 'rot3': 46, 'rot2': 42, 'state': 'normal', 'yaw': -3.41, 'datetime': '2018-10-09 19:46:34.080546', 'mgs': 0, 'volt': 1.0303, 'depth': 3.598, 'time': 12, 'pitch': 7.88, 'roll': 0.53, 'pres': 211}
{'lipoC2': 7.35, 'lipoC3S1': 3.87, 'temp': 26.5, 'lipoC3S3': 11.63, 'lipoC3S2': 7.72, 'rot1': 58, 'rot0': 62, 'rot3': 46, 'rot2': 43, 'state': 'normal', 'yaw': -3.41, 'datetime': '2018-10-09 19:46:34.184495', 'mgs': 0, 'volt': 1.0059, 'depth': 3.217, 'time': 12, 'pitch': 8.52, 'roll': 0.49, 'pres': 206}
{'lipoC2': 7.35, 'lipoC3S1': 3.87, 'temp': 26.5, 'lipoC3S3': 11.47, 'lipoC3S2': 7.74, 'rot1': 59, 'rot0': 63, 'rot3': 47, 'rot2': 43, 'state': 'normal', 'yaw': -3.43, 'datetime': '2018-10-09 19:46:34.289713', 'mgs': 0, 'volt': 1.001, 'depth': 3.14, 'time': 12, 'pitch': 8.8, 'roll': 0.43, 'pres': 205}
{'lipoC2': 7.36, 'lipoC3S1': 3.76, 'temp': 26.5, 'lipoC3S3': 11.71, 'lipoC3S2': 7.71, 'rot1': 60, 'rot0': 64, 'rot3': 47, 'rot2': 44, 'state': 'normal', 'yaw': -3.43, 'datetime': '2018-10-09 19:46:34.393738', 'mgs': 0, 'volt': 1.0059, 'depth': 3.217, 'time': 12, 'pitch': 8.91, 'roll': 0.37, 'pres': 206}
{'lipoC2': 7.36, 'lipoC3S1': 3.84, 'temp': 26.5, 'lipoC3S3': 11.69, 'lipoC3S2': 7.73, 'rot1': 61, 'rot0': 65, 'rot3': 48, 'rot2': 44, 'state': 'normal', 'yaw': -3.44, 'datetime': '2018-10-09 19:46:34.498945', 'mgs': 0, 'volt': 1.0254, 'depth': 3.522, 'time': 13, 'pitch': 8.92, 'roll': 0.3, 'pres': 210}
{'lipoC2': 7.35, 'lipoC3S1': 3.87, 'temp': 26.5, 'lipoC3S3': 11.65, 'lipoC3S2': 7.72, 'rot1': 62, 'rot0': 66, 'rot3': 48, 'rot2': 45, 'state': 'normal', 'yaw': -3.45, 'datetime': '2018-10-09 19:46:34.602930', 'mgs': 0, 'volt': 1.001, 'depth': 3.14, 'time': 13, 'pitch': 8.75, 'roll': 0.17, 'pres': 205}
{'lipoC2': 7.36, 'lipoC3S1': 3.84, 'temp': 26.5, 'lipoC3S3': 11.71, 'lipoC3S2': 7.65, 'rot1': 63, 'rot0': 67, 'rot3': 49, 'rot2': 46, 'state': 'normal', 'yaw': -3.52, 'datetime': '2018-10-09 19:46:34.706949', 'mgs': 0, 'volt': 1.001, 'depth': 3.14, 'time': 13, 'pitch': 8.45, 'roll': 0.0, 'pres': 205}
{'lipoC2': 7.35, 'lipoC3S1': 3.87, 'temp': 26.5, 'lipoC3S3': 11.68, 'lipoC3S2': 7.73, 'rot1': 64, 'rot0': 69, 'rot3': 50, 'rot2': 46, 'state': 'normal', 'yaw': -3.54, 'datetime': '2018-10-09 19:46:34.810961', 'mgs': 0, 'volt': 1.0645, 'depth': 4.132, 'time': 13, 'pitch': 8.07, 'roll': -0.08, 'pres': 218}
{'lipoC2': 7.36, 'lipoC3S1': 3.87, 'temp': 26.5, 'lipoC3S3': 11.59, 'lipoC3S2': 7.67, 'rot1': 66, 'rot0': 70, 'rot3': 50, 'rot2': 47, 'state': 'normal', 'yaw': -3.55, 'datetime': '2018-10-09 19:46:34.914905', 'mgs': 0, 'volt': 1.001, 'depth': 3.14, 'time': 13, 'pitch': 7.57, 'roll': -0.15, 'pres': 205}
{'lipoC2': 7.36, 'lipoC3S1': 3.81, 'temp': 26.5, 'lipoC3S3': 11.69, 'lipoC3S2': 7.73, 'rot1': 67, 'rot0': 71, 'rot3': 51, 'rot2': 47, 'state': 'normal', 'yaw': -3.56, 'datetime': '2018-10-09 19:46:35.018901', 'mgs': 0, 'volt': 1.0205, 'depth': 3.445, 'time': 13, 'pitch': 7.03, 'roll': -0.21, 'pres': 209}
{'lipoC2': 7.35, 'lipoC3S1': 3.88, 'temp': 26.5, 'lipoC3S3': 11.68, 'lipoC3S2': 7.73, 'rot1': 68, 'rot0': 72, 'rot3': 51, 'rot2': 48, 'state': 'normal', 'yaw': -3.61, 'datetime': '2018-10-09 19:46:35.123096', 'mgs': 0, 'volt': 1.0547, 'depth': 3.979, 'time': 13, 'pitch': 6.44, 'roll': -0.29, 'pres': 216}
{'lipoC2': 7.36, 'lipoC3S1': 3.87, 'temp': 26.5, 'lipoC3S3': 11.55, 'lipoC3S2': 7.66, 'rot1': 69, 'rot0': 73, 'rot3': 52, 'rot2': 48, 'state': 'normal', 'yaw': -3.73, 'datetime': '2018-10-09 19:46:35.227068', 'mgs': 0, 'volt': 0.9961, 'depth': 3.064, 'time': 13, 'pitch': 5.78, 'roll': -0.42, 'pres': 204}
{'lipoC2': 7.36, 'lipoC3S1': 3.8, 'temp': 26.5, 'lipoC3S3': 11.69, 'lipoC3S2': 7.73, 'rot1': 70, 'rot0': 74, 'rot3': 53, 'rot2': 50, 'state': 'normal', 'yaw': -3.89, 'datetime': '2018-10-09 19:46:35.331172', 'mgs': 0, 'volt': 1.0205, 'depth': 3.445, 'time': 13, 'pitch': 5.14, 'roll': -0.5, 'pres': 209}
{'lipoC2': 7.34, 'lipoC3S1': 3.87, 'temp': 26.5, 'lipoC3S3': 11.61, 'lipoC3S2': 7.71, 'rot1': 71, 'rot0': 75, 'rot3': 53, 'rot2': 50, 'state': 'normal', 'yaw': -4.1, 'datetime': '2018-10-09 19:46:35.435050', 'mgs': 0, 'volt': 1.001, 'depth': 3.14, 'time': 14, 'pitch': 4.45, 'roll': -0.58, 'pres': 205}
{'lipoC2': 7.36, 'lipoC3S1': 3.9, 'temp': 26.5, 'lipoC3S3': 11.69, 'lipoC3S2': 7.66, 'rot1': 72, 'rot0': 77, 'rot3': 54, 'rot2': 51, 'state': 'normal', 'yaw': -4.33, 'datetime': '2018-10-09 19:46:35.539051', 'mgs': 0, 'volt': 1.001, 'depth': 3.14, 'time': 14, 'pitch': 3.84, 'roll': -0.66, 'pres': 205}
{'lipoC2': 7.36, 'lipoC3S1': 3.79, 'temp': 26.5, 'lipoC3S3': 11.69, 'lipoC3S2': 7.73, 'rot1': 74, 'rot0': 78, 'rot3': 55, 'rot2': 52, 'state': 'normal', 'yaw': -4.55, 'datetime': '2018-10-09 19:46:35.644252', 'mgs': 0, 'volt': 1.0254, 'depth': 3.522, 'time': 14, 'pitch': 3.32, 'roll': -0.68, 'pres': 210}
{'lipoC2': 7.34, 'lipoC3S1': 3.87, 'temp': 26.5, 'lipoC3S3': 11.6, 'lipoC3S2': 7.72, 'rot1': 75, 'rot0': 79, 'rot3': 55, 'rot2': 52, 'state': 'normal', 'yaw': -4.79, 'datetime': '2018-10-09 19:46:35.748248', 'mgs': 0, 'volt': 1.0107, 'depth': 3.293, 'time': 14, 'pitch': 2.8, 'roll': -0.6, 'pres': 207}
{'lipoC2': 7.34, 'lipoC3S1': 3.87, 'temp': 26.5, 'lipoC3S3': 11.6, 'lipoC3S2': 7.72, 'rot1': 76, 'rot0': 80, 'rot3': 56, 'rot2': 53, 'state': 'normal', 'yaw': -5.03, 'datetime': '2018-10-09 19:46:35.853551', 'mgs': 0, 'volt': 1.001, 'depth': 3.14, 'time': 14, 'pitch': 2.4, 'roll': -0.5, 'pres': 205}
{'lipoC2': 7.36, 'lipoC3S1': 3.83, 'temp': 26.56, 'lipoC3S3': 11.69, 'lipoC3S2': 7.61, 'rot1': 77, 'rot0': 81, 'rot3': 56, 'rot2': 53, 'state': 'normal', 'yaw': -5.34, 'datetime': '2018-10-09 19:46:35.957517', 'mgs': 0, 'volt': 1.0059, 'depth': 3.217, 'time': 14, 'pitch': 2.04, 'roll': -0.42, 'pres': 206}
{'lipoC2': 7.35, 'lipoC3S1': 3.88, 'temp': 26.56, 'lipoC3S3': 11.68, 'lipoC3S2': 7.73, 'rot1': 78, 'rot0': 82, 'rot3': 57, 'rot2': 54, 'state': 'normal', 'yaw': -5.6, 'datetime': '2018-10-09 19:46:36.061571', 'mgs': 0, 'volt': 1.0693, 'depth': 4.208, 'time': 14, 'pitch': 1.78, 'roll': -0.4, 'pres': 219}
{'lipoC2': 7.34, 'lipoC3S1': 3.87, 'temp': 26.56, 'lipoC3S3': 11.61, 'lipoC3S2': 7.72, 'rot1': 79, 'rot0': 83, 'rot3': 58, 'rot2': 54, 'state': 'normal', 'yaw': -5.74, 'datetime': '2018-10-09 19:46:36.165704', 'mgs': 0, 'volt': 0.9961, 'depth': 3.064, 'time': 14, 'pitch': 1.57, 'roll': -0.45, 'pres': 204}
{'lipoC2': 7.36, 'lipoC3S1': 3.83, 'temp': 26.56, 'lipoC3S3': 11.69, 'lipoC3S2': 7.64, 'rot1': 80, 'rot0': 84, 'rot3': 58, 'rot2': 55, 'state': 'normal', 'yaw': -5.75, 'datetime': '2018-10-09 19:46:36.269664', 'mgs': 0, 'volt': 1.0107, 'depth': 3.293, 'time': 14, 'pitch': 1.41, 'roll': -0.5, 'pres': 207}
{'lipoC2': 7.36, 'lipoC3S1': 3.85, 'temp': 26.56, 'lipoC3S3': 11.69, 'lipoC3S2': 7.66, 'rot1': 81, 'rot0': 85, 'rot3': 59, 'rot2': 56, 'state': 'normal', 'yaw': -5.68, 'datetime': '2018-10-09 19:46:36.374968', 'mgs': 0, 'volt': 1.0156, 'depth': 3.369, 'time': 14, 'pitch': 1.31, 'roll': -0.54, 'pres': 208}
{'lipoC2': 7.35, 'lipoC3S1': 3.87, 'temp': 26.5, 'lipoC3S3': 11.68, 'lipoC3S2': 7.73, 'rot1': 83, 'rot0': 86, 'rot3': 59, 'rot2': 56, 'state': 'normal', 'yaw': -5.54, 'datetime': '2018-10-09 19:46:36.478977', 'mgs': 0, 'volt': 1.0693, 'depth': 4.208, 'time': 15, 'pitch': 1.27, 'roll': -0.61, 'pres': 219}
{'lipoC2': 7.36, 'lipoC3S1': 3.87, 'temp': 26.5, 'lipoC3S3': 11.65, 'lipoC3S2': 7.72, 'rot1': 84, 'rot0': 87, 'rot3': 60, 'rot2': 56, 'state': 'normal', 'yaw': -5.43, 'datetime': '2018-10-09 19:46:36.584259', 'mgs': 0, 'volt': 1.0693, 'depth': 4.208, 'time': 15, 'pitch': 1.28, 'roll': -0.67, 'pres': 219}
{'lipoC2': 7.36, 'lipoC3S1': 3.86, 'temp': 26.56, 'lipoC3S3': 11.59, 'lipoC3S2': 7.69, 'rot1': 85, 'rot0': 88, 'rot3': 61, 'rot2': 56, 'state': 'normal', 'yaw': -5.31, 'datetime': '2018-10-09 19:46:36.688239', 'mgs': 0, 'volt': 1.0205, 'depth': 3.445, 'time': 15, 'pitch': 1.53, 'roll': -0.66, 'pres': 209}
{'lipoC2': 7.36, 'lipoC3S1': 3.82, 'temp': 26.56, 'lipoC3S3': 11.69, 'lipoC3S2': 7.73, 'rot1': 86, 'rot0': 89, 'rot3': 61, 'rot2': 57, 'state': 'normal', 'yaw': -5.13, 'datetime': '2018-10-09 19:46:36.792218', 'mgs': 0, 'volt': 1.0449, 'depth': 3.827, 'time': 15, 'pitch': 1.97, 'roll': -0.61, 'pres': 214}
{'lipoC2': 7.36, 'lipoC3S1': 3.82, 'temp': 26.56, 'lipoC3S3': 11.69, 'lipoC3S2': 7.73, 'rot1': 87, 'rot0': 90, 'rot3': 62, 'rot2': 57, 'state': 'normal', 'yaw': -4.89, 'datetime': '2018-10-09 19:46:36.897516', 'mgs': 0, 'volt': 1.04, 'depth': 3.751, 'time': 15, 'pitch': 2.53, 'roll': -0.52, 'pres': 213}
{'lipoC2': 7.35, 'lipoC3S1': 3.87, 'temp': 26.56, 'lipoC3S3': 11.61, 'lipoC3S2': 7.71, 'rot1': 88, 'rot0': 91, 'rot3': 63, 'rot2': 58, 'state': 'normal', 'yaw': -4.59, 'datetime': '2018-10-09 19:46:37.001548', 'mgs': 0, 'volt': 1.0254, 'depth': 3.522, 'time': 15, 'pitch': 3.26, 'roll': -0.39, 'pres': 210}
{'lipoC2': 7.35, 'lipoC3S1': 3.87, 'temp': 26.56, 'lipoC3S3': 11.59, 'lipoC3S2': 7.67, 'rot1': 89, 'rot0': 92, 'rot3': 63, 'rot2': 58, 'state': 'normal', 'yaw': -4.31, 'datetime': '2018-10-09 19:46:37.106777', 'mgs': 0, 'volt': 1.0254, 'depth': 3.522, 'time': 15, 'pitch': 4.02, 'roll': -0.27, 'pres': 210}
{'lipoC2': 7.36, 'lipoC3S1': 3.79, 'temp': 26.56, 'lipoC3S3': 11.72, 'lipoC3S2': 7.72, 'rot1': 91, 'rot0': 93, 'rot3': 64, 'rot2': 59, 'state': 'normal', 'yaw': -3.96, 'datetime': '2018-10-09 19:46:37.210863', 'mgs': 0, 'volt': 1.0254, 'depth': 3.522, 'time': 15, 'pitch': 4.88, 'roll': -0.14, 'pres': 210}
{'lipoC2': 7.34, 'lipoC3S1': 3.88, 'temp': 26.56, 'lipoC3S3': 11.69, 'lipoC3S2': 7.74, 'rot1': 92, 'rot0': 95, 'rot3': 64, 'rot2': 59, 'state': 'normal', 'yaw': -3.55, 'datetime': '2018-10-09 19:46:37.314764', 'mgs': 0, 'volt': 1.0547, 'depth': 3.979, 'time': 15, 'pitch': 5.6, 'roll': -0.05, 'pres': 216}
{'lipoC2': 7.35, 'lipoC3S1': 3.88, 'temp': 26.5, 'lipoC3S3': 11.52, 'lipoC3S2': 7.73, 'rot1': 93, 'rot0': 96, 'rot3': 64, 'rot2': 59, 'state': 'normal', 'yaw': -3.18, 'datetime': '2018-10-09 19:46:37.418925', 'mgs': 0, 'volt': 1.0254, 'depth': 3.522, 'time': 15, 'pitch': 6.26, 'roll': 0.03, 'pres': 210}
{'lipoC2': 7.36, 'lipoC3S1': 3.79, 'temp': 26.5, 'lipoC3S3': 11.71, 'lipoC3S2': 7.72, 'rot1': 94, 'rot0': 97, 'rot3': 64, 'rot2': 59, 'state': 'normal', 'yaw': -2.87, 'datetime': '2018-10-09 19:46:37.522940', 'mgs': 0, 'volt': 1.0254, 'depth': 3.522, 'time': 16, 'pitch': 6.93, 'roll': 0.11, 'pres': 210}
{'lipoC2': 7.34, 'lipoC3S1': 3.88, 'temp': 26.5, 'lipoC3S3': 11.69, 'lipoC3S2': 7.74, 'rot1': 95, 'rot0': 98, 'rot3': 64, 'rot2': 59, 'state': 'normal', 'yaw': -2.6, 'datetime': '2018-10-09 19:46:37.626912', 'mgs': 0, 'volt': 1.0498, 'depth': 3.903, 'time': 16, 'pitch': 7.43, 'roll': 0.14, 'pres': 215}
{'lipoC2': 7.36, 'lipoC3S1': 3.87, 'temp': 26.56, 'lipoC3S3': 11.65, 'lipoC3S2': 7.61, 'rot1': 96, 'rot0': 99, 'rot3': 64, 'rot2': 59, 'state': 'normal', 'yaw': -2.3, 'datetime': '2018-10-09 19:46:37.731116', 'mgs': 0, 'volt': 1.0254, 'depth': 3.522, 'time': 16, 'pitch': 7.89, 'roll': 0.14, 'pres': 210}
{'lipoC2': 7.36, 'lipoC3S1': 3.83, 'temp': 26.56, 'lipoC3S3': 11.71, 'lipoC3S2': 7.74, 'rot1': 97, 'rot0': 100, 'rot3': 64, 'rot2': 59, 'state': 'normal', 'yaw': -2.04, 'datetime': '2018-10-09 19:46:37.835051', 'mgs': 0, 'volt': 1.0254, 'depth': 3.522, 'time': 16, 'pitch': 8.22, 'roll': 0.14, 'pres': 210}
{'lipoC2': 7.36, 'lipoC3S1': 3.87, 'temp': 26.56, 'lipoC3S3': 11.67, 'lipoC3S2': 7.62, 'rot1': 99, 'rot0': 102, 'rot3': 64, 'rot2': 59, 'state': 'normal', 'yaw': -1.83, 'datetime': '2018-10-09 19:46:37.939719', 'mgs': 0, 'volt': 1.0205, 'depth': 3.445, 'time': 16, 'pitch': 8.48, 'roll': 0.09, 'pres': 209}
{'lipoC2': 7.36, 'lipoC3S1': 3.89, 'temp': 26.56, 'lipoC3S3': 11.76, 'lipoC3S2': 7.78, 'rot1': 99, 'rot0': 102, 'rot3': 64, 'rot2': 59, 'state': 'normal', 'yaw': -1.7, 'datetime': '2018-10-09 19:46:43.509326', 'mgs': 0, 'volt': 1.0205, 'depth': 3.445, 'time': 16, 'pitch': 8.58, 'roll': 0.04, 'pres': 209}
{'lipoC2': 7.36, 'lipoC3S1': 3.89, 'temp': 26.56, 'lipoC3S3': 11.76, 'lipoC3S2': 7.78, 'rot1': 99, 'rot0': 102, 'rot3': 64, 'rot2': 59, 'state': 'normal', 'yaw': -1.63, 'datetime': '2018-10-09 19:46:43.540420', 'mgs': 0, 'volt': 1.0205, 'depth': 3.445, 'time': 16, 'pitch': 7.95, 'roll': 0.0, 'pres': 209}
{'lipoC2': 7.36, 'lipoC3S1': 3.89, 'temp': 26.56, 'lipoC3S3': 11.76, 'lipoC3S2': 7.78, 'rot1': 99, 'rot0': 102, 'rot3': 64, 'rot2': 59, 'state': 'normal', 'yaw': -1.53, 'datetime': '2018-10-09 19:46:43.556683', 'mgs': 0, 'volt': 1.0156, 'depth': 3.369, 'time': 16, 'pitch': 6.56, 'roll': -0.03, 'pres': 208}
{'lipoC2': 7.36, 'lipoC3S1': 3.89, 'temp': 26.5, 'lipoC3S3': 11.76, 'lipoC3S2': 7.78, 'rot1': 99, 'rot0': 102, 'rot3': 64, 'rot2': 59, 'state': 'normal', 'yaw': -1.44, 'datetime': '2018-10-09 19:46:43.572917', 'mgs': 0, 'volt': 1.0156, 'depth': 3.369, 'time': 16, 'pitch': 4.84, 'roll': -0.07, 'pres': 208}
{'lipoC2': 7.36, 'lipoC3S1': 3.89, 'temp': 26.5, 'lipoC3S3': 11.76, 'lipoC3S2': 7.78, 'rot1': 99, 'rot0': 102, 'rot3': 64, 'rot2': 59, 'state': 'normal', 'yaw': -1.35, 'datetime': '2018-10-09 19:46:43.589059', 'mgs': 0, 'volt': 1.0107, 'depth': 3.293, 'time': 17, 'pitch': 2.86, 'roll': -0.11, 'pres': 207}
{'lipoC2': 7.36, 'lipoC3S1': 3.89, 'temp': 26.5, 'lipoC3S3': 11.75, 'lipoC3S2': 7.74, 'rot1': 100, 'rot0': 103, 'rot3': 64, 'rot2': 59, 'state': 'normal', 'yaw': -1.25, 'datetime': '2018-10-09 19:46:43.605277', 'mgs': 0, 'volt': 1.0059, 'depth': 3.217, 'time': 17, 'pitch': 0.54, 'roll': -0.11, 'pres': 206}
{'lipoC2': 7.36, 'lipoC3S1': 3.89, 'temp': 26.56, 'lipoC3S3': 11.75, 'lipoC3S2': 7.77, 'rot1': 100, 'rot0': 104, 'rot3': 64, 'rot2': 59, 'state': 'normal', 'yaw': -1.15, 'datetime': '2018-10-09 19:46:43.621488', 'mgs': 0, 'volt': 1.0059, 'depth': 3.217, 'time': 17, 'pitch': -1.76, 'roll': -0.08, 'pres': 206}
{'lipoC2': 7.36, 'lipoC3S1': 3.89, 'temp': 26.56, 'lipoC3S3': 11.75, 'lipoC3S2': 7.77, 'rot1': 101, 'rot0': 105, 'rot3': 64, 'rot2': 59, 'state': 'normal', 'yaw': -1.07, 'datetime': '2018-10-09 19:46:43.637817', 'mgs': 0, 'volt': 1.0205, 'depth': 3.445, 'time': 17, 'pitch': -4.25, 'roll': -0.02, 'pres': 209}
{'lipoC2': 7.35, 'lipoC3S1': 3.89, 'temp': 26.5, 'lipoC3S3': 11.73, 'lipoC3S2': 7.76, 'rot1': 102, 'rot0': 105, 'rot3': 64, 'rot2': 59, 'state': 'normal', 'yaw': -0.98, 'datetime': '2018-10-09 19:46:43.654042', 'mgs': 0, 'volt': 0.9961, 'depth': 3.064, 'time': 17, 'pitch': -6.34, 'roll': 0.02, 'pres': 204}
{'lipoC2': 7.35, 'lipoC3S1': 3.89, 'temp': 26.5, 'lipoC3S3': 11.73, 'lipoC3S2': 7.76, 'rot1': 103, 'rot0': 106, 'rot3': 64, 'rot2': 59, 'state': 'normal', 'yaw': -0.88, 'datetime': '2018-10-09 19:46:43.670203', 'mgs': 0, 'volt': 0.9912, 'depth': 2.988, 'time': 17, 'pitch': -8.16, 'roll': 0.03, 'pres': 203}
{'lipoC2': 7.36, 'lipoC3S1': 3.89, 'temp': 26.56, 'lipoC3S3': 11.65, 'lipoC3S2': 7.76, 'rot1': 104, 'rot0': 107, 'rot3': 64, 'rot2': 59, 'state': 'normal', 'yaw': -0.78, 'datetime': '2018-10-09 19:46:43.686448', 'mgs': 0, 'volt': 0.9863, 'depth': 2.911, 'time': 17, 'pitch': -9.83, 'roll': 0.07, 'pres': 202}
{'lipoC2': 7.36, 'lipoC3S1': 3.89, 'temp': 26.56, 'lipoC3S3': 11.75, 'lipoC3S2': 7.69, 'rot1': 105, 'rot0': 108, 'rot3': 64, 'rot2': 59, 'state': 'normal', 'yaw': -0.68, 'datetime': '2018-10-09 19:46:43.702685', 'mgs': 0, 'volt': 0.9863, 'depth': 2.911, 'time': 17, 'pitch': -10.97, 'roll': 0.13, 'pres': 202}
{'lipoC2': 7.36, 'lipoC3S1': 3.82, 'temp': 26.56, 'lipoC3S3': 11.75, 'lipoC3S2': 7.77, 'rot1': 106, 'rot0': 109, 'rot3': 64, 'rot2': 59, 'state': 'normal', 'yaw': -0.63, 'datetime': '2018-10-09 19:46:43.718881', 'mgs': 0, 'volt': 0.9814, 'depth': 2.835, 'time': 17, 'pitch': -11.8, 'roll': 0.25, 'pres': 201}
{'lipoC2': 7.35, 'lipoC3S1': 3.89, 'temp': 26.56, 'lipoC3S3': 11.73, 'lipoC3S2': 7.76, 'rot1': 107, 'rot0': 110, 'rot3': 64, 'rot2': 59, 'state': 'normal', 'yaw': -0.63, 'datetime': '2018-10-09 19:46:43.735221', 'mgs': 0, 'volt': 0.9814, 'depth': 2.835, 'time': 17, 'pitch': -12.13, 'roll': 0.35, 'pres': 201}
{'lipoC2': 7.36, 'lipoC3S1': 3.89, 'temp': 26.56, 'lipoC3S3': 11.72, 'lipoC3S2': 7.73, 'rot1': 108, 'rot0': 111, 'rot3': 64, 'rot2': 59, 'state': 'normal', 'yaw': -0.64, 'datetime': '2018-10-09 19:46:43.751455', 'mgs': 0, 'volt': 0.9814, 'depth': 2.835, 'time': 18, 'pitch': -12.04, 'roll': 0.47, 'pres': 201}
{'lipoC2': 7.36, 'lipoC3S1': 3.84, 'temp': 26.5, 'lipoC3S3': 11.72, 'lipoC3S2': 7.71, 'rot1': 108, 'rot0': 111, 'rot3': 64, 'rot2': 59, 'state': 'normal', 'yaw': -0.62, 'datetime': '2018-10-09 19:46:43.767597', 'mgs': 0, 'volt': 0.9766, 'depth': 2.759, 'time': 18, 'pitch': -11.4, 'roll': 0.56, 'pres': 200}
{'lipoC2': 7.36, 'lipoC3S1': 3.88, 'temp': 26.5, 'lipoC3S3': 11.68, 'lipoC3S2': 7.71, 'rot1': 108, 'rot0': 111, 'rot3': 65, 'rot2': 60, 'state': 'normal', 'yaw': -0.59, 'datetime': '2018-10-09 19:46:43.783818', 'mgs': 0, 'volt': 0.9766, 'depth': 2.759, 'time': 18, 'pitch': -10.06, 'roll': 0.69, 'pres': 200}
{'lipoC2': 7.36, 'lipoC3S1': 3.84, 'temp': 26.56, 'lipoC3S3': 11.71, 'lipoC3S2': 7.71, 'rot1': 108, 'rot0': 111, 'rot3': 66, 'rot2': 61, 'state': 'normal', 'yaw': -0.56, 'datetime': '2018-10-09 19:46:43.799926', 'mgs': 0, 'volt': 0.9766, 'depth': 2.759, 'time': 18, 'pitch': -8.1, 'roll': 0.88, 'pres': 200}
{'lipoC2': 7.36, 'lipoC3S1': 3.85, 'temp': 26.56, 'lipoC3S3': 11.75, 'lipoC3S2': 7.73, 'rot1': 108, 'rot0': 111, 'rot3': 66, 'rot2': 61, 'state': 'normal', 'yaw': -0.58, 'datetime': '2018-10-09 19:46:43.816019', 'mgs': 0, 'volt': 0.9766, 'depth': 2.759, 'time': 18, 'pitch': -6.1, 'roll': 1.08, 'pres': 200}
{'lipoC2': 7.36, 'lipoC3S1': 3.86, 'temp': 26.56, 'lipoC3S3': 11.73, 'lipoC3S2': 7.76, 'rot1': 108, 'rot0': 111, 'rot3': 67, 'rot2': 62, 'state': 'normal', 'yaw': -0.62, 'datetime': '2018-10-09 19:46:43.832108', 'mgs': 0, 'volt': 0.9961, 'depth': 3.064, 'time': 18, 'pitch': -3.85, 'roll': 1.27, 'pres': 204}
{'lipoC2': 7.35, 'lipoC3S1': 3.88, 'temp': 26.56, 'lipoC3S3': 11.72, 'lipoC3S2': 7.75, 'rot1': 108, 'rot0': 111, 'rot3': 68, 'rot2': 63, 'state': 'normal', 'yaw': -0.69, 'datetime': '2018-10-09 19:46:43.848323', 'mgs': 0, 'volt': 0.9863, 'depth': 2.911, 'time': 18, 'pitch': -1.93, 'roll': 1.44, 'pres': 202}
{'lipoC2': 7.36, 'lipoC3S1': 3.89, 'temp': 26.56, 'lipoC3S3': 11.72, 'lipoC3S2': 7.76, 'rot1': 108, 'rot0': 111, 'rot3': 69, 'rot2': 63, 'state': 'normal', 'yaw': -0.76, 'datetime': '2018-10-09 19:46:43.864541', 'mgs': 0, 'volt': 0.9814, 'depth': 2.835, 'time': 18, 'pitch': -0.19, 'roll': 1.58, 'pres': 201}
{'lipoC2': 7.36, 'lipoC3S1': 3.88, 'temp': 26.56, 'lipoC3S3': 11.67, 'lipoC3S2': 7.75, 'rot1': 108, 'rot0': 111, 'rot3': 70, 'rot2': 64, 'state': 'normal', 'yaw': -0.88, 'datetime': '2018-10-09 19:46:43.880698', 'mgs': 0, 'volt': 0.9668, 'depth': 2.606, 'time': 18, 'pitch': 1.39, 'roll': 1.71, 'pres': 198}
{'lipoC2': 7.36, 'lipoC3S1': 3.88, 'temp': 26.56, 'lipoC3S3': 11.71, 'lipoC3S2': 7.72, 'rot1': 108, 'rot0': 111, 'rot3': 70, 'rot2': 65, 'state': 'normal', 'yaw': -1.03, 'datetime': '2018-10-09 19:46:43.896854', 'mgs': 0, 'volt': 0.9619, 'depth': 2.53, 'time': 19, 'pitch': 2.55, 'roll': 1.8, 'pres': 197}
