{'lipoC2': 8.1, 'lipoC3S1': 3.98, 'temp': 27.38, 'lipoC3S3': 12.08, 'lipoC3S2': 7.98, 'rot1': 0, 'rot0': 0, 'rot3': 0, 'rot2': 0, 'state': 'normal', 'yaw': 0.0, 'datetime': '2018-10-05 14:47:47.732496', 'mgs': 1, 'volt': 0.7813, 'depth': -0.293, 'time': 1, 'pitch': 73.22, 'roll': -82.7, 'pres': 160}
{'lipoC2': 8.1, 'lipoC3S1': 3.98, 'temp': 27.38, 'lipoC3S3': 12.08, 'lipoC3S2': 7.98, 'rot1': 0, 'rot0': 0, 'rot3': 0, 'rot2': 0, 'state': 'normal', 'yaw': 0.0, 'datetime': '2018-10-05 14:47:53.763433', 'mgs': 1, 'volt': 0.7813, 'depth': -0.293, 'time': 1, 'pitch': 73.22, 'roll': -82.7, 'pres': 160}
{'lipoC2': 8.1, 'lipoC3S1': 3.98, 'temp': 27.38, 'lipoC3S3': 12.08, 'lipoC3S2': 7.98, 'rot1': 0, 'rot0': 0, 'rot3': 0, 'rot2': 0, 'state': 'normal', 'yaw': 0.0, 'datetime': '2018-10-05 14:47:53.793083', 'mgs': 1, 'volt': 0.7861, 'depth': -0.217, 'time': 1, 'pitch': 73.22, 'roll': -82.7, 'pres': 161}
{'lipoC2': 8.1, 'lipoC3S1': 3.98, 'temp': 27.38, 'lipoC3S3': 12.08, 'lipoC3S2': 7.98, 'rot1': 0, 'rot0': 0, 'rot3': 0, 'rot2': 0, 'state': 'normal', 'yaw': 0.0, 'datetime': '2018-10-05 14:47:53.822844', 'mgs': 1, 'volt': 0.7861, 'depth': -0.217, 'time': 1, 'pitch': 73.22, 'roll': -82.7, 'pres': 161}
{'lipoC2': 8.1, 'lipoC3S1': 3.98, 'temp': 27.38, 'lipoC3S3': 12.08, 'lipoC3S2': 7.98, 'rot1': 0, 'rot0': 0, 'rot3': 0, 'rot2': 0, 'state': 'normal', 'yaw': 0.0, 'datetime': '2018-10-05 14:47:53.852447', 'mgs': 1, 'volt': 0.7813, 'depth': -0.293, 'time': 1, 'pitch': 73.22, 'roll': -82.7, 'pres': 160}
{'lipoC2': 8.1, 'lipoC3S1': 3.98, 'temp': 27.38, 'lipoC3S3': 12.08, 'lipoC3S2': 7.98, 'rot1': 0, 'rot0': 0, 'rot3': 0, 'rot2': 0, 'state': 'normal', 'yaw': 0.0, 'datetime': '2018-10-05 14:47:53.881987', 'mgs': 1, 'volt': 0.7813, 'depth': -0.293, 'time': 1, 'pitch': 73.22, 'roll': -82.7, 'pres': 160}
{'lipoC2': 8.1, 'lipoC3S1': 3.98, 'temp': 27.38, 'lipoC3S3': 12.08, 'lipoC3S2': 7.98, 'rot1': 0, 'rot0': 0, 'rot3': 0, 'rot2': 0, 'state': 'normal', 'yaw': 0.0, 'datetime': '2018-10-05 14:47:53.898105', 'mgs': 1, 'volt': 0.7813, 'depth': -0.293, 'time': 2, 'pitch': 73.22, 'roll': -82.7, 'pres': 160}
{'lipoC2': 8.1, 'lipoC3S1': 3.98, 'temp': 27.38, 'lipoC3S3': 12.08, 'lipoC3S2': 7.98, 'rot1': 0, 'rot0': 0, 'rot3': 0, 'rot2': 0, 'state': 'normal', 'yaw': 0.0, 'datetime': '2018-10-05 14:47:53.913663', 'mgs': 1, 'volt': 0.7813, 'depth': -0.293, 'time': 2, 'pitch': 73.22, 'roll': -82.7, 'pres': 160}
{'lipoC2': 8.1, 'lipoC3S1': 3.98, 'temp': 27.38, 'lipoC3S3': 12.08, 'lipoC3S2': 7.98, 'rot1': 0, 'rot0': 0, 'rot3': 0, 'rot2': 0, 'state': 'normal', 'yaw': 0.0, 'datetime': '2018-10-05 14:47:53.929155', 'mgs': 1, 'volt': 0.7813, 'depth': -0.293, 'time': 2, 'pitch': 73.22, 'roll': -82.7, 'pres': 160}
{'lipoC2': 8.1, 'lipoC3S1': 3.98, 'temp': 27.38, 'lipoC3S3': 12.08, 'lipoC3S2': 7.98, 'rot1': 0, 'rot0': 0, 'rot3': 0, 'rot2': 0, 'state': 'normal', 'yaw': 0.0, 'datetime': '2018-10-05 14:47:53.944608', 'mgs': 1, 'volt': 0.7813, 'depth': -0.293, 'time': 2, 'pitch': 73.22, 'roll': -82.7, 'pres': 160}
{'lipoC2': 8.1, 'lipoC3S1': 3.98, 'temp': 27.31, 'lipoC3S3': 12.08, 'lipoC3S2': 7.98, 'rot1': 0, 'rot0': 0, 'rot3': 0, 'rot2': 0, 'state': 'normal', 'yaw': 0.0, 'datetime': '2018-10-05 14:47:53.960089', 'mgs': 1, 'volt': 0.7861, 'depth': -0.217, 'time': 1, 'pitch': 73.22, 'roll': -82.7, 'pres': 161}
{'lipoC2': 8.1, 'lipoC3S1': 3.98, 'temp': 27.31, 'lipoC3S3': 12.08, 'lipoC3S2': 7.98, 'rot1': 0, 'rot0': 0, 'rot3': 0, 'rot2': 0, 'state': 'normal', 'yaw': 0.0, 'datetime': '2018-10-05 14:47:53.975564', 'mgs': 1, 'volt': 0.7813, 'depth': -0.293, 'time': 1, 'pitch': 73.22, 'roll': -82.7, 'pres': 160}
{'lipoC2': 8.1, 'lipoC3S1': 3.98, 'temp': 27.31, 'lipoC3S3': 12.08, 'lipoC3S2': 7.98, 'rot1': 0, 'rot0': 0, 'rot3': 0, 'rot2': 0, 'state': 'normal', 'yaw': 0.0, 'datetime': '2018-10-05 14:47:53.991011', 'mgs': 1, 'volt': 0.7813, 'depth': -0.293, 'time': 1, 'pitch': 73.22, 'roll': -82.7, 'pres': 160}
{'lipoC2': 8.1, 'lipoC3S1': 3.98, 'temp': 27.31, 'lipoC3S3': 12.08, 'lipoC3S2': 7.98, 'rot1': 0, 'rot0': 0, 'rot3': 0, 'rot2': 0, 'state': 'normal', 'yaw': 0.0, 'datetime': '2018-10-05 14:47:54.006477', 'mgs': 1, 'volt': 0.7861, 'depth': -0.217, 'time': 1, 'pitch': 73.22, 'roll': -82.7, 'pres': 161}
{'lipoC2': 8.1, 'lipoC3S1': 3.98, 'temp': 27.31, 'lipoC3S3': 12.08, 'lipoC3S2': 7.98, 'rot1': 0, 'rot0': 0, 'rot3': 0, 'rot2': 0, 'state': 'normal', 'yaw': 0.0, 'datetime': '2018-10-05 14:47:54.022103', 'mgs': 1, 'volt': 0.7813, 'depth': -0.293, 'time': 1, 'pitch': 73.22, 'roll': -82.7, 'pres': 160}
{'lipoC2': 8.1, 'lipoC3S1': 3.99, 'temp': 27.31, 'lipoC3S3': 12.08, 'lipoC3S2': 7.98, 'rot1': 0, 'rot0': 0, 'rot3': 0, 'rot2': 0, 'state': 'normal', 'yaw': 0.0, 'datetime': '2018-10-05 14:47:54.037577', 'mgs': 1, 'volt': 0.7813, 'depth': -0.293, 'time': 1, 'pitch': 73.22, 'roll': -82.7, 'pres': 160}
{'lipoC2': 8.1, 'lipoC3S1': 3.98, 'temp': 27.31, 'lipoC3S3': 12.08, 'lipoC3S2': 7.98, 'rot1': 0, 'rot0': 0, 'rot3': 0, 'rot2': 0, 'state': 'normal', 'yaw': 0.0, 'datetime': '2018-10-05 14:47:54.053046', 'mgs': 1, 'volt': 0.7861, 'depth': -0.217, 'time': 1, 'pitch': 73.22, 'roll': -82.7, 'pres': 161}
{'lipoC2': 8.1, 'lipoC3S1': 3.99, 'temp': 27.25, 'lipoC3S3': 12.08, 'lipoC3S2': 7.98, 'rot1': 0, 'rot0': 0, 'rot3': 0, 'rot2': 0, 'state': 'normal', 'yaw': 0.0, 'datetime': '2018-10-05 14:47:54.068493', 'mgs': 1, 'volt': 0.7861, 'depth': -0.217, 'time': 1, 'pitch': 73.22, 'roll': -82.7, 'pres': 161}
{'lipoC2': 8.1, 'lipoC3S1': 3.98, 'temp': 27.25, 'lipoC3S3': 12.08, 'lipoC3S2': 7.98, 'rot1': 0, 'rot0': 0, 'rot3': 0, 'rot2': 0, 'state': 'normal', 'yaw': 0.0, 'datetime': '2018-10-05 14:47:54.083956', 'mgs': 1, 'volt': 0.7861, 'depth': -0.217, 'time': 2, 'pitch': 73.22, 'roll': -82.7, 'pres': 161}
{'lipoC2': 8.1, 'lipoC3S1': 3.98, 'temp': 27.25, 'lipoC3S3': 12.08, 'lipoC3S2': 7.98, 'rot1': 0, 'rot0': 0, 'rot3': 0, 'rot2': 0, 'state': 'normal', 'yaw': 0.0, 'datetime': '2018-10-05 14:47:54.099413', 'mgs': 1, 'volt': 0.7813, 'depth': -0.293, 'time': 2, 'pitch': 73.22, 'roll': -82.7, 'pres': 160}
{'lipoC2': 8.1, 'lipoC3S1': 3.98, 'temp': 27.25, 'lipoC3S3': 12.08, 'lipoC3S2': 7.98, 'rot1': 0, 'rot0': 0, 'rot3': 0, 'rot2': 0, 'state': 'normal', 'yaw': 0.0, 'datetime': '2018-10-05 14:47:54.114831', 'mgs': 1, 'volt': 0.7861, 'depth': -0.217, 'time': 2, 'pitch': 73.22, 'roll': -82.7, 'pres': 161}
{'lipoC2': 8.1, 'lipoC3S1': 3.98, 'temp': 27.25, 'lipoC3S3': 12.08, 'lipoC3S2': 7.98, 'rot1': 0, 'rot0': 0, 'rot3': 0, 'rot2': 0, 'state': 'normal', 'yaw': 0.0, 'datetime': '2018-10-05 14:47:54.130317', 'mgs': 1, 'volt': 0.7813, 'depth': -0.293, 'time': 2, 'pitch': 73.22, 'roll': -82.7, 'pres': 160}
{'lipoC2': 8.1, 'lipoC3S1': 3.99, 'temp': 27.19, 'lipoC3S3': 12.08, 'lipoC3S2': 7.98, 'rot1': 0, 'rot0': 0, 'rot3': 0, 'rot2': 0, 'state': 'normal', 'yaw': 0.0, 'datetime': '2018-10-05 14:47:54.145785', 'mgs': 1, 'volt': 0.7861, 'depth': -0.217, 'time': 2, 'pitch': 73.22, 'roll': -82.7, 'pres': 161}
{'lipoC2': 8.1, 'lipoC3S1': 3.98, 'temp': 27.19, 'lipoC3S3': 12.08, 'lipoC3S2': 7.99, 'rot1': 0, 'rot0': 0, 'rot3': 0, 'rot2': 0, 'state': 'normal', 'yaw': 0.0, 'datetime': '2018-10-05 14:47:54.161255', 'mgs': 1, 'volt': 0.7813, 'depth': -0.293, 'time': 2, 'pitch': 73.22, 'roll': -82.7, 'pres': 160}
{'lipoC2': 8.1, 'lipoC3S1': 3.98, 'temp': 27.19, 'lipoC3S3': 12.08, 'lipoC3S2': 7.98, 'rot1': 0, 'rot0': 0, 'rot3': 0, 'rot2': 0, 'state': 'normal', 'yaw': 0.0, 'datetime': '2018-10-05 14:47:54.176721', 'mgs': 1, 'volt': 0.7861, 'depth': -0.217, 'time': 2, 'pitch': 73.22, 'roll': -82.7, 'pres': 161}
{'lipoC2': 8.1, 'lipoC3S1': 3.99, 'temp': 27.19, 'lipoC3S3': 12.08, 'lipoC3S2': 7.98, 'rot1': 0, 'rot0': 0, 'rot3': 0, 'rot2': 0, 'state': 'normal', 'yaw': 0.0, 'datetime': '2018-10-05 14:47:54.192207', 'mgs': 1, 'volt': 0.7813, 'depth': -0.293, 'time': 2, 'pitch': 73.22, 'roll': -82.7, 'pres': 160}
{'lipoC2': 8.1, 'lipoC3S1': 3.98, 'temp': 27.19, 'lipoC3S3': 12.08, 'lipoC3S2': 7.98, 'rot1': 0, 'rot0': 0, 'rot3': 0, 'rot2': 0, 'state': 'normal', 'yaw': 0.0, 'datetime': '2018-10-05 14:47:54.207700', 'mgs': 1, 'volt': 0.7813, 'depth': -0.293, 'time': 2, 'pitch': 73.22, 'roll': -82.7, 'pres': 160}
{'lipoC2': 8.1, 'lipoC3S1': 3.98, 'temp': 27.19, 'lipoC3S3': 12.08, 'lipoC3S2': 7.98, 'rot1': 0, 'rot0': 0, 'rot3': 0, 'rot2': 0, 'state': 'normal', 'yaw': 0.0, 'datetime': '2018-10-05 14:47:54.224262', 'mgs': 1, 'volt': 0.7861, 'depth': -0.217, 'time': 3, 'pitch': 73.22, 'roll': -82.7, 'pres': 161}
{'lipoC2': 8.1, 'lipoC3S1': 3.98, 'temp': 27.19, 'lipoC3S3': 12.08, 'lipoC3S2': 7.98, 'rot1': 0, 'rot0': 0, 'rot3': 0, 'rot2': 0, 'state': 'normal', 'yaw': 0.0, 'datetime': '2018-10-05 14:47:54.239995', 'mgs': 1, 'volt': 0.7813, 'depth': -0.293, 'time': 3, 'pitch': 73.22, 'roll': -82.7, 'pres': 160}
{'lipoC2': 8.1, 'lipoC3S1': 3.98, 'temp': 27.13, 'lipoC3S3': 12.08, 'lipoC3S2': 7.98, 'rot1': 0, 'rot0': 0, 'rot3': 0, 'rot2': 0, 'state': 'normal', 'yaw': 0.0, 'datetime': '2018-10-05 14:47:54.255502', 'mgs': 1, 'volt': 0.7813, 'depth': -0.293, 'time': 3, 'pitch': 73.22, 'roll': -82.7, 'pres': 160}
{'lipoC2': 8.1, 'lipoC3S1': 3.98, 'temp': 27.13, 'lipoC3S3': 12.08, 'lipoC3S2': 7.98, 'rot1': 0, 'rot0': 0, 'rot3': 0, 'rot2': 0, 'state': 'normal', 'yaw': 0.0, 'datetime': '2018-10-05 14:47:54.271010', 'mgs': 1, 'volt': 0.7813, 'depth': -0.293, 'time': 3, 'pitch': 73.22, 'roll': -82.7, 'pres': 160}
{'lipoC2': 8.1, 'lipoC3S1': 3.98, 'temp': 27.13, 'lipoC3S3': 12.08, 'lipoC3S2': 7.98, 'rot1': 0, 'rot0': 0, 'rot3': 0, 'rot2': 0, 'state': 'normal', 'yaw': 0.0, 'datetime': '2018-10-05 14:47:54.286491', 'mgs': 1, 'volt': 0.7813, 'depth': -0.293, 'time': 3, 'pitch': 73.22, 'roll': -82.7, 'pres': 160}
{'lipoC2': 8.1, 'lipoC3S1': 3.98, 'temp': 27.13, 'lipoC3S3': 12.08, 'lipoC3S2': 7.98, 'rot1': 0, 'rot0': 0, 'rot3': 0, 'rot2': 0, 'state': 'normal', 'yaw': 0.0, 'datetime': '2018-10-05 14:47:54.301953', 'mgs': 1, 'volt': 0.7861, 'depth': -0.217, 'time': 3, 'pitch': 73.22, 'roll': -82.7, 'pres': 161}
{'lipoC2': 8.1, 'lipoC3S1': 3.98, 'temp': 27.13, 'lipoC3S3': 12.08, 'lipoC3S2': 7.98, 'rot1': 0, 'rot0': 0, 'rot3': 0, 'rot2': 0, 'state': 'normal', 'yaw': 0.0, 'datetime': '2018-10-05 14:47:54.317401', 'mgs': 1, 'volt': 0.7861, 'depth': -0.217, 'time': 3, 'pitch': 73.22, 'roll': -82.7, 'pres': 161}
{'lipoC2': 8.1, 'lipoC3S1': 3.99, 'temp': 27.13, 'lipoC3S3': 12.08, 'lipoC3S2': 7.98, 'rot1': 0, 'rot0': 0, 'rot3': 0, 'rot2': 0, 'state': 'normal', 'yaw': 0.0, 'datetime': '2018-10-05 14:47:54.332883', 'mgs': 1, 'volt': 0.7813, 'depth': -0.293, 'time': 3, 'pitch': 73.22, 'roll': -82.7, 'pres': 160}
{'lipoC2': 8.1, 'lipoC3S1': 3.99, 'temp': 27.13, 'lipoC3S3': 12.08, 'lipoC3S2': 7.98, 'rot1': 0, 'rot0': 0, 'rot3': 0, 'rot2': 0, 'state': 'normal', 'yaw': 0.0, 'datetime': '2018-10-05 14:47:54.348354', 'mgs': 1, 'volt': 0.7861, 'depth': -0.217, 'time': 3, 'pitch': 73.22, 'roll': -82.7, 'pres': 161}
{'lipoC2': 8.1, 'lipoC3S1': 3.99, 'temp': 27.13, 'lipoC3S3': 12.08, 'lipoC3S2': 7.98, 'rot1': 0, 'rot0': 0, 'rot3': 0, 'rot2': 0, 'state': 'normal', 'yaw': 0.0, 'datetime': '2018-10-05 14:47:54.363830', 'mgs': 1, 'volt': 0.7861, 'depth': -0.217, 'time': 3, 'pitch': 73.22, 'roll': -82.7, 'pres': 161}
{'lipoC2': 8.1, 'lipoC3S1': 3.98, 'temp': 27.13, 'lipoC3S3': 12.08, 'lipoC3S2': 7.98, 'rot1': 0, 'rot0': 0, 'rot3': 0, 'rot2': 0, 'state': 'normal', 'yaw': 0.0, 'datetime': '2018-10-05 14:47:54.379300', 'mgs': 1, 'volt': 0.7813, 'depth': -0.293, 'time': 4, 'pitch': 73.22, 'roll': -82.7, 'pres': 160}
{'lipoC2': 8.1, 'lipoC3S1': 3.98, 'temp': 27.13, 'lipoC3S3': 12.08, 'lipoC3S2': 7.98, 'rot1': 0, 'rot0': 0, 'rot3': 0, 'rot2': 0, 'state': 'normal', 'yaw': 0.0, 'datetime': '2018-10-05 14:47:54.394786', 'mgs': 1, 'volt': 0.7813, 'depth': -0.293, 'time': 4, 'pitch': 73.22, 'roll': -82.7, 'pres': 160}
{'lipoC2': 8.1, 'lipoC3S1': 3.98, 'temp': 27.13, 'lipoC3S3': 12.08, 'lipoC3S2': 7.98, 'rot1': 0, 'rot0': 0, 'rot3': 0, 'rot2': 0, 'state': 'normal', 'yaw': 0.0, 'datetime': '2018-10-05 14:47:54.410299', 'mgs': 1, 'volt': 0.7813, 'depth': -0.293, 'time': 4, 'pitch': 73.22, 'roll': -82.7, 'pres': 160}
{'lipoC2': 8.1, 'lipoC3S1': 3.98, 'temp': 27.13, 'lipoC3S3': 12.08, 'lipoC3S2': 7.98, 'rot1': 0, 'rot0': 0, 'rot3': 0, 'rot2': 0, 'state': 'normal', 'yaw': 0.0, 'datetime': '2018-10-05 14:47:54.425772', 'mgs': 1, 'volt': 0.7813, 'depth': -0.293, 'time': 4, 'pitch': 73.22, 'roll': -82.7, 'pres': 160}
{'lipoC2': 8.1, 'lipoC3S1': 3.98, 'temp': 27.13, 'lipoC3S3': 12.08, 'lipoC3S2': 7.98, 'rot1': 0, 'rot0': 0, 'rot3': 0, 'rot2': 0, 'state': 'normal', 'yaw': 0.0, 'datetime': '2018-10-05 14:47:54.441404', 'mgs': 1, 'volt': 0.7813, 'depth': -0.293, 'time': 4, 'pitch': 73.22, 'roll': -82.7, 'pres': 160}
{'lipoC2': 8.1, 'lipoC3S1': 3.98, 'temp': 27.13, 'lipoC3S3': 12.08, 'lipoC3S2': 7.98, 'rot1': 0, 'rot0': 0, 'rot3': 0, 'rot2': 0, 'state': 'normal', 'yaw': 0.0, 'datetime': '2018-10-05 14:47:54.456902', 'mgs': 1, 'volt': 0.7813, 'depth': -0.293, 'time': 4, 'pitch': 73.22, 'roll': -82.7, 'pres': 160}
{'lipoC2': 8.1, 'lipoC3S1': 3.98, 'temp': 27.06, 'lipoC3S3': 12.08, 'lipoC3S2': 7.98, 'rot1': 0, 'rot0': 0, 'rot3': 0, 'rot2': 0, 'state': 'normal', 'yaw': 0.0, 'datetime': '2018-10-05 14:47:54.472373', 'mgs': 1, 'volt': 0.7861, 'depth': -0.217, 'time': 4, 'pitch': 73.22, 'roll': -82.7, 'pres': 161}
{'lipoC2': 8.1, 'lipoC3S1': 3.98, 'temp': 27.06, 'lipoC3S3': 12.08, 'lipoC3S2': 7.98, 'rot1': 0, 'rot0': 0, 'rot3': 0, 'rot2': 0, 'state': 'normal', 'yaw': 0.0, 'datetime': '2018-10-05 14:47:54.487863', 'mgs': 1, 'volt': 0.7861, 'depth': -0.217, 'time': 4, 'pitch': 73.22, 'roll': -82.7, 'pres': 161}
{'lipoC2': 8.1, 'lipoC3S1': 3.99, 'temp': 27.06, 'lipoC3S3': 12.08, 'lipoC3S2': 7.98, 'rot1': 0, 'rot0': 0, 'rot3': 0, 'rot2': 0, 'state': 'normal', 'yaw': 0.0, 'datetime': '2018-10-05 14:47:54.503484', 'mgs': 1, 'volt': 0.7861, 'depth': -0.217, 'time': 4, 'pitch': 73.22, 'roll': -82.7, 'pres': 161}
{'lipoC2': 8.1, 'lipoC3S1': 3.98, 'temp': 27.06, 'lipoC3S3': 12.08, 'lipoC3S2': 7.98, 'rot1': 0, 'rot0': 0, 'rot3': 0, 'rot2': 0, 'state': 'normal', 'yaw': 0.0, 'datetime': '2018-10-05 14:47:54.519016', 'mgs': 1, 'volt': 0.7813, 'depth': -0.293, 'time': 4, 'pitch': 73.22, 'roll': -82.7, 'pres': 160}
{'lipoC2': 8.1, 'lipoC3S1': 3.98, 'temp': 27.06, 'lipoC3S3': 12.08, 'lipoC3S2': 7.98, 'rot1': 0, 'rot0': 0, 'rot3': 0, 'rot2': 0, 'state': 'normal', 'yaw': 0.0, 'datetime': '2018-10-05 14:47:54.534369', 'mgs': 1, 'volt': 0.7813, 'depth': -0.293, 'time': 5, 'pitch': 73.22, 'roll': -82.7, 'pres': 160}
{'lipoC2': 8.1, 'lipoC3S1': 3.98, 'temp': 27.06, 'lipoC3S3': 12.08, 'lipoC3S2': 7.98, 'rot1': 0, 'rot0': 0, 'rot3': 0, 'rot2': 0, 'state': 'normal', 'yaw': 0.0, 'datetime': '2018-10-05 14:47:54.549330', 'mgs': 1, 'volt': 0.7813, 'depth': -0.293, 'time': 5, 'pitch': 73.22, 'roll': -82.7, 'pres': 160}
{'lipoC2': 8.1, 'lipoC3S1': 3.98, 'temp': 27.06, 'lipoC3S3': 12.08, 'lipoC3S2': 7.98, 'rot1': 0, 'rot0': 0, 'rot3': 0, 'rot2': 0, 'state': 'normal', 'yaw': 0.0, 'datetime': '2018-10-05 14:47:54.564235', 'mgs': 1, 'volt': 0.7813, 'depth': -0.293, 'time': 5, 'pitch': 73.22, 'roll': -82.7, 'pres': 160}
{'lipoC2': 8.1, 'lipoC3S1': 3.98, 'temp': 27.0, 'lipoC3S3': 12.08, 'lipoC3S2': 7.98, 'rot1': 0, 'rot0': 0, 'rot3': 0, 'rot2': 0, 'state': 'normal', 'yaw': 0.0, 'datetime': '2018-10-05 14:47:54.579199', 'mgs': 1, 'volt': 0.7813, 'depth': -0.293, 'time': 5, 'pitch': 73.22, 'roll': -82.7, 'pres': 160}
{'lipoC2': 8.1, 'lipoC3S1': 3.98, 'temp': 27.0, 'lipoC3S3': 12.08, 'lipoC3S2': 7.98, 'rot1': 0, 'rot0': 0, 'rot3': 0, 'rot2': 0, 'state': 'normal', 'yaw': 0.0, 'datetime': '2018-10-05 14:47:54.594071', 'mgs': 1, 'volt': 0.7813, 'depth': -0.293, 'time': 5, 'pitch': 73.22, 'roll': -82.7, 'pres': 160}
{'lipoC2': 8.1, 'lipoC3S1': 3.98, 'temp': 27.0, 'lipoC3S3': 12.08, 'lipoC3S2': 7.98, 'rot1': 0, 'rot0': 0, 'rot3': 0, 'rot2': 0, 'state': 'normal', 'yaw': 0.0, 'datetime': '2018-10-05 14:47:54.609003', 'mgs': 1, 'volt': 0.7813, 'depth': -0.293, 'time': 5, 'pitch': 73.22, 'roll': -82.7, 'pres': 160}
{'lipoC2': 8.1, 'lipoC3S1': 3.98, 'temp': 27.0, 'lipoC3S3': 12.08, 'lipoC3S2': 7.98, 'rot1': 0, 'rot0': 0, 'rot3': 0, 'rot2': 0, 'state': 'normal', 'yaw': 0.0, 'datetime': '2018-10-05 14:47:54.623889', 'mgs': 1, 'volt': 0.7813, 'depth': -0.293, 'time': 5, 'pitch': 73.22, 'roll': -82.7, 'pres': 160}
{'lipoC2': 8.1, 'lipoC3S1': 3.98, 'temp': 27.06, 'lipoC3S3': 12.08, 'lipoC3S2': 7.98, 'rot1': 0, 'rot0': 0, 'rot3': 0, 'rot2': 0, 'state': 'normal', 'yaw': 0.0, 'datetime': '2018-10-05 14:47:54.638839', 'mgs': 1, 'volt': 0.7813, 'depth': -0.293, 'time': 5, 'pitch': 73.22, 'roll': -82.7, 'pres': 160}
{'lipoC2': 8.1, 'lipoC3S1': 3.98, 'temp': 27.06, 'lipoC3S3': 12.08, 'lipoC3S2': 7.99, 'rot1': 0, 'rot0': 0, 'rot3': 0, 'rot2': 0, 'state': 'normal', 'yaw': 0.0, 'datetime': '2018-10-05 14:47:54.653887', 'mgs': 1, 'volt': 0.7861, 'depth': -0.217, 'time': 5, 'pitch': 73.22, 'roll': -82.7, 'pres': 161}
{'lipoC2': 8.1, 'lipoC3S1': 3.98, 'temp': 27.06, 'lipoC3S3': 12.05, 'lipoC3S2': 7.96, 'rot1': 0, 'rot0': 0, 'rot3': 0, 'rot2': 0, 'state': 'normal', 'yaw': 0.0, 'datetime': '2018-10-05 14:47:54.668816', 'mgs': 1, 'volt': 0.7813, 'depth': -0.293, 'time': 6, 'pitch': 73.22, 'roll': -82.7, 'pres': 160}
{'lipoC2': 8.1, 'lipoC3S1': 3.98, 'temp': 27.0, 'lipoC3S3': 12.02, 'lipoC3S2': 7.97, 'rot1': 0, 'rot0': 0, 'rot3': 0, 'rot2': 0, 'state': 'normal', 'yaw': 0.0, 'datetime': '2018-10-05 14:47:54.683688', 'mgs': 1, 'volt': 0.7813, 'depth': -0.293, 'time': 6, 'pitch': 73.22, 'roll': -82.7, 'pres': 160}
{'lipoC2': 8.09, 'lipoC3S1': 3.98, 'temp': 27.0, 'lipoC3S3': 12.06, 'lipoC3S2': 7.97, 'rot1': 0, 'rot0': 1, 'rot3': 0, 'rot2': 0, 'state': 'normal', 'yaw': 0.0, 'datetime': '2018-10-05 14:47:54.698591', 'mgs': 1, 'volt': 0.7813, 'depth': -0.293, 'time': 6, 'pitch': 73.22, 'roll': -82.7, 'pres': 160}
{'lipoC2': 8.1, 'lipoC3S1': 3.98, 'temp': 26.94, 'lipoC3S3': 12.05, 'lipoC3S2': 7.97, 'rot1': 0, 'rot0': 1, 'rot3': 0, 'rot2': 0, 'state': 'normal', 'yaw': 0.0, 'datetime': '2018-10-05 14:47:54.713451', 'mgs': 1, 'volt': 0.7813, 'depth': -0.293, 'time': 6, 'pitch': 73.22, 'roll': -82.7, 'pres': 160}
{'lipoC2': 8.1, 'lipoC3S1': 3.98, 'temp': 26.94, 'lipoC3S3': 12.02, 'lipoC3S2': 7.97, 'rot1': 0, 'rot0': 2, 'rot3': 0, 'rot2': 0, 'state': 'normal', 'yaw': 0.0, 'datetime': '2018-10-05 14:47:54.728378', 'mgs': 1, 'volt': 0.7813, 'depth': -0.293, 'time': 6, 'pitch': 73.22, 'roll': -82.7, 'pres': 160}
{'lipoC2': 8.1, 'lipoC3S1': 3.98, 'temp': 26.94, 'lipoC3S3': 12.06, 'lipoC3S2': 7.97, 'rot1': 0, 'rot0': 2, 'rot3': 0, 'rot2': 0, 'state': 'normal', 'yaw': 0.0, 'datetime': '2018-10-05 14:47:54.743330', 'mgs': 1, 'volt': 0.7813, 'depth': -0.293, 'time': 6, 'pitch': 73.22, 'roll': -82.7, 'pres': 160}
{'lipoC2': 8.1, 'lipoC3S1': 3.98, 'temp': 26.94, 'lipoC3S3': 12.06, 'lipoC3S2': 7.97, 'rot1': 0, 'rot0': 3, 'rot3': 0, 'rot2': 0, 'state': 'normal', 'yaw': 0.0, 'datetime': '2018-10-05 14:47:54.758252', 'mgs': 1, 'volt': 0.7813, 'depth': -0.293, 'time': 6, 'pitch': 73.22, 'roll': -82.7, 'pres': 160}
{'lipoC2': 8.1, 'lipoC3S1': 3.98, 'temp': 26.94, 'lipoC3S3': 12.06, 'lipoC3S2': 7.97, 'rot1': 0, 'rot0': 3, 'rot3': 0, 'rot2': 0, 'state': 'normal', 'yaw': 0.0, 'datetime': '2018-10-05 14:47:54.773185', 'mgs': 1, 'volt': 0.7813, 'depth': -0.293, 'time': 6, 'pitch': 73.22, 'roll': -82.7, 'pres': 160}
{'lipoC2': 8.1, 'lipoC3S1': 3.98, 'temp': 26.88, 'lipoC3S3': 12.06, 'lipoC3S2': 7.97, 'rot1': 0, 'rot0': 4, 'rot3': 0, 'rot2': 0, 'state': 'normal', 'yaw': 0.0, 'datetime': '2018-10-05 14:47:54.788101', 'mgs': 1, 'volt': 0.7813, 'depth': -0.293, 'time': 6, 'pitch': 73.22, 'roll': -82.7, 'pres': 160}
{'lipoC2': 8.09, 'lipoC3S1': 3.98, 'temp': 26.88, 'lipoC3S3': 12.06, 'lipoC3S2': 7.97, 'rot1': 0, 'rot0': 4, 'rot3': 0, 'rot2': 0, 'state': 'normal', 'yaw': 0.0, 'datetime': '2018-10-05 14:47:54.803021', 'mgs': 1, 'volt': 0.7813, 'depth': -0.293, 'time': 6, 'pitch': 73.22, 'roll': -82.7, 'pres': 160}
{'lipoC2': 8.1, 'lipoC3S1': 3.98, 'temp': 26.94, 'lipoC3S3': 12.05, 'lipoC3S2': 7.97, 'rot1': 0, 'rot0': 5, 'rot3': 0, 'rot2': 0, 'state': 'normal', 'yaw': 0.0, 'datetime': '2018-10-05 14:47:54.848209', 'mgs': 1, 'volt': 0.7813, 'depth': -0.293, 'time': 7, 'pitch': 73.22, 'roll': -82.7, 'pres': 160}
{'lipoC2': 8.1, 'lipoC3S1': 3.98, 'temp': 26.94, 'lipoC3S3': 12.06, 'lipoC3S2': 7.97, 'rot1': 0, 'rot0': 6, 'rot3': 0, 'rot2': 0, 'state': 'normal', 'yaw': 0.0, 'datetime': '2018-10-05 14:47:54.952001', 'mgs': 1, 'volt': 0.7764, 'depth': -0.369, 'time': 7, 'pitch': 73.22, 'roll': -82.7, 'pres': 159}
{'lipoC2': 8.09, 'lipoC3S1': 3.98, 'temp': 26.94, 'lipoC3S3': 12.06, 'lipoC3S2': 7.97, 'rot1': 0, 'rot0': 6, 'rot3': 0, 'rot2': 0, 'state': 'normal', 'yaw': 0.0, 'datetime': '2018-10-05 14:47:55.055355', 'mgs': 1, 'volt': 0.791, 'depth': -0.14, 'time': 7, 'pitch': 73.22, 'roll': -82.7, 'pres': 162}
{'lipoC2': 8.1, 'lipoC3S1': 3.98, 'temp': 26.94, 'lipoC3S3': 12.06, 'lipoC3S2': 7.97, 'rot1': 0, 'rot0': 7, 'rot3': 0, 'rot2': 0, 'state': 'normal', 'yaw': 0.0, 'datetime': '2018-10-05 14:47:55.159052', 'mgs': 1, 'volt': 0.7813, 'depth': -0.293, 'time': 7, 'pitch': 73.22, 'roll': -82.7, 'pres': 160}
{'lipoC2': 8.09, 'lipoC3S1': 3.98, 'temp': 26.94, 'lipoC3S3': 12.06, 'lipoC3S2': 7.97, 'rot1': 0, 'rot0': 7, 'rot3': 0, 'rot2': 0, 'state': 'normal', 'yaw': 0.0, 'datetime': '2018-10-05 14:47:55.263641', 'mgs': 1, 'volt': 0.7813, 'depth': -0.293, 'time': 7, 'pitch': 73.22, 'roll': -82.7, 'pres': 160}
{'lipoC2': 8.1, 'lipoC3S1': 3.94, 'temp': 26.94, 'lipoC3S3': 12.06, 'lipoC3S2': 7.97, 'rot1': 0, 'rot0': 8, 'rot3': 0, 'rot2': 0, 'state': 'normal', 'yaw': 0.0, 'datetime': '2018-10-05 14:47:55.367690', 'mgs': 1, 'volt': 0.7813, 'depth': -0.293, 'time': 7, 'pitch': 73.22, 'roll': -82.7, 'pres': 160}
{'lipoC2': 8.1, 'lipoC3S1': 3.94, 'temp': 26.94, 'lipoC3S3': 12.06, 'lipoC3S2': 7.97, 'rot1': 0, 'rot0': 8, 'rot3': 0, 'rot2': 0, 'state': 'normal', 'yaw': 0.0, 'datetime': '2018-10-05 14:47:55.472119', 'mgs': 1, 'volt': 0.7813, 'depth': -0.293, 'time': 7, 'pitch': 73.22, 'roll': -82.7, 'pres': 160}
{'lipoC2': 8.1, 'lipoC3S1': 3.98, 'temp': 26.94, 'lipoC3S3': 12.06, 'lipoC3S2': 7.97, 'rot1': 0, 'rot0': 9, 'rot3': 0, 'rot2': 0, 'state': 'normal', 'yaw': 0.0, 'datetime': '2018-10-05 14:47:55.576254', 'mgs': 1, 'volt': 0.7715, 'depth': -0.446, 'time': 7, 'pitch': 73.22, 'roll': -82.7, 'pres': 158}
{'lipoC2': 8.09, 'lipoC3S1': 3.98, 'temp': 26.94, 'lipoC3S3': 12.05, 'lipoC3S2': 7.97, 'rot1': 0, 'rot0': 9, 'rot3': 0, 'rot2': 0, 'state': 'normal', 'yaw': 0.0, 'datetime': '2018-10-05 14:47:55.679616', 'mgs': 1, 'volt': 0.7813, 'depth': -0.293, 'time': 7, 'pitch': 73.22, 'roll': -82.7, 'pres': 160}
{'lipoC2': 8.1, 'lipoC3S1': 3.98, 'temp': 26.88, 'lipoC3S3': 12.06, 'lipoC3S2': 7.97, 'rot1': 0, 'rot0': 10, 'rot3': 0, 'rot2': 0, 'state': 'normal', 'yaw': 0.0, 'datetime': '2018-10-05 14:47:55.784435', 'mgs': 1, 'volt': 0.7813, 'depth': -0.293, 'time': 7, 'pitch': 73.22, 'roll': -82.7, 'pres': 160}
{'lipoC2': 8.1, 'lipoC3S1': 3.98, 'temp': 26.88, 'lipoC3S3': 12.06, 'lipoC3S2': 7.97, 'rot1': 0, 'rot0': 11, 'rot3': 0, 'rot2': 0, 'state': 'normal', 'yaw': 0.0, 'datetime': '2018-10-05 14:47:55.887933', 'mgs': 1, 'volt': 0.7813, 'depth': -0.293, 'time': 8, 'pitch': 73.22, 'roll': -82.7, 'pres': 160}
{'lipoC2': 8.1, 'lipoC3S1': 3.98, 'temp': 26.88, 'lipoC3S3': 12.06, 'lipoC3S2': 7.97, 'rot1': 0, 'rot0': 11, 'rot3': 0, 'rot2': 0, 'state': 'normal', 'yaw': 0.0, 'datetime': '2018-10-05 14:47:55.991430', 'mgs': 1, 'volt': 0.7813, 'depth': -0.293, 'time': 8, 'pitch': 73.22, 'roll': -82.7, 'pres': 160}
{'lipoC2': 8.1, 'lipoC3S1': 3.98, 'temp': 26.94, 'lipoC3S3': 12.06, 'lipoC3S2': 7.97, 'rot1': 0, 'rot0': 12, 'rot3': 0, 'rot2': 0, 'state': 'normal', 'yaw': 0.0, 'datetime': '2018-10-05 14:47:56.096239', 'mgs': 1, 'volt': 0.7813, 'depth': -0.293, 'time': 8, 'pitch': 73.22, 'roll': -82.7, 'pres': 160}
{'lipoC2': 8.1, 'lipoC3S1': 3.98, 'temp': 26.94, 'lipoC3S3': 12.01, 'lipoC3S2': 7.97, 'rot1': 0, 'rot0': 12, 'rot3': 0, 'rot2': 0, 'state': 'normal', 'yaw': 0.0, 'datetime': '2018-10-05 14:47:56.199766', 'mgs': 1, 'volt': 0.7813, 'depth': -0.293, 'time': 8, 'pitch': 73.22, 'roll': -82.7, 'pres': 160}
{'lipoC2': 8.1, 'lipoC3S1': 3.98, 'temp': 26.88, 'lipoC3S3': 12.05, 'lipoC3S2': 7.97, 'rot1': 0, 'rot0': 13, 'rot3': 0, 'rot2': 0, 'state': 'normal', 'yaw': 0.0, 'datetime': '2018-10-05 14:47:56.303518', 'mgs': 1, 'volt': 0.7813, 'depth': -0.293, 'time': 8, 'pitch': 73.22, 'roll': -82.7, 'pres': 160}
{'lipoC2': 8.1, 'lipoC3S1': 3.98, 'temp': 26.88, 'lipoC3S3': 12.06, 'lipoC3S2': 7.97, 'rot1': 0, 'rot0': 13, 'rot3': 0, 'rot2': 0, 'state': 'normal', 'yaw': 0.0, 'datetime': '2018-10-05 14:47:56.407919', 'mgs': 1, 'volt': 0.8008, 'depth': 0.012, 'time': 8, 'pitch': 73.22, 'roll': -82.7, 'pres': 164}
{'lipoC2': 8.1, 'lipoC3S1': 3.98, 'temp': 26.88, 'lipoC3S3': 12.06, 'lipoC3S2': 7.97, 'rot1': 0, 'rot0': 14, 'rot3': 0, 'rot2': 0, 'state': 'normal', 'yaw': 0.0, 'datetime': '2018-10-05 14:47:56.511504', 'mgs': 1, 'volt': 0.791, 'depth': -0.14, 'time': 8, 'pitch': 73.22, 'roll': -82.7, 'pres': 162}
{'lipoC2': 8.1, 'lipoC3S1': 3.98, 'temp': 26.88, 'lipoC3S3': 12.06, 'lipoC3S2': 7.97, 'rot1': 0, 'rot0': 14, 'rot3': 0, 'rot2': 0, 'state': 'normal', 'yaw': 0.1, 'datetime': '2018-10-05 14:47:56.616374', 'mgs': 1, 'volt': 0.7813, 'depth': -0.293, 'time': 8, 'pitch': 73.22, 'roll': -82.6, 'pres': 160}
{'lipoC2': 8.1, 'lipoC3S1': 3.98, 'temp': 26.88, 'lipoC3S3': 12.06, 'lipoC3S2': 7.97, 'rot1': 0, 'rot0': 15, 'rot3': 0, 'rot2': 0, 'state': 'normal', 'yaw': -0.03, 'datetime': '2018-10-05 14:47:56.720146', 'mgs': 1, 'volt': 0.7813, 'depth': -0.293, 'time': 8, 'pitch': 73.22, 'roll': -82.73, 'pres': 160}
{'lipoC2': 8.09, 'lipoC3S1': 3.98, 'temp': 26.88, 'lipoC3S3': 12.05, 'lipoC3S2': 7.97, 'rot1': 0, 'rot0': 15, 'rot3': 0, 'rot2': 0, 'state': 'normal', 'yaw': 0.07, 'datetime': '2018-10-05 14:47:56.823691', 'mgs': 1, 'volt': 0.7813, 'depth': -0.293, 'time': 9, 'pitch': 73.22, 'roll': -82.63, 'pres': 160}
{'lipoC2': 8.1, 'lipoC3S1': 4.01, 'temp': 26.88, 'lipoC3S3': 12.06, 'lipoC3S2': 7.97, 'rot1': 0, 'rot0': 16, 'rot3': 0, 'rot2': 0, 'state': 'normal', 'yaw': -0.0, 'datetime': '2018-10-05 14:47:56.928553', 'mgs': 1, 'volt': 0.7813, 'depth': -0.293, 'time': 9, 'pitch': 73.2, 'roll': -82.7, 'pres': 160}
{'lipoC2': 8.1, 'lipoC3S1': 3.98, 'temp': 27.06, 'lipoC3S3': 12.06, 'lipoC3S2': 7.97, 'rot1': 0, 'rot0': 17, 'rot3': 0, 'rot2': 0, 'state': 'normal', 'yaw': 0.1, 'datetime': '2018-10-05 14:47:57.032094', 'mgs': 1, 'volt': 0.7813, 'depth': -0.293, 'time': 9, 'pitch': 73.22, 'roll': -82.6, 'pres': 160}
{'lipoC2': 8.1, 'lipoC3S1': 3.98, 'temp': 27.06, 'lipoC3S3': 12.06, 'lipoC3S2': 7.97, 'rot1': 0, 'rot0': 17, 'rot3': 0, 'rot2': 0, 'state': 'normal', 'yaw': -0.03, 'datetime': '2018-10-05 14:47:57.136198', 'mgs': 1, 'volt': 0.7813, 'depth': -0.293, 'time': 9, 'pitch': 73.2, 'roll': -82.73, 'pres': 160}
{'lipoC2': 8.1, 'lipoC3S1': 4.0, 'temp': 27.19, 'lipoC3S3': 12.06, 'lipoC3S2': 7.97, 'rot1': 0, 'rot0': 18, 'rot3': 0, 'rot2': 0, 'state': 'normal', 'yaw': 0.18, 'datetime': '2018-10-05 14:47:57.240873', 'mgs': 1, 'volt': 0.7813, 'depth': -0.293, 'time': 9, 'pitch': 73.22, 'roll': -82.53, 'pres': 160}
{'lipoC2': 8.1, 'lipoC3S1': 3.97, 'temp': 27.19, 'lipoC3S3': 12.06, 'lipoC3S2': 7.97, 'rot1': 0, 'rot0': 18, 'rot3': 0, 'rot2': 0, 'state': 'normal', 'yaw': 0.0, 'datetime': '2018-10-05 14:47:57.344379', 'mgs': 1, 'volt': 0.7813, 'depth': -0.293, 'time': 9, 'pitch': 73.22, 'roll': -82.7, 'pres': 160}
{'lipoC2': 8.1, 'lipoC3S1': 3.98, 'temp': 27.19, 'lipoC3S3': 12.05, 'lipoC3S2': 7.97, 'rot1': 0, 'rot0': 19, 'rot3': 0, 'rot2': 0, 'state': 'normal', 'yaw': 0.17, 'datetime': '2018-10-05 14:47:57.449215', 'mgs': 1, 'volt': 0.7813, 'depth': -0.293, 'time': 9, 'pitch': 73.2, 'roll': -82.53, 'pres': 160}
{'lipoC2': 8.1, 'lipoC3S1': 3.98, 'temp': 27.44, 'lipoC3S3': 12.06, 'lipoC3S2': 7.97, 'rot1': 0, 'rot0': 19, 'rot3': 0, 'rot2': 0, 'state': 'normal', 'yaw': 0.13, 'datetime': '2018-10-05 14:47:57.552930', 'mgs': 1, 'volt': 0.7959, 'depth': -0.064, 'time': 9, 'pitch': 73.2, 'roll': -82.57, 'pres': 163}
{'lipoC2': 8.1, 'lipoC3S1': 3.98, 'temp': 27.44, 'lipoC3S3': 12.06, 'lipoC3S2': 7.97, 'rot1': 0, 'rot0': 20, 'rot3': 0, 'rot2': 0, 'state': 'normal', 'yaw': 0.13, 'datetime': '2018-10-05 14:47:57.656441', 'mgs': 1, 'volt': 0.7813, 'depth': -0.293, 'time': 9, 'pitch': 73.2, 'roll': -82.57, 'pres': 160}
{'lipoC2': 8.1, 'lipoC3S1': 3.98, 'temp': 27.69, 'lipoC3S3': 12.06, 'lipoC3S2': 7.97, 'rot1': 0, 'rot0': 20, 'rot3': 0, 'rot2': 0, 'state': 'normal', 'yaw': 0.13, 'datetime': '2018-10-05 14:47:57.760014', 'mgs': 1, 'volt': 0.7813, 'depth': -0.293, 'time': 9, 'pitch': 73.2, 'roll': -82.57, 'pres': 160}
{'lipoC2': 8.1, 'lipoC3S1': 3.98, 'temp': 27.69, 'lipoC3S3': 12.06, 'lipoC3S2': 7.97, 'rot1': 0, 'rot0': 21, 'rot3': 0, 'rot2': 0, 'state': 'normal', 'yaw': 0.13, 'datetime': '2018-10-05 14:47:57.863801', 'mgs': 1, 'volt': 0.7813, 'depth': -0.293, 'time': 10, 'pitch': 73.2, 'roll': -82.57, 'pres': 160}
{'lipoC2': 8.1, 'lipoC3S1': 3.98, 'temp': 27.88, 'lipoC3S3': 12.08, 'lipoC3S2': 7.97, 'rot1': 0, 'rot0': 22, 'rot3': 0, 'rot2': 0, 'state': 'normal', 'yaw': 0.13, 'datetime': '2018-10-05 14:47:57.967455', 'mgs': 1, 'volt': 0.7813, 'depth': -0.293, 'time': 10, 'pitch': 73.2, 'roll': -82.57, 'pres': 160}
{'lipoC2': 8.1, 'lipoC3S1': 3.98, 'temp': 27.88, 'lipoC3S3': 12.06, 'lipoC3S2': 7.97, 'rot1': 0, 'rot0': 22, 'rot3': 0, 'rot2': 0, 'state': 'normal', 'yaw': 0.13, 'datetime': '2018-10-05 14:47:58.072417', 'mgs': 1, 'volt': 0.7813, 'depth': -0.293, 'time': 10, 'pitch': 73.2, 'roll': -82.57, 'pres': 160}
{'lipoC2': 8.1, 'lipoC3S1': 3.97, 'temp': 27.88, 'lipoC3S3': 12.06, 'lipoC3S2': 7.97, 'rot1': 0, 'rot0': 23, 'rot3': 0, 'rot2': 0, 'state': 'normal', 'yaw': 0.13, 'datetime': '2018-10-05 14:47:58.176208', 'mgs': 1, 'volt': 0.7813, 'depth': -0.293, 'time': 10, 'pitch': 73.2, 'roll': -82.57, 'pres': 160}
{'lipoC2': 8.1, 'lipoC3S1': 3.98, 'temp': 28.13, 'lipoC3S3': 12.05, 'lipoC3S2': 7.97, 'rot1': 0, 'rot0': 23, 'rot3': 0, 'rot2': 0, 'state': 'normal', 'yaw': 0.13, 'datetime': '2018-10-05 14:47:58.281104', 'mgs': 1, 'volt': 0.7861, 'depth': -0.217, 'time': 10, 'pitch': 73.2, 'roll': -82.57, 'pres': 161}
{'lipoC2': 8.1, 'lipoC3S1': 3.98, 'temp': 28.13, 'lipoC3S3': 12.06, 'lipoC3S2': 7.92, 'rot1': 0, 'rot0': 24, 'rot3': 0, 'rot2': 0, 'state': 'normal', 'yaw': 0.13, 'datetime': '2018-10-05 14:47:58.385086', 'mgs': 1, 'volt': 0.7813, 'depth': -0.293, 'time': 10, 'pitch': 73.2, 'roll': -82.57, 'pres': 160}
{'lipoC2': 8.1, 'lipoC3S1': 3.98, 'temp': 28.31, 'lipoC3S3': 12.09, 'lipoC3S2': 7.97, 'rot1': 0, 'rot0': 24, 'rot3': 0, 'rot2': 0, 'state': 'normal', 'yaw': 0.13, 'datetime': '2018-10-05 14:47:58.488703', 'mgs': 1, 'volt': 0.7813, 'depth': -0.293, 'time': 10, 'pitch': 73.2, 'roll': -82.57, 'pres': 160}
{'lipoC2': 8.1, 'lipoC3S1': 3.94, 'temp': 28.31, 'lipoC3S3': 12.06, 'lipoC3S2': 7.97, 'rot1': 0, 'rot0': 25, 'rot3': 0, 'rot2': 0, 'state': 'normal', 'yaw': 0.1, 'datetime': '2018-10-05 14:47:58.593735', 'mgs': 1, 'volt': 0.7813, 'depth': -0.293, 'time': 10, 'pitch': 73.2, 'roll': -82.6, 'pres': 160}
{'lipoC2': 8.1, 'lipoC3S1': 3.98, 'temp': 28.5, 'lipoC3S3': 12.06, 'lipoC3S2': 8.0, 'rot1': 0, 'rot0': 26, 'rot3': 0, 'rot2': 0, 'state': 'normal', 'yaw': 0.1, 'datetime': '2018-10-05 14:47:58.697373', 'mgs': 1, 'volt': 0.7813, 'depth': -0.293, 'time': 10, 'pitch': 73.22, 'roll': -82.6, 'pres': 160}
{'lipoC2': 8.1, 'lipoC3S1': 3.98, 'temp': 28.5, 'lipoC3S3': 12.05, 'lipoC3S2': 7.97, 'rot1': 0, 'rot0': 26, 'rot3': 0, 'rot2': 0, 'state': 'normal', 'yaw': 0.03, 'datetime': '2018-10-05 14:47:58.802220', 'mgs': 1, 'volt': 0.8008, 'depth': 0.012, 'time': 11, 'pitch': 73.22, 'roll': -82.67, 'pres': 164}
{'lipoC2': 8.1, 'lipoC3S1': 3.98, 'temp': 28.5, 'lipoC3S3': 12.06, 'lipoC3S2': 7.97, 'rot1': 0, 'rot0': 27, 'rot3': 0, 'rot2': 0, 'state': 'normal', 'yaw': 0.07, 'datetime': '2018-10-05 14:47:58.906691', 'mgs': 1, 'volt': 0.791, 'depth': -0.14, 'time': 11, 'pitch': 73.22, 'roll': -82.63, 'pres': 162}
{'lipoC2': 8.1, 'lipoC3S1': 3.98, 'temp': 28.56, 'lipoC3S3': 12.06, 'lipoC3S2': 7.97, 'rot1': 0, 'rot0': 27, 'rot3': 0, 'rot2': 0, 'state': 'normal', 'yaw': 0.07, 'datetime': '2018-10-05 14:47:59.010362', 'mgs': 1, 'volt': 0.7813, 'depth': -0.293, 'time': 11, 'pitch': 73.2, 'roll': -82.63, 'pres': 160}
{'lipoC2': 8.1, 'lipoC3S1': 3.98, 'temp': 28.56, 'lipoC3S3': 12.06, 'lipoC3S2': 7.97, 'rot1': 0, 'rot0': 28, 'rot3': 0, 'rot2': 0, 'state': 'normal', 'yaw': 0.07, 'datetime': '2018-10-05 14:47:59.117404', 'mgs': 1, 'volt': 0.7813, 'depth': -0.293, 'time': 11, 'pitch': 73.2, 'roll': -82.63, 'pres': 160}
{'lipoC2': 8.1, 'lipoC3S1': 3.98, 'temp': 28.69, 'lipoC3S3': 12.05, 'lipoC3S2': 7.97, 'rot1': 0, 'rot0': 28, 'rot3': 0, 'rot2': 0, 'state': 'normal', 'yaw': 0.07, 'datetime': '2018-10-05 14:47:59.225413', 'mgs': 1, 'volt': 0.7813, 'depth': -0.293, 'time': 11, 'pitch': 73.2, 'roll': -82.63, 'pres': 160}
{'lipoC2': 8.1, 'lipoC3S1': 3.98, 'temp': 28.69, 'lipoC3S3': 12.06, 'lipoC3S2': 7.97, 'rot1': 0, 'rot0': 29, 'rot3': 0, 'rot2': 0, 'state': 'normal', 'yaw': 0.07, 'datetime': '2018-10-05 14:47:59.327706', 'mgs': 1, 'volt': 0.7813, 'depth': -0.293, 'time': 11, 'pitch': 73.2, 'roll': -82.63, 'pres': 160}
{'lipoC2': 8.1, 'lipoC3S1': 3.98, 'temp': 28.81, 'lipoC3S3': 12.06, 'lipoC3S2': 7.97, 'rot1': 0, 'rot0': 30, 'rot3': 0, 'rot2': 0, 'state': 'normal', 'yaw': 0.07, 'datetime': '2018-10-05 14:47:59.432385', 'mgs': 1, 'volt': 0.7813, 'depth': -0.293, 'time': 11, 'pitch': 73.2, 'roll': -82.63, 'pres': 160}
{'lipoC2': 8.1, 'lipoC3S1': 3.98, 'temp': 28.81, 'lipoC3S3': 12.06, 'lipoC3S2': 7.97, 'rot1': 0, 'rot0': 30, 'rot3': 0, 'rot2': 0, 'state': 'normal', 'yaw': 0.07, 'datetime': '2018-10-05 14:47:59.536053', 'mgs': 1, 'volt': 0.7813, 'depth': -0.293, 'time': 11, 'pitch': 73.2, 'roll': -82.63, 'pres': 160}
{'lipoC2': 8.1, 'lipoC3S1': 3.98, 'temp': 28.81, 'lipoC3S3': 12.05, 'lipoC3S2': 7.91, 'rot1': 0, 'rot0': 31, 'rot3': 0, 'rot2': 0, 'state': 'normal', 'yaw': 0.07, 'datetime': '2018-10-05 14:47:59.641322', 'mgs': 1, 'volt': 0.7813, 'depth': -0.293, 'time': 11, 'pitch': 73.2, 'roll': -82.63, 'pres': 160}
{'lipoC2': 8.1, 'lipoC3S1': 3.98, 'temp': 28.94, 'lipoC3S3': 12.05, 'lipoC3S2': 7.97, 'rot1': 0, 'rot0': 31, 'rot3': 0, 'rot2': 0, 'state': 'normal', 'yaw': 0.1, 'datetime': '2018-10-05 14:47:59.745105', 'mgs': 1, 'volt': 0.7813, 'depth': -0.293, 'time': 11, 'pitch': 73.2, 'roll': -82.6, 'pres': 160}
{'lipoC2': 8.1, 'lipoC3S1': 4.01, 'temp': 28.94, 'lipoC3S3': 12.06, 'lipoC3S2': 7.97, 'rot1': 0, 'rot0': 32, 'rot3': 0, 'rot2': 0, 'state': 'normal', 'yaw': 0.07, 'datetime': '2018-10-05 14:47:59.848745', 'mgs': 1, 'volt': 0.7813, 'depth': -0.293, 'time': 12, 'pitch': 73.2, 'roll': -82.63, 'pres': 160}
{'lipoC2': 8.09, 'lipoC3S1': 3.98, 'temp': 29.0, 'lipoC3S3': 12.05, 'lipoC3S2': 7.97, 'rot1': 0, 'rot0': 32, 'rot3': 0, 'rot2': 0, 'state': 'normal', 'yaw': 0.07, 'datetime': '2018-10-05 14:47:59.953687', 'mgs': 1, 'volt': 0.7813, 'depth': -0.293, 'time': 12, 'pitch': 73.22, 'roll': -82.63, 'pres': 160}
{'lipoC2': 8.1, 'lipoC3S1': 3.98, 'temp': 29.0, 'lipoC3S3': 12.06, 'lipoC3S2': 7.97, 'rot1': 0, 'rot0': 33, 'rot3': 0, 'rot2': 0, 'state': 'normal', 'yaw': -0.0, 'datetime': '2018-10-05 14:48:00.051672', 'mgs': 1, 'volt': 0.7813, 'depth': -0.293, 'time': 12, 'pitch': 73.2, 'roll': -82.7, 'pres': 160}
{'lipoC2': 8.1, 'lipoC3S1': 3.98, 'temp': 29.0, 'lipoC3S3': 12.06, 'lipoC3S2': 7.97, 'rot1': 0, 'rot0': 33, 'rot3': 0, 'rot2': 0, 'state': 'normal', 'yaw': -0.0, 'datetime': '2018-10-05 14:48:00.156587', 'mgs': 1, 'volt': 0.7813, 'depth': -0.293, 'time': 12, 'pitch': 73.2, 'roll': -82.7, 'pres': 160}
{'lipoC2': 8.1, 'lipoC3S1': 3.98, 'temp': 29.0, 'lipoC3S3': 12.05, 'lipoC3S2': 7.97, 'rot1': 0, 'rot0': 34, 'rot3': 0, 'rot2': 0, 'state': 'normal', 'yaw': -0.06, 'datetime': '2018-10-05 14:48:00.261008', 'mgs': 1, 'volt': 0.7813, 'depth': -0.293, 'time': 12, 'pitch': 73.22, 'roll': -82.76, 'pres': 160}
{'lipoC2': 8.09, 'lipoC3S1': 3.97, 'temp': 29.0, 'lipoC3S3': 12.05, 'lipoC3S2': 7.97, 'rot1': 0, 'rot0': 35, 'rot3': 0, 'rot2': 0, 'state': 'normal', 'yaw': 0.0, 'datetime': '2018-10-05 14:48:00.364688', 'mgs': 1, 'volt': 0.7813, 'depth': -0.293, 'time': 12, 'pitch': 73.22, 'roll': -82.7, 'pres': 160}
{'lipoC2': 8.1, 'lipoC3S1': 3.98, 'temp': 29.06, 'lipoC3S3': 12.05, 'lipoC3S2': 7.97, 'rot1': 0, 'rot0': 35, 'rot3': 0, 'rot2': 0, 'state': 'normal', 'yaw': 0.0, 'datetime': '2018-10-05 14:48:00.468220', 'mgs': 1, 'volt': 0.8057, 'depth': 0.089, 'time': 12, 'pitch': 73.22, 'roll': -82.7, 'pres': 165}
{'lipoC2': 8.1, 'lipoC3S1': 4.0, 'temp': 29.06, 'lipoC3S3': 12.06, 'lipoC3S2': 7.97, 'rot1': 0, 'rot0': 36, 'rot3': 0, 'rot2': 0, 'state': 'normal', 'yaw': 0.0, 'datetime': '2018-10-05 14:48:00.572040', 'mgs': 1, 'volt': 0.7813, 'depth': -0.293, 'time': 12, 'pitch': 73.22, 'roll': -82.7, 'pres': 160}
{'lipoC2': 8.1, 'lipoC3S1': 3.98, 'temp': 29.13, 'lipoC3S3': 12.06, 'lipoC3S2': 7.9, 'rot1': 0, 'rot0': 36, 'rot3': 0, 'rot2': 0, 'state': 'normal', 'yaw': 0.0, 'datetime': '2018-10-05 14:48:00.675669', 'mgs': 1, 'volt': 0.7813, 'depth': -0.293, 'time': 12, 'pitch': 73.22, 'roll': -82.7, 'pres': 160}
{'lipoC2': 8.1, 'lipoC3S1': 3.98, 'temp': 29.13, 'lipoC3S3': 12.05, 'lipoC3S2': 7.97, 'rot1': 0, 'rot0': 37, 'rot3': 0, 'rot2': 0, 'state': 'normal', 'yaw': 0.0, 'datetime': '2018-10-05 14:48:00.780514', 'mgs': 1, 'volt': 0.8057, 'depth': 0.089, 'time': 12, 'pitch': 73.22, 'roll': -82.7, 'pres': 165}
{'lipoC2': 8.1, 'lipoC3S1': 3.98, 'temp': 29.19, 'lipoC3S3': 12.06, 'lipoC3S2': 7.97, 'rot1': 0, 'rot0': 37, 'rot3': 0, 'rot2': 0, 'state': 'normal', 'yaw': 0.0, 'datetime': '2018-10-05 14:48:00.884149', 'mgs': 1, 'volt': 0.7813, 'depth': -0.293, 'time': 13, 'pitch': 73.22, 'roll': -82.7, 'pres': 160}
{'lipoC2': 8.1, 'lipoC3S1': 3.97, 'temp': 29.19, 'lipoC3S3': 12.05, 'lipoC3S2': 7.97, 'rot1': 0, 'rot0': 38, 'rot3': 0, 'rot2': 0, 'state': 'normal', 'yaw': 0.0, 'datetime': '2018-10-05 14:48:00.989156', 'mgs': 1, 'volt': 0.7813, 'depth': -0.293, 'time': 13, 'pitch': 73.22, 'roll': -82.7, 'pres': 160}
{'lipoC2': 8.1, 'lipoC3S1': 3.98, 'temp': 29.19, 'lipoC3S3': 12.06, 'lipoC3S2': 7.97, 'rot1': 0, 'rot0': 38, 'rot3': 0, 'rot2': 0, 'state': 'normal', 'yaw': 0.0, 'datetime': '2018-10-05 14:48:01.097183', 'mgs': 1, 'volt': 0.7813, 'depth': -0.293, 'time': 13, 'pitch': 73.22, 'roll': -82.7, 'pres': 160}
{'lipoC2': 8.1, 'lipoC3S1': 3.98, 'temp': 29.25, 'lipoC3S3': 12.06, 'lipoC3S2': 7.99, 'rot1': 0, 'rot0': 39, 'rot3': 0, 'rot2': 0, 'state': 'normal', 'yaw': 0.0, 'datetime': '2018-10-05 14:48:01.203370', 'mgs': 1, 'volt': 2.3193, 'depth': 23.74, 'time': 13, 'pitch': 73.22, 'roll': -82.7, 'pres': 475}
{'lipoC2': 8.1, 'lipoC3S1': 3.98, 'temp': 29.25, 'lipoC3S3': 12.05, 'lipoC3S2': 7.97, 'rot1': 0, 'rot0': 40, 'rot3': 0, 'rot2': 0, 'state': 'normal', 'yaw': 0.0, 'datetime': '2018-10-05 14:48:01.307829', 'mgs': 1, 'volt': 2.4268, 'depth': 25.418, 'time': 13, 'pitch': 73.22, 'roll': -82.7, 'pres': 497}
{'lipoC2': 8.1, 'lipoC3S1': 3.94, 'temp': 29.25, 'lipoC3S3': 12.06, 'lipoC3S2': 7.97, 'rot1': 0, 'rot0': 40, 'rot3': 0, 'rot2': 0, 'state': 'normal', 'yaw': 0.0, 'datetime': '2018-10-05 14:48:01.411542', 'mgs': 1, 'volt': 0.7813, 'depth': -0.293, 'time': 13, 'pitch': 73.22, 'roll': -82.7, 'pres': 160}
{'lipoC2': 8.1, 'lipoC3S1': 3.97, 'temp': 29.25, 'lipoC3S3': 12.05, 'lipoC3S2': 7.97, 'rot1': 0, 'rot0': 41, 'rot3': 0, 'rot2': 0, 'state': 'normal', 'yaw': -0.06, 'datetime': '2018-10-05 14:48:01.515979', 'mgs': 1, 'volt': 0.7813, 'depth': -0.293, 'time': 13, 'pitch': 73.22, 'roll': -82.76, 'pres': 160}
{'lipoC2': 8.1, 'lipoC3S1': 3.98, 'temp': 29.25, 'lipoC3S3': 12.06, 'lipoC3S2': 7.96, 'rot1': 0, 'rot0': 41, 'rot3': 0, 'rot2': 0, 'state': 'normal', 'yaw': -0.0, 'datetime': '2018-10-05 14:48:01.620650', 'mgs': 1, 'volt': 0.7813, 'depth': -0.293, 'time': 13, 'pitch': 73.2, 'roll': -82.7, 'pres': 160}
{'lipoC2': 8.1, 'lipoC3S1': 3.98, 'temp': 29.25, 'lipoC3S3': 12.05, 'lipoC3S2': 7.97, 'rot1': 0, 'rot0': 42, 'rot3': 0, 'rot2': 0, 'state': 'normal', 'yaw': -0.0, 'datetime': '2018-10-05 14:48:01.724310', 'mgs': 1, 'volt': 0.7813, 'depth': -0.293, 'time': 13, 'pitch': 73.2, 'roll': -82.7, 'pres': 160}
{'lipoC2': 8.1, 'lipoC3S1': 3.98, 'temp': 29.25, 'lipoC3S3': 12.05, 'lipoC3S2': 7.97, 'rot1': 0, 'rot0': 42, 'rot3': 0, 'rot2': 0, 'state': 'normal', 'yaw': -0.1, 'datetime': '2018-10-05 14:48:01.828042', 'mgs': 1, 'volt': 0.7959, 'depth': -0.064, 'time': 14, 'pitch': 73.22, 'roll': -82.79, 'pres': 163}
{'lipoC2': 8.1, 'lipoC3S1': 3.97, 'temp': 29.31, 'lipoC3S3': 12.06, 'lipoC3S2': 7.91, 'rot1': 0, 'rot0': 43, 'rot3': 0, 'rot2': 0, 'state': 'normal', 'yaw': -0.1, 'datetime': '2018-10-05 14:48:01.931885', 'mgs': 1, 'volt': 0.7813, 'depth': -0.293, 'time': 14, 'pitch': 73.22, 'roll': -82.79, 'pres': 160}
{'lipoC2': 8.1, 'lipoC3S1': 3.97, 'temp': 29.31, 'lipoC3S3': 12.06, 'lipoC3S2': 7.97, 'rot1': 0, 'rot0': 43, 'rot3': 0, 'rot2': 0, 'state': 'normal', 'yaw': -0.1, 'datetime': '2018-10-05 14:48:02.035519', 'mgs': 1, 'volt': 2.3193, 'depth': 23.74, 'time': 14, 'pitch': 73.22, 'roll': -82.79, 'pres': 475}
{'lipoC2': 8.1, 'lipoC3S1': 3.95, 'temp': 29.31, 'lipoC3S3': 12.05, 'lipoC3S2': 7.97, 'rot1': 0, 'rot0': 44, 'rot3': 0, 'rot2': 0, 'state': 'normal', 'yaw': -0.1, 'datetime': '2018-10-05 14:48:02.140645', 'mgs': 1, 'volt': 2.4365, 'depth': 25.571, 'time': 14, 'pitch': 73.22, 'roll': -82.79, 'pres': 499}
{'lipoC2': 8.1, 'lipoC3S1': 3.98, 'temp': 29.31, 'lipoC3S3': 12.06, 'lipoC3S2': 7.97, 'rot1': 0, 'rot0': 45, 'rot3': 0, 'rot2': 0, 'state': 'normal', 'yaw': -0.1, 'datetime': '2018-10-05 14:48:02.244282', 'mgs': 1, 'volt': 2.5, 'depth': 26.563, 'time': 14, 'pitch': 73.22, 'roll': -82.79, 'pres': 512}
{'lipoC2': 8.1, 'lipoC3S1': 3.98, 'temp': 29.31, 'lipoC3S3': 12.06, 'lipoC3S2': 7.97, 'rot1': 0, 'rot0': 45, 'rot3': 0, 'rot2': 0, 'state': 'normal', 'yaw': -0.1, 'datetime': '2018-10-05 14:48:02.349183', 'mgs': 1, 'volt': 2.5488, 'depth': 27.325, 'time': 14, 'pitch': 73.22, 'roll': -82.79, 'pres': 522}
{'lipoC2': 8.1, 'lipoC3S1': 3.98, 'temp': 29.31, 'lipoC3S3': 12.0, 'lipoC3S2': 7.97, 'rot1': 0, 'rot0': 46, 'rot3': 0, 'rot2': 0, 'state': 'normal', 'yaw': -0.1, 'datetime': '2018-10-05 14:48:02.453262', 'mgs': 1, 'volt': 2.6025, 'depth': 28.165, 'time': 14, 'pitch': 73.22, 'roll': -82.79, 'pres': 533}
{'lipoC2': 8.1, 'lipoC3S1': 3.98, 'temp': 29.31, 'lipoC3S3': 12.05, 'lipoC3S2': 7.97, 'rot1': 0, 'rot0': 46, 'rot3': 0, 'rot2': 0, 'state': 'normal', 'yaw': -0.1, 'datetime': '2018-10-05 14:48:02.557015', 'mgs': 1, 'volt': 2.6514, 'depth': 28.928, 'time': 14, 'pitch': 73.22, 'roll': -82.79, 'pres': 543}
{'lipoC2': 8.1, 'lipoC3S1': 3.97, 'temp': 29.38, 'lipoC3S3': 12.06, 'lipoC3S2': 7.97, 'rot1': 0, 'rot0': 47, 'rot3': 0, 'rot2': 0, 'state': 'normal', 'yaw': 0.04, 'datetime': '2018-10-05 14:48:02.662219', 'mgs': 1, 'volt': 2.6709, 'depth': 29.233, 'time': 14, 'pitch': 73.22, 'roll': -82.66, 'pres': 547}
{'lipoC2': 8.1, 'lipoC3S1': 3.98, 'temp': 29.38, 'lipoC3S3': 12.05, 'lipoC3S2': 7.97, 'rot1': 0, 'rot0': 47, 'rot3': 0, 'rot2': 0, 'state': 'normal', 'yaw': -0.1, 'datetime': '2018-10-05 14:48:02.765747', 'mgs': 1, 'volt': 2.6953, 'depth': 29.614, 'time': 14, 'pitch': 73.22, 'roll': -82.79, 'pres': 552}
{'lipoC2': 8.1, 'lipoC3S1': 3.97, 'temp': 29.31, 'lipoC3S3': 12.06, 'lipoC3S2': 7.94, 'rot1': 0, 'rot0': 48, 'rot3': 0, 'rot2': 0, 'state': 'normal', 'yaw': 0.04, 'datetime': '2018-10-05 14:48:02.870757', 'mgs': 1, 'volt': 2.7197, 'depth': 29.996, 'time': 15, 'pitch': 73.22, 'roll': -82.66, 'pres': 557}
{'lipoC2': 8.1, 'lipoC3S1': 3.95, 'temp': 29.31, 'lipoC3S3': 12.06, 'lipoC3S2': 7.97, 'rot1': 0, 'rot0': 48, 'rot3': 0, 'rot2': 0, 'state': 'normal', 'yaw': -0.16, 'datetime': '2018-10-05 14:48:02.975038', 'mgs': 1, 'volt': 2.7246, 'depth': 30.072, 'time': 15, 'pitch': 73.22, 'roll': -82.86, 'pres': 558}
{'lipoC2': 8.1, 'lipoC3S1': 3.98, 'temp': 29.31, 'lipoC3S3': 12.05, 'lipoC3S2': 7.96, 'rot1': 0, 'rot0': 49, 'rot3': 0, 'rot2': 0, 'state': 'normal', 'yaw': -0.03, 'datetime': '2018-10-05 14:48:03.078743', 'mgs': 1, 'volt': 2.7051, 'depth': 29.767, 'time': 15, 'pitch': 73.22, 'roll': -82.73, 'pres': 554}
{'lipoC2': 8.1, 'lipoC3S1': 3.98, 'temp': 29.31, 'lipoC3S3': 12.05, 'lipoC3S2': 7.97, 'rot1': 0, 'rot0': 50, 'rot3': 0, 'rot2': 0, 'state': 'normal', 'yaw': -0.13, 'datetime': '2018-10-05 14:48:03.182478', 'mgs': 1, 'volt': 2.71, 'depth': 29.843, 'time': 15, 'pitch': 73.22, 'roll': -82.82, 'pres': 555}
{'lipoC2': 8.1, 'lipoC3S1': 3.98, 'temp': 29.31, 'lipoC3S3': 12.05, 'lipoC3S2': 7.97, 'rot1': 0, 'rot0': 50, 'rot3': 0, 'rot2': 0, 'state': 'normal', 'yaw': -0.03, 'datetime': '2018-10-05 14:48:03.286144', 'mgs': 1, 'volt': 2.6709, 'depth': 29.233, 'time': 15, 'pitch': 73.22, 'roll': -82.73, 'pres': 547}
{'lipoC2': 8.1, 'lipoC3S1': 3.98, 'temp': 29.38, 'lipoC3S3': 12.05, 'lipoC3S2': 7.97, 'rot1': 0, 'rot0': 51, 'rot3': 0, 'rot2': 0, 'state': 'normal', 'yaw': -0.16, 'datetime': '2018-10-05 14:48:03.389988', 'mgs': 1, 'volt': 2.7393, 'depth': 30.301, 'time': 15, 'pitch': 73.22, 'roll': -82.86, 'pres': 561}
{'lipoC2': 8.1, 'lipoC3S1': 3.98, 'temp': 29.38, 'lipoC3S3': 12.05, 'lipoC3S2': 7.97, 'rot1': 0, 'rot0': 51, 'rot3': 0, 'rot2': 0, 'state': 'normal', 'yaw': -0.06, 'datetime': '2018-10-05 14:48:03.494925', 'mgs': 1, 'volt': 2.7588, 'depth': 30.606, 'time': 15, 'pitch': 73.22, 'roll': -82.76, 'pres': 565}
{'lipoC2': 8.1, 'lipoC3S1': 3.99, 'temp': 29.38, 'lipoC3S3': 12.06, 'lipoC3S2': 7.97, 'rot1': 0, 'rot0': 52, 'rot3': 0, 'rot2': 0, 'state': 'normal', 'yaw': -0.13, 'datetime': '2018-10-05 14:48:03.598686', 'mgs': 1, 'volt': 2.7637, 'depth': 30.682, 'time': 15, 'pitch': 73.22, 'roll': -82.82, 'pres': 566}
{'lipoC2': 8.1, 'lipoC3S1': 3.98, 'temp': 29.38, 'lipoC3S3': 12.05, 'lipoC3S2': 7.97, 'rot1': 0, 'rot0': 52, 'rot3': 0, 'rot2': 0, 'state': 'normal', 'yaw': -0.1, 'datetime': '2018-10-05 14:48:03.703566', 'mgs': 1, 'volt': 2.7441, 'depth': 30.377, 'time': 15, 'pitch': 73.22, 'roll': -82.79, 'pres': 562}
{'lipoC2': 8.1, 'lipoC3S1': 3.97, 'temp': 29.44, 'lipoC3S3': 12.05, 'lipoC3S2': 7.97, 'rot1': 0, 'rot0': 53, 'rot3': 0, 'rot2': 0, 'state': 'normal', 'yaw': -0.1, 'datetime': '2018-10-05 14:48:03.807571', 'mgs': 1, 'volt': 2.7344, 'depth': 30.225, 'time': 16, 'pitch': 73.22, 'roll': -82.79, 'pres': 560}
{'lipoC2': 8.1, 'lipoC3S1': 3.98, 'temp': 29.44, 'lipoC3S3': 12.04, 'lipoC3S2': 7.97, 'rot1': 0, 'rot0': 53, 'rot3': 0, 'rot2': 0, 'state': 'normal', 'yaw': 0.03, 'datetime': '2018-10-05 14:48:03.911299', 'mgs': 1, 'volt': 0.7813, 'depth': -0.293, 'time': 16, 'pitch': 73.2, 'roll': -82.67, 'pres': 160}
{'lipoC2': 8.1, 'lipoC3S1': 3.98, 'temp': 29.44, 'lipoC3S3': 12.06, 'lipoC3S2': 7.97, 'rot1': 0, 'rot0': 54, 'rot3': 0, 'rot2': 0, 'state': 'normal', 'yaw': -0.06, 'datetime': '2018-10-05 14:48:04.016251', 'mgs': 1, 'volt': 0.7813, 'depth': -0.293, 'time': 16, 'pitch': 73.22, 'roll': -82.76, 'pres': 160}
{'lipoC2': 8.1, 'lipoC3S1': 3.97, 'temp': 29.44, 'lipoC3S3': 12.06, 'lipoC3S2': 7.93, 'rot1': 0, 'rot0': 54, 'rot3': 0, 'rot2': 0, 'state': 'normal', 'yaw': -0.13, 'datetime': '2018-10-05 14:48:04.120245', 'mgs': 1, 'volt': 0.7813, 'depth': -0.293, 'time': 16, 'pitch': 73.22, 'roll': -82.82, 'pres': 160}
{'lipoC2': 8.09, 'lipoC3S1': 3.98, 'temp': 29.44, 'lipoC3S3': 12.05, 'lipoC3S2': 7.97, 'rot1': 0, 'rot0': 55, 'rot3': 0, 'rot2': 0, 'state': 'normal', 'yaw': -0.13, 'datetime': '2018-10-05 14:48:04.224840', 'mgs': 1, 'volt': 0.7813, 'depth': -0.293, 'time': 16, 'pitch': 73.22, 'roll': -82.82, 'pres': 160}
{'lipoC2': 8.1, 'lipoC3S1': 3.98, 'temp': 29.44, 'lipoC3S3': 12.05, 'lipoC3S2': 7.97, 'rot1': 0, 'rot0': 56, 'rot3': 0, 'rot2': 0, 'state': 'normal', 'yaw': -0.07, 'datetime': '2018-10-05 14:48:04.329378', 'mgs': 1, 'volt': 0.7813, 'depth': -0.293, 'time': 16, 'pitch': 73.2, 'roll': -82.76, 'pres': 160}
{'lipoC2': 8.1, 'lipoC3S1': 3.98, 'temp': 29.44, 'lipoC3S3': 12.05, 'lipoC3S2': 7.97, 'rot1': 0, 'rot0': 56, 'rot3': 0, 'rot2': 0, 'state': 'normal', 'yaw': -0.2, 'datetime': '2018-10-05 14:48:04.432874', 'mgs': 1, 'volt': 0.7813, 'depth': -0.293, 'time': 16, 'pitch': 73.22, 'roll': -82.89, 'pres': 160}
{'lipoC2': 8.1, 'lipoC3S1': 3.98, 'temp': 29.5, 'lipoC3S3': 12.05, 'lipoC3S2': 7.97, 'rot1': 0, 'rot0': 57, 'rot3': 0, 'rot2': 0, 'state': 'normal', 'yaw': 0.04, 'datetime': '2018-10-05 14:48:04.537152', 'mgs': 1, 'volt': 0.7813, 'depth': -0.293, 'time': 16, 'pitch': 73.22, 'roll': -82.65, 'pres': 160}
{'lipoC2': 8.1, 'lipoC3S1': 3.98, 'temp': 29.5, 'lipoC3S3': 12.05, 'lipoC3S2': 7.97, 'rot1': 0, 'rot0': 57, 'rot3': 0, 'rot2': 0, 'state': 'normal', 'yaw': -0.23, 'datetime': '2018-10-05 14:48:04.640879', 'mgs': 1, 'volt': 0.7813, 'depth': -0.293, 'time': 16, 'pitch': 73.21, 'roll': -82.91, 'pres': 160}
{'lipoC2': 8.1, 'lipoC3S1': 3.97, 'temp': 29.5, 'lipoC3S3': 12.05, 'lipoC3S2': 7.96, 'rot1': 0, 'rot0': 58, 'rot3': 0, 'rot2': 0, 'state': 'normal', 'yaw': 0.04, 'datetime': '2018-10-05 14:48:04.745001', 'mgs': 1, 'volt': 0.7764, 'depth': -0.369, 'time': 16, 'pitch': 73.22, 'roll': -82.65, 'pres': 159}
{'lipoC2': 8.1, 'lipoC3S1': 3.98, 'temp': 29.5, 'lipoC3S3': 12.06, 'lipoC3S2': 7.98, 'rot1': 0, 'rot0': 58, 'rot3': 0, 'rot2': 0, 'state': 'normal', 'yaw': -0.13, 'datetime': '2018-10-05 14:48:06.784841', 'mgs': 1, 'volt': 2.3291, 'depth': 23.892, 'time': 17, 'pitch': 73.21, 'roll': -82.81, 'pres': 477}
{'lipoC2': 8.1, 'lipoC3S1': 3.98, 'temp': 29.5, 'lipoC3S3': 12.0, 'lipoC3S2': 7.97, 'rot1': 0, 'rot0': 59, 'rot3': 0, 'rot2': 0, 'state': 'normal', 'yaw': -0.2, 'datetime': '2018-10-05 14:48:06.841978', 'mgs': 1, 'volt': 0.7813, 'depth': -0.293, 'time': 17, 'pitch': 73.23, 'roll': -82.88, 'pres': 160}
{'lipoC2': 8.1, 'lipoC3S1': 3.95, 'temp': 29.56, 'lipoC3S3': 12.06, 'lipoC3S2': 7.97, 'rot1': 0, 'rot0': 59, 'rot3': 0, 'rot2': 0, 'state': 'normal', 'yaw': -0.09, 'datetime': '2018-10-05 14:48:06.868423', 'mgs': 1, 'volt': 0.7861, 'depth': -0.217, 'time': 17, 'pitch': 73.22, 'roll': -82.78, 'pres': 161}
{'lipoC2': 8.1, 'lipoC3S1': 3.98, 'temp': 29.56, 'lipoC3S3': 12.06, 'lipoC3S2': 7.92, 'rot1': 0, 'rot0': 60, 'rot3': 0, 'rot2': 0, 'state': 'normal', 'yaw': -0.09, 'datetime': '2018-10-05 14:48:06.884016', 'mgs': 1, 'volt': 2.2559, 'depth': 22.748, 'time': 17, 'pitch': 73.22, 'roll': -82.78, 'pres': 462}
{'lipoC2': 8.1, 'lipoC3S1': 3.98, 'temp': 29.56, 'lipoC3S3': 12.06, 'lipoC3S2': 7.97, 'rot1': 0, 'rot0': 61, 'rot3': 0, 'rot2': 0, 'state': 'normal', 'yaw': -0.09, 'datetime': '2018-10-05 14:48:06.899070', 'mgs': 1, 'volt': 2.4512, 'depth': 25.8, 'time': 17, 'pitch': 73.22, 'roll': -82.78, 'pres': 502}
{'lipoC2': 8.1, 'lipoC3S1': 3.98, 'temp': 29.56, 'lipoC3S3': 12.06, 'lipoC3S2': 7.97, 'rot1': 0, 'rot0': 61, 'rot3': 0, 'rot2': 0, 'state': 'normal', 'yaw': -0.09, 'datetime': '2018-10-05 14:48:06.914056', 'mgs': 1, 'volt': 2.5342, 'depth': 27.097, 'time': 17, 'pitch': 73.22, 'roll': -82.78, 'pres': 519}
{'lipoC2': 8.09, 'lipoC3S1': 3.98, 'temp': 29.56, 'lipoC3S3': 12.06, 'lipoC3S2': 7.97, 'rot1': 0, 'rot0': 62, 'rot3': 0, 'rot2': 0, 'state': 'normal', 'yaw': -0.09, 'datetime': '2018-10-05 14:48:06.929073', 'mgs': 1, 'volt': 2.5781, 'depth': 27.783, 'time': 17, 'pitch': 73.22, 'roll': -82.78, 'pres': 528}
{'lipoC2': 8.1, 'lipoC3S1': 3.98, 'temp': 29.56, 'lipoC3S3': 12.06, 'lipoC3S2': 7.92, 'rot1': 0, 'rot0': 62, 'rot3': 0, 'rot2': 0, 'state': 'normal', 'yaw': -0.09, 'datetime': '2018-10-05 14:48:06.944039', 'mgs': 1, 'volt': 2.6123, 'depth': 28.317, 'time': 17, 'pitch': 73.22, 'roll': -82.78, 'pres': 535}
{'lipoC2': 8.1, 'lipoC3S1': 3.98, 'temp': 29.56, 'lipoC3S3': 12.06, 'lipoC3S2': 7.97, 'rot1': 0, 'rot0': 63, 'rot3': 0, 'rot2': 0, 'state': 'normal', 'yaw': -0.09, 'datetime': '2018-10-05 14:48:06.959006', 'mgs': 1, 'volt': 2.6563, 'depth': 29.004, 'time': 17, 'pitch': 73.22, 'roll': -82.78, 'pres': 544}
{'lipoC2': 8.1, 'lipoC3S1': 3.98, 'temp': 29.56, 'lipoC3S3': 12.06, 'lipoC3S2': 7.97, 'rot1': 0, 'rot0': 63, 'rot3': 0, 'rot2': 0, 'state': 'normal', 'yaw': -0.09, 'datetime': '2018-10-05 14:48:06.973984', 'mgs': 1, 'volt': 2.6758, 'depth': 29.309, 'time': 17, 'pitch': 73.22, 'roll': -82.78, 'pres': 548}
{'lipoC2': 8.1, 'lipoC3S1': 3.94, 'temp': 29.56, 'lipoC3S3': 12.06, 'lipoC3S2': 7.97, 'rot1': 0, 'rot0': 64, 'rot3': 0, 'rot2': 0, 'state': 'normal', 'yaw': -0.09, 'datetime': '2018-10-05 14:48:06.988990', 'mgs': 1, 'volt': 2.7051, 'depth': 29.767, 'time': 18, 'pitch': 73.22, 'roll': -82.78, 'pres': 554}
{'lipoC2': 8.1, 'lipoC3S1': 3.98, 'temp': 29.63, 'lipoC3S3': 12.06, 'lipoC3S2': 7.97, 'rot1': 0, 'rot0': 64, 'rot3': 0, 'rot2': 0, 'state': 'normal', 'yaw': -0.09, 'datetime': '2018-10-05 14:48:07.003951', 'mgs': 1, 'volt': 2.6563, 'depth': 29.004, 'time': 18, 'pitch': 73.22, 'roll': -82.78, 'pres': 544}
{'lipoC2': 8.1, 'lipoC3S1': 3.98, 'temp': 29.63, 'lipoC3S3': 12.06, 'lipoC3S2': 7.97, 'rot1': 0, 'rot0': 65, 'rot3': 0, 'rot2': 0, 'state': 'normal', 'yaw': -0.09, 'datetime': '2018-10-05 14:48:07.018968', 'mgs': 1, 'volt': 2.749, 'depth': 30.453, 'time': 18, 'pitch': 73.22, 'roll': -82.78, 'pres': 563}
{'lipoC2': 8.1, 'lipoC3S1': 3.98, 'temp': 29.63, 'lipoC3S3': 12.05, 'lipoC3S2': 7.97, 'rot1': 0, 'rot0': 66, 'rot3': 0, 'rot2': 0, 'state': 'normal', 'yaw': -0.09, 'datetime': '2018-10-05 14:48:07.033964', 'mgs': 1, 'volt': 2.7637, 'depth': 30.682, 'time': 18, 'pitch': 73.22, 'roll': -82.78, 'pres': 566}
{'lipoC2': 8.1, 'lipoC3S1': 3.98, 'temp': 29.69, 'lipoC3S3': 12.06, 'lipoC3S2': 7.97, 'rot1': 0, 'rot0': 66, 'rot3': 0, 'rot2': 0, 'state': 'normal', 'yaw': -0.09, 'datetime': '2018-10-05 14:48:07.049133', 'mgs': 1, 'volt': 2.7734, 'depth': 30.835, 'time': 18, 'pitch': 73.22, 'roll': -82.78, 'pres': 568}
{'lipoC2': 8.1, 'lipoC3S1': 3.98, 'temp': 29.69, 'lipoC3S3': 12.06, 'lipoC3S2': 7.97, 'rot1': 0, 'rot0': 67, 'rot3': 0, 'rot2': 0, 'state': 'normal', 'yaw': -0.09, 'datetime': '2018-10-05 14:48:07.064122', 'mgs': 1, 'volt': 0.7813, 'depth': -0.293, 'time': 18, 'pitch': 73.22, 'roll': -82.78, 'pres': 160}
{'lipoC2': 8.1, 'lipoC3S1': 3.98, 'temp': 29.69, 'lipoC3S3': 12.06, 'lipoC3S2': 7.97, 'rot1': 0, 'rot0': 67, 'rot3': 0, 'rot2': 0, 'state': 'normal', 'yaw': -0.09, 'datetime': '2018-10-05 14:48:07.079109', 'mgs': 1, 'volt': 0.7813, 'depth': -0.293, 'time': 18, 'pitch': 73.22, 'roll': -82.78, 'pres': 160}
{'lipoC2': 8.1, 'lipoC3S1': 3.99, 'temp': 29.69, 'lipoC3S3': 12.06, 'lipoC3S2': 7.97, 'rot1': 0, 'rot0': 68, 'rot3': 0, 'rot2': 0, 'state': 'normal', 'yaw': -0.09, 'datetime': '2018-10-05 14:48:07.094222', 'mgs': 1, 'volt': 0.7861, 'depth': -0.217, 'time': 18, 'pitch': 73.22, 'roll': -82.78, 'pres': 161}
{'lipoC2': 8.09, 'lipoC3S1': 3.98, 'temp': 29.69, 'lipoC3S3': 12.06, 'lipoC3S2': 7.97, 'rot1': 0, 'rot0': 68, 'rot3': 0, 'rot2': 0, 'state': 'normal', 'yaw': -0.09, 'datetime': '2018-10-05 14:48:07.109414', 'mgs': 1, 'volt': 0.7813, 'depth': -0.293, 'time': 18, 'pitch': 73.22, 'roll': -82.78, 'pres': 160}
{'lipoC2': 8.1, 'lipoC3S1': 3.98, 'temp': 29.69, 'lipoC3S3': 12.06, 'lipoC3S2': 7.97, 'rot1': 0, 'rot0': 69, 'rot3': 0, 'rot2': 0, 'state': 'normal', 'yaw': -0.09, 'datetime': '2018-10-05 14:48:07.124420', 'mgs': 1, 'volt': 0.8057, 'depth': 0.089, 'time': 19, 'pitch': 73.22, 'roll': -82.78, 'pres': 165}
{'lipoC2': 8.1, 'lipoC3S1': 3.98, 'temp': 29.69, 'lipoC3S3': 12.06, 'lipoC3S2': 7.97, 'rot1': 0, 'rot0': 69, 'rot3': 0, 'rot2': 0, 'state': 'normal', 'yaw': -0.09, 'datetime': '2018-10-05 14:48:07.139462', 'mgs': 1, 'volt': 0.7861, 'depth': -0.217, 'time': 19, 'pitch': 73.22, 'roll': -82.78, 'pres': 161}
{'lipoC2': 8.09, 'lipoC3S1': 3.98, 'temp': 29.75, 'lipoC3S3': 12.06, 'lipoC3S2': 7.98, 'rot1': 0, 'rot0': 70, 'rot3': 0, 'rot2': 0, 'state': 'normal', 'yaw': -0.09, 'datetime': '2018-10-05 14:48:07.154480', 'mgs': 1, 'volt': 0.7861, 'depth': -0.217, 'time': 19, 'pitch': 73.22, 'roll': -82.78, 'pres': 161}
{'lipoC2': 8.1, 'lipoC3S1': 3.98, 'temp': 29.75, 'lipoC3S3': 12.06, 'lipoC3S2': 7.97, 'rot1': 0, 'rot0': 71, 'rot3': 0, 'rot2': 0, 'state': 'normal', 'yaw': -0.09, 'datetime': '2018-10-05 14:48:07.169453', 'mgs': 1, 'volt': 0.8057, 'depth': 0.089, 'time': 19, 'pitch': 73.22, 'roll': -82.78, 'pres': 165}
{'lipoC2': 8.1, 'lipoC3S1': 3.98, 'temp': 29.69, 'lipoC3S3': 12.04, 'lipoC3S2': 7.97, 'rot1': 0, 'rot0': 71, 'rot3': 0, 'rot2': 0, 'state': 'normal', 'yaw': -0.09, 'datetime': '2018-10-05 14:48:07.238396', 'mgs': 1, 'volt': 0.7813, 'depth': -0.293, 'time': 19, 'pitch': 73.22, 'roll': -82.78, 'pres': 160}
{'lipoC2': 8.09, 'lipoC3S1': 3.98, 'temp': 29.69, 'lipoC3S3': 12.06, 'lipoC3S2': 7.97, 'rot1': 0, 'rot0': 72, 'rot3': 0, 'rot2': 0, 'state': 'normal', 'yaw': -0.09, 'datetime': '2018-10-05 14:48:07.342089', 'mgs': 1, 'volt': 0.7861, 'depth': -0.217, 'time': 19, 'pitch': 73.22, 'roll': -82.78, 'pres': 161}
{'lipoC2': 8.1, 'lipoC3S1': 3.98, 'temp': 29.81, 'lipoC3S3': 12.06, 'lipoC3S2': 7.97, 'rot1': 0, 'rot0': 72, 'rot3': 0, 'rot2': 0, 'state': 'normal', 'yaw': -0.09, 'datetime': '2018-10-05 14:48:07.446419', 'mgs': 1, 'volt': 0.7813, 'depth': -0.293, 'time': 19, 'pitch': 73.22, 'roll': -82.78, 'pres': 160}
{'lipoC2': 8.1, 'lipoC3S1': 3.98, 'temp': 29.81, 'lipoC3S3': 12.06, 'lipoC3S2': 7.97, 'rot1': 0, 'rot0': 73, 'rot3': 0, 'rot2': 0, 'state': 'normal', 'yaw': -0.09, 'datetime': '2018-10-05 14:48:07.551019', 'mgs': 1, 'volt': 0.7861, 'depth': -0.217, 'time': 19, 'pitch': 73.22, 'roll': -82.78, 'pres': 161}
{'lipoC2': 8.1, 'lipoC3S1': 3.98, 'temp': 29.81, 'lipoC3S3': 12.06, 'lipoC3S2': 7.98, 'rot1': 0, 'rot0': 73, 'rot3': 0, 'rot2': 0, 'state': 'normal', 'yaw': -0.09, 'datetime': '2018-10-05 14:48:07.655410', 'mgs': 1, 'volt': 0.7861, 'depth': -0.217, 'time': 19, 'pitch': 73.22, 'roll': -82.78, 'pres': 161}
{'lipoC2': 8.1, 'lipoC3S1': 3.98, 'temp': 29.81, 'lipoC3S3': 12.06, 'lipoC3S2': 7.98, 'rot1': 0, 'rot0': 74, 'rot3': 0, 'rot2': 0, 'state': 'normal', 'yaw': -0.09, 'datetime': '2018-10-05 14:48:07.760394', 'mgs': 1, 'volt': 0.7861, 'depth': -0.217, 'time': 19, 'pitch': 73.22, 'roll': -82.78, 'pres': 161}
{'lipoC2': 8.1, 'lipoC3S1': 3.98, 'temp': 29.81, 'lipoC3S3': 12.06, 'lipoC3S2': 7.98, 'rot1': 0, 'rot0': 74, 'rot3': 0, 'rot2': 0, 'state': 'normal', 'yaw': -0.09, 'datetime': '2018-10-05 14:48:07.864052', 'mgs': 1, 'volt': 0.7959, 'depth': -0.064, 'time': 20, 'pitch': 73.22, 'roll': -82.78, 'pres': 163}
{'lipoC2': 8.1, 'lipoC3S1': 3.98, 'temp': 29.88, 'lipoC3S3': 12.0, 'lipoC3S2': 7.97, 'rot1': 0, 'rot0': 75, 'rot3': 0, 'rot2': 0, 'state': 'normal', 'yaw': -0.09, 'datetime': '2018-10-05 14:48:07.968208', 'mgs': 1, 'volt': 0.7861, 'depth': -0.217, 'time': 20, 'pitch': 73.22, 'roll': -82.78, 'pres': 161}
{'lipoC2': 8.1, 'lipoC3S1': 3.98, 'temp': 29.88, 'lipoC3S3': 12.06, 'lipoC3S2': 7.97, 'rot1': 0, 'rot0': 76, 'rot3': 0, 'rot2': 0, 'state': 'normal', 'yaw': -0.09, 'datetime': '2018-10-05 14:48:08.077771', 'mgs': 1, 'volt': 0.8057, 'depth': 0.089, 'time': 20, 'pitch': 73.22, 'roll': -82.78, 'pres': 165}
{'lipoC2': 8.1, 'lipoC3S1': 3.98, 'temp': 29.94, 'lipoC3S3': 12.06, 'lipoC3S2': 7.97, 'rot1': 0, 'rot0': 76, 'rot3': 0, 'rot2': 0, 'state': 'normal', 'yaw': -0.09, 'datetime': '2018-10-05 14:48:08.182328', 'mgs': 1, 'volt': 0.7813, 'depth': -0.293, 'time': 20, 'pitch': 73.22, 'roll': -82.78, 'pres': 160}
{'lipoC2': 8.1, 'lipoC3S1': 3.98, 'temp': 29.94, 'lipoC3S3': 12.06, 'lipoC3S2': 7.97, 'rot1': 0, 'rot0': 77, 'rot3': 0, 'rot2': 0, 'state': 'normal', 'yaw': -0.09, 'datetime': '2018-10-05 14:48:08.287279', 'mgs': 1, 'volt': 0.7861, 'depth': -0.217, 'time': 20, 'pitch': 73.22, 'roll': -82.78, 'pres': 161}
{'lipoC2': 8.1, 'lipoC3S1': 3.98, 'temp': 29.94, 'lipoC3S3': 12.06, 'lipoC3S2': 7.97, 'rot1': 0, 'rot0': 77, 'rot3': 0, 'rot2': 0, 'state': 'normal', 'yaw': -0.09, 'datetime': '2018-10-05 14:48:08.390998', 'mgs': 1, 'volt': 0.7813, 'depth': -0.293, 'time': 20, 'pitch': 73.22, 'roll': -82.78, 'pres': 160}
{'lipoC2': 8.1, 'lipoC3S1': 3.98, 'temp': 30.0, 'lipoC3S3': 12.06, 'lipoC3S2': 7.98, 'rot1': 0, 'rot0': 78, 'rot3': 0, 'rot2': 0, 'state': 'normal', 'yaw': -0.09, 'datetime': '2018-10-05 14:48:08.494645', 'mgs': 1, 'volt': 0.7861, 'depth': -0.217, 'time': 20, 'pitch': 73.22, 'roll': -82.78, 'pres': 161}
