{'lipoC2': 7.4, 'lipoC3S1': 3.92, 'temp': 27.31, 'lipoC3S3': 11.84, 'lipoC3S2': 7.83, 'rot1': 258, 'rot0': 261, 'rot3': 214, 'rot2': 187, 'state': 'normal', 'yaw': -110.18, 'datetime': '2018-10-09 14:40:49.807663', 'mgs': 0, 'volt': 0.835, 'depth': 0.546, 'time': 263, 'pitch': 25.11, 'roll': -15.18, 'pres': 171}
{'lipoC2': 7.4, 'lipoC3S1': 3.92, 'temp': 27.31, 'lipoC3S3': 11.84, 'lipoC3S2': 7.83, 'rot1': 258, 'rot0': 261, 'rot3': 214, 'rot2': 187, 'state': 'normal', 'yaw': -110.64, 'datetime': '2018-10-09 14:40:52.836295', 'mgs': 0, 'volt': 0.835, 'depth': 0.546, 'time': 263, 'pitch': 25.02, 'roll': -16.15, 'pres': 171}
{'lipoC2': 7.4, 'lipoC3S1': 3.92, 'temp': 27.31, 'lipoC3S3': 11.84, 'lipoC3S2': 7.83, 'rot1': 258, 'rot0': 261, 'rot3': 214, 'rot2': 187, 'state': 'normal', 'yaw': -111.07, 'datetime': '2018-10-09 14:40:55.884590', 'mgs': 0, 'volt': 0.8301, 'depth': 0.47, 'time': 263, 'pitch': 25.35, 'roll': -16.96, 'pres': 170}
{'lipoC2': 7.4, 'lipoC3S1': 3.92, 'temp': 27.31, 'lipoC3S3': 11.84, 'lipoC3S2': 7.83, 'rot1': 258, 'rot0': 261, 'rot3': 214, 'rot2': 187, 'state': 'normal', 'yaw': -111.13, 'datetime': '2018-10-09 14:40:55.929685', 'mgs': 0, 'volt': 0.8301, 'depth': 0.47, 'time': 263, 'pitch': 25.56, 'roll': -17.42, 'pres': 170}
{'lipoC2': 7.4, 'lipoC3S1': 3.92, 'temp': 27.31, 'lipoC3S3': 11.84, 'lipoC3S2': 7.83, 'rot1': 258, 'rot0': 261, 'rot3': 214, 'rot2': 187, 'state': 'normal', 'yaw': -111.07, 'datetime': '2018-10-09 14:40:55.969570', 'mgs': 0, 'volt': 0.8301, 'depth': 0.47, 'time': 263, 'pitch': 25.71, 'roll': -17.72, 'pres': 170}
{'lipoC2': 7.4, 'lipoC3S1': 3.92, 'temp': 27.31, 'lipoC3S3': 11.84, 'lipoC3S2': 7.83, 'rot1': 258, 'rot0': 261, 'rot3': 214, 'rot2': 187, 'state': 'normal', 'yaw': -111.17, 'datetime': '2018-10-09 14:40:55.988903', 'mgs': 0, 'volt': 0.8301, 'depth': 0.47, 'time': 263, 'pitch': 25.82, 'roll': -17.92, 'pres': 170}
{'lipoC2': 7.4, 'lipoC3S1': 3.92, 'temp': 27.31, 'lipoC3S3': 11.84, 'lipoC3S2': 7.83, 'rot1': 258, 'rot0': 261, 'rot3': 214, 'rot2': 187, 'state': 'normal', 'yaw': -111.47, 'datetime': '2018-10-09 14:40:56.006161', 'mgs': 0, 'volt': 0.8252, 'depth': 0.394, 'time': 263, 'pitch': 25.79, 'roll': -18.01, 'pres': 169}
{'lipoC2': 7.4, 'lipoC3S1': 3.92, 'temp': 27.31, 'lipoC3S3': 11.84, 'lipoC3S2': 7.83, 'rot1': 258, 'rot0': 261, 'rot3': 214, 'rot2': 187, 'state': 'normal', 'yaw': -112.09, 'datetime': '2018-10-09 14:40:56.026250', 'mgs': 0, 'volt': 0.8252, 'depth': 0.394, 'time': 263, 'pitch': 25.32, 'roll': -18.06, 'pres': 169}
{'lipoC2': 7.4, 'lipoC3S1': 3.92, 'temp': 27.31, 'lipoC3S3': 11.84, 'lipoC3S2': 7.83, 'rot1': 258, 'rot0': 261, 'rot3': 214, 'rot2': 187, 'state': 'normal', 'yaw': -112.88, 'datetime': '2018-10-09 14:40:56.046268', 'mgs': 0, 'volt': 0.8252, 'depth': 0.394, 'time': 264, 'pitch': 24.65, 'roll': -18.1, 'pres': 169}
{'lipoC2': 7.4, 'lipoC3S1': 3.92, 'temp': 27.31, 'lipoC3S3': 11.84, 'lipoC3S2': 7.83, 'rot1': 258, 'rot0': 261, 'rot3': 214, 'rot2': 187, 'state': 'normal', 'yaw': -113.98, 'datetime': '2018-10-09 14:40:56.066512', 'mgs': 0, 'volt': 0.8301, 'depth': 0.47, 'time': 264, 'pitch': 23.99, 'roll': -18.24, 'pres': 170}
{'lipoC2': 7.4, 'lipoC3S1': 3.92, 'temp': 27.31, 'lipoC3S3': 11.84, 'lipoC3S2': 7.83, 'rot1': 258, 'rot0': 261, 'rot3': 214, 'rot2': 187, 'state': 'normal', 'yaw': -115.16, 'datetime': '2018-10-09 14:40:56.086850', 'mgs': 0, 'volt': 0.8252, 'depth': 0.394, 'time': 264, 'pitch': 23.58, 'roll': -18.49, 'pres': 169}
{'lipoC2': 7.4, 'lipoC3S1': 3.92, 'temp': 27.31, 'lipoC3S3': 11.84, 'lipoC3S2': 7.83, 'rot1': 258, 'rot0': 261, 'rot3': 214, 'rot2': 187, 'state': 'normal', 'yaw': -116.2, 'datetime': '2018-10-09 14:40:56.105037', 'mgs': 0, 'volt': 0.8252, 'depth': 0.394, 'time': 264, 'pitch': 22.82, 'roll': -18.65, 'pres': 169}
{'lipoC2': 7.4, 'lipoC3S1': 3.92, 'temp': 27.31, 'lipoC3S3': 11.84, 'lipoC3S2': 7.83, 'rot1': 258, 'rot0': 261, 'rot3': 214, 'rot2': 187, 'state': 'normal', 'yaw': -116.99, 'datetime': '2018-10-09 14:40:56.125129', 'mgs': 0, 'volt': 0.8301, 'depth': 0.47, 'time': 264, 'pitch': 21.49, 'roll': -18.59, 'pres': 170}
{'lipoC2': 7.4, 'lipoC3S1': 3.92, 'temp': 27.31, 'lipoC3S3': 11.84, 'lipoC3S2': 7.83, 'rot1': 258, 'rot0': 261, 'rot3': 214, 'rot2': 187, 'state': 'normal', 'yaw': -117.63, 'datetime': '2018-10-09 14:40:56.145208', 'mgs': 0, 'volt': 0.8252, 'depth': 0.394, 'time': 264, 'pitch': 20.36, 'roll': -18.43, 'pres': 169}
{'lipoC2': 7.4, 'lipoC3S1': 3.92, 'temp': 27.31, 'lipoC3S3': 11.84, 'lipoC3S2': 7.83, 'rot1': 258, 'rot0': 261, 'rot3': 214, 'rot2': 187, 'state': 'normal', 'yaw': -118.17, 'datetime': '2018-10-09 14:40:56.165416', 'mgs': 0, 'volt': 0.8301, 'depth': 0.47, 'time': 264, 'pitch': 19.69, 'roll': -18.26, 'pres': 170}
{'lipoC2': 7.4, 'lipoC3S1': 3.92, 'temp': 27.31, 'lipoC3S3': 11.84, 'lipoC3S2': 7.83, 'rot1': 258, 'rot0': 261, 'rot3': 214, 'rot2': 187, 'state': 'normal', 'yaw': -118.59, 'datetime': '2018-10-09 14:40:56.185097', 'mgs': 0, 'volt': 0.8301, 'depth': 0.47, 'time': 264, 'pitch': 19.78, 'roll': -18.24, 'pres': 170}
{'lipoC2': 7.4, 'lipoC3S1': 3.92, 'temp': 27.31, 'lipoC3S3': 11.84, 'lipoC3S2': 7.83, 'rot1': 258, 'rot0': 261, 'rot3': 214, 'rot2': 187, 'state': 'normal', 'yaw': -118.95, 'datetime': '2018-10-09 14:40:56.205037', 'mgs': 0, 'volt': 0.8301, 'depth': 0.47, 'time': 264, 'pitch': 20.17, 'roll': -18.41, 'pres': 170}
{'lipoC2': 7.4, 'lipoC3S1': 3.92, 'temp': 27.38, 'lipoC3S3': 11.84, 'lipoC3S2': 7.83, 'rot1': 258, 'rot0': 261, 'rot3': 214, 'rot2': 187, 'state': 'normal', 'yaw': -118.79, 'datetime': '2018-10-09 14:40:56.225065', 'mgs': 0, 'volt': 0.8301, 'depth': 0.47, 'time': 264, 'pitch': 20.15, 'roll': -18.53, 'pres': 170}
{'lipoC2': 7.4, 'lipoC3S1': 3.92, 'temp': 27.38, 'lipoC3S3': 11.84, 'lipoC3S2': 7.83, 'rot1': 258, 'rot0': 261, 'rot3': 214, 'rot2': 187, 'state': 'normal', 'yaw': -118.21, 'datetime': '2018-10-09 14:40:56.245177', 'mgs': 0, 'volt': 0.8301, 'depth': 0.47, 'time': 265, 'pitch': 20.01, 'roll': -18.76, 'pres': 170}
{'lipoC2': 7.4, 'lipoC3S1': 3.92, 'temp': 27.31, 'lipoC3S3': 11.84, 'lipoC3S2': 7.83, 'rot1': 258, 'rot0': 261, 'rot3': 214, 'rot2': 187, 'state': 'normal', 'yaw': -117.46, 'datetime': '2018-10-09 14:40:56.265172', 'mgs': 0, 'volt': 0.8301, 'depth': 0.47, 'time': 265, 'pitch': 19.89, 'roll': -19.01, 'pres': 170}
{'lipoC2': 7.4, 'lipoC3S1': 3.92, 'temp': 27.31, 'lipoC3S3': 11.84, 'lipoC3S2': 7.83, 'rot1': 258, 'rot0': 261, 'rot3': 214, 'rot2': 187, 'state': 'normal', 'yaw': -116.73, 'datetime': '2018-10-09 14:40:56.285371', 'mgs': 0, 'volt': 0.8301, 'depth': 0.47, 'time': 265, 'pitch': 19.92, 'roll': -19.35, 'pres': 170}
{'lipoC2': 7.4, 'lipoC3S1': 3.92, 'temp': 27.31, 'lipoC3S3': 11.84, 'lipoC3S2': 7.83, 'rot1': 258, 'rot0': 261, 'rot3': 214, 'rot2': 187, 'state': 'normal', 'yaw': -116.63, 'datetime': '2018-10-09 14:40:56.304422', 'mgs': 0, 'volt': 0.835, 'depth': 0.546, 'time': 265, 'pitch': 20.11, 'roll': -19.77, 'pres': 171}
{'lipoC2': 7.4, 'lipoC3S1': 3.92, 'temp': 27.31, 'lipoC3S3': 11.84, 'lipoC3S2': 7.83, 'rot1': 258, 'rot0': 261, 'rot3': 214, 'rot2': 187, 'state': 'normal', 'yaw': -116.96, 'datetime': '2018-10-09 14:40:56.324574', 'mgs': 0, 'volt': 0.8301, 'depth': 0.47, 'time': 265, 'pitch': 20.44, 'roll': -20.24, 'pres': 170}
{'lipoC2': 7.4, 'lipoC3S1': 3.92, 'temp': 27.31, 'lipoC3S3': 11.84, 'lipoC3S2': 7.83, 'rot1': 258, 'rot0': 261, 'rot3': 214, 'rot2': 187, 'state': 'normal', 'yaw': -117.73, 'datetime': '2018-10-09 14:40:56.344662', 'mgs': 0, 'volt': 0.8301, 'depth': 0.47, 'time': 265, 'pitch': 20.55, 'roll': -20.79, 'pres': 170}
{'lipoC2': 7.4, 'lipoC3S1': 3.92, 'temp': 27.31, 'lipoC3S3': 11.84, 'lipoC3S2': 7.83, 'rot1': 258, 'rot0': 261, 'rot3': 214, 'rot2': 187, 'state': 'normal', 'yaw': -118.56, 'datetime': '2018-10-09 14:40:56.364742', 'mgs': 0, 'volt': 0.8301, 'depth': 0.47, 'time': 265, 'pitch': 20.52, 'roll': -21.32, 'pres': 170}
{'lipoC2': 7.4, 'lipoC3S1': 3.92, 'temp': 27.31, 'lipoC3S3': 11.84, 'lipoC3S2': 7.83, 'rot1': 258, 'rot0': 261, 'rot3': 214, 'rot2': 187, 'state': 'normal', 'yaw': -119.28, 'datetime': '2018-10-09 14:40:56.384843', 'mgs': 0, 'volt': 0.835, 'depth': 0.546, 'time': 265, 'pitch': 20.47, 'roll': -21.87, 'pres': 171}
{'lipoC2': 7.4, 'lipoC3S1': 3.92, 'temp': 27.31, 'lipoC3S3': 11.84, 'lipoC3S2': 7.83, 'rot1': 258, 'rot0': 261, 'rot3': 214, 'rot2': 187, 'state': 'normal', 'yaw': -119.65, 'datetime': '2018-10-09 14:40:56.405810', 'mgs': 0, 'volt': 0.8301, 'depth': 0.47, 'time': 265, 'pitch': 20.42, 'roll': -22.28, 'pres': 170}
{'lipoC2': 7.4, 'lipoC3S1': 3.92, 'temp': 27.31, 'lipoC3S3': 11.84, 'lipoC3S2': 7.83, 'rot1': 258, 'rot0': 261, 'rot3': 214, 'rot2': 187, 'state': 'normal', 'yaw': -119.57, 'datetime': '2018-10-09 14:40:56.426463', 'mgs': 0, 'volt': 0.8301, 'depth': 0.47, 'time': 266, 'pitch': 20.25, 'roll': -22.53, 'pres': 170}
{'lipoC2': 7.4, 'lipoC3S1': 3.92, 'temp': 27.31, 'lipoC3S3': 11.84, 'lipoC3S2': 7.83, 'rot1': 258, 'rot0': 261, 'rot3': 214, 'rot2': 187, 'state': 'normal', 'yaw': -119.13, 'datetime': '2018-10-09 14:40:56.446539', 'mgs': 0, 'volt': 0.8301, 'depth': 0.47, 'time': 266, 'pitch': 20.16, 'roll': -22.53, 'pres': 170}
{'lipoC2': 7.4, 'lipoC3S1': 3.92, 'temp': 27.31, 'lipoC3S3': 11.84, 'lipoC3S2': 7.83, 'rot1': 258, 'rot0': 261, 'rot3': 214, 'rot2': 187, 'state': 'normal', 'yaw': -118.54, 'datetime': '2018-10-09 14:40:56.466768', 'mgs': 0, 'volt': 0.8301, 'depth': 0.47, 'time': 266, 'pitch': 20.38, 'roll': -22.35, 'pres': 170}
{'lipoC2': 7.4, 'lipoC3S1': 3.92, 'temp': 27.31, 'lipoC3S3': 11.84, 'lipoC3S2': 7.83, 'rot1': 258, 'rot0': 261, 'rot3': 214, 'rot2': 187, 'state': 'normal', 'yaw': -118.28, 'datetime': '2018-10-09 14:40:56.486891', 'mgs': 0, 'volt': 0.8301, 'depth': 0.47, 'time': 266, 'pitch': 20.71, 'roll': -22.14, 'pres': 170}
{'lipoC2': 7.4, 'lipoC3S1': 3.92, 'temp': 27.31, 'lipoC3S3': 11.84, 'lipoC3S2': 7.83, 'rot1': 258, 'rot0': 261, 'rot3': 214, 'rot2': 187, 'state': 'normal', 'yaw': -118.28, 'datetime': '2018-10-09 14:40:56.505385', 'mgs': 0, 'volt': 0.8301, 'depth': 0.47, 'time': 266, 'pitch': 20.97, 'roll': -21.9, 'pres': 170}
{'lipoC2': 7.4, 'lipoC3S1': 3.92, 'temp': 27.31, 'lipoC3S3': 11.84, 'lipoC3S2': 7.83, 'rot1': 258, 'rot0': 261, 'rot3': 214, 'rot2': 187, 'state': 'normal', 'yaw': -118.51, 'datetime': '2018-10-09 14:40:56.522580', 'mgs': 0, 'volt': 0.8301, 'depth': 0.47, 'time': 266, 'pitch': 20.88, 'roll': -21.72, 'pres': 170}
{'lipoC2': 7.4, 'lipoC3S1': 3.92, 'temp': 27.31, 'lipoC3S3': 11.84, 'lipoC3S2': 7.83, 'rot1': 258, 'rot0': 261, 'rot3': 214, 'rot2': 187, 'state': 'normal', 'yaw': -118.76, 'datetime': '2018-10-09 14:40:56.542678', 'mgs': 0, 'volt': 0.8301, 'depth': 0.47, 'time': 266, 'pitch': 20.68, 'roll': -21.53, 'pres': 170}
{'lipoC2': 7.4, 'lipoC3S1': 3.92, 'temp': 27.31, 'lipoC3S3': 11.84, 'lipoC3S2': 7.83, 'rot1': 258, 'rot0': 261, 'rot3': 214, 'rot2': 187, 'state': 'normal', 'yaw': -118.89, 'datetime': '2018-10-09 14:40:56.562709', 'mgs': 0, 'volt': 0.8301, 'depth': 0.47, 'time': 266, 'pitch': 20.4, 'roll': -21.25, 'pres': 170}
{'lipoC2': 7.4, 'lipoC3S1': 3.92, 'temp': 27.38, 'lipoC3S3': 11.84, 'lipoC3S2': 7.83, 'rot1': 258, 'rot0': 261, 'rot3': 214, 'rot2': 187, 'state': 'normal', 'yaw': -118.96, 'datetime': '2018-10-09 14:40:56.582825', 'mgs': 0, 'volt': 0.8301, 'depth': 0.47, 'time': 266, 'pitch': 20.16, 'roll': -20.96, 'pres': 170}
{'lipoC2': 7.4, 'lipoC3S1': 3.92, 'temp': 27.31, 'lipoC3S3': 11.84, 'lipoC3S2': 7.83, 'rot1': 0, 'rot0': 0, 'rot3': 0, 'rot2': 0, 'state': 'normal', 'yaw': 0.0, 'datetime': '2018-10-09 14:40:56.602423', 'mgs': 0, 'volt': 0.8252, 'depth': 0.394, 'time': 1, 'pitch': 20.39, 'roll': -23.02, 'pres': 169}
{'lipoC2': 7.4, 'lipoC3S1': 3.92, 'temp': 27.31, 'lipoC3S3': 11.84, 'lipoC3S2': 7.83, 'rot1': 0, 'rot0': 0, 'rot3': 0, 'rot2': 0, 'state': 'normal', 'yaw': 0.41, 'datetime': '2018-10-09 14:40:56.620759', 'mgs': 0, 'volt': 0.8252, 'depth': 0.394, 'time': 1, 'pitch': 20.55, 'roll': -23.0, 'pres': 169}
{'lipoC2': 7.4, 'lipoC3S1': 3.92, 'temp': 27.25, 'lipoC3S3': 11.84, 'lipoC3S2': 7.83, 'rot1': 0, 'rot0': 0, 'rot3': 0, 'rot2': 0, 'state': 'normal', 'yaw': 0.82, 'datetime': '2018-10-09 14:40:56.640257', 'mgs': 0, 'volt': 0.8252, 'depth': 0.394, 'time': 1, 'pitch': 20.71, 'roll': -22.86, 'pres': 169}
{'lipoC2': 7.4, 'lipoC3S1': 3.92, 'temp': 27.25, 'lipoC3S3': 11.84, 'lipoC3S2': 7.83, 'rot1': 0, 'rot0': 0, 'rot3': 0, 'rot2': 0, 'state': 'normal', 'yaw': 1.08, 'datetime': '2018-10-09 14:40:56.659763', 'mgs': 0, 'volt': 0.8252, 'depth': 0.394, 'time': 1, 'pitch': 20.91, 'roll': -22.71, 'pres': 169}
{'lipoC2': 7.4, 'lipoC3S1': 3.92, 'temp': 27.25, 'lipoC3S3': 11.84, 'lipoC3S2': 7.83, 'rot1': 0, 'rot0': 0, 'rot3': 0, 'rot2': 0, 'state': 'normal', 'yaw': 1.23, 'datetime': '2018-10-09 14:40:56.679551', 'mgs': 0, 'volt': 0.8301, 'depth': 0.47, 'time': 1, 'pitch': 21.27, 'roll': -22.55, 'pres': 170}
{'lipoC2': 7.4, 'lipoC3S1': 3.92, 'temp': 27.31, 'lipoC3S3': 11.84, 'lipoC3S2': 7.83, 'rot1': 0, 'rot0': 0, 'rot3': 0, 'rot2': 0, 'state': 'normal', 'yaw': 1.21, 'datetime': '2018-10-09 14:40:56.699213', 'mgs': 0, 'volt': 0.8301, 'depth': 0.47, 'time': 1, 'pitch': 22.02, 'roll': -22.38, 'pres': 170}
{'lipoC2': 7.4, 'lipoC3S1': 3.92, 'temp': 27.31, 'lipoC3S3': 11.84, 'lipoC3S2': 7.83, 'rot1': 0, 'rot0': 0, 'rot3': 0, 'rot2': 0, 'state': 'normal', 'yaw': 1.12, 'datetime': '2018-10-09 14:40:56.719029', 'mgs': 0, 'volt': 0.8301, 'depth': 0.47, 'time': 1, 'pitch': 22.78, 'roll': -22.19, 'pres': 170}
{'lipoC2': 7.4, 'lipoC3S1': 3.92, 'temp': 27.31, 'lipoC3S3': 11.84, 'lipoC3S2': 7.83, 'rot1': 0, 'rot0': 0, 'rot3': 0, 'rot2': 0, 'state': 'normal', 'yaw': 1.06, 'datetime': '2018-10-09 14:40:56.735376', 'mgs': 0, 'volt': 0.835, 'depth': 0.546, 'time': 1, 'pitch': 23.38, 'roll': -21.9, 'pres': 171}
{'lipoC2': 7.4, 'lipoC3S1': 3.92, 'temp': 27.31, 'lipoC3S3': 11.84, 'lipoC3S2': 7.83, 'rot1': 0, 'rot0': 0, 'rot3': 0, 'rot2': 0, 'state': 'normal', 'yaw': 1.06, 'datetime': '2018-10-09 14:40:56.754958', 'mgs': 0, 'volt': 0.835, 'depth': 0.546, 'time': 2, 'pitch': 23.81, 'roll': -21.43, 'pres': 171}
{'lipoC2': 7.4, 'lipoC3S1': 3.92, 'temp': 27.25, 'lipoC3S3': 11.84, 'lipoC3S2': 7.83, 'rot1': 0, 'rot0': 0, 'rot3': 0, 'rot2': 0, 'state': 'normal', 'yaw': 1.07, 'datetime': '2018-10-09 14:40:56.774550', 'mgs': 0, 'volt': 0.8398, 'depth': 0.623, 'time': 2, 'pitch': 24.13, 'roll': -20.92, 'pres': 172}
{'lipoC2': 7.4, 'lipoC3S1': 3.92, 'temp': 27.25, 'lipoC3S3': 11.84, 'lipoC3S2': 7.83, 'rot1': 0, 'rot0': 0, 'rot3': 0, 'rot2': 0, 'state': 'normal', 'yaw': 0.99, 'datetime': '2018-10-09 14:40:56.794189', 'mgs': 0, 'volt': 0.8398, 'depth': 0.623, 'time': 2, 'pitch': 24.6, 'roll': -20.41, 'pres': 172}
{'lipoC2': 7.4, 'lipoC3S1': 3.92, 'temp': 27.25, 'lipoC3S3': 11.84, 'lipoC3S2': 7.83, 'rot1': 0, 'rot0': 0, 'rot3': 0, 'rot2': 0, 'state': 'normal', 'yaw': 0.73, 'datetime': '2018-10-09 14:40:56.813572', 'mgs': 0, 'volt': 0.8447, 'depth': 0.699, 'time': 2, 'pitch': 25.48, 'roll': -19.96, 'pres': 173}
{'lipoC2': 7.4, 'lipoC3S1': 3.92, 'temp': 27.31, 'lipoC3S3': 11.84, 'lipoC3S2': 7.83, 'rot1': 0, 'rot0': 0, 'rot3': 0, 'rot2': 0, 'state': 'normal', 'yaw': 0.37, 'datetime': '2018-10-09 14:40:56.833367', 'mgs': 0, 'volt': 0.8496, 'depth': 0.775, 'time': 2, 'pitch': 26.6, 'roll': -19.74, 'pres': 174}
{'lipoC2': 7.4, 'lipoC3S1': 3.92, 'temp': 27.31, 'lipoC3S3': 11.84, 'lipoC3S2': 7.83, 'rot1': 0, 'rot0': 0, 'rot3': 0, 'rot2': 0, 'state': 'normal', 'yaw': -0.11, 'datetime': '2018-10-09 14:40:56.852954', 'mgs': 0, 'volt': 0.8545, 'depth': 0.851, 'time': 2, 'pitch': 27.86, 'roll': -19.75, 'pres': 175}
{'lipoC2': 7.4, 'lipoC3S1': 3.92, 'temp': 27.31, 'lipoC3S3': 11.84, 'lipoC3S2': 7.83, 'rot1': 0, 'rot0': 0, 'rot3': 0, 'rot2': 0, 'state': 'normal', 'yaw': -0.59, 'datetime': '2018-10-09 14:40:56.872555', 'mgs': 0, 'volt': 0.8594, 'depth': 0.928, 'time': 2, 'pitch': 29.16, 'roll': -19.95, 'pres': 176}
{'lipoC2': 7.4, 'lipoC3S1': 3.92, 'temp': 27.31, 'lipoC3S3': 11.84, 'lipoC3S2': 7.83, 'rot1': 0, 'rot0': 0, 'rot3': 0, 'rot2': 0, 'state': 'normal', 'yaw': -0.94, 'datetime': '2018-10-09 14:40:56.892071', 'mgs': 0, 'volt': 0.8643, 'depth': 1.004, 'time': 2, 'pitch': 30.12, 'roll': -20.22, 'pres': 177}
{'lipoC2': 7.4, 'lipoC3S1': 3.92, 'temp': 27.31, 'lipoC3S3': 11.84, 'lipoC3S2': 7.83, 'rot1': 0, 'rot0': 0, 'rot3': 0, 'rot2': 0, 'state': 'normal', 'yaw': -1.18, 'datetime': '2018-10-09 14:40:56.912039', 'mgs': 0, 'volt': 0.8643, 'depth': 1.004, 'time': 2, 'pitch': 30.91, 'roll': -20.61, 'pres': 177}
{'lipoC2': 7.39, 'lipoC3S1': 3.83, 'temp': 27.31, 'lipoC3S3': 11.72, 'lipoC3S2': 7.71, 'rot1': 0, 'rot0': 0, 'rot3': 0, 'rot2': 0, 'state': 'normal', 'yaw': -1.36, 'datetime': '2018-10-09 14:40:56.930665', 'mgs': 0, 'volt': 0.9082, 'depth': 1.691, 'time': 3, 'pitch': 31.52, 'roll': -21.06, 'pres': 186}
{'lipoC2': 7.39, 'lipoC3S1': 3.89, 'temp': 27.31, 'lipoC3S3': 11.69, 'lipoC3S2': 7.78, 'rot1': 0, 'rot0': 0, 'rot3': 1, 'rot2': 1, 'state': 'normal', 'yaw': -1.64, 'datetime': '2018-10-09 14:40:56.950127', 'mgs': 0, 'volt': 0.8838, 'depth': 1.309, 'time': 3, 'pitch': 32.18, 'roll': -21.59, 'pres': 181}
{'lipoC2': 7.39, 'lipoC3S1': 3.88, 'temp': 27.31, 'lipoC3S3': 11.76, 'lipoC3S2': 7.77, 'rot1': 0, 'rot0': 0, 'rot3': 2, 'rot2': 2, 'state': 'normal', 'yaw': -2.06, 'datetime': '2018-10-09 14:40:56.972683', 'mgs': 0, 'volt': 0.8887, 'depth': 1.385, 'time': 3, 'pitch': 33.08, 'roll': -22.07, 'pres': 182}
{'lipoC2': 7.4, 'lipoC3S1': 3.88, 'temp': 27.31, 'lipoC3S3': 11.71, 'lipoC3S2': 7.78, 'rot1': 0, 'rot0': 0, 'rot3': 3, 'rot2': 2, 'state': 'normal', 'yaw': -2.55, 'datetime': '2018-10-09 14:40:56.992330', 'mgs': 0, 'volt': 0.8838, 'depth': 1.309, 'time': 3, 'pitch': 34.03, 'roll': -22.4, 'pres': 181}
{'lipoC2': 7.39, 'lipoC3S1': 3.9, 'temp': 27.31, 'lipoC3S3': 11.73, 'lipoC3S2': 7.78, 'rot1': 0, 'rot0': 0, 'rot3': 4, 'rot2': 3, 'state': 'normal', 'yaw': -3.05, 'datetime': '2018-10-09 14:40:57.011920', 'mgs': 0, 'volt': 0.8838, 'depth': 1.309, 'time': 3, 'pitch': 34.7, 'roll': -22.53, 'pres': 181}
{'lipoC2': 7.4, 'lipoC3S1': 3.9, 'temp': 27.31, 'lipoC3S3': 11.73, 'lipoC3S2': 7.74, 'rot1': 0, 'rot0': 0, 'rot3': 5, 'rot2': 4, 'state': 'normal', 'yaw': -3.47, 'datetime': '2018-10-09 14:40:57.029908', 'mgs': 0, 'volt': 0.874, 'depth': 1.157, 'time': 3, 'pitch': 35.03, 'roll': -22.45, 'pres': 179}
{'lipoC2': 7.4, 'lipoC3S1': 3.9, 'temp': 27.31, 'lipoC3S3': 11.73, 'lipoC3S2': 7.74, 'rot1': 0, 'rot0': 0, 'rot3': 6, 'rot2': 5, 'state': 'normal', 'yaw': -3.69, 'datetime': '2018-10-09 14:40:57.046573', 'mgs': 0, 'volt': 0.874, 'depth': 1.157, 'time': 3, 'pitch': 34.99, 'roll': -22.26, 'pres': 179}
{'lipoC2': 7.4, 'lipoC3S1': 3.87, 'temp': 27.31, 'lipoC3S3': 11.75, 'lipoC3S2': 7.75, 'rot1': 0, 'rot0': 0, 'rot3': 7, 'rot2': 6, 'state': 'normal', 'yaw': -3.63, 'datetime': '2018-10-09 14:40:57.066047', 'mgs': 0, 'volt': 0.8691, 'depth': 1.08, 'time': 3, 'pitch': 34.64, 'roll': -22.2, 'pres': 178}
{'lipoC2': 7.4, 'lipoC3S1': 3.9, 'temp': 27.31, 'lipoC3S3': 11.73, 'lipoC3S2': 7.82, 'rot1': 0, 'rot0': 0, 'rot3': 8, 'rot2': 7, 'state': 'normal', 'yaw': -3.4, 'datetime': '2018-10-09 14:40:57.085692', 'mgs': 0, 'volt': 0.874, 'depth': 1.157, 'time': 3, 'pitch': 34.18, 'roll': -22.25, 'pres': 179}
{'lipoC2': 7.4, 'lipoC3S1': 3.9, 'temp': 27.31, 'lipoC3S3': 11.73, 'lipoC3S2': 7.74, 'rot1': 0, 'rot0': 0, 'rot3': 9, 'rot2': 8, 'state': 'normal', 'yaw': -3.08, 'datetime': '2018-10-09 14:40:57.105245', 'mgs': 0, 'volt': 0.8643, 'depth': 1.004, 'time': 3, 'pitch': 33.53, 'roll': -22.3, 'pres': 177}
{'lipoC2': 7.4, 'lipoC3S1': 3.9, 'temp': 27.31, 'lipoC3S3': 11.73, 'lipoC3S2': 7.79, 'rot1': 0, 'rot0': 0, 'rot3': 11, 'rot2': 8, 'state': 'normal', 'yaw': -2.83, 'datetime': '2018-10-09 14:40:57.125134', 'mgs': 0, 'volt': 0.8643, 'depth': 1.004, 'time': 4, 'pitch': 32.89, 'roll': -22.38, 'pres': 177}
{'lipoC2': 7.4, 'lipoC3S1': 3.87, 'temp': 27.31, 'lipoC3S3': 11.76, 'lipoC3S2': 7.76, 'rot1': 0, 'rot0': 0, 'rot3': 12, 'rot2': 9, 'state': 'normal', 'yaw': -2.6, 'datetime': '2018-10-09 14:40:57.143694', 'mgs': 0, 'volt': 0.8691, 'depth': 1.08, 'time': 4, 'pitch': 32.29, 'roll': -22.46, 'pres': 178}
{'lipoC2': 7.4, 'lipoC3S1': 3.88, 'temp': 27.31, 'lipoC3S3': 11.77, 'lipoC3S2': 7.76, 'rot1': 0, 'rot0': 0, 'rot3': 13, 'rot2': 10, 'state': 'normal', 'yaw': -2.32, 'datetime': '2018-10-09 14:40:57.163389', 'mgs': 0, 'volt': 0.8496, 'depth': 0.775, 'time': 4, 'pitch': 31.77, 'roll': -22.52, 'pres': 174}
{'lipoC2': 7.4, 'lipoC3S1': 3.9, 'temp': 27.31, 'lipoC3S3': 11.77, 'lipoC3S2': 7.8, 'rot1': 0, 'rot0': 0, 'rot3': 14, 'rot2': 11, 'state': 'normal', 'yaw': -1.96, 'datetime': '2018-10-09 14:40:57.183225', 'mgs': 0, 'volt': 0.8594, 'depth': 0.928, 'time': 4, 'pitch': 31.34, 'roll': -22.46, 'pres': 176}
{'lipoC2': 7.4, 'lipoC3S1': 3.88, 'temp': 27.31, 'lipoC3S3': 11.77, 'lipoC3S2': 7.77, 'rot1': 0, 'rot0': 0, 'rot3': 15, 'rot2': 12, 'state': 'normal', 'yaw': -1.47, 'datetime': '2018-10-09 14:40:57.203062', 'mgs': 0, 'volt': 0.8545, 'depth': 0.851, 'time': 4, 'pitch': 30.82, 'roll': -22.31, 'pres': 175}
{'lipoC2': 7.4, 'lipoC3S1': 3.89, 'temp': 27.31, 'lipoC3S3': 11.76, 'lipoC3S2': 7.77, 'rot1': 0, 'rot0': 0, 'rot3': 17, 'rot2': 13, 'state': 'normal', 'yaw': -1.01, 'datetime': '2018-10-09 14:40:57.222661', 'mgs': 0, 'volt': 0.8398, 'depth': 0.623, 'time': 4, 'pitch': 30.28, 'roll': -22.05, 'pres': 172}
{'lipoC2': 7.4, 'lipoC3S1': 3.9, 'temp': 27.25, 'lipoC3S3': 11.75, 'lipoC3S2': 7.79, 'rot1': 0, 'rot0': 0, 'rot3': 18, 'rot2': 14, 'state': 'normal', 'yaw': -0.58, 'datetime': '2018-10-09 14:40:57.241628', 'mgs': 0, 'volt': 0.8447, 'depth': 0.699, 'time': 4, 'pitch': 29.77, 'roll': -21.71, 'pres': 173}
{'lipoC2': 7.4, 'lipoC3S1': 3.89, 'temp': 27.25, 'lipoC3S3': 11.77, 'lipoC3S2': 7.79, 'rot1': 0, 'rot0': 0, 'rot3': 19, 'rot2': 15, 'state': 'normal', 'yaw': -0.14, 'datetime': '2018-10-09 14:40:57.261498', 'mgs': 0, 'volt': 0.8496, 'depth': 0.775, 'time': 4, 'pitch': 29.4, 'roll': -21.3, 'pres': 174}
{'lipoC2': 7.4, 'lipoC3S1': 3.88, 'temp': 27.25, 'lipoC3S3': 11.77, 'lipoC3S2': 7.77, 'rot1': 0, 'rot0': 0, 'rot3': 20, 'rot2': 16, 'state': 'normal', 'yaw': 0.15, 'datetime': '2018-10-09 14:40:57.281221', 'mgs': 0, 'volt': 0.8496, 'depth': 0.775, 'time': 4, 'pitch': 29.35, 'roll': -21.02, 'pres': 174}
{'lipoC2': 7.4, 'lipoC3S1': 3.88, 'temp': 27.25, 'lipoC3S3': 11.77, 'lipoC3S2': 7.77, 'rot1': 0, 'rot0': 0, 'rot3': 22, 'rot2': 17, 'state': 'normal', 'yaw': 0.35, 'datetime': '2018-10-09 14:40:57.300814', 'mgs': 0, 'volt': 0.8301, 'depth': 0.47, 'time': 4, 'pitch': 29.55, 'roll': -20.91, 'pres': 170}
{'lipoC2': 7.4, 'lipoC3S1': 3.9, 'temp': 27.25, 'lipoC3S3': 11.76, 'lipoC3S2': 7.79, 'rot1': 0, 'rot0': 0, 'rot3': 23, 'rot2': 18, 'state': 'normal', 'yaw': 0.46, 'datetime': '2018-10-09 14:40:57.320424', 'mgs': 0, 'volt': 0.8447, 'depth': 0.699, 'time': 5, 'pitch': 29.95, 'roll': -21.01, 'pres': 173}
{'lipoC2': 7.4, 'lipoC3S1': 3.89, 'temp': 27.25, 'lipoC3S3': 11.77, 'lipoC3S2': 7.79, 'rot1': 0, 'rot0': 0, 'rot3': 24, 'rot2': 18, 'state': 'normal', 'yaw': 0.51, 'datetime': '2018-10-09 14:40:57.341880', 'mgs': 0, 'volt': 0.8447, 'depth': 0.699, 'time': 5, 'pitch': 30.42, 'roll': -21.39, 'pres': 173}
{'lipoC2': 7.4, 'lipoC3S1': 3.92, 'temp': 27.25, 'lipoC3S3': 11.76, 'lipoC3S2': 7.76, 'rot1': 0, 'rot0': 0, 'rot3': 25, 'rot2': 19, 'state': 'normal', 'yaw': 0.55, 'datetime': '2018-10-09 14:40:57.361835', 'mgs': 0, 'volt': 0.835, 'depth': 0.546, 'time': 5, 'pitch': 30.92, 'roll': -21.98, 'pres': 171}
{'lipoC2': 7.39, 'lipoC3S1': 3.9, 'temp': 27.25, 'lipoC3S3': 11.73, 'lipoC3S2': 7.79, 'rot1': 0, 'rot0': 0, 'rot3': 26, 'rot2': 20, 'state': 'normal', 'yaw': 0.57, 'datetime': '2018-10-09 14:40:57.381461', 'mgs': 0, 'volt': 0.8447, 'depth': 0.699, 'time': 5, 'pitch': 31.47, 'roll': -22.74, 'pres': 173}
{'lipoC2': 7.4, 'lipoC3S1': 3.88, 'temp': 27.25, 'lipoC3S3': 11.77, 'lipoC3S2': 7.78, 'rot1': 0, 'rot0': 0, 'rot3': 28, 'rot2': 21, 'state': 'normal', 'yaw': 0.6, 'datetime': '2018-10-09 14:40:57.401111', 'mgs': 0, 'volt': 0.835, 'depth': 0.546, 'time': 5, 'pitch': 31.91, 'roll': -23.42, 'pres': 171}
{'lipoC2': 7.4, 'lipoC3S1': 3.9, 'temp': 27.25, 'lipoC3S3': 11.73, 'lipoC3S2': 7.75, 'rot1': 0, 'rot0': 0, 'rot3': 29, 'rot2': 22, 'state': 'normal', 'yaw': 0.68, 'datetime': '2018-10-09 14:40:57.420639', 'mgs': 0, 'volt': 0.8398, 'depth': 0.623, 'time': 5, 'pitch': 32.26, 'roll': -24.02, 'pres': 172}
{'lipoC2': 7.4, 'lipoC3S1': 3.89, 'temp': 27.25, 'lipoC3S3': 11.79, 'lipoC3S2': 7.78, 'rot1': 0, 'rot0': 0, 'rot3': 30, 'rot2': 23, 'state': 'normal', 'yaw': 0.73, 'datetime': '2018-10-09 14:40:57.439505', 'mgs': 0, 'volt': 0.8398, 'depth': 0.623, 'time': 5, 'pitch': 32.36, 'roll': -24.34, 'pres': 172}
{'lipoC2': 7.4, 'lipoC3S1': 3.9, 'temp': 27.25, 'lipoC3S3': 11.73, 'lipoC3S2': 7.78, 'rot1': 0, 'rot0': 0, 'rot3': 31, 'rot2': 24, 'state': 'normal', 'yaw': 0.68, 'datetime': '2018-10-09 14:40:57.458667', 'mgs': 0, 'volt': 0.8398, 'depth': 0.623, 'time': 5, 'pitch': 32.28, 'roll': -24.43, 'pres': 172}
{'lipoC2': 7.39, 'lipoC3S1': 3.89, 'temp': 27.25, 'lipoC3S3': 11.77, 'lipoC3S2': 7.78, 'rot1': 0, 'rot0': 0, 'rot3': 33, 'rot2': 25, 'state': 'normal', 'yaw': 0.48, 'datetime': '2018-10-09 14:40:57.478485', 'mgs': 0, 'volt': 0.8447, 'depth': 0.699, 'time': 5, 'pitch': 32.08, 'roll': -24.42, 'pres': 173}
{'lipoC2': 7.4, 'lipoC3S1': 3.88, 'temp': 27.25, 'lipoC3S3': 11.76, 'lipoC3S2': 7.77, 'rot1': 0, 'rot0': 0, 'rot3': 34, 'rot2': 26, 'state': 'normal', 'yaw': 0.22, 'datetime': '2018-10-09 14:40:57.494962', 'mgs': 0, 'volt': 0.8301, 'depth': 0.47, 'time': 6, 'pitch': 31.95, 'roll': -24.46, 'pres': 170}
{'lipoC2': 7.39, 'lipoC3S1': 3.87, 'temp': 27.31, 'lipoC3S3': 11.65, 'lipoC3S2': 7.74, 'rot1': 0, 'rot0': 0, 'rot3': 35, 'rot2': 27, 'state': 'normal', 'yaw': 0.02, 'datetime': '2018-10-09 14:40:57.510866', 'mgs': 0, 'volt': 0.9082, 'depth': 1.691, 'time': 6, 'pitch': 31.9, 'roll': -24.63, 'pres': 186}
{'lipoC2': 7.4, 'lipoC3S1': 3.75, 'temp': 27.31, 'lipoC3S3': 11.71, 'lipoC3S2': 7.7, 'rot1': 1, 'rot0': 2, 'rot3': 36, 'rot2': 28, 'state': 'normal', 'yaw': 1.04, 'datetime': '2018-10-09 14:40:57.526811', 'mgs': 0, 'volt': 0.8447, 'depth': 0.699, 'time': 6, 'pitch': 32.55, 'roll': -24.63, 'pres': 173}
{'lipoC2': 7.4, 'lipoC3S1': 3.85, 'temp': 27.31, 'lipoC3S3': 11.59, 'lipoC3S2': 7.54, 'rot1': 3, 'rot0': 3, 'rot3': 37, 'rot2': 29, 'state': 'normal', 'yaw': 3.23, 'datetime': '2018-10-09 14:40:57.544695', 'mgs': 0, 'volt': 0.8447, 'depth': 0.699, 'time': 6, 'pitch': 33.84, 'roll': -24.16, 'pres': 173}
{'lipoC2': 7.39, 'lipoC3S1': 3.88, 'temp': 27.31, 'lipoC3S3': 11.65, 'lipoC3S2': 7.73, 'rot1': 4, 'rot0': 5, 'rot3': 39, 'rot2': 30, 'state': 'normal', 'yaw': 6.33, 'datetime': '2018-10-09 14:40:57.562194', 'mgs': 0, 'volt': 0.8936, 'depth': 1.462, 'time': 6, 'pitch': 35.5, 'roll': -23.02, 'pres': 183}
{'lipoC2': 7.39, 'lipoC3S1': 3.76, 'temp': 27.31, 'lipoC3S3': 11.71, 'lipoC3S2': 7.68, 'rot1': 5, 'rot0': 6, 'rot3': 40, 'rot2': 31, 'state': 'normal', 'yaw': 11.03, 'datetime': '2018-10-09 14:40:57.578434', 'mgs': 0, 'volt': 0.8496, 'depth': 0.775, 'time': 6, 'pitch': 37.57, 'roll': -20.7, 'pres': 174}
{'lipoC2': 7.39, 'lipoC3S1': 3.85, 'temp': 27.31, 'lipoC3S3': 11.47, 'lipoC3S2': 7.7, 'rot1': 7, 'rot0': 8, 'rot3': 41, 'rot2': 32, 'state': 'normal', 'yaw': 16.86, 'datetime': '2018-10-09 14:40:57.594372', 'mgs': 0, 'volt': 0.835, 'depth': 0.546, 'time': 6, 'pitch': 39.44, 'roll': -17.46, 'pres': 171}
{'lipoC2': 7.39, 'lipoC3S1': 3.86, 'temp': 27.31, 'lipoC3S3': 11.67, 'lipoC3S2': 7.73, 'rot1': 8, 'rot0': 9, 'rot3': 42, 'rot2': 33, 'state': 'normal', 'yaw': 24.55, 'datetime': '2018-10-09 14:40:57.615046', 'mgs': 0, 'volt': 0.9033, 'depth': 1.614, 'time': 6, 'pitch': 41.01, 'roll': -12.76, 'pres': 185}
{'lipoC2': 7.39, 'lipoC3S1': 3.88, 'temp': 27.25, 'lipoC3S3': 11.76, 'lipoC3S2': 7.77, 'rot1': 9, 'rot0': 10, 'rot3': 43, 'rot2': 33, 'state': 'normal', 'yaw': 32.13, 'datetime': '2018-10-09 14:40:57.624827', 'mgs': 0, 'volt': 0.8447, 'depth': 0.699, 'time': 6, 'pitch': 41.85, 'roll': -7.86, 'pres': 173}
{'lipoC2': 7.39, 'lipoC3S1': 3.89, 'temp': 27.25, 'lipoC3S3': 11.76, 'lipoC3S2': 7.77, 'rot1': 9, 'rot0': 10, 'rot3': 45, 'rot2': 34, 'state': 'normal', 'yaw': 38.68, 'datetime': '2018-10-09 14:40:57.641015', 'mgs': 0, 'volt': 0.8447, 'depth': 0.699, 'time': 6, 'pitch': 42.2, 'roll': -3.31, 'pres': 173}
{'lipoC2': 7.4, 'lipoC3S1': 3.87, 'temp': 27.25, 'lipoC3S3': 11.73, 'lipoC3S2': 7.75, 'rot1': 10, 'rot0': 10, 'rot3': 46, 'rot2': 35, 'state': 'normal', 'yaw': 45.1, 'datetime': '2018-10-09 14:40:57.659900', 'mgs': 0, 'volt': 0.835, 'depth': 0.546, 'time': 7, 'pitch': 42.1, 'roll': 1.2, 'pres': 171}
{'lipoC2': 7.4, 'lipoC3S1': 3.87, 'temp': 27.25, 'lipoC3S3': 11.75, 'lipoC3S2': 7.75, 'rot1': 10, 'rot0': 11, 'rot3': 47, 'rot2': 36, 'state': 'normal', 'yaw': 50.32, 'datetime': '2018-10-09 14:40:57.670434', 'mgs': 0, 'volt': 0.8301, 'depth': 0.47, 'time': 7, 'pitch': 41.8, 'roll': 4.73, 'pres': 170}
{'lipoC2': 7.39, 'lipoC3S1': 3.89, 'temp': 27.25, 'lipoC3S3': 11.77, 'lipoC3S2': 7.78, 'rot1': 10, 'rot0': 11, 'rot3': 48, 'rot2': 37, 'state': 'normal', 'yaw': 55.52, 'datetime': '2018-10-09 14:40:57.686548', 'mgs': 0, 'volt': 0.8496, 'depth': 0.775, 'time': 7, 'pitch': 41.36, 'roll': 7.96, 'pres': 174}
{'lipoC2': 7.4, 'lipoC3S1': 3.87, 'temp': 27.25, 'lipoC3S3': 11.75, 'lipoC3S2': 7.76, 'rot1': 10, 'rot0': 11, 'rot3': 49, 'rot2': 38, 'state': 'normal', 'yaw': 59.83, 'datetime': '2018-10-09 14:40:57.702379', 'mgs': 0, 'volt': 0.835, 'depth': 0.546, 'time': 7, 'pitch': 40.96, 'roll': 10.5, 'pres': 171}
{'lipoC2': 7.39, 'lipoC3S1': 3.87, 'temp': 27.25, 'lipoC3S3': 11.73, 'lipoC3S2': 7.75, 'rot1': 11, 'rot0': 11, 'rot3': 51, 'rot2': 39, 'state': 'normal', 'yaw': 63.69, 'datetime': '2018-10-09 14:40:57.712388', 'mgs': 0, 'volt': 0.835, 'depth': 0.546, 'time': 7, 'pitch': 40.53, 'roll': 12.8, 'pres': 171}
{'lipoC2': 7.39, 'lipoC3S1': 3.88, 'temp': 27.25, 'lipoC3S3': 11.76, 'lipoC3S2': 7.8, 'rot1': 11, 'rot0': 12, 'rot3': 52, 'rot2': 40, 'state': 'normal', 'yaw': 67.4, 'datetime': '2018-10-09 14:40:57.728274', 'mgs': 0, 'volt': 0.8447, 'depth': 0.699, 'time': 7, 'pitch': 40.01, 'roll': 15.07, 'pres': 173}
{'lipoC2': 7.39, 'lipoC3S1': 3.9, 'temp': 27.25, 'lipoC3S3': 11.73, 'lipoC3S2': 7.76, 'rot1': 11, 'rot0': 12, 'rot3': 53, 'rot2': 41, 'state': 'normal', 'yaw': 70.48, 'datetime': '2018-10-09 14:40:57.744218', 'mgs': 0, 'volt': 0.835, 'depth': 0.546, 'time': 7, 'pitch': 39.51, 'roll': 17.05, 'pres': 171}
{'lipoC2': 7.4, 'lipoC3S1': 3.78, 'temp': 27.25, 'lipoC3S3': 11.56, 'lipoC3S2': 7.61, 'rot1': 11, 'rot0': 12, 'rot3': 54, 'rot2': 42, 'state': 'normal', 'yaw': 73.73, 'datetime': '2018-10-09 14:40:57.757082', 'mgs': 0, 'volt': 0.8838, 'depth': 1.309, 'time': 7, 'pitch': 38.77, 'roll': 19.1, 'pres': 181}
{'lipoC2': 7.39, 'lipoC3S1': 3.84, 'temp': 27.25, 'lipoC3S3': 11.67, 'lipoC3S2': 7.75, 'rot1': 11, 'rot0': 13, 'rot3': 54, 'rot2': 43, 'state': 'normal', 'yaw': 76.34, 'datetime': '2018-10-09 14:40:57.773781', 'mgs': 0, 'volt': 0.835, 'depth': 0.546, 'time': 7, 'pitch': 37.98, 'roll': 20.72, 'pres': 171}
{'lipoC2': 7.4, 'lipoC3S1': 3.91, 'temp': 27.25, 'lipoC3S3': 11.68, 'lipoC3S2': 7.75, 'rot1': 12, 'rot0': 14, 'rot3': 55, 'rot2': 43, 'state': 'normal', 'yaw': 77.82, 'datetime': '2018-10-09 14:40:57.871696', 'mgs': 0, 'volt': 0.8936, 'depth': 1.462, 'time': 8, 'pitch': 37.34, 'roll': 21.77, 'pres': 183}
{'lipoC2': 7.4, 'lipoC3S1': 3.85, 'temp': 27.25, 'lipoC3S3': 11.55, 'lipoC3S2': 7.71, 'rot1': 13, 'rot0': 15, 'rot3': 56, 'rot2': 44, 'state': 'normal', 'yaw': 77.88, 'datetime': '2018-10-09 14:40:57.975705', 'mgs': 0, 'volt': 0.835, 'depth': 0.546, 'time': 8, 'pitch': 36.98, 'roll': 22.14, 'pres': 171}
{'lipoC2': 7.4, 'lipoC3S1': 3.85, 'temp': 27.25, 'lipoC3S3': 11.58, 'lipoC3S2': 7.7, 'rot1': 14, 'rot0': 16, 'rot3': 57, 'rot2': 45, 'state': 'normal', 'yaw': 76.89, 'datetime': '2018-10-09 14:40:58.081068', 'mgs': 0, 'volt': 0.8447, 'depth': 0.699, 'time': 8, 'pitch': 36.88, 'roll': 21.97, 'pres': 173}
{'lipoC2': 7.4, 'lipoC3S1': 3.8, 'temp': 27.25, 'lipoC3S3': 11.71, 'lipoC3S2': 7.75, 'rot1': 15, 'rot0': 17, 'rot3': 58, 'rot2': 45, 'state': 'normal', 'yaw': 74.87, 'datetime': '2018-10-09 14:40:58.185058', 'mgs': 0, 'volt': 0.8594, 'depth': 0.928, 'time': 8, 'pitch': 36.99, 'roll': 21.2, 'pres': 176}
{'lipoC2': 7.4, 'lipoC3S1': 3.88, 'temp': 27.25, 'lipoC3S3': 11.64, 'lipoC3S2': 7.7, 'rot1': 16, 'rot0': 19, 'rot3': 59, 'rot2': 46, 'state': 'normal', 'yaw': 72.39, 'datetime': '2018-10-09 14:40:58.290140', 'mgs': 0, 'volt': 0.8984, 'depth': 1.538, 'time': 8, 'pitch': 37.33, 'roll': 20.11, 'pres': 184}
{'lipoC2': 7.39, 'lipoC3S1': 3.9, 'temp': 27.25, 'lipoC3S3': 11.75, 'lipoC3S2': 7.75, 'rot1': 18, 'rot0': 20, 'rot3': 60, 'rot2': 47, 'state': 'normal', 'yaw': 69.05, 'datetime': '2018-10-09 14:40:58.394590', 'mgs': 0, 'volt': 0.9131, 'depth': 1.767, 'time': 8, 'pitch': 37.97, 'roll': 18.45, 'pres': 187}
{'lipoC2': 7.4, 'lipoC3S1': 3.85, 'temp': 27.25, 'lipoC3S3': 11.64, 'lipoC3S2': 7.71, 'rot1': 19, 'rot0': 21, 'rot3': 61, 'rot2': 48, 'state': 'normal', 'yaw': 65.4, 'datetime': '2018-10-09 14:40:58.498595', 'mgs': 0, 'volt': 0.8545, 'depth': 0.851, 'time': 8, 'pitch': 38.82, 'roll': 16.44, 'pres': 175}
{'lipoC2': 7.4, 'lipoC3S1': 3.81, 'temp': 27.25, 'lipoC3S3': 11.73, 'lipoC3S2': 7.76, 'rot1': 20, 'rot0': 22, 'rot3': 62, 'rot2': 48, 'state': 'normal', 'yaw': 61.24, 'datetime': '2018-10-09 14:40:58.602587', 'mgs': 0, 'volt': 0.8691, 'depth': 1.08, 'time': 8, 'pitch': 39.75, 'roll': 14.01, 'pres': 178}
{'lipoC2': 7.39, 'lipoC3S1': 3.88, 'temp': 27.25, 'lipoC3S3': 11.65, 'lipoC3S2': 7.71, 'rot1': 20, 'rot0': 23, 'rot3': 63, 'rot2': 49, 'state': 'normal', 'yaw': 56.08, 'datetime': '2018-10-09 14:40:58.706602', 'mgs': 0, 'volt': 0.8838, 'depth': 1.309, 'time': 8, 'pitch': 40.68, 'roll': 10.79, 'pres': 181}
{'lipoC2': 7.4, 'lipoC3S1': 3.86, 'temp': 27.25, 'lipoC3S3': 11.71, 'lipoC3S2': 7.69, 'rot1': 21, 'rot0': 25, 'rot3': 64, 'rot2': 50, 'state': 'normal', 'yaw': 50.93, 'datetime': '2018-10-09 14:40:58.811447', 'mgs': 0, 'volt': 0.8838, 'depth': 1.309, 'time': 8, 'pitch': 41.3, 'roll': 7.4, 'pres': 181}
{'lipoC2': 7.4, 'lipoC3S1': 3.81, 'temp': 27.25, 'lipoC3S3': 11.73, 'lipoC3S2': 7.7, 'rot1': 22, 'rot0': 26, 'rot3': 65, 'rot2': 51, 'state': 'normal', 'yaw': 45.58, 'datetime': '2018-10-09 14:40:58.919699', 'mgs': 0, 'volt': 0.8789, 'depth': 1.233, 'time': 9, 'pitch': 41.69, 'roll': 3.85, 'pres': 180}
{'lipoC2': 7.39, 'lipoC3S1': 3.89, 'temp': 27.25, 'lipoC3S3': 11.65, 'lipoC3S2': 7.75, 'rot1': 22, 'rot0': 27, 'rot3': 66, 'rot2': 51, 'state': 'normal', 'yaw': 39.51, 'datetime': '2018-10-09 14:40:59.025467', 'mgs': 0, 'volt': 0.9033, 'depth': 1.614, 'time': 9, 'pitch': 41.83, 'roll': -0.19, 'pres': 185}
{'lipoC2': 7.4, 'lipoC3S1': 3.92, 'temp': 27.25, 'lipoC3S3': 11.63, 'lipoC3S2': 7.72, 'rot1': 22, 'rot0': 28, 'rot3': 66, 'rot2': 52, 'state': 'normal', 'yaw': 33.87, 'datetime': '2018-10-09 14:40:59.130520', 'mgs': 0, 'volt': 0.874, 'depth': 1.157, 'time': 9, 'pitch': 41.62, 'roll': -3.91, 'pres': 179}
{'lipoC2': 7.4, 'lipoC3S1': 3.81, 'temp': 27.25, 'lipoC3S3': 11.73, 'lipoC3S2': 7.72, 'rot1': 22, 'rot0': 29, 'rot3': 67, 'rot2': 53, 'state': 'normal', 'yaw': 27.7, 'datetime': '2018-10-09 14:40:59.234558', 'mgs': 0, 'volt': 0.8984, 'depth': 1.538, 'time': 9, 'pitch': 40.94, 'roll': -7.9, 'pres': 184}
{'lipoC2': 7.39, 'lipoC3S1': 3.87, 'temp': 27.25, 'lipoC3S3': 11.73, 'lipoC3S2': 7.76, 'rot1': 22, 'rot0': 30, 'rot3': 68, 'rot2': 53, 'state': 'normal', 'yaw': 22.29, 'datetime': '2018-10-09 14:40:59.339696', 'mgs': 0, 'volt': 0.8887, 'depth': 1.385, 'time': 9, 'pitch': 39.94, 'roll': -11.4, 'pres': 182}
{'lipoC2': 7.39, 'lipoC3S1': 3.89, 'temp': 27.25, 'lipoC3S3': 11.65, 'lipoC3S2': 7.75, 'rot1': 23, 'rot0': 32, 'rot3': 69, 'rot2': 54, 'state': 'normal', 'yaw': 16.54, 'datetime': '2018-10-09 14:40:59.443951', 'mgs': 0, 'volt': 0.9229, 'depth': 1.92, 'time': 9, 'pitch': 38.67, 'roll': -14.95, 'pres': 189}
{'lipoC2': 7.4, 'lipoC3S1': 3.85, 'temp': 27.25, 'lipoC3S3': 11.63, 'lipoC3S2': 7.71, 'rot1': 23, 'rot0': 33, 'rot3': 70, 'rot2': 55, 'state': 'normal', 'yaw': 11.81, 'datetime': '2018-10-09 14:40:59.547976', 'mgs': 0, 'volt': 0.8936, 'depth': 1.462, 'time': 9, 'pitch': 37.66, 'roll': -17.88, 'pres': 183}
{'lipoC2': 7.4, 'lipoC3S1': 3.85, 'temp': 27.25, 'lipoC3S3': 11.68, 'lipoC3S2': 7.71, 'rot1': 24, 'rot0': 34, 'rot3': 71, 'rot2': 56, 'state': 'normal', 'yaw': 7.72, 'datetime': '2018-10-09 14:40:59.653302', 'mgs': 0, 'volt': 0.8936, 'depth': 1.462, 'time': 9, 'pitch': 36.6, 'roll': -20.47, 'pres': 183}
{'lipoC2': 7.4, 'lipoC3S1': 3.81, 'temp': 27.25, 'lipoC3S3': 11.71, 'lipoC3S2': 7.75, 'rot1': 25, 'rot0': 35, 'rot3': 72, 'rot2': 56, 'state': 'normal', 'yaw': 3.86, 'datetime': '2018-10-09 14:40:59.757249', 'mgs': 0, 'volt': 0.9131, 'depth': 1.767, 'time': 9, 'pitch': 35.17, 'roll': -22.88, 'pres': 187}
{'lipoC2': 7.39, 'lipoC3S1': 3.88, 'temp': 27.31, 'lipoC3S3': 11.65, 'lipoC3S2': 7.7, 'rot1': 26, 'rot0': 36, 'rot3': 72, 'rot2': 57, 'state': 'normal', 'yaw': 0.86, 'datetime': '2018-10-09 14:40:59.861239', 'mgs': 0, 'volt': 0.8984, 'depth': 1.538, 'time': 9, 'pitch': 33.83, 'roll': -24.7, 'pres': 184}
{'lipoC2': 7.4, 'lipoC3S1': 3.85, 'temp': 27.31, 'lipoC3S3': 11.67, 'lipoC3S2': 7.68, 'rot1': 27, 'rot0': 37, 'rot3': 73, 'rot2': 58, 'state': 'normal', 'yaw': -2.06, 'datetime': '2018-10-09 14:40:59.965564', 'mgs': 0, 'volt': 0.9033, 'depth': 1.614, 'time': 10, 'pitch': 32.64, 'roll': -26.4, 'pres': 185}
{'lipoC2': 7.4, 'lipoC3S1': 3.79, 'temp': 27.31, 'lipoC3S3': 11.71, 'lipoC3S2': 7.75, 'rot1': 28, 'rot0': 39, 'rot3': 74, 'rot2': 58, 'state': 'normal', 'yaw': -4.44, 'datetime': '2018-10-09 14:41:00.069888', 'mgs': 0, 'volt': 0.9229, 'depth': 1.92, 'time': 10, 'pitch': 31.78, 'roll': -27.72, 'pres': 189}
{'lipoC2': 7.39, 'lipoC3S1': 3.88, 'temp': 27.31, 'lipoC3S3': 11.63, 'lipoC3S2': 7.73, 'rot1': 29, 'rot0': 40, 'rot3': 75, 'rot2': 59, 'state': 'normal', 'yaw': -6.57, 'datetime': '2018-10-09 14:41:00.172183', 'mgs': 0, 'volt': 0.9521, 'depth': 2.377, 'time': 10, 'pitch': 31.21, 'roll': -28.9, 'pres': 195}
{'lipoC2': 7.39, 'lipoC3S1': 3.88, 'temp': 27.31, 'lipoC3S3': 11.59, 'lipoC3S2': 7.7, 'rot1': 31, 'rot0': 41, 'rot3': 76, 'rot2': 60, 'state': 'normal', 'yaw': -8.68, 'datetime': '2018-10-09 14:41:00.272024', 'mgs': 0, 'volt': 0.9131, 'depth': 1.767, 'time': 10, 'pitch': 30.84, 'roll': -30.1, 'pres': 187}
{'lipoC2': 7.4, 'lipoC3S1': 3.85, 'temp': 27.31, 'lipoC3S3': 11.77, 'lipoC3S2': 7.65, 'rot1': 32, 'rot0': 42, 'rot3': 76, 'rot2': 60, 'state': 'normal', 'yaw': -10.46, 'datetime': '2018-10-09 14:41:00.376072', 'mgs': 0, 'volt': 0.918, 'depth': 1.843, 'time': 10, 'pitch': 30.76, 'roll': -31.06, 'pres': 188}
{'lipoC2': 7.39, 'lipoC3S1': 3.89, 'temp': 27.31, 'lipoC3S3': 11.65, 'lipoC3S2': 7.75, 'rot1': 33, 'rot0': 43, 'rot3': 77, 'rot2': 61, 'state': 'normal', 'yaw': -11.91, 'datetime': '2018-10-09 14:41:00.480756', 'mgs': 0, 'volt': 0.918, 'depth': 1.843, 'time': 10, 'pitch': 30.84, 'roll': -31.81, 'pres': 188}
{'lipoC2': 7.4, 'lipoC3S1': 3.85, 'temp': 27.25, 'lipoC3S3': 11.64, 'lipoC3S2': 7.65, 'rot1': 34, 'rot0': 44, 'rot3': 78, 'rot2': 62, 'state': 'normal', 'yaw': -13.05, 'datetime': '2018-10-09 14:41:00.584872', 'mgs': 0, 'volt': 0.9229, 'depth': 1.92, 'time': 10, 'pitch': 31.09, 'roll': -32.4, 'pres': 189}
{'lipoC2': 7.4, 'lipoC3S1': 3.85, 'temp': 27.25, 'lipoC3S3': 11.6, 'lipoC3S2': 7.71, 'rot1': 35, 'rot0': 45, 'rot3': 78, 'rot2': 62, 'state': 'normal', 'yaw': -13.72, 'datetime': '2018-10-09 14:41:00.690231', 'mgs': 0, 'volt': 0.9277, 'depth': 1.996, 'time': 10, 'pitch': 31.39, 'roll': -32.75, 'pres': 190}
{'lipoC2': 7.4, 'lipoC3S1': 3.9, 'temp': 27.31, 'lipoC3S3': 11.72, 'lipoC3S2': 7.72, 'rot1': 36, 'rot0': 46, 'rot3': 79, 'rot2': 63, 'state': 'normal', 'yaw': -14.1, 'datetime': '2018-10-09 14:41:00.794386', 'mgs': 0, 'volt': 0.9424, 'depth': 2.225, 'time': 10, 'pitch': 31.77, 'roll': -32.95, 'pres': 193}
{'lipoC2': 7.4, 'lipoC3S1': 3.81, 'temp': 27.31, 'lipoC3S3': 11.73, 'lipoC3S2': 7.71, 'rot1': 37, 'rot0': 47, 'rot3': 80, 'rot2': 64, 'state': 'normal', 'yaw': -14.19, 'datetime': '2018-10-09 14:41:00.899729', 'mgs': 0, 'volt': 0.9326, 'depth': 2.072, 'time': 11, 'pitch': 32.12, 'roll': -33.0, 'pres': 191}
{'lipoC2': 7.4, 'lipoC3S1': 3.89, 'temp': 27.31, 'lipoC3S3': 11.72, 'lipoC3S2': 7.75, 'rot1': 38, 'rot0': 48, 'rot3': 81, 'rot2': 64, 'state': 'normal', 'yaw': -14.05, 'datetime': '2018-10-09 14:41:01.003861', 'mgs': 0, 'volt': 0.9717, 'depth': 2.682, 'time': 11, 'pitch': 32.49, 'roll': -32.89, 'pres': 199}
{'lipoC2': 7.39, 'lipoC3S1': 3.88, 'temp': 27.31, 'lipoC3S3': 11.67, 'lipoC3S2': 7.74, 'rot1': 40, 'rot0': 49, 'rot3': 81, 'rot2': 65, 'state': 'normal', 'yaw': -13.7, 'datetime': '2018-10-09 14:41:01.107989', 'mgs': 0, 'volt': 0.9375, 'depth': 2.148, 'time': 11, 'pitch': 32.82, 'roll': -32.71, 'pres': 192}
{'lipoC2': 7.39, 'lipoC3S1': 3.88, 'temp': 27.31, 'lipoC3S3': 11.67, 'lipoC3S2': 7.76, 'rot1': 41, 'rot0': 50, 'rot3': 82, 'rot2': 66, 'state': 'normal', 'yaw': -13.16, 'datetime': '2018-10-09 14:41:01.212348', 'mgs': 0, 'volt': 0.9375, 'depth': 2.148, 'time': 11, 'pitch': 33.11, 'roll': -32.44, 'pres': 192}
{'lipoC2': 7.4, 'lipoC3S1': 3.85, 'temp': 27.31, 'lipoC3S3': 11.69, 'lipoC3S2': 7.67, 'rot1': 42, 'rot0': 50, 'rot3': 83, 'rot2': 66, 'state': 'normal', 'yaw': -12.47, 'datetime': '2018-10-09 14:41:01.316394', 'mgs': 0, 'volt': 0.9375, 'depth': 2.148, 'time': 11, 'pitch': 33.35, 'roll': -32.19, 'pres': 192}
{'lipoC2': 7.4, 'lipoC3S1': 3.8, 'temp': 27.31, 'lipoC3S3': 11.72, 'lipoC3S2': 7.76, 'rot1': 43, 'rot0': 51, 'rot3': 83, 'rot2': 67, 'state': 'normal', 'yaw': -11.72, 'datetime': '2018-10-09 14:41:01.420527', 'mgs': 0, 'volt': 0.9619, 'depth': 2.53, 'time': 11, 'pitch': 33.5, 'roll': -31.98, 'pres': 197}
{'lipoC2': 7.39, 'lipoC3S1': 3.89, 'temp': 27.25, 'lipoC3S3': 11.72, 'lipoC3S2': 7.75, 'rot1': 44, 'rot0': 52, 'rot3': 84, 'rot2': 67, 'state': 'normal', 'yaw': -10.8, 'datetime': '2018-10-09 14:41:01.524696', 'mgs': 0, 'volt': 1.001, 'depth': 3.14, 'time': 11, 'pitch': 33.64, 'roll': -31.69, 'pres': 205}
{'lipoC2': 7.39, 'lipoC3S1': 3.88, 'temp': 27.25, 'lipoC3S3': 11.67, 'lipoC3S2': 7.74, 'rot1': 45, 'rot0': 53, 'rot3': 85, 'rot2': 68, 'state': 'normal', 'yaw': -9.87, 'datetime': '2018-10-09 14:41:01.628794', 'mgs': 0, 'volt': 0.9424, 'depth': 2.225, 'time': 11, 'pitch': 33.77, 'roll': -31.38, 'pres': 193}
{'lipoC2': 7.4, 'lipoC3S1': 3.86, 'temp': 27.31, 'lipoC3S3': 11.68, 'lipoC3S2': 7.67, 'rot1': 46, 'rot0': 54, 'rot3': 85, 'rot2': 69, 'state': 'normal', 'yaw': -8.88, 'datetime': '2018-10-09 14:41:01.733837', 'mgs': 0, 'volt': 0.9424, 'depth': 2.225, 'time': 11, 'pitch': 33.95, 'roll': -31.04, 'pres': 193}
{'lipoC2': 7.4, 'lipoC3S1': 3.8, 'temp': 27.31, 'lipoC3S3': 11.72, 'lipoC3S2': 7.75, 'rot1': 48, 'rot0': 55, 'rot3': 86, 'rot2': 69, 'state': 'normal', 'yaw': -7.69, 'datetime': '2018-10-09 14:41:01.837999', 'mgs': 0, 'volt': 0.9668, 'depth': 2.606, 'time': 11, 'pitch': 34.21, 'roll': -30.58, 'pres': 198}
{'lipoC2': 7.4, 'lipoC3S1': 3.78, 'temp': 27.31, 'lipoC3S3': 11.72, 'lipoC3S2': 7.78, 'rot1': 49, 'rot0': 56, 'rot3': 87, 'rot2': 70, 'state': 'normal', 'yaw': -6.56, 'datetime': '2018-10-09 14:41:01.943387', 'mgs': 0, 'volt': 0.9668, 'depth': 2.606, 'time': 12, 'pitch': 34.5, 'roll': -30.13, 'pres': 198}
{'lipoC2': 7.4, 'lipoC3S1': 3.88, 'temp': 27.31, 'lipoC3S3': 11.69, 'lipoC3S2': 7.75, 'rot1': 50, 'rot0': 57, 'rot3': 87, 'rot2': 70, 'state': 'normal', 'yaw': -5.47, 'datetime': '2018-10-09 14:41:02.047489', 'mgs': 0, 'volt': 1.001, 'depth': 3.14, 'time': 12, 'pitch': 34.91, 'roll': -29.67, 'pres': 205}
{'lipoC2': 7.4, 'lipoC3S1': 3.89, 'temp': 27.31, 'lipoC3S3': 11.72, 'lipoC3S2': 7.76, 'rot1': 51, 'rot0': 58, 'rot3': 88, 'rot2': 71, 'state': 'normal', 'yaw': -4.62, 'datetime': '2018-10-09 14:41:02.152881', 'mgs': 0, 'volt': 1.0156, 'depth': 3.369, 'time': 12, 'pitch': 35.34, 'roll': -29.32, 'pres': 208}
{'lipoC2': 7.39, 'lipoC3S1': 3.89, 'temp': 27.31, 'lipoC3S3': 11.65, 'lipoC3S2': 7.75, 'rot1': 52, 'rot0': 59, 'rot3': 88, 'rot2': 71, 'state': 'normal', 'yaw': -3.86, 'datetime': '2018-10-09 14:41:02.257036', 'mgs': 0, 'volt': 0.9473, 'depth': 2.301, 'time': 12, 'pitch': 35.9, 'roll': -28.91, 'pres': 194}
{'lipoC2': 7.4, 'lipoC3S1': 3.88, 'temp': 27.31, 'lipoC3S3': 11.65, 'lipoC3S2': 7.65, 'rot1': 53, 'rot0': 60, 'rot3': 89, 'rot2': 72, 'state': 'normal', 'yaw': -3.28, 'datetime': '2018-10-09 14:41:02.361186', 'mgs': 0, 'volt': 0.9521, 'depth': 2.377, 'time': 12, 'pitch': 36.4, 'roll': -28.57, 'pres': 195}
{'lipoC2': 7.4, 'lipoC3S1': 3.8, 'temp': 27.31, 'lipoC3S3': 11.72, 'lipoC3S2': 7.75, 'rot1': 54, 'rot0': 61, 'rot3': 90, 'rot2': 73, 'state': 'normal', 'yaw': -2.79, 'datetime': '2018-10-09 14:41:02.465292', 'mgs': 0, 'volt': 0.9766, 'depth': 2.759, 'time': 12, 'pitch': 36.87, 'roll': -28.27, 'pres': 200}
{'lipoC2': 7.4, 'lipoC3S1': 3.88, 'temp': 27.31, 'lipoC3S3': 11.71, 'lipoC3S2': 7.75, 'rot1': 56, 'rot0': 62, 'rot3': 90, 'rot2': 73, 'state': 'normal', 'yaw': -2.34, 'datetime': '2018-10-09 14:41:02.569485', 'mgs': 0, 'volt': 1.0059, 'depth': 3.217, 'time': 12, 'pitch': 37.33, 'roll': -28.09, 'pres': 206}
{'lipoC2': 7.39, 'lipoC3S1': 3.88, 'temp': 27.31, 'lipoC3S3': 11.48, 'lipoC3S2': 7.75, 'rot1': 57, 'rot0': 63, 'rot3': 91, 'rot2': 74, 'state': 'normal', 'yaw': -2.14, 'datetime': '2018-10-09 14:41:02.673562', 'mgs': 0, 'volt': 0.9619, 'depth': 2.53, 'time': 12, 'pitch': 37.75, 'roll': -28.0, 'pres': 197}
{'lipoC2': 7.4, 'lipoC3S1': 3.9, 'temp': 27.31, 'lipoC3S3': 11.67, 'lipoC3S2': 7.59, 'rot1': 58, 'rot0': 64, 'rot3': 91, 'rot2': 74, 'state': 'normal', 'yaw': -2.19, 'datetime': '2018-10-09 14:41:02.782971', 'mgs': 0, 'volt': 0.9619, 'depth': 2.53, 'time': 12, 'pitch': 38.21, 'roll': -28.04, 'pres': 197}
{'lipoC2': 7.4, 'lipoC3S1': 3.8, 'temp': 27.31, 'lipoC3S3': 11.72, 'lipoC3S2': 7.75, 'rot1': 59, 'rot0': 65, 'rot3': 92, 'rot2': 75, 'state': 'normal', 'yaw': -2.44, 'datetime': '2018-10-09 14:41:02.881849', 'mgs': 0, 'volt': 0.9766, 'depth': 2.759, 'time': 13, 'pitch': 38.64, 'roll': -28.19, 'pres': 200}
{'lipoC2': 7.4, 'lipoC3S1': 3.86, 'temp': 27.31, 'lipoC3S3': 11.72, 'lipoC3S2': 7.71, 'rot1': 60, 'rot0': 67, 'rot3': 93, 'rot2': 75, 'state': 'normal', 'yaw': -2.77, 'datetime': '2018-10-09 14:41:02.989248', 'mgs': 0, 'volt': 0.9668, 'depth': 2.606, 'time': 13, 'pitch': 39.06, 'roll': -28.4, 'pres': 198}
{'lipoC2': 7.4, 'lipoC3S1': 3.87, 'temp': 27.31, 'lipoC3S3': 11.71, 'lipoC3S2': 7.75, 'rot1': 61, 'rot0': 68, 'rot3': 93, 'rot2': 76, 'state': 'normal', 'yaw': -3.31, 'datetime': '2018-10-09 14:41:03.091413', 'mgs': 0, 'volt': 0.9912, 'depth': 2.988, 'time': 13, 'pitch': 39.45, 'roll': -28.75, 'pres': 203}
{'lipoC2': 7.4, 'lipoC3S1': 3.82, 'temp': 27.31, 'lipoC3S3': 11.71, 'lipoC3S2': 7.75, 'rot1': 63, 'rot0': 69, 'rot3': 94, 'rot2': 77, 'state': 'normal', 'yaw': -3.89, 'datetime': '2018-10-09 14:41:03.196750', 'mgs': 0, 'volt': 0.9814, 'depth': 2.835, 'time': 13, 'pitch': 39.75, 'roll': -29.11, 'pres': 201}
{'lipoC2': 7.4, 'lipoC3S1': 3.88, 'temp': 27.31, 'lipoC3S3': 11.69, 'lipoC3S2': 7.74, 'rot1': 64, 'rot0': 70, 'rot3': 95, 'rot2': 77, 'state': 'normal', 'yaw': -4.5, 'datetime': '2018-10-09 14:41:03.300898', 'mgs': 0, 'volt': 1.001, 'depth': 3.14, 'time': 13, 'pitch': 39.99, 'roll': -29.5, 'pres': 205}
{'lipoC2': 7.4, 'lipoC3S1': 3.88, 'temp': 27.31, 'lipoC3S3': 11.71, 'lipoC3S2': 7.75, 'rot1': 65, 'rot0': 72, 'rot3': 95, 'rot2': 78, 'state': 'normal', 'yaw': -5.06, 'datetime': '2018-10-09 14:41:03.406285', 'mgs': 0, 'volt': 1.0205, 'depth': 3.445, 'time': 13, 'pitch': 40.11, 'roll': -29.87, 'pres': 209}
{'lipoC2': 7.39, 'lipoC3S1': 3.88, 'temp': 27.31, 'lipoC3S3': 11.69, 'lipoC3S2': 7.75, 'rot1': 66, 'rot0': 73, 'rot3': 96, 'rot2': 78, 'state': 'normal', 'yaw': -5.69, 'datetime': '2018-10-09 14:41:03.510382', 'mgs': 0, 'volt': 0.9717, 'depth': 2.682, 'time': 13, 'pitch': 40.18, 'roll': -30.27, 'pres': 199}
{'lipoC2': 7.4, 'lipoC3S1': 3.88, 'temp': 27.31, 'lipoC3S3': 11.69, 'lipoC3S2': 7.6, 'rot1': 67, 'rot0': 74, 'rot3': 96, 'rot2': 79, 'state': 'normal', 'yaw': -6.12, 'datetime': '2018-10-09 14:41:03.614499', 'mgs': 0, 'volt': 0.9717, 'depth': 2.682, 'time': 13, 'pitch': 40.21, 'roll': -30.55, 'pres': 199}
{'lipoC2': 7.4, 'lipoC3S1': 3.86, 'temp': 27.31, 'lipoC3S3': 11.72, 'lipoC3S2': 7.75, 'rot1': 68, 'rot0': 75, 'rot3': 97, 'rot2': 79, 'state': 'normal', 'yaw': -6.32, 'datetime': '2018-10-09 14:41:03.719466', 'mgs': 0, 'volt': 1.0156, 'depth': 3.369, 'time': 13, 'pitch': 40.2, 'roll': -30.68, 'pres': 208}
{'lipoC2': 7.39, 'lipoC3S1': 3.88, 'temp': 27.31, 'lipoC3S3': 11.63, 'lipoC3S2': 7.74, 'rot1': 69, 'rot0': 76, 'rot3': 97, 'rot2': 80, 'state': 'normal', 'yaw': -6.3, 'datetime': '2018-10-09 14:41:03.823599', 'mgs': 0, 'volt': 0.9521, 'depth': 2.377, 'time': 13, 'pitch': 40.15, 'roll': -30.68, 'pres': 195}
{'lipoC2': 7.4, 'lipoC3S1': 3.88, 'temp': 27.31, 'lipoC3S3': 11.64, 'lipoC3S2': 7.64, 'rot1': 71, 'rot0': 77, 'rot3': 98, 'rot2': 80, 'state': 'normal', 'yaw': -6.12, 'datetime': '2018-10-09 14:41:03.927682', 'mgs': 0, 'volt': 0.9717, 'depth': 2.682, 'time': 14, 'pitch': 40.05, 'roll': -30.55, 'pres': 199}
{'lipoC2': 7.4, 'lipoC3S1': 3.8, 'temp': 27.31, 'lipoC3S3': 11.72, 'lipoC3S2': 7.75, 'rot1': 72, 'rot0': 78, 'rot3': 98, 'rot2': 81, 'state': 'normal', 'yaw': -5.72, 'datetime': '2018-10-09 14:41:04.031788', 'mgs': 0, 'volt': 0.9668, 'depth': 2.606, 'time': 14, 'pitch': 39.97, 'roll': -30.31, 'pres': 198}
{'lipoC2': 7.4, 'lipoC3S1': 3.89, 'temp': 27.31, 'lipoC3S3': 11.71, 'lipoC3S2': 7.75, 'rot1': 73, 'rot0': 79, 'rot3': 99, 'rot2': 81, 'state': 'normal', 'yaw': -5.25, 'datetime': '2018-10-09 14:41:04.135855', 'mgs': 0, 'volt': 1.0205, 'depth': 3.445, 'time': 14, 'pitch': 39.92, 'roll': -30.03, 'pres': 209}
{'lipoC2': 7.39, 'lipoC3S1': 3.88, 'temp': 27.31, 'lipoC3S3': 11.56, 'lipoC3S2': 7.74, 'rot1': 74, 'rot0': 80, 'rot3': 100, 'rot2': 82, 'state': 'normal', 'yaw': -4.69, 'datetime': '2018-10-09 14:41:04.241219', 'mgs': 0, 'volt': 0.9717, 'depth': 2.682, 'time': 14, 'pitch': 39.88, 'roll': -29.77, 'pres': 199}
{'lipoC2': 7.4, 'lipoC3S1': 3.88, 'temp': 27.31, 'lipoC3S3': 11.6, 'lipoC3S2': 7.7, 'rot1': 75, 'rot0': 81, 'rot3': 100, 'rot2': 82, 'state': 'normal', 'yaw': -3.96, 'datetime': '2018-10-09 14:41:04.345331', 'mgs': 0, 'volt': 0.9717, 'depth': 2.682, 'time': 14, 'pitch': 39.9, 'roll': -29.47, 'pres': 199}
{'lipoC2': 7.39, 'lipoC3S1': 3.88, 'temp': 27.31, 'lipoC3S3': 11.63, 'lipoC3S2': 7.73, 'rot1': 76, 'rot0': 82, 'rot3': 101, 'rot2': 83, 'state': 'normal', 'yaw': -3.29, 'datetime': '2018-10-09 14:41:04.450874', 'mgs': 0, 'volt': 0.9717, 'depth': 2.682, 'time': 14, 'pitch': 39.92, 'roll': -29.25, 'pres': 199}
{'lipoC2': 7.4, 'lipoC3S1': 3.88, 'temp': 27.31, 'lipoC3S3': 11.56, 'lipoC3S2': 7.69, 'rot1': 77, 'rot0': 83, 'rot3': 101, 'rot2': 84, 'state': 'normal', 'yaw': -2.81, 'datetime': '2018-10-09 14:41:04.555111', 'mgs': 0, 'volt': 0.9717, 'depth': 2.682, 'time': 14, 'pitch': 39.94, 'roll': -29.2, 'pres': 199}
{'lipoC2': 7.38, 'lipoC3S1': 3.88, 'temp': 27.25, 'lipoC3S3': 11.63, 'lipoC3S2': 7.74, 'rot1': 79, 'rot0': 84, 'rot3': 102, 'rot2': 84, 'state': 'normal', 'yaw': -2.6, 'datetime': '2018-10-09 14:41:04.660651', 'mgs': 0, 'volt': 0.9717, 'depth': 2.682, 'time': 14, 'pitch': 39.99, 'roll': -29.26, 'pres': 199}
{'lipoC2': 7.39, 'lipoC3S1': 3.88, 'temp': 27.25, 'lipoC3S3': 11.5, 'lipoC3S2': 7.73, 'rot1': 80, 'rot0': 86, 'rot3': 103, 'rot2': 85, 'state': 'normal', 'yaw': -2.52, 'datetime': '2018-10-09 14:41:04.764840', 'mgs': 0, 'volt': 0.9717, 'depth': 2.682, 'time': 14, 'pitch': 40.04, 'roll': -29.36, 'pres': 199}
{'lipoC2': 7.4, 'lipoC3S1': 3.87, 'temp': 27.25, 'lipoC3S3': 11.61, 'lipoC3S2': 7.73, 'rot1': 81, 'rot0': 87, 'rot3': 103, 'rot2': 85, 'state': 'normal', 'yaw': -2.59, 'datetime': '2018-10-09 14:41:04.869265', 'mgs': 0, 'volt': 0.9717, 'depth': 2.682, 'time': 14, 'pitch': 40.09, 'roll': -29.43, 'pres': 199}
{'lipoC2': 7.39, 'lipoC3S1': 3.88, 'temp': 27.25, 'lipoC3S3': 11.63, 'lipoC3S2': 7.73, 'rot1': 82, 'rot0': 88, 'rot3': 104, 'rot2': 86, 'state': 'normal', 'yaw': -2.75, 'datetime': '2018-10-09 14:41:04.973680', 'mgs': 0, 'volt': 0.9717, 'depth': 2.682, 'time': 15, 'pitch': 40.11, 'roll': -29.53, 'pres': 199}
{'lipoC2': 7.4, 'lipoC3S1': 3.88, 'temp': 27.25, 'lipoC3S3': 11.59, 'lipoC3S2': 7.7, 'rot1': 83, 'rot0': 89, 'rot3': 104, 'rot2': 86, 'state': 'normal', 'yaw': -2.96, 'datetime': '2018-10-09 14:41:05.077906', 'mgs': 0, 'volt': 0.9717, 'depth': 2.682, 'time': 15, 'pitch': 40.14, 'roll': -29.57, 'pres': 199}
{'lipoC2': 7.39, 'lipoC3S1': 3.88, 'temp': 27.31, 'lipoC3S3': 11.63, 'lipoC3S2': 7.73, 'rot1': 84, 'rot0': 90, 'rot3': 105, 'rot2': 87, 'state': 'normal', 'yaw': -3.16, 'datetime': '2018-10-09 14:41:05.183456', 'mgs': 0, 'volt': 0.9717, 'depth': 2.682, 'time': 15, 'pitch': 40.16, 'roll': -29.6, 'pres': 199}
{'lipoC2': 7.4, 'lipoC3S1': 3.88, 'temp': 27.31, 'lipoC3S3': 11.51, 'lipoC3S2': 7.69, 'rot1': 85, 'rot0': 92, 'rot3': 106, 'rot2': 87, 'state': 'normal', 'yaw': -3.36, 'datetime': '2018-10-09 14:41:05.287712', 'mgs': 0, 'volt': 0.9717, 'depth': 2.682, 'time': 15, 'pitch': 40.16, 'roll': -29.72, 'pres': 199}
{'lipoC2': 7.38, 'lipoC3S1': 3.88, 'temp': 27.31, 'lipoC3S3': 11.61, 'lipoC3S2': 7.73, 'rot1': 87, 'rot0': 93, 'rot3': 106, 'rot2': 88, 'state': 'normal', 'yaw': -3.56, 'datetime': '2018-10-09 14:41:05.393216', 'mgs': 0, 'volt': 0.9912, 'depth': 2.988, 'time': 15, 'pitch': 40.15, 'roll': -29.84, 'pres': 203}
{'lipoC2': 7.39, 'lipoC3S1': 3.88, 'temp': 27.31, 'lipoC3S3': 11.5, 'lipoC3S2': 7.75, 'rot1': 88, 'rot0': 94, 'rot3': 107, 'rot2': 88, 'state': 'normal', 'yaw': -3.7, 'datetime': '2018-10-09 14:41:05.497472', 'mgs': 0, 'volt': 0.9766, 'depth': 2.759, 'time': 15, 'pitch': 40.11, 'roll': -30.0, 'pres': 200}
{'lipoC2': 7.4, 'lipoC3S1': 3.88, 'temp': 27.31, 'lipoC3S3': 11.69, 'lipoC3S2': 7.74, 'rot1': 89, 'rot0': 95, 'rot3': 107, 'rot2': 89, 'state': 'normal', 'yaw': -3.79, 'datetime': '2018-10-09 14:41:05.602967', 'mgs': 0, 'volt': 1.001, 'depth': 3.14, 'time': 15, 'pitch': 40.07, 'roll': -30.15, 'pres': 205}
{'lipoC2': 7.39, 'lipoC3S1': 3.88, 'temp': 27.31, 'lipoC3S3': 11.65, 'lipoC3S2': 7.73, 'rot1': 90, 'rot0': 96, 'rot3': 108, 'rot2': 90, 'state': 'normal', 'yaw': -3.81, 'datetime': '2018-10-09 14:41:05.707178', 'mgs': 0, 'volt': 0.9766, 'depth': 2.759, 'time': 15, 'pitch': 40.06, 'roll': -30.3, 'pres': 200}
{'lipoC2': 7.39, 'lipoC3S1': 3.88, 'temp': 27.31, 'lipoC3S3': 11.73, 'lipoC3S2': 7.74, 'rot1': 91, 'rot0': 97, 'rot3': 109, 'rot2': 90, 'state': 'normal', 'yaw': -3.82, 'datetime': '2018-10-09 14:41:05.812692', 'mgs': 0, 'volt': 0.9912, 'depth': 2.988, 'time': 15, 'pitch': 40.05, 'roll': -30.42, 'pres': 203}
{'lipoC2': 7.39, 'lipoC3S1': 3.88, 'temp': 27.31, 'lipoC3S3': 11.52, 'lipoC3S2': 7.73, 'rot1': 92, 'rot0': 99, 'rot3': 109, 'rot2': 91, 'state': 'normal', 'yaw': -3.91, 'datetime': '2018-10-09 14:41:05.916909', 'mgs': 0, 'volt': 0.9766, 'depth': 2.759, 'time': 16, 'pitch': 40.02, 'roll': -30.56, 'pres': 200}
{'lipoC2': 7.4, 'lipoC3S1': 3.87, 'temp': 27.31, 'lipoC3S3': 11.65, 'lipoC3S2': 7.58, 'rot1': 94, 'rot0': 100, 'rot3': 110, 'rot2': 91, 'state': 'normal', 'yaw': -4.02, 'datetime': '2018-10-09 14:41:06.021280', 'mgs': 0, 'volt': 0.9766, 'depth': 2.759, 'time': 16, 'pitch': 39.98, 'roll': -30.64, 'pres': 200}
{'lipoC2': 7.4, 'lipoC3S1': 3.9, 'temp': 27.31, 'lipoC3S3': 11.77, 'lipoC3S2': 7.79, 'rot1': 94, 'rot0': 101, 'rot3': 110, 'rot2': 92, 'state': 'normal', 'yaw': -4.11, 'datetime': '2018-10-09 14:41:11.582798', 'mgs': 0, 'volt': 0.9814, 'depth': 2.835, 'time': 16, 'pitch': 39.9, 'roll': -30.66, 'pres': 201}
{'lipoC2': 7.4, 'lipoC3S1': 3.9, 'temp': 27.31, 'lipoC3S3': 11.79, 'lipoC3S2': 7.79, 'rot1': 94, 'rot0': 101, 'rot3': 110, 'rot2': 92, 'state': 'normal', 'yaw': -3.88, 'datetime': '2018-10-09 14:41:11.613375', 'mgs': 0, 'volt': 0.9766, 'depth': 2.759, 'time': 16, 'pitch': 39.35, 'roll': -30.4, 'pres': 200}
{'lipoC2': 7.4, 'lipoC3S1': 3.9, 'temp': 27.31, 'lipoC3S3': 11.79, 'lipoC3S2': 7.79, 'rot1': 94, 'rot0': 101, 'rot3': 110, 'rot2': 92, 'state': 'normal', 'yaw': -3.35, 'datetime': '2018-10-09 14:41:11.644026', 'mgs': 0, 'volt': 0.9766, 'depth': 2.759, 'time': 16, 'pitch': 38.46, 'roll': -29.94, 'pres': 200}
{'lipoC2': 7.4, 'lipoC3S1': 3.9, 'temp': 27.31, 'lipoC3S3': 11.79, 'lipoC3S2': 7.79, 'rot1': 94, 'rot0': 101, 'rot3': 110, 'rot2': 92, 'state': 'normal', 'yaw': -2.56, 'datetime': '2018-10-09 14:41:11.662528', 'mgs': 0, 'volt': 0.9766, 'depth': 2.759, 'time': 16, 'pitch': 37.2, 'roll': -29.3, 'pres': 200}
{'lipoC2': 7.4, 'lipoC3S1': 3.9, 'temp': 27.31, 'lipoC3S3': 11.79, 'lipoC3S2': 7.79, 'rot1': 94, 'rot0': 101, 'rot3': 110, 'rot2': 92, 'state': 'normal', 'yaw': -1.77, 'datetime': '2018-10-09 14:41:11.678608', 'mgs': 0, 'volt': 0.9766, 'depth': 2.759, 'time': 16, 'pitch': 35.92, 'roll': -28.68, 'pres': 200}
{'lipoC2': 7.4, 'lipoC3S1': 3.9, 'temp': 27.31, 'lipoC3S3': 11.76, 'lipoC3S2': 7.78, 'rot1': 95, 'rot0': 101, 'rot3': 110, 'rot2': 92, 'state': 'normal', 'yaw': -0.94, 'datetime': '2018-10-09 14:41:11.694670', 'mgs': 0, 'volt': 0.9717, 'depth': 2.682, 'time': 16, 'pitch': 34.56, 'roll': -28.08, 'pres': 199}
{'lipoC2': 7.4, 'lipoC3S1': 3.9, 'temp': 27.31, 'lipoC3S3': 11.76, 'lipoC3S2': 7.78, 'rot1': 95, 'rot0': 102, 'rot3': 110, 'rot2': 92, 'state': 'normal', 'yaw': -0.01, 'datetime': '2018-10-09 14:41:11.710688', 'mgs': 0, 'volt': 1.0156, 'depth': 3.369, 'time': 16, 'pitch': 32.81, 'roll': -27.48, 'pres': 208}
{'lipoC2': 7.4, 'lipoC3S1': 3.92, 'temp': 27.31, 'lipoC3S3': 11.76, 'lipoC3S2': 7.78, 'rot1': 96, 'rot0': 103, 'rot3': 110, 'rot2': 92, 'state': 'normal', 'yaw': 0.73, 'datetime': '2018-10-09 14:41:11.726914', 'mgs': 0, 'volt': 0.9668, 'depth': 2.606, 'time': 16, 'pitch': 31.23, 'roll': -27.08, 'pres': 198}
{'lipoC2': 7.4, 'lipoC3S1': 3.85, 'temp': 27.31, 'lipoC3S3': 11.77, 'lipoC3S2': 7.78, 'rot1': 97, 'rot0': 104, 'rot3': 110, 'rot2': 92, 'state': 'normal', 'yaw': 1.37, 'datetime': '2018-10-09 14:41:11.743024', 'mgs': 0, 'volt': 0.9668, 'depth': 2.606, 'time': 17, 'pitch': 29.63, 'roll': -26.85, 'pres': 198}
{'lipoC2': 7.4, 'lipoC3S1': 3.89, 'temp': 27.31, 'lipoC3S3': 11.75, 'lipoC3S2': 7.78, 'rot1': 98, 'rot0': 105, 'rot3': 110, 'rot2': 92, 'state': 'normal', 'yaw': 1.8, 'datetime': '2018-10-09 14:41:11.759086', 'mgs': 0, 'volt': 0.9619, 'depth': 2.53, 'time': 17, 'pitch': 28.35, 'roll': -26.79, 'pres': 197}
{'lipoC2': 7.4, 'lipoC3S1': 3.9, 'temp': 27.31, 'lipoC3S3': 11.77, 'lipoC3S2': 7.71, 'rot1': 99, 'rot0': 106, 'rot3': 110, 'rot2': 92, 'state': 'normal', 'yaw': 2.07, 'datetime': '2018-10-09 14:41:11.775163', 'mgs': 0, 'volt': 0.9619, 'depth': 2.53, 'time': 17, 'pitch': 27.16, 'roll': -26.89, 'pres': 197}
{'lipoC2': 7.4, 'lipoC3S1': 3.89, 'temp': 27.31, 'lipoC3S3': 11.77, 'lipoC3S2': 7.72, 'rot1': 100, 'rot0': 107, 'rot3': 110, 'rot2': 92, 'state': 'normal', 'yaw': 2.18, 'datetime': '2018-10-09 14:41:11.791314', 'mgs': 0, 'volt': 0.957, 'depth': 2.454, 'time': 17, 'pitch': 26.34, 'roll': -27.04, 'pres': 196}
{'lipoC2': 7.4, 'lipoC3S1': 3.9, 'temp': 27.31, 'lipoC3S3': 11.77, 'lipoC3S2': 7.7, 'rot1': 101, 'rot0': 108, 'rot3': 110, 'rot2': 92, 'state': 'normal', 'yaw': 2.15, 'datetime': '2018-10-09 14:41:11.807419', 'mgs': 0, 'volt': 0.957, 'depth': 2.454, 'time': 17, 'pitch': 25.74, 'roll': -27.24, 'pres': 196}
{'lipoC2': 7.4, 'lipoC3S1': 3.89, 'temp': 27.31, 'lipoC3S3': 11.73, 'lipoC3S2': 7.77, 'rot1': 102, 'rot0': 109, 'rot3': 110, 'rot2': 92, 'state': 'normal', 'yaw': 1.98, 'datetime': '2018-10-09 14:41:11.823457', 'mgs': 0, 'volt': 0.957, 'depth': 2.454, 'time': 17, 'pitch': 25.34, 'roll': -27.46, 'pres': 196}
{'lipoC2': 7.4, 'lipoC3S1': 3.82, 'temp': 27.31, 'lipoC3S3': 11.67, 'lipoC3S2': 7.68, 'rot1': 103, 'rot0': 110, 'rot3': 110, 'rot2': 92, 'state': 'normal', 'yaw': 1.71, 'datetime': '2018-10-09 14:41:11.839541', 'mgs': 0, 'volt': 0.9521, 'depth': 2.377, 'time': 17, 'pitch': 25.2, 'roll': -27.68, 'pres': 195}
