{'lipoC2': 7.34, 'lipoC3S1': 3.89, 'temp': 26.63, 'lipoC3S3': 11.76, 'lipoC3S2': 7.78, 'rot1': 70, 'rot0': 75, 'rot3': 70, 'rot2': 64, 'state': 'normal', 'yaw': -6.31, 'datetime': '2018-10-09 19:55:51.034341', 'mgs': 0, 'volt': 1.0303, 'depth': 3.598, 'time': 118, 'pitch': -3.28, 'roll': -1.44, 'pres': 211}
{'lipoC2': 7.34, 'lipoC3S1': 3.89, 'temp': 26.63, 'lipoC3S3': 11.77, 'lipoC3S2': 7.78, 'rot1': 70, 'rot0': 75, 'rot3': 70, 'rot2': 64, 'state': 'normal', 'yaw': -6.31, 'datetime': '2018-10-09 19:55:54.067940', 'mgs': 0, 'volt': 1.0303, 'depth': 3.598, 'time': 118, 'pitch': -3.28, 'roll': -1.44, 'pres': 211}
{'lipoC2': 7.34, 'lipoC3S1': 3.89, 'temp': 26.63, 'lipoC3S3': 11.76, 'lipoC3S2': 7.78, 'rot1': 70, 'rot0': 75, 'rot3': 70, 'rot2': 64, 'state': 'normal', 'yaw': -6.31, 'datetime': '2018-10-09 19:55:54.111074', 'mgs': 0, 'volt': 1.0303, 'depth': 3.598, 'time': 118, 'pitch': -3.34, 'roll': -1.45, 'pres': 211}
{'lipoC2': 7.34, 'lipoC3S1': 3.89, 'temp': 26.63, 'lipoC3S3': 11.76, 'lipoC3S2': 7.78, 'rot1': 70, 'rot0': 75, 'rot3': 70, 'rot2': 64, 'state': 'normal', 'yaw': -6.3, 'datetime': '2018-10-09 19:55:54.151522', 'mgs': 0, 'volt': 1.0303, 'depth': 3.598, 'time': 119, 'pitch': -3.41, 'roll': -1.44, 'pres': 211}
{'lipoC2': 7.34, 'lipoC3S1': 3.89, 'temp': 26.69, 'lipoC3S3': 11.77, 'lipoC3S2': 7.78, 'rot1': 70, 'rot0': 75, 'rot3': 70, 'rot2': 64, 'state': 'normal', 'yaw': -6.3, 'datetime': '2018-10-09 19:55:54.172389', 'mgs': 0, 'volt': 1.0303, 'depth': 3.598, 'time': 119, 'pitch': -3.52, 'roll': -1.45, 'pres': 211}
{'lipoC2': 7.34, 'lipoC3S1': 3.89, 'temp': 26.69, 'lipoC3S3': 11.76, 'lipoC3S2': 7.78, 'rot1': 70, 'rot0': 75, 'rot3': 70, 'rot2': 64, 'state': 'normal', 'yaw': -6.29, 'datetime': '2018-10-09 19:55:54.191902', 'mgs': 0, 'volt': 1.0303, 'depth': 3.598, 'time': 119, 'pitch': -3.66, 'roll': -1.45, 'pres': 211}
{'lipoC2': 7.34, 'lipoC3S1': 3.89, 'temp': 26.69, 'lipoC3S3': 11.76, 'lipoC3S2': 7.78, 'rot1': 70, 'rot0': 75, 'rot3': 70, 'rot2': 64, 'state': 'normal', 'yaw': -6.29, 'datetime': '2018-10-09 19:55:54.211728', 'mgs': 0, 'volt': 1.0303, 'depth': 3.598, 'time': 119, 'pitch': -3.79, 'roll': -1.44, 'pres': 211}
{'lipoC2': 7.34, 'lipoC3S1': 3.89, 'temp': 26.69, 'lipoC3S3': 11.76, 'lipoC3S2': 7.78, 'rot1': 70, 'rot0': 75, 'rot3': 70, 'rot2': 64, 'state': 'normal', 'yaw': -6.29, 'datetime': '2018-10-09 19:55:54.231501', 'mgs': 0, 'volt': 1.0303, 'depth': 3.598, 'time': 119, 'pitch': -3.92, 'roll': -1.43, 'pres': 211}
{'lipoC2': 7.34, 'lipoC3S1': 3.89, 'temp': 26.69, 'lipoC3S3': 11.77, 'lipoC3S2': 7.78, 'rot1': 70, 'rot0': 75, 'rot3': 70, 'rot2': 64, 'state': 'normal', 'yaw': -6.28, 'datetime': '2018-10-09 19:55:54.251366', 'mgs': 0, 'volt': 1.0254, 'depth': 3.522, 'time': 119, 'pitch': -4.02, 'roll': -1.4, 'pres': 210}
{'lipoC2': 7.35, 'lipoC3S1': 3.89, 'temp': 26.69, 'lipoC3S3': 11.76, 'lipoC3S2': 7.78, 'rot1': 70, 'rot0': 75, 'rot3': 70, 'rot2': 64, 'state': 'normal', 'yaw': -6.28, 'datetime': '2018-10-09 19:55:54.271817', 'mgs': 0, 'volt': 1.0254, 'depth': 3.522, 'time': 119, 'pitch': -4.09, 'roll': -1.33, 'pres': 210}
{'lipoC2': 7.34, 'lipoC3S1': 3.89, 'temp': 26.69, 'lipoC3S3': 11.76, 'lipoC3S2': 7.77, 'rot1': 70, 'rot0': 75, 'rot3': 70, 'rot2': 64, 'state': 'normal', 'yaw': -6.28, 'datetime': '2018-10-09 19:55:54.290935', 'mgs': 0, 'volt': 1.0254, 'depth': 3.522, 'time': 119, 'pitch': -4.11, 'roll': -1.3, 'pres': 210}
{'lipoC2': 7.34, 'lipoC3S1': 3.89, 'temp': 26.69, 'lipoC3S3': 11.76, 'lipoC3S2': 7.78, 'rot1': 70, 'rot0': 75, 'rot3': 70, 'rot2': 64, 'state': 'normal', 'yaw': -6.28, 'datetime': '2018-10-09 19:55:54.311088', 'mgs': 0, 'volt': 1.0254, 'depth': 3.522, 'time': 119, 'pitch': -4.18, 'roll': -1.28, 'pres': 210}
{'lipoC2': 7.34, 'lipoC3S1': 3.89, 'temp': 26.69, 'lipoC3S3': 11.76, 'lipoC3S2': 7.77, 'rot1': 70, 'rot0': 75, 'rot3': 70, 'rot2': 64, 'state': 'normal', 'yaw': -6.28, 'datetime': '2018-10-09 19:55:54.330985', 'mgs': 0, 'volt': 1.0254, 'depth': 3.522, 'time': 119, 'pitch': -4.22, 'roll': -1.25, 'pres': 210}
{'lipoC2': 7.34, 'lipoC3S1': 3.89, 'temp': 26.69, 'lipoC3S3': 11.76, 'lipoC3S2': 7.78, 'rot1': 70, 'rot0': 75, 'rot3': 70, 'rot2': 64, 'state': 'normal', 'yaw': -6.28, 'datetime': '2018-10-09 19:55:54.350729', 'mgs': 0, 'volt': 1.0254, 'depth': 3.522, 'time': 120, 'pitch': -4.22, 'roll': -1.25, 'pres': 210}
{'lipoC2': 7.34, 'lipoC3S1': 3.89, 'temp': 26.69, 'lipoC3S3': 11.76, 'lipoC3S2': 7.77, 'rot1': 70, 'rot0': 75, 'rot3': 70, 'rot2': 64, 'state': 'normal', 'yaw': -6.28, 'datetime': '2018-10-09 19:55:54.370888', 'mgs': 0, 'volt': 1.0254, 'depth': 3.522, 'time': 120, 'pitch': -4.2, 'roll': -1.26, 'pres': 210}
{'lipoC2': 7.34, 'lipoC3S1': 3.89, 'temp': 26.69, 'lipoC3S3': 11.76, 'lipoC3S2': 7.77, 'rot1': 70, 'rot0': 75, 'rot3': 70, 'rot2': 64, 'state': 'normal', 'yaw': -6.29, 'datetime': '2018-10-09 19:55:54.390033', 'mgs': 0, 'volt': 1.0254, 'depth': 3.522, 'time': 120, 'pitch': -4.1, 'roll': -1.26, 'pres': 210}
{'lipoC2': 7.34, 'lipoC3S1': 3.89, 'temp': 26.69, 'lipoC3S3': 11.76, 'lipoC3S2': 7.77, 'rot1': 70, 'rot0': 75, 'rot3': 70, 'rot2': 64, 'state': 'normal', 'yaw': -6.29, 'datetime': '2018-10-09 19:55:54.410117', 'mgs': 0, 'volt': 1.0254, 'depth': 3.522, 'time': 120, 'pitch': -3.96, 'roll': -1.26, 'pres': 210}
{'lipoC2': 7.34, 'lipoC3S1': 3.89, 'temp': 26.69, 'lipoC3S3': 11.76, 'lipoC3S2': 7.77, 'rot1': 70, 'rot0': 75, 'rot3': 70, 'rot2': 64, 'state': 'normal', 'yaw': -6.29, 'datetime': '2018-10-09 19:55:54.429967', 'mgs': 0, 'volt': 1.0205, 'depth': 3.445, 'time': 120, 'pitch': -3.77, 'roll': -1.33, 'pres': 209}
{'lipoC2': 7.34, 'lipoC3S1': 3.89, 'temp': 26.69, 'lipoC3S3': 11.76, 'lipoC3S2': 7.77, 'rot1': 70, 'rot0': 75, 'rot3': 70, 'rot2': 64, 'state': 'normal', 'yaw': -6.3, 'datetime': '2018-10-09 19:55:54.449755', 'mgs': 0, 'volt': 1.0205, 'depth': 3.445, 'time': 120, 'pitch': -3.56, 'roll': -1.42, 'pres': 209}
{'lipoC2': 7.34, 'lipoC3S1': 3.89, 'temp': 26.69, 'lipoC3S3': 11.76, 'lipoC3S2': 7.77, 'rot1': 70, 'rot0': 75, 'rot3': 70, 'rot2': 64, 'state': 'normal', 'yaw': -6.3, 'datetime': '2018-10-09 19:55:54.469546', 'mgs': 0, 'volt': 1.0254, 'depth': 3.522, 'time': 120, 'pitch': -3.32, 'roll': -1.52, 'pres': 210}
{'lipoC2': 7.34, 'lipoC3S1': 3.89, 'temp': 26.69, 'lipoC3S3': 11.76, 'lipoC3S2': 7.77, 'rot1': 70, 'rot0': 75, 'rot3': 70, 'rot2': 64, 'state': 'normal', 'yaw': -6.31, 'datetime': '2018-10-09 19:55:54.488980', 'mgs': 0, 'volt': 1.0254, 'depth': 3.522, 'time': 120, 'pitch': -3.09, 'roll': -1.63, 'pres': 210}
{'lipoC2': 7.34, 'lipoC3S1': 3.89, 'temp': 26.69, 'lipoC3S3': 11.76, 'lipoC3S2': 7.78, 'rot1': 70, 'rot0': 75, 'rot3': 70, 'rot2': 64, 'state': 'normal', 'yaw': -6.31, 'datetime': '2018-10-09 19:55:54.505842', 'mgs': 0, 'volt': 1.0254, 'depth': 3.522, 'time': 120, 'pitch': -2.88, 'roll': -1.72, 'pres': 210}
{'lipoC2': 7.34, 'lipoC3S1': 3.89, 'temp': 26.69, 'lipoC3S3': 11.76, 'lipoC3S2': 7.77, 'rot1': 70, 'rot0': 75, 'rot3': 70, 'rot2': 64, 'state': 'normal', 'yaw': -6.32, 'datetime': '2018-10-09 19:55:54.522149', 'mgs': 0, 'volt': 1.0205, 'depth': 3.445, 'time': 120, 'pitch': -2.69, 'roll': -1.82, 'pres': 209}
{'lipoC2': 7.34, 'lipoC3S1': 3.89, 'temp': 26.69, 'lipoC3S3': 11.76, 'lipoC3S2': 7.77, 'rot1': 70, 'rot0': 75, 'rot3': 70, 'rot2': 64, 'state': 'normal', 'yaw': -6.32, 'datetime': '2018-10-09 19:55:54.538532', 'mgs': 0, 'volt': 1.0205, 'depth': 3.445, 'time': 121, 'pitch': -2.56, 'roll': -1.87, 'pres': 209}
{'lipoC2': 7.34, 'lipoC3S1': 3.89, 'temp': 26.69, 'lipoC3S3': 11.76, 'lipoC3S2': 7.77, 'rot1': 70, 'rot0': 75, 'rot3': 70, 'rot2': 64, 'state': 'normal', 'yaw': -6.33, 'datetime': '2018-10-09 19:55:54.555001', 'mgs': 0, 'volt': 1.0205, 'depth': 3.445, 'time': 121, 'pitch': -2.45, 'roll': -1.9, 'pres': 209}
{'lipoC2': 7.34, 'lipoC3S1': 3.89, 'temp': 26.69, 'lipoC3S3': 11.76, 'lipoC3S2': 7.77, 'rot1': 70, 'rot0': 75, 'rot3': 70, 'rot2': 64, 'state': 'normal', 'yaw': -6.33, 'datetime': '2018-10-09 19:55:54.571453', 'mgs': 0, 'volt': 1.0205, 'depth': 3.445, 'time': 121, 'pitch': -2.39, 'roll': -1.9, 'pres': 209}
{'lipoC2': 7.34, 'lipoC3S1': 3.89, 'temp': 26.69, 'lipoC3S3': 11.76, 'lipoC3S2': 7.78, 'rot1': 70, 'rot0': 75, 'rot3': 70, 'rot2': 64, 'state': 'normal', 'yaw': -6.33, 'datetime': '2018-10-09 19:55:54.590216', 'mgs': 0, 'volt': 1.0205, 'depth': 3.445, 'time': 121, 'pitch': -2.39, 'roll': -1.9, 'pres': 209}
{'lipoC2': 7.34, 'lipoC3S1': 3.89, 'temp': 26.69, 'lipoC3S3': 11.76, 'lipoC3S2': 7.77, 'rot1': 70, 'rot0': 75, 'rot3': 70, 'rot2': 64, 'state': 'normal', 'yaw': -6.33, 'datetime': '2018-10-09 19:55:54.607709', 'mgs': 0, 'volt': 1.0205, 'depth': 3.445, 'time': 121, 'pitch': -2.41, 'roll': -1.9, 'pres': 209}
{'lipoC2': 7.34, 'lipoC3S1': 3.89, 'temp': 26.69, 'lipoC3S3': 11.76, 'lipoC3S2': 7.77, 'rot1': 70, 'rot0': 75, 'rot3': 70, 'rot2': 64, 'state': 'normal', 'yaw': -6.33, 'datetime': '2018-10-09 19:55:54.624147', 'mgs': 0, 'volt': 1.0156, 'depth': 3.369, 'time': 121, 'pitch': -2.48, 'roll': -1.86, 'pres': 208}
{'lipoC2': 7.34, 'lipoC3S1': 3.89, 'temp': 26.69, 'lipoC3S3': 11.76, 'lipoC3S2': 7.77, 'rot1': 70, 'rot0': 75, 'rot3': 70, 'rot2': 64, 'state': 'normal', 'yaw': -6.32, 'datetime': '2018-10-09 19:55:54.640680', 'mgs': 0, 'volt': 1.0156, 'depth': 3.369, 'time': 121, 'pitch': -2.6, 'roll': -1.8, 'pres': 208}
{'lipoC2': 7.34, 'lipoC3S1': 3.89, 'temp': 26.69, 'lipoC3S3': 11.76, 'lipoC3S2': 7.77, 'rot1': 70, 'rot0': 75, 'rot3': 70, 'rot2': 64, 'state': 'normal', 'yaw': -6.32, 'datetime': '2018-10-09 19:55:54.657160', 'mgs': 0, 'volt': 1.0156, 'depth': 3.369, 'time': 121, 'pitch': -2.73, 'roll': -1.69, 'pres': 208}
{'lipoC2': 7.34, 'lipoC3S1': 3.89, 'temp': 26.69, 'lipoC3S3': 11.76, 'lipoC3S2': 7.77, 'rot1': 70, 'rot0': 75, 'rot3': 70, 'rot2': 64, 'state': 'normal', 'yaw': -6.32, 'datetime': '2018-10-09 19:55:54.673550', 'mgs': 0, 'volt': 1.0156, 'depth': 3.369, 'time': 121, 'pitch': -2.88, 'roll': -1.59, 'pres': 208}
{'lipoC2': 7.34, 'lipoC3S1': 3.89, 'temp': 26.69, 'lipoC3S3': 11.76, 'lipoC3S2': 7.77, 'rot1': 70, 'rot0': 75, 'rot3': 70, 'rot2': 64, 'state': 'normal', 'yaw': -6.31, 'datetime': '2018-10-09 19:55:54.692013', 'mgs': 0, 'volt': 1.0156, 'depth': 3.369, 'time': 122, 'pitch': -3.03, 'roll': -1.48, 'pres': 208}
{'lipoC2': 7.34, 'lipoC3S1': 3.89, 'temp': 26.69, 'lipoC3S3': 11.76, 'lipoC3S2': 7.78, 'rot1': 70, 'rot0': 75, 'rot3': 70, 'rot2': 64, 'state': 'normal', 'yaw': -6.31, 'datetime': '2018-10-09 19:55:54.710394', 'mgs': 0, 'volt': 1.0156, 'depth': 3.369, 'time': 122, 'pitch': -3.16, 'roll': -1.41, 'pres': 208}
{'lipoC2': 7.34, 'lipoC3S1': 3.89, 'temp': 26.69, 'lipoC3S3': 11.76, 'lipoC3S2': 7.77, 'rot1': 70, 'rot0': 75, 'rot3': 70, 'rot2': 64, 'state': 'normal', 'yaw': -6.31, 'datetime': '2018-10-09 19:55:54.726806', 'mgs': 0, 'volt': 1.0156, 'depth': 3.369, 'time': 122, 'pitch': -3.38, 'roll': -1.31, 'pres': 208}
{'lipoC2': 7.34, 'lipoC3S1': 3.89, 'temp': 26.69, 'lipoC3S3': 11.76, 'lipoC3S2': 7.78, 'rot1': 70, 'rot0': 75, 'rot3': 70, 'rot2': 64, 'state': 'normal', 'yaw': -6.31, 'datetime': '2018-10-09 19:55:54.743178', 'mgs': 0, 'volt': 1.0156, 'depth': 3.369, 'time': 122, 'pitch': -3.59, 'roll': -1.23, 'pres': 208}
{'lipoC2': 7.34, 'lipoC3S1': 3.89, 'temp': 26.69, 'lipoC3S3': 11.76, 'lipoC3S2': 7.77, 'rot1': 70, 'rot0': 75, 'rot3': 70, 'rot2': 64, 'state': 'normal', 'yaw': -6.31, 'datetime': '2018-10-09 19:55:54.759549', 'mgs': 0, 'volt': 1.0156, 'depth': 3.369, 'time': 122, 'pitch': -3.74, 'roll': -1.18, 'pres': 208}
{'lipoC2': 7.34, 'lipoC3S1': 3.89, 'temp': 26.69, 'lipoC3S3': 11.76, 'lipoC3S2': 7.77, 'rot1': 70, 'rot0': 75, 'rot3': 70, 'rot2': 64, 'state': 'normal', 'yaw': -6.31, 'datetime': '2018-10-09 19:55:54.775958', 'mgs': 0, 'volt': 1.0107, 'depth': 3.293, 'time': 122, 'pitch': -3.82, 'roll': -1.14, 'pres': 207}
{'lipoC2': 7.34, 'lipoC3S1': 3.89, 'temp': 26.69, 'lipoC3S3': 11.76, 'lipoC3S2': 7.77, 'rot1': 70, 'rot0': 75, 'rot3': 70, 'rot2': 64, 'state': 'normal', 'yaw': -6.32, 'datetime': '2018-10-09 19:55:54.794935', 'mgs': 0, 'volt': 1.0107, 'depth': 3.293, 'time': 122, 'pitch': -3.84, 'roll': -1.11, 'pres': 207}
{'lipoC2': 7.34, 'lipoC3S1': 3.89, 'temp': 26.69, 'lipoC3S3': 11.76, 'lipoC3S2': 7.78, 'rot1': 70, 'rot0': 75, 'rot3': 70, 'rot2': 64, 'state': 'normal', 'yaw': -6.32, 'datetime': '2018-10-09 19:55:54.812578', 'mgs': 0, 'volt': 1.0107, 'depth': 3.293, 'time': 122, 'pitch': -3.8, 'roll': -1.12, 'pres': 207}
{'lipoC2': 7.34, 'lipoC3S1': 3.89, 'temp': 26.69, 'lipoC3S3': 11.76, 'lipoC3S2': 7.78, 'rot1': 70, 'rot0': 75, 'rot3': 70, 'rot2': 64, 'state': 'normal', 'yaw': -6.32, 'datetime': '2018-10-09 19:55:54.832520', 'mgs': 0, 'volt': 1.0107, 'depth': 3.293, 'time': 122, 'pitch': -3.73, 'roll': -1.15, 'pres': 207}
{'lipoC2': 7.34, 'lipoC3S1': 3.89, 'temp': 26.69, 'lipoC3S3': 11.76, 'lipoC3S2': 7.78, 'rot1': 70, 'rot0': 75, 'rot3': 70, 'rot2': 64, 'state': 'normal', 'yaw': -6.33, 'datetime': '2018-10-09 19:55:54.852277', 'mgs': 0, 'volt': 1.0107, 'depth': 3.293, 'time': 122, 'pitch': -3.62, 'roll': -1.22, 'pres': 207}
{'lipoC2': 7.34, 'lipoC3S1': 3.89, 'temp': 26.69, 'lipoC3S3': 11.76, 'lipoC3S2': 7.78, 'rot1': 70, 'rot0': 75, 'rot3': 70, 'rot2': 64, 'state': 'normal', 'yaw': -6.34, 'datetime': '2018-10-09 19:55:54.872204', 'mgs': 0, 'volt': 1.0107, 'depth': 3.293, 'time': 123, 'pitch': -3.49, 'roll': -1.29, 'pres': 207}
{'lipoC2': 7.34, 'lipoC3S1': 3.89, 'temp': 26.69, 'lipoC3S3': 11.76, 'lipoC3S2': 7.77, 'rot1': 70, 'rot0': 75, 'rot3': 70, 'rot2': 64, 'state': 'normal', 'yaw': -6.34, 'datetime': '2018-10-09 19:55:54.892529', 'mgs': 0, 'volt': 1.0107, 'depth': 3.293, 'time': 123, 'pitch': -3.36, 'roll': -1.37, 'pres': 207}
{'lipoC2': 7.34, 'lipoC3S1': 3.89, 'temp': 26.69, 'lipoC3S3': 11.76, 'lipoC3S2': 7.77, 'rot1': 70, 'rot0': 75, 'rot3': 70, 'rot2': 64, 'state': 'normal', 'yaw': -6.34, 'datetime': '2018-10-09 19:55:54.912591', 'mgs': 0, 'volt': 1.0107, 'depth': 3.293, 'time': 123, 'pitch': -3.17, 'roll': -1.46, 'pres': 207}
{'lipoC2': 7.34, 'lipoC3S1': 3.89, 'temp': 26.69, 'lipoC3S3': 11.76, 'lipoC3S2': 7.77, 'rot1': 70, 'rot0': 75, 'rot3': 70, 'rot2': 64, 'state': 'normal', 'yaw': -6.35, 'datetime': '2018-10-09 19:55:54.929129', 'mgs': 0, 'volt': 1.0107, 'depth': 3.293, 'time': 123, 'pitch': -3.03, 'roll': -1.5, 'pres': 207}
{'lipoC2': 7.34, 'lipoC3S1': 3.89, 'temp': 26.69, 'lipoC3S3': 11.76, 'lipoC3S2': 7.77, 'rot1': 70, 'rot0': 75, 'rot3': 70, 'rot2': 64, 'state': 'normal', 'yaw': -6.35, 'datetime': '2018-10-09 19:55:54.945502', 'mgs': 0, 'volt': 1.0059, 'depth': 3.217, 'time': 123, 'pitch': -2.92, 'roll': -1.5, 'pres': 206}
{'lipoC2': 7.34, 'lipoC3S1': 3.89, 'temp': 26.69, 'lipoC3S3': 11.76, 'lipoC3S2': 7.78, 'rot1': 70, 'rot0': 75, 'rot3': 70, 'rot2': 64, 'state': 'normal', 'yaw': -6.35, 'datetime': '2018-10-09 19:55:54.961901', 'mgs': 0, 'volt': 1.0059, 'depth': 3.217, 'time': 123, 'pitch': -2.82, 'roll': -1.5, 'pres': 206}
{'lipoC2': 7.34, 'lipoC3S1': 3.89, 'temp': 26.69, 'lipoC3S3': 11.76, 'lipoC3S2': 7.78, 'rot1': 70, 'rot0': 75, 'rot3': 70, 'rot2': 64, 'state': 'normal', 'yaw': -6.36, 'datetime': '2018-10-09 19:55:54.978256', 'mgs': 0, 'volt': 1.0059, 'depth': 3.217, 'time': 123, 'pitch': -2.78, 'roll': -1.5, 'pres': 206}
{'lipoC2': 7.34, 'lipoC3S1': 3.89, 'temp': 26.69, 'lipoC3S3': 11.76, 'lipoC3S2': 7.77, 'rot1': 70, 'rot0': 75, 'rot3': 70, 'rot2': 64, 'state': 'normal', 'yaw': -6.36, 'datetime': '2018-10-09 19:55:54.997725', 'mgs': 0, 'volt': 1.0059, 'depth': 3.217, 'time': 123, 'pitch': -2.78, 'roll': -1.5, 'pres': 206}
{'lipoC2': 7.34, 'lipoC3S1': 3.89, 'temp': 26.69, 'lipoC3S3': 11.76, 'lipoC3S2': 7.77, 'rot1': 70, 'rot0': 75, 'rot3': 70, 'rot2': 64, 'state': 'normal', 'yaw': -6.36, 'datetime': '2018-10-09 19:55:55.015898', 'mgs': 0, 'volt': 1.0059, 'depth': 3.217, 'time': 123, 'pitch': -2.78, 'roll': -1.49, 'pres': 206}
{'lipoC2': 7.34, 'lipoC3S1': 3.89, 'temp': 26.69, 'lipoC3S3': 11.76, 'lipoC3S2': 7.77, 'rot1': 70, 'rot0': 75, 'rot3': 70, 'rot2': 64, 'state': 'normal', 'yaw': -6.36, 'datetime': '2018-10-09 19:55:55.032499', 'mgs': 0, 'volt': 1.001, 'depth': 3.14, 'time': 124, 'pitch': -2.77, 'roll': -1.47, 'pres': 205}
{'lipoC2': 7.34, 'lipoC3S1': 3.89, 'temp': 26.69, 'lipoC3S3': 11.76, 'lipoC3S2': 7.77, 'rot1': 70, 'rot0': 75, 'rot3': 70, 'rot2': 64, 'state': 'normal', 'yaw': -6.36, 'datetime': '2018-10-09 19:55:55.048974', 'mgs': 0, 'volt': 1.001, 'depth': 3.14, 'time': 124, 'pitch': -2.8, 'roll': -1.43, 'pres': 205}
{'lipoC2': 7.34, 'lipoC3S1': 3.89, 'temp': 26.69, 'lipoC3S3': 11.76, 'lipoC3S2': 7.77, 'rot1': 70, 'rot0': 75, 'rot3': 70, 'rot2': 64, 'state': 'normal', 'yaw': -6.35, 'datetime': '2018-10-09 19:55:55.065311', 'mgs': 0, 'volt': 1.001, 'depth': 3.14, 'time': 124, 'pitch': -2.88, 'roll': -1.38, 'pres': 205}
{'lipoC2': 7.34, 'lipoC3S1': 3.89, 'temp': 26.69, 'lipoC3S3': 11.76, 'lipoC3S2': 7.78, 'rot1': 70, 'rot0': 75, 'rot3': 70, 'rot2': 64, 'state': 'normal', 'yaw': -6.35, 'datetime': '2018-10-09 19:55:55.085187', 'mgs': 0, 'volt': 1.001, 'depth': 3.14, 'time': 124, 'pitch': -2.96, 'roll': -1.36, 'pres': 205}
{'lipoC2': 7.34, 'lipoC3S1': 3.89, 'temp': 26.69, 'lipoC3S3': 11.76, 'lipoC3S2': 7.77, 'rot1': 70, 'rot0': 75, 'rot3': 70, 'rot2': 64, 'state': 'normal', 'yaw': -6.35, 'datetime': '2018-10-09 19:55:55.103997', 'mgs': 0, 'volt': 1.001, 'depth': 3.14, 'time': 124, 'pitch': -3.02, 'roll': -1.36, 'pres': 205}
{'lipoC2': 7.34, 'lipoC3S1': 3.89, 'temp': 26.69, 'lipoC3S3': 11.76, 'lipoC3S2': 7.78, 'rot1': 70, 'rot0': 75, 'rot3': 70, 'rot2': 64, 'state': 'normal', 'yaw': -6.35, 'datetime': '2018-10-09 19:55:55.122852', 'mgs': 0, 'volt': 1.001, 'depth': 3.14, 'time': 124, 'pitch': -3.04, 'roll': -1.36, 'pres': 205}
{'lipoC2': 7.34, 'lipoC3S1': 3.89, 'temp': 26.69, 'lipoC3S3': 11.76, 'lipoC3S2': 7.78, 'rot1': 0, 'rot0': 0, 'rot3': 0, 'rot2': 0, 'state': 'normal', 'yaw': 0.0, 'datetime': '2018-10-09 19:55:55.142412', 'mgs': 0, 'volt': 0.9912, 'depth': 2.988, 'time': 1, 'pitch': -2.53, 'roll': -1.36, 'pres': 203}
{'lipoC2': 7.34, 'lipoC3S1': 3.89, 'temp': 26.69, 'lipoC3S3': 11.76, 'lipoC3S2': 7.77, 'rot1': 0, 'rot0': 0, 'rot3': 0, 'rot2': 0, 'state': 'normal', 'yaw': -0.0, 'datetime': '2018-10-09 19:55:55.161910', 'mgs': 0, 'volt': 0.9863, 'depth': 2.911, 'time': 1, 'pitch': -2.44, 'roll': -1.35, 'pres': 202}
{'lipoC2': 7.34, 'lipoC3S1': 3.89, 'temp': 26.75, 'lipoC3S3': 11.76, 'lipoC3S2': 7.78, 'rot1': 0, 'rot0': 0, 'rot3': 0, 'rot2': 0, 'state': 'normal', 'yaw': -0.0, 'datetime': '2018-10-09 19:55:55.181445', 'mgs': 0, 'volt': 0.9863, 'depth': 2.911, 'time': 1, 'pitch': -2.39, 'roll': -1.35, 'pres': 202}
{'lipoC2': 7.34, 'lipoC3S1': 3.89, 'temp': 26.75, 'lipoC3S3': 11.76, 'lipoC3S2': 7.78, 'rot1': 0, 'rot0': 0, 'rot3': 0, 'rot2': 0, 'state': 'normal', 'yaw': -0.0, 'datetime': '2018-10-09 19:55:55.200991', 'mgs': 0, 'volt': 0.9863, 'depth': 2.911, 'time': 1, 'pitch': -2.38, 'roll': -1.35, 'pres': 202}
{'lipoC2': 7.34, 'lipoC3S1': 3.89, 'temp': 26.75, 'lipoC3S3': 11.77, 'lipoC3S2': 7.78, 'rot1': 0, 'rot0': 0, 'rot3': 0, 'rot2': 0, 'state': 'normal', 'yaw': -0.0, 'datetime': '2018-10-09 19:55:55.219992', 'mgs': 0, 'volt': 0.9863, 'depth': 2.911, 'time': 1, 'pitch': -2.38, 'roll': -1.35, 'pres': 202}
{'lipoC2': 7.34, 'lipoC3S1': 3.89, 'temp': 26.69, 'lipoC3S3': 11.76, 'lipoC3S2': 7.78, 'rot1': 0, 'rot0': 0, 'rot3': 0, 'rot2': 0, 'state': 'normal', 'yaw': -0.0, 'datetime': '2018-10-09 19:55:55.239470', 'mgs': 0, 'volt': 0.9863, 'depth': 2.911, 'time': 1, 'pitch': -2.38, 'roll': -1.35, 'pres': 202}
{'lipoC2': 7.34, 'lipoC3S1': 3.89, 'temp': 26.69, 'lipoC3S3': 11.76, 'lipoC3S2': 7.78, 'rot1': 0, 'rot0': 0, 'rot3': 0, 'rot2': 0, 'state': 'normal', 'yaw': -0.0, 'datetime': '2018-10-09 19:55:55.259033', 'mgs': 0, 'volt': 0.9814, 'depth': 2.835, 'time': 1, 'pitch': -2.38, 'roll': -1.35, 'pres': 201}
{'lipoC2': 7.34, 'lipoC3S1': 3.89, 'temp': 26.69, 'lipoC3S3': 11.76, 'lipoC3S2': 7.77, 'rot1': 0, 'rot0': 0, 'rot3': 0, 'rot2': 0, 'state': 'normal', 'yaw': -0.0, 'datetime': '2018-10-09 19:55:55.278543', 'mgs': 0, 'volt': 0.9814, 'depth': 2.835, 'time': 1, 'pitch': -2.38, 'roll': -1.35, 'pres': 201}
{'lipoC2': 7.34, 'lipoC3S1': 3.89, 'temp': 26.69, 'lipoC3S3': 11.76, 'lipoC3S2': 7.77, 'rot1': 0, 'rot0': 0, 'rot3': 0, 'rot2': 0, 'state': 'normal', 'yaw': -0.0, 'datetime': '2018-10-09 19:55:55.298013', 'mgs': 0, 'volt': 0.9814, 'depth': 2.835, 'time': 2, 'pitch': -2.38, 'roll': -1.35, 'pres': 201}
{'lipoC2': 7.34, 'lipoC3S1': 3.89, 'temp': 26.69, 'lipoC3S3': 11.76, 'lipoC3S2': 7.77, 'rot1': 0, 'rot0': 0, 'rot3': 0, 'rot2': 0, 'state': 'normal', 'yaw': -0.0, 'datetime': '2018-10-09 19:55:55.316362', 'mgs': 0, 'volt': 0.9814, 'depth': 2.835, 'time': 2, 'pitch': -2.38, 'roll': -1.35, 'pres': 201}
{'lipoC2': 7.34, 'lipoC3S1': 3.89, 'temp': 26.69, 'lipoC3S3': 11.76, 'lipoC3S2': 7.77, 'rot1': 0, 'rot0': 0, 'rot3': 0, 'rot2': 0, 'state': 'normal', 'yaw': -0.0, 'datetime': '2018-10-09 19:55:55.333342', 'mgs': 0, 'volt': 0.9814, 'depth': 2.835, 'time': 2, 'pitch': -2.38, 'roll': -1.35, 'pres': 201}
{'lipoC2': 7.34, 'lipoC3S1': 3.89, 'temp': 26.69, 'lipoC3S3': 11.76, 'lipoC3S2': 7.78, 'rot1': 0, 'rot0': 0, 'rot3': 0, 'rot2': 0, 'state': 'normal', 'yaw': -0.0, 'datetime': '2018-10-09 19:55:55.349518', 'mgs': 0, 'volt': 0.9766, 'depth': 2.759, 'time': 2, 'pitch': -2.38, 'roll': -1.35, 'pres': 200}
{'lipoC2': 7.34, 'lipoC3S1': 3.89, 'temp': 26.69, 'lipoC3S3': 11.76, 'lipoC3S2': 7.78, 'rot1': 0, 'rot0': 0, 'rot3': 0, 'rot2': 0, 'state': 'normal', 'yaw': -0.0, 'datetime': '2018-10-09 19:55:55.365682', 'mgs': 0, 'volt': 0.9766, 'depth': 2.759, 'time': 2, 'pitch': -2.38, 'roll': -1.35, 'pres': 200}
{'lipoC2': 7.34, 'lipoC3S1': 3.89, 'temp': 26.69, 'lipoC3S3': 11.76, 'lipoC3S2': 7.78, 'rot1': 0, 'rot0': 0, 'rot3': 0, 'rot2': 0, 'state': 'normal', 'yaw': -0.0, 'datetime': '2018-10-09 19:55:55.381421', 'mgs': 0, 'volt': 0.9766, 'depth': 2.759, 'time': 2, 'pitch': -2.38, 'roll': -1.35, 'pres': 200}
{'lipoC2': 7.34, 'lipoC3S1': 3.89, 'temp': 26.69, 'lipoC3S3': 11.76, 'lipoC3S2': 7.78, 'rot1': 0, 'rot0': 0, 'rot3': 0, 'rot2': 0, 'state': 'normal', 'yaw': -0.0, 'datetime': '2018-10-09 19:55:55.397288', 'mgs': 0, 'volt': 0.9766, 'depth': 2.759, 'time': 2, 'pitch': -2.38, 'roll': -1.35, 'pres': 200}
{'lipoC2': 7.34, 'lipoC3S1': 3.89, 'temp': 26.69, 'lipoC3S3': 11.76, 'lipoC3S2': 7.78, 'rot1': 0, 'rot0': 0, 'rot3': 0, 'rot2': 0, 'state': 'normal', 'yaw': -0.0, 'datetime': '2018-10-09 19:55:55.415401', 'mgs': 0, 'volt': 0.9766, 'depth': 2.759, 'time': 2, 'pitch': -2.36, 'roll': -1.35, 'pres': 200}
{'lipoC2': 7.34, 'lipoC3S1': 3.89, 'temp': 26.69, 'lipoC3S3': 11.76, 'lipoC3S2': 7.77, 'rot1': 0, 'rot0': 0, 'rot3': 0, 'rot2': 0, 'state': 'normal', 'yaw': -0.0, 'datetime': '2018-10-09 19:55:55.431919', 'mgs': 0, 'volt': 0.9668, 'depth': 2.606, 'time': 2, 'pitch': -2.28, 'roll': -1.36, 'pres': 198}
{'lipoC2': 7.33, 'lipoC3S1': 3.83, 'temp': 26.69, 'lipoC3S3': 11.67, 'lipoC3S2': 7.69, 'rot1': 0, 'rot0': 0, 'rot3': 0, 'rot2': 1, 'state': 'normal', 'yaw': -0.0, 'datetime': '2018-10-09 19:55:55.447865', 'mgs': 0, 'volt': 0.9961, 'depth': 3.064, 'time': 3, 'pitch': -2.18, 'roll': -1.35, 'pres': 204}
{'lipoC2': 7.34, 'lipoC3S1': 3.84, 'temp': 26.69, 'lipoC3S3': 11.69, 'lipoC3S2': 7.71, 'rot1': 0, 'rot0': 0, 'rot3': 1, 'rot2': 1, 'state': 'normal', 'yaw': -0.06, 'datetime': '2018-10-09 19:55:55.463714', 'mgs': 0, 'volt': 0.9863, 'depth': 2.911, 'time': 3, 'pitch': -1.87, 'roll': -1.25, 'pres': 202}
{'lipoC2': 7.33, 'lipoC3S1': 3.86, 'temp': 26.69, 'lipoC3S3': 11.71, 'lipoC3S2': 7.73, 'rot1': 0, 'rot0': 0, 'rot3': 2, 'rot2': 2, 'state': 'normal', 'yaw': -0.2, 'datetime': '2018-10-09 19:55:55.479508', 'mgs': 0, 'volt': 0.9766, 'depth': 2.759, 'time': 3, 'pitch': -1.32, 'roll': -1.03, 'pres': 200}
{'lipoC2': 7.33, 'lipoC3S1': 3.85, 'temp': 26.69, 'lipoC3S3': 11.69, 'lipoC3S2': 7.73, 'rot1': 0, 'rot0': 0, 'rot3': 3, 'rot2': 3, 'state': 'normal', 'yaw': -0.38, 'datetime': '2018-10-09 19:55:55.495286', 'mgs': 0, 'volt': 0.9814, 'depth': 2.835, 'time': 3, 'pitch': -0.67, 'roll': -0.73, 'pres': 201}
{'lipoC2': 7.33, 'lipoC3S1': 3.85, 'temp': 26.69, 'lipoC3S3': 11.69, 'lipoC3S2': 7.73, 'rot1': 0, 'rot0': 0, 'rot3': 4, 'rot2': 4, 'state': 'normal', 'yaw': -0.61, 'datetime': '2018-10-09 19:55:55.511746', 'mgs': 0, 'volt': 0.9766, 'depth': 2.759, 'time': 3, 'pitch': 0.07, 'roll': -0.32, 'pres': 200}
{'lipoC2': 7.33, 'lipoC3S1': 3.87, 'temp': 26.69, 'lipoC3S3': 11.64, 'lipoC3S2': 7.73, 'rot1': 0, 'rot0': 0, 'rot3': 5, 'rot2': 5, 'state': 'normal', 'yaw': -0.82, 'datetime': '2018-10-09 19:55:55.528675', 'mgs': 0, 'volt': 0.9668, 'depth': 2.606, 'time': 3, 'pitch': 0.7, 'roll': 0.08, 'pres': 198}
{'lipoC2': 7.33, 'lipoC3S1': 3.86, 'temp': 26.63, 'lipoC3S3': 11.68, 'lipoC3S2': 7.73, 'rot1': 0, 'rot0': 0, 'rot3': 6, 'rot2': 5, 'state': 'normal', 'yaw': -0.97, 'datetime': '2018-10-09 19:55:55.545095', 'mgs': 0, 'volt': 0.9668, 'depth': 2.606, 'time': 3, 'pitch': 1.25, 'roll': 0.39, 'pres': 198}
{'lipoC2': 7.33, 'lipoC3S1': 3.87, 'temp': 26.63, 'lipoC3S3': 11.63, 'lipoC3S2': 7.73, 'rot1': 0, 'rot0': 0, 'rot3': 7, 'rot2': 6, 'state': 'normal', 'yaw': -1.1, 'datetime': '2018-10-09 19:55:55.561195', 'mgs': 0, 'volt': 0.957, 'depth': 2.454, 'time': 3, 'pitch': 1.76, 'roll': 0.66, 'pres': 196}
{'lipoC2': 7.34, 'lipoC3S1': 3.87, 'temp': 26.63, 'lipoC3S3': 11.64, 'lipoC3S2': 7.68, 'rot1': 0, 'rot0': 0, 'rot3': 8, 'rot2': 7, 'state': 'normal', 'yaw': -1.23, 'datetime': '2018-10-09 19:55:55.577030', 'mgs': 0, 'volt': 0.9424, 'depth': 2.225, 'time': 3, 'pitch': 2.1, 'roll': 0.83, 'pres': 193}
{'lipoC2': 7.34, 'lipoC3S1': 3.83, 'temp': 26.63, 'lipoC3S3': 11.67, 'lipoC3S2': 7.7, 'rot1': 0, 'rot0': 0, 'rot3': 8, 'rot2': 8, 'state': 'normal', 'yaw': -1.35, 'datetime': '2018-10-09 19:55:55.592837', 'mgs': 0, 'volt': 0.9326, 'depth': 2.072, 'time': 3, 'pitch': 2.32, 'roll': 0.9, 'pres': 191}
{'lipoC2': 7.33, 'lipoC3S1': 3.87, 'temp': 26.63, 'lipoC3S3': 11.69, 'lipoC3S2': 7.73, 'rot1': 0, 'rot0': 0, 'rot3': 9, 'rot2': 9, 'state': 'normal', 'yaw': -1.46, 'datetime': '2018-10-09 19:55:55.608730', 'mgs': 0, 'volt': 0.9424, 'depth': 2.225, 'time': 4, 'pitch': 2.42, 'roll': 0.9, 'pres': 193}
{'lipoC2': 7.33, 'lipoC3S1': 3.87, 'temp': 26.69, 'lipoC3S3': 11.65, 'lipoC3S2': 7.76, 'rot1': 0, 'rot0': 0, 'rot3': 10, 'rot2': 9, 'state': 'normal', 'yaw': -1.57, 'datetime': '2018-10-09 19:55:55.628099', 'mgs': 0, 'volt': 0.9277, 'depth': 1.996, 'time': 4, 'pitch': 2.43, 'roll': 0.84, 'pres': 190}
{'lipoC2': 7.34, 'lipoC3S1': 3.87, 'temp': 26.69, 'lipoC3S3': 11.64, 'lipoC3S2': 7.75, 'rot1': 0, 'rot0': 0, 'rot3': 11, 'rot2': 10, 'state': 'normal', 'yaw': -1.67, 'datetime': '2018-10-09 19:55:55.644527', 'mgs': 0, 'volt': 0.918, 'depth': 1.843, 'time': 4, 'pitch': 2.37, 'roll': 0.68, 'pres': 188}
{'lipoC2': 7.33, 'lipoC3S1': 3.86, 'temp': 26.63, 'lipoC3S3': 11.69, 'lipoC3S2': 7.73, 'rot1': 0, 'rot0': 0, 'rot3': 12, 'rot2': 11, 'state': 'normal', 'yaw': -1.75, 'datetime': '2018-10-09 19:55:55.660488', 'mgs': 0, 'volt': 0.9229, 'depth': 1.92, 'time': 4, 'pitch': 2.22, 'roll': 0.43, 'pres': 189}
{'lipoC2': 7.34, 'lipoC3S1': 3.85, 'temp': 26.63, 'lipoC3S3': 11.71, 'lipoC3S2': 7.73, 'rot1': 0, 'rot0': 0, 'rot3': 13, 'rot2': 12, 'state': 'normal', 'yaw': -1.83, 'datetime': '2018-10-09 19:55:55.676367', 'mgs': 0, 'volt': 0.8984, 'depth': 1.538, 'time': 4, 'pitch': 2.01, 'roll': 0.11, 'pres': 184}
{'lipoC2': 7.33, 'lipoC3S1': 3.88, 'temp': 26.63, 'lipoC3S3': 11.71, 'lipoC3S2': 7.75, 'rot1': 0, 'rot0': 0, 'rot3': 13, 'rot2': 12, 'state': 'normal', 'yaw': -1.88, 'datetime': '2018-10-09 19:55:55.740709', 'mgs': 0, 'volt': 0.9033, 'depth': 1.614, 'time': 4, 'pitch': 1.75, 'roll': -0.22, 'pres': 185}
{'lipoC2': 7.34, 'lipoC3S1': 3.87, 'temp': 26.69, 'lipoC3S3': 11.71, 'lipoC3S2': 7.74, 'rot1': 0, 'rot0': 0, 'rot3': 14, 'rot2': 13, 'state': 'normal', 'yaw': -1.9, 'datetime': '2018-10-09 19:55:55.844190', 'mgs': 0, 'volt': 0.9033, 'depth': 1.614, 'time': 4, 'pitch': 1.43, 'roll': -0.65, 'pres': 185}
{'lipoC2': 7.34, 'lipoC3S1': 3.86, 'temp': 26.69, 'lipoC3S3': 11.71, 'lipoC3S2': 7.75, 'rot1': 0, 'rot0': 0, 'rot3': 15, 'rot2': 14, 'state': 'normal', 'yaw': -1.92, 'datetime': '2018-10-09 19:55:55.947693', 'mgs': 0, 'volt': 0.9033, 'depth': 1.614, 'time': 4, 'pitch': 1.2, 'roll': -1.05, 'pres': 185}
{'lipoC2': 7.34, 'lipoC3S1': 3.87, 'temp': 26.69, 'lipoC3S3': 11.67, 'lipoC3S2': 7.76, 'rot1': 0, 'rot0': 0, 'rot3': 15, 'rot2': 14, 'state': 'normal', 'yaw': -1.96, 'datetime': '2018-10-09 19:55:56.052516', 'mgs': 0, 'volt': 0.874, 'depth': 1.157, 'time': 4, 'pitch': 1.09, 'roll': -1.46, 'pres': 179}
{'lipoC2': 7.34, 'lipoC3S1': 3.88, 'temp': 26.69, 'lipoC3S3': 11.75, 'lipoC3S2': 7.76, 'rot1': 0, 'rot0': 0, 'rot3': 16, 'rot2': 15, 'state': 'normal', 'yaw': -2.0, 'datetime': '2018-10-09 19:55:56.156084', 'mgs': 0, 'volt': 0.8643, 'depth': 1.004, 'time': 4, 'pitch': 1.09, 'roll': -1.86, 'pres': 177}
{'lipoC2': 7.34, 'lipoC3S1': 3.88, 'temp': 26.63, 'lipoC3S3': 11.75, 'lipoC3S2': 7.76, 'rot1': 0, 'rot0': 0, 'rot3': 16, 'rot2': 15, 'state': 'normal', 'yaw': -2.0, 'datetime': '2018-10-09 19:55:56.260750', 'mgs': 0, 'volt': 0.8643, 'depth': 1.004, 'time': 5, 'pitch': 1.03, 'roll': -2.2, 'pres': 177}
{'lipoC2': 7.34, 'lipoC3S1': 3.88, 'temp': 26.63, 'lipoC3S3': 11.75, 'lipoC3S2': 7.76, 'rot1': 0, 'rot0': 0, 'rot3': 16, 'rot2': 15, 'state': 'normal', 'yaw': -2.0, 'datetime': '2018-10-09 19:55:56.375613', 'mgs': 0, 'volt': 0.8545, 'depth': 0.851, 'time': 5, 'pitch': 0.85, 'roll': -2.47, 'pres': 175}
{'lipoC2': 7.34, 'lipoC3S1': 3.88, 'temp': 26.63, 'lipoC3S3': 11.75, 'lipoC3S2': 7.78, 'rot1': 0, 'rot0': 0, 'rot3': 16, 'rot2': 15, 'state': 'normal', 'yaw': -1.96, 'datetime': '2018-10-09 19:55:56.479173', 'mgs': 0, 'volt': 0.8545, 'depth': 0.851, 'time': 5, 'pitch': 0.64, 'roll': -2.71, 'pres': 175}
{'lipoC2': 7.34, 'lipoC3S1': 3.88, 'temp': 26.75, 'lipoC3S3': 11.71, 'lipoC3S2': 7.76, 'rot1': 0, 'rot0': 0, 'rot3': 16, 'rot2': 15, 'state': 'normal', 'yaw': -1.83, 'datetime': '2018-10-09 19:55:56.582782', 'mgs': 0, 'volt': 0.8496, 'depth': 0.775, 'time': 5, 'pitch': 0.55, 'roll': -2.88, 'pres': 174}
{'lipoC2': 7.34, 'lipoC3S1': 3.87, 'temp': 26.75, 'lipoC3S3': 11.61, 'lipoC3S2': 7.74, 'rot1': 0, 'rot0': 1, 'rot3': 16, 'rot2': 16, 'state': 'normal', 'yaw': -1.64, 'datetime': '2018-10-09 19:55:56.686445', 'mgs': 0, 'volt': 0.8643, 'depth': 1.004, 'time': 5, 'pitch': 0.56, 'roll': -3.01, 'pres': 177}
{'lipoC2': 7.33, 'lipoC3S1': 3.88, 'temp': 26.69, 'lipoC3S3': 11.71, 'lipoC3S2': 7.74, 'rot1': 1, 'rot0': 1, 'rot3': 17, 'rot2': 16, 'state': 'normal', 'yaw': -1.36, 'datetime': '2018-10-09 19:55:56.790294', 'mgs': 0, 'volt': 0.8545, 'depth': 0.851, 'time': 5, 'pitch': 0.51, 'roll': -3.17, 'pres': 175}
{'lipoC2': 7.34, 'lipoC3S1': 3.89, 'temp': 26.69, 'lipoC3S3': 11.75, 'lipoC3S2': 7.76, 'rot1': 1, 'rot0': 1, 'rot3': 17, 'rot2': 16, 'state': 'normal', 'yaw': -1.07, 'datetime': '2018-10-09 19:55:56.893599', 'mgs': 0, 'volt': 0.8447, 'depth': 0.699, 'time': 5, 'pitch': 0.5, 'roll': -3.31, 'pres': 173}
{'lipoC2': 7.34, 'lipoC3S1': 3.88, 'temp': 26.69, 'lipoC3S3': 11.75, 'lipoC3S2': 7.76, 'rot1': 1, 'rot0': 1, 'rot3': 17, 'rot2': 16, 'state': 'normal', 'yaw': -0.77, 'datetime': '2018-10-09 19:55:56.997497', 'mgs': 0, 'volt': 0.8447, 'depth': 0.699, 'time': 5, 'pitch': 0.63, 'roll': -3.35, 'pres': 173}
{'lipoC2': 7.33, 'lipoC3S1': 3.87, 'temp': 26.69, 'lipoC3S3': 11.65, 'lipoC3S2': 7.76, 'rot1': 1, 'rot0': 2, 'rot3': 17, 'rot2': 17, 'state': 'normal', 'yaw': -0.42, 'datetime': '2018-10-09 19:55:57.101104', 'mgs': 0, 'volt': 0.8447, 'depth': 0.699, 'time': 5, 'pitch': 0.8, 'roll': -3.32, 'pres': 173}
{'lipoC2': 7.34, 'lipoC3S1': 3.86, 'temp': 26.69, 'lipoC3S3': 11.71, 'lipoC3S2': 7.74, 'rot1': 2, 'rot0': 2, 'rot3': 18, 'rot2': 17, 'state': 'normal', 'yaw': -0.03, 'datetime': '2018-10-09 19:55:57.206625', 'mgs': 0, 'volt': 0.8691, 'depth': 1.08, 'time': 6, 'pitch': 0.79, 'roll': -3.22, 'pres': 178}
{'lipoC2': 7.34, 'lipoC3S1': 3.88, 'temp': 26.63, 'lipoC3S3': 11.75, 'lipoC3S2': 7.76, 'rot1': 2, 'rot0': 2, 'rot3': 18, 'rot2': 17, 'state': 'normal', 'yaw': 0.44, 'datetime': '2018-10-09 19:55:57.310001', 'mgs': 0, 'volt': 0.8447, 'depth': 0.699, 'time': 6, 'pitch': 0.63, 'roll': -3.1, 'pres': 173}
{'lipoC2': 7.34, 'lipoC3S1': 3.88, 'temp': 26.63, 'lipoC3S3': 11.73, 'lipoC3S2': 7.76, 'rot1': 2, 'rot0': 2, 'rot3': 18, 'rot2': 17, 'state': 'normal', 'yaw': 0.88, 'datetime': '2018-10-09 19:55:57.413994', 'mgs': 0, 'volt': 0.8447, 'depth': 0.699, 'time': 6, 'pitch': 0.59, 'roll': -2.9, 'pres': 173}
{'lipoC2': 7.34, 'lipoC3S1': 3.84, 'temp': 26.69, 'lipoC3S3': 11.71, 'lipoC3S2': 7.74, 'rot1': 3, 'rot0': 3, 'rot3': 19, 'rot2': 18, 'state': 'normal', 'yaw': 1.33, 'datetime': '2018-10-09 19:55:57.517889', 'mgs': 0, 'volt': 0.8691, 'depth': 1.08, 'time': 6, 'pitch': 0.62, 'roll': -2.69, 'pres': 178}
{'lipoC2': 7.34, 'lipoC3S1': 3.86, 'temp': 26.69, 'lipoC3S3': 11.72, 'lipoC3S2': 7.75, 'rot1': 3, 'rot0': 3, 'rot3': 19, 'rot2': 18, 'state': 'normal', 'yaw': 1.83, 'datetime': '2018-10-09 19:55:57.624964', 'mgs': 0, 'volt': 0.8691, 'depth': 1.08, 'time': 6, 'pitch': 0.66, 'roll': -2.49, 'pres': 178}
{'lipoC2': 7.34, 'lipoC3S1': 3.88, 'temp': 26.69, 'lipoC3S3': 11.75, 'lipoC3S2': 7.76, 'rot1': 3, 'rot0': 3, 'rot3': 20, 'rot2': 19, 'state': 'normal', 'yaw': 2.29, 'datetime': '2018-10-09 19:55:57.726272', 'mgs': 0, 'volt': 0.8496, 'depth': 0.775, 'time': 6, 'pitch': 0.7, 'roll': -2.35, 'pres': 174}
{'lipoC2': 7.34, 'lipoC3S1': 3.88, 'temp': 26.69, 'lipoC3S3': 11.75, 'lipoC3S2': 7.76, 'rot1': 3, 'rot0': 3, 'rot3': 20, 'rot2': 19, 'state': 'normal', 'yaw': 2.77, 'datetime': '2018-10-09 19:55:57.830324', 'mgs': 0, 'volt': 0.8545, 'depth': 0.851, 'time': 6, 'pitch': 0.94, 'roll': -2.17, 'pres': 175}
{'lipoC2': 7.34, 'lipoC3S1': 3.88, 'temp': 26.69, 'lipoC3S3': 11.75, 'lipoC3S2': 7.76, 'rot1': 3, 'rot0': 3, 'rot3': 20, 'rot2': 19, 'state': 'normal', 'yaw': 3.2, 'datetime': '2018-10-09 19:55:57.927382', 'mgs': 0, 'volt': 0.8594, 'depth': 0.928, 'time': 6, 'pitch': 1.31, 'roll': -2.01, 'pres': 176}
{'lipoC2': 7.34, 'lipoC3S1': 3.88, 'temp': 26.63, 'lipoC3S3': 11.75, 'lipoC3S2': 7.76, 'rot1': 4, 'rot0': 4, 'rot3': 20, 'rot2': 19, 'state': 'normal', 'yaw': 3.64, 'datetime': '2018-10-09 19:55:58.037435', 'mgs': 0, 'volt': 0.8594, 'depth': 0.928, 'time': 6, 'pitch': 1.74, 'roll': -1.84, 'pres': 176}
{'lipoC2': 7.34, 'lipoC3S1': 3.88, 'temp': 26.63, 'lipoC3S3': 11.75, 'lipoC3S2': 7.76, 'rot1': 4, 'rot0': 4, 'rot3': 20, 'rot2': 19, 'state': 'normal', 'yaw': 4.13, 'datetime': '2018-10-09 19:55:58.141012', 'mgs': 0, 'volt': 0.8496, 'depth': 0.775, 'time': 6, 'pitch': 2.2, 'roll': -1.69, 'pres': 174}
{'lipoC2': 7.34, 'lipoC3S1': 3.88, 'temp': 26.69, 'lipoC3S3': 11.75, 'lipoC3S2': 7.76, 'rot1': 4, 'rot0': 4, 'rot3': 20, 'rot2': 19, 'state': 'normal', 'yaw': 4.58, 'datetime': '2018-10-09 19:55:58.244647', 'mgs': 0, 'volt': 0.8643, 'depth': 1.004, 'time': 7, 'pitch': 2.53, 'roll': -1.58, 'pres': 177}
{'lipoC2': 7.34, 'lipoC3S1': 3.88, 'temp': 26.69, 'lipoC3S3': 11.75, 'lipoC3S2': 7.76, 'rot1': 4, 'rot0': 4, 'rot3': 20, 'rot2': 19, 'state': 'normal', 'yaw': 5.02, 'datetime': '2018-10-09 19:55:58.348125', 'mgs': 0, 'volt': 0.8643, 'depth': 1.004, 'time': 7, 'pitch': 2.71, 'roll': -1.5, 'pres': 177}
{'lipoC2': 7.34, 'lipoC3S1': 3.88, 'temp': 26.63, 'lipoC3S3': 11.75, 'lipoC3S2': 7.76, 'rot1': 4, 'rot0': 4, 'rot3': 20, 'rot2': 19, 'state': 'normal', 'yaw': 5.51, 'datetime': '2018-10-09 19:55:58.451964', 'mgs': 0, 'volt': 0.8691, 'depth': 1.08, 'time': 7, 'pitch': 2.75, 'roll': -1.47, 'pres': 178}
{'lipoC2': 7.34, 'lipoC3S1': 3.88, 'temp': 26.63, 'lipoC3S3': 11.75, 'lipoC3S2': 7.76, 'rot1': 5, 'rot0': 5, 'rot3': 20, 'rot2': 19, 'state': 'normal', 'yaw': 5.95, 'datetime': '2018-10-09 19:55:58.555291', 'mgs': 0, 'volt': 0.8691, 'depth': 1.08, 'time': 7, 'pitch': 2.76, 'roll': -1.45, 'pres': 178}
{'lipoC2': 7.34, 'lipoC3S1': 3.88, 'temp': 26.63, 'lipoC3S3': 11.75, 'lipoC3S2': 7.76, 'rot1': 5, 'rot0': 5, 'rot3': 20, 'rot2': 19, 'state': 'normal', 'yaw': 6.37, 'datetime': '2018-10-09 19:55:58.660125', 'mgs': 0, 'volt': 0.874, 'depth': 1.157, 'time': 7, 'pitch': 2.75, 'roll': -1.43, 'pres': 179}
{'lipoC2': 7.34, 'lipoC3S1': 3.88, 'temp': 26.63, 'lipoC3S3': 11.75, 'lipoC3S2': 7.76, 'rot1': 5, 'rot0': 5, 'rot3': 20, 'rot2': 19, 'state': 'normal', 'yaw': 6.83, 'datetime': '2018-10-09 19:55:58.763586', 'mgs': 0, 'volt': 0.874, 'depth': 1.157, 'time': 7, 'pitch': 2.71, 'roll': -1.51, 'pres': 179}
{'lipoC2': 7.34, 'lipoC3S1': 3.88, 'temp': 26.63, 'lipoC3S3': 11.75, 'lipoC3S2': 7.76, 'rot1': 5, 'rot0': 5, 'rot3': 20, 'rot2': 19, 'state': 'normal', 'yaw': 7.23, 'datetime': '2018-10-09 19:55:58.867362', 'mgs': 0, 'volt': 0.874, 'depth': 1.157, 'time': 7, 'pitch': 2.62, 'roll': -1.58, 'pres': 179}
{'lipoC2': 7.34, 'lipoC3S1': 3.88, 'temp': 26.69, 'lipoC3S3': 11.75, 'lipoC3S2': 7.76, 'rot1': 5, 'rot0': 5, 'rot3': 20, 'rot2': 19, 'state': 'normal', 'yaw': 7.63, 'datetime': '2018-10-09 19:55:58.972110', 'mgs': 0, 'volt': 0.8887, 'depth': 1.385, 'time': 7, 'pitch': 2.46, 'roll': -1.66, 'pres': 182}
{'lipoC2': 7.34, 'lipoC3S1': 3.88, 'temp': 26.69, 'lipoC3S3': 11.75, 'lipoC3S2': 7.76, 'rot1': 5, 'rot0': 5, 'rot3': 20, 'rot2': 19, 'state': 'normal', 'yaw': 8.04, 'datetime': '2018-10-09 19:55:59.075652', 'mgs': 0, 'volt': 0.8789, 'depth': 1.233, 'time': 7, 'pitch': 2.2, 'roll': -1.75, 'pres': 180}
{'lipoC2': 7.34, 'lipoC3S1': 3.87, 'temp': 26.69, 'lipoC3S3': 11.69, 'lipoC3S2': 7.7, 'rot1': 5, 'rot0': 5, 'rot3': 21, 'rot2': 20, 'state': 'normal', 'yaw': 8.41, 'datetime': '2018-10-09 19:55:59.180609', 'mgs': 0, 'volt': 0.8838, 'depth': 1.309, 'time': 7, 'pitch': 1.91, 'roll': -1.83, 'pres': 181}
{'lipoC2': 7.33, 'lipoC3S1': 3.88, 'temp': 26.69, 'lipoC3S3': 11.71, 'lipoC3S2': 7.74, 'rot1': 6, 'rot0': 6, 'rot3': 21, 'rot2': 20, 'state': 'normal', 'yaw': 8.77, 'datetime': '2018-10-09 19:55:59.284384', 'mgs': 0, 'volt': 0.8936, 'depth': 1.462, 'time': 8, 'pitch': 1.7, 'roll': -1.82, 'pres': 183}
{'lipoC2': 7.33, 'lipoC3S1': 3.85, 'temp': 26.69, 'lipoC3S3': 11.71, 'lipoC3S2': 7.74, 'rot1': 6, 'rot0': 6, 'rot3': 22, 'rot2': 21, 'state': 'normal', 'yaw': 9.05, 'datetime': '2018-10-09 19:55:59.387900', 'mgs': 0, 'volt': 0.9033, 'depth': 1.614, 'time': 8, 'pitch': 1.67, 'roll': -1.78, 'pres': 185}
{'lipoC2': 7.34, 'lipoC3S1': 3.86, 'temp': 26.69, 'lipoC3S3': 11.72, 'lipoC3S2': 7.74, 'rot1': 6, 'rot0': 6, 'rot3': 22, 'rot2': 21, 'state': 'normal', 'yaw': 9.28, 'datetime': '2018-10-09 19:55:59.491515', 'mgs': 0, 'volt': 0.9033, 'depth': 1.614, 'time': 8, 'pitch': 1.8, 'roll': -1.69, 'pres': 185}
{'lipoC2': 7.34, 'lipoC3S1': 3.85, 'temp': 26.69, 'lipoC3S3': 11.72, 'lipoC3S2': 7.73, 'rot1': 6, 'rot0': 6, 'rot3': 23, 'rot2': 22, 'state': 'normal', 'yaw': 9.48, 'datetime': '2018-10-09 19:55:59.588779', 'mgs': 0, 'volt': 0.8838, 'depth': 1.309, 'time': 8, 'pitch': 2.05, 'roll': -1.56, 'pres': 181}
{'lipoC2': 7.34, 'lipoC3S1': 3.83, 'temp': 26.63, 'lipoC3S3': 11.71, 'lipoC3S2': 7.71, 'rot1': 6, 'rot0': 6, 'rot3': 24, 'rot2': 22, 'state': 'normal', 'yaw': 9.63, 'datetime': '2018-10-09 19:55:59.696152', 'mgs': 0, 'volt': 0.8838, 'depth': 1.309, 'time': 8, 'pitch': 2.32, 'roll': -1.44, 'pres': 181}
{'lipoC2': 7.34, 'lipoC3S1': 3.87, 'temp': 26.63, 'lipoC3S3': 11.68, 'lipoC3S2': 7.7, 'rot1': 6, 'rot0': 6, 'rot3': 24, 'rot2': 23, 'state': 'normal', 'yaw': 9.76, 'datetime': '2018-10-09 19:55:59.802102', 'mgs': 0, 'volt': 0.8838, 'depth': 1.309, 'time': 8, 'pitch': 2.57, 'roll': -1.3, 'pres': 181}
{'lipoC2': 7.33, 'lipoC3S1': 3.88, 'temp': 26.69, 'lipoC3S3': 11.71, 'lipoC3S2': 7.74, 'rot1': 6, 'rot0': 6, 'rot3': 25, 'rot2': 24, 'state': 'normal', 'yaw': 9.89, 'datetime': '2018-10-09 19:55:59.905850', 'mgs': 0, 'volt': 0.8936, 'depth': 1.462, 'time': 8, 'pitch': 2.78, 'roll': -1.12, 'pres': 183}
{'lipoC2': 7.34, 'lipoC3S1': 3.87, 'temp': 26.69, 'lipoC3S3': 11.71, 'lipoC3S2': 7.74, 'rot1': 6, 'rot0': 6, 'rot3': 25, 'rot2': 24, 'state': 'normal', 'yaw': 10.01, 'datetime': '2018-10-09 19:56:00.009423', 'mgs': 0, 'volt': 0.8984, 'depth': 1.538, 'time': 8, 'pitch': 2.91, 'roll': -0.98, 'pres': 184}
{'lipoC2': 7.34, 'lipoC3S1': 3.87, 'temp': 26.69, 'lipoC3S3': 11.68, 'lipoC3S2': 7.7, 'rot1': 6, 'rot0': 6, 'rot3': 26, 'rot2': 25, 'state': 'normal', 'yaw': 10.11, 'datetime': '2018-10-09 19:56:00.114257', 'mgs': 0, 'volt': 0.8789, 'depth': 1.233, 'time': 8, 'pitch': 3.03, 'roll': -0.88, 'pres': 180}
{'lipoC2': 7.34, 'lipoC3S1': 3.88, 'temp': 26.69, 'lipoC3S3': 11.65, 'lipoC3S2': 7.74, 'rot1': 6, 'rot0': 6, 'rot3': 27, 'rot2': 25, 'state': 'normal', 'yaw': 10.21, 'datetime': '2018-10-09 19:56:00.217785', 'mgs': 0, 'volt': 0.8789, 'depth': 1.233, 'time': 9, 'pitch': 3.2, 'roll': -0.79, 'pres': 180}
{'lipoC2': 7.34, 'lipoC3S1': 3.87, 'temp': 26.69, 'lipoC3S3': 11.69, 'lipoC3S2': 7.7, 'rot1': 6, 'rot0': 6, 'rot3': 27, 'rot2': 26, 'state': 'normal', 'yaw': 10.29, 'datetime': '2018-10-09 19:56:00.322493', 'mgs': 0, 'volt': 0.8789, 'depth': 1.233, 'time': 9, 'pitch': 3.33, 'roll': -0.77, 'pres': 180}
{'lipoC2': 7.33, 'lipoC3S1': 3.88, 'temp': 26.69, 'lipoC3S3': 11.72, 'lipoC3S2': 7.74, 'rot1': 6, 'rot0': 6, 'rot3': 28, 'rot2': 27, 'state': 'normal', 'yaw': 10.36, 'datetime': '2018-10-09 19:56:00.426621', 'mgs': 0, 'volt': 0.8789, 'depth': 1.233, 'time': 9, 'pitch': 3.42, 'roll': -0.77, 'pres': 180}
{'lipoC2': 7.33, 'lipoC3S1': 3.88, 'temp': 26.69, 'lipoC3S3': 11.71, 'lipoC3S2': 7.74, 'rot1': 6, 'rot0': 6, 'rot3': 29, 'rot2': 27, 'state': 'normal', 'yaw': 10.41, 'datetime': '2018-10-09 19:56:00.530208', 'mgs': 0, 'volt': 0.8887, 'depth': 1.385, 'time': 9, 'pitch': 3.42, 'roll': -0.76, 'pres': 182}
{'lipoC2': 7.34, 'lipoC3S1': 3.83, 'temp': 26.63, 'lipoC3S3': 11.68, 'lipoC3S2': 7.71, 'rot1': 6, 'rot0': 6, 'rot3': 29, 'rot2': 28, 'state': 'normal', 'yaw': 10.43, 'datetime': '2018-10-09 19:56:00.635043', 'mgs': 0, 'volt': 0.874, 'depth': 1.157, 'time': 9, 'pitch': 3.42, 'roll': -0.81, 'pres': 179}
{'lipoC2': 7.34, 'lipoC3S1': 3.87, 'temp': 26.63, 'lipoC3S3': 11.69, 'lipoC3S2': 7.71, 'rot1': 6, 'rot0': 6, 'rot3': 30, 'rot2': 28, 'state': 'normal', 'yaw': 10.44, 'datetime': '2018-10-09 19:56:00.738614', 'mgs': 0, 'volt': 0.874, 'depth': 1.157, 'time': 9, 'pitch': 3.37, 'roll': -0.87, 'pres': 179}
{'lipoC2': 7.34, 'lipoC3S1': 3.88, 'temp': 26.63, 'lipoC3S3': 11.73, 'lipoC3S2': 7.76, 'rot1': 6, 'rot0': 7, 'rot3': 30, 'rot2': 29, 'state': 'normal', 'yaw': 10.43, 'datetime': '2018-10-09 19:56:00.842174', 'mgs': 0, 'volt': 0.874, 'depth': 1.157, 'time': 9, 'pitch': 3.31, 'roll': -0.95, 'pres': 179}
{'lipoC2': 7.34, 'lipoC3S1': 3.88, 'temp': 26.69, 'lipoC3S3': 11.73, 'lipoC3S2': 7.76, 'rot1': 6, 'rot0': 7, 'rot3': 30, 'rot2': 29, 'state': 'normal', 'yaw': 10.44, 'datetime': '2018-10-09 19:56:00.945732', 'mgs': 0, 'volt': 0.8594, 'depth': 0.928, 'time': 9, 'pitch': 3.16, 'roll': -1.09, 'pres': 176}
{'lipoC2': 7.34, 'lipoC3S1': 3.88, 'temp': 26.69, 'lipoC3S3': 11.75, 'lipoC3S2': 7.76, 'rot1': 6, 'rot0': 7, 'rot3': 30, 'rot2': 29, 'state': 'normal', 'yaw': 10.44, 'datetime': '2018-10-09 19:56:01.044791', 'mgs': 0, 'volt': 0.8691, 'depth': 1.08, 'time': 9, 'pitch': 2.91, 'roll': -1.28, 'pres': 178}
{'lipoC2': 7.34, 'lipoC3S1': 3.88, 'temp': 26.63, 'lipoC3S3': 11.73, 'lipoC3S2': 7.76, 'rot1': 6, 'rot0': 7, 'rot3': 30, 'rot2': 29, 'state': 'normal', 'yaw': 10.45, 'datetime': '2018-10-09 19:56:01.153011', 'mgs': 0, 'volt': 0.8643, 'depth': 1.004, 'time': 9, 'pitch': 2.65, 'roll': -1.45, 'pres': 177}
{'lipoC2': 7.34, 'lipoC3S1': 3.88, 'temp': 26.63, 'lipoC3S3': 11.75, 'lipoC3S2': 7.72, 'rot1': 6, 'rot0': 7, 'rot3': 30, 'rot2': 29, 'state': 'normal', 'yaw': 10.45, 'datetime': '2018-10-09 19:56:01.256560', 'mgs': 0, 'volt': 0.8691, 'depth': 1.08, 'time': 10, 'pitch': 2.41, 'roll': -1.63, 'pres': 178}
{'lipoC2': 7.34, 'lipoC3S1': 3.88, 'temp': 26.69, 'lipoC3S3': 11.73, 'lipoC3S2': 7.76, 'rot1': 6, 'rot0': 7, 'rot3': 30, 'rot2': 29, 'state': 'normal', 'yaw': 10.46, 'datetime': '2018-10-09 19:56:01.360440', 'mgs': 0, 'volt': 0.8643, 'depth': 1.004, 'time': 10, 'pitch': 2.22, 'roll': -1.83, 'pres': 177}
{'lipoC2': 7.34, 'lipoC3S1': 3.88, 'temp': 26.69, 'lipoC3S3': 11.73, 'lipoC3S2': 7.76, 'rot1': 6, 'rot0': 7, 'rot3': 30, 'rot2': 29, 'state': 'normal', 'yaw': 10.46, 'datetime': '2018-10-09 19:56:01.463865', 'mgs': 0, 'volt': 0.8643, 'depth': 1.004, 'time': 10, 'pitch': 2.15, 'roll': -2.03, 'pres': 177}
{'lipoC2': 7.34, 'lipoC3S1': 3.88, 'temp': 26.69, 'lipoC3S3': 11.75, 'lipoC3S2': 7.76, 'rot1': 6, 'rot0': 7, 'rot3': 30, 'rot2': 29, 'state': 'normal', 'yaw': 10.46, 'datetime': '2018-10-09 19:56:01.568869', 'mgs': 0, 'volt': 0.8643, 'depth': 1.004, 'time': 10, 'pitch': 2.15, 'roll': -2.23, 'pres': 177}
{'lipoC2': 7.34, 'lipoC3S1': 3.88, 'temp': 26.63, 'lipoC3S3': 11.73, 'lipoC3S2': 7.76, 'rot1': 6, 'rot0': 7, 'rot3': 30, 'rot2': 29, 'state': 'normal', 'yaw': 10.47, 'datetime': '2018-10-09 19:56:01.672507', 'mgs': 0, 'volt': 0.8691, 'depth': 1.08, 'time': 10, 'pitch': 2.22, 'roll': -2.44, 'pres': 178}
{'lipoC2': 7.34, 'lipoC3S1': 3.88, 'temp': 26.63, 'lipoC3S3': 11.75, 'lipoC3S2': 7.76, 'rot1': 6, 'rot0': 7, 'rot3': 30, 'rot2': 29, 'state': 'normal', 'yaw': 10.46, 'datetime': '2018-10-09 19:56:01.779495', 'mgs': 0, 'volt': 0.8691, 'depth': 1.08, 'time': 10, 'pitch': 2.3, 'roll': -2.58, 'pres': 178}
{'lipoC2': 7.34, 'lipoC3S1': 3.88, 'temp': 26.69, 'lipoC3S3': 11.73, 'lipoC3S2': 7.76, 'rot1': 6, 'rot0': 7, 'rot3': 30, 'rot2': 29, 'state': 'normal', 'yaw': 10.45, 'datetime': '2018-10-09 19:56:01.877255', 'mgs': 0, 'volt': 0.8691, 'depth': 1.08, 'time': 10, 'pitch': 2.37, 'roll': -2.65, 'pres': 178}
{'lipoC2': 7.34, 'lipoC3S1': 3.88, 'temp': 26.69, 'lipoC3S3': 11.73, 'lipoC3S2': 7.76, 'rot1': 6, 'rot0': 7, 'rot3': 30, 'rot2': 29, 'state': 'normal', 'yaw': 10.45, 'datetime': '2018-10-09 19:56:01.980975', 'mgs': 0, 'volt': 0.8691, 'depth': 1.08, 'time': 10, 'pitch': 2.46, 'roll': -2.65, 'pres': 178}
{'lipoC2': 7.34, 'lipoC3S1': 3.88, 'temp': 26.69, 'lipoC3S3': 11.75, 'lipoC3S2': 7.74, 'rot1': 6, 'rot0': 7, 'rot3': 30, 'rot2': 29, 'state': 'normal', 'yaw': 10.45, 'datetime': '2018-10-09 19:56:02.085612', 'mgs': 0, 'volt': 0.874, 'depth': 1.157, 'time': 10, 'pitch': 2.57, 'roll': -2.64, 'pres': 179}
{'lipoC2': 7.34, 'lipoC3S1': 3.88, 'temp': 26.69, 'lipoC3S3': 11.73, 'lipoC3S2': 7.76, 'rot1': 6, 'rot0': 7, 'rot3': 30, 'rot2': 29, 'state': 'normal', 'yaw': 10.44, 'datetime': '2018-10-09 19:56:02.189440', 'mgs': 0, 'volt': 0.874, 'depth': 1.157, 'time': 11, 'pitch': 2.75, 'roll': -2.62, 'pres': 179}
{'lipoC2': 7.34, 'lipoC3S1': 3.88, 'temp': 26.69, 'lipoC3S3': 11.75, 'lipoC3S2': 7.76, 'rot1': 6, 'rot0': 8, 'rot3': 30, 'rot2': 29, 'state': 'normal', 'yaw': 10.42, 'datetime': '2018-10-09 19:56:02.292991', 'mgs': 0, 'volt': 0.8691, 'depth': 1.08, 'time': 11, 'pitch': 2.95, 'roll': -2.62, 'pres': 178}
{'lipoC2': 7.34, 'lipoC3S1': 3.88, 'temp': 26.63, 'lipoC3S3': 11.75, 'lipoC3S2': 7.76, 'rot1': 6, 'rot0': 8, 'rot3': 30, 'rot2': 29, 'state': 'normal', 'yaw': 10.4, 'datetime': '2018-10-09 19:56:02.396773', 'mgs': 0, 'volt': 0.8789, 'depth': 1.233, 'time': 11, 'pitch': 3.14, 'roll': -2.6, 'pres': 180}
{'lipoC2': 7.34, 'lipoC3S1': 3.83, 'temp': 26.63, 'lipoC3S3': 11.71, 'lipoC3S2': 7.71, 'rot1': 6, 'rot0': 8, 'rot3': 30, 'rot2': 29, 'state': 'normal', 'yaw': 10.35, 'datetime': '2018-10-09 19:56:02.500427', 'mgs': 0, 'volt': 0.8789, 'depth': 1.233, 'time': 11, 'pitch': 3.29, 'roll': -2.56, 'pres': 180}
{'lipoC2': 7.34, 'lipoC3S1': 3.87, 'temp': 26.63, 'lipoC3S3': 11.67, 'lipoC3S2': 7.73, 'rot1': 6, 'rot0': 8, 'rot3': 31, 'rot2': 29, 'state': 'normal', 'yaw': 10.27, 'datetime': '2018-10-09 19:56:02.604232', 'mgs': 0, 'volt': 0.8789, 'depth': 1.233, 'time': 11, 'pitch': 3.49, 'roll': -2.43, 'pres': 180}
{'lipoC2': 7.33, 'lipoC3S1': 3.88, 'temp': 26.63, 'lipoC3S3': 11.71, 'lipoC3S2': 7.74, 'rot1': 6, 'rot0': 8, 'rot3': 32, 'rot2': 30, 'state': 'normal', 'yaw': 10.19, 'datetime': '2018-10-09 19:56:02.707709', 'mgs': 0, 'volt': 0.8936, 'depth': 1.462, 'time': 11, 'pitch': 3.76, 'roll': -2.26, 'pres': 183}
{'lipoC2': 7.34, 'lipoC3S1': 3.85, 'temp': 26.69, 'lipoC3S3': 11.72, 'lipoC3S2': 7.72, 'rot1': 6, 'rot0': 8, 'rot3': 32, 'rot2': 31, 'state': 'normal', 'yaw': 10.1, 'datetime': '2018-10-09 19:56:02.811552', 'mgs': 0, 'volt': 0.8838, 'depth': 1.309, 'time': 11, 'pitch': 4.1, 'roll': -2.08, 'pres': 181}
{'lipoC2': 7.34, 'lipoC3S1': 3.87, 'temp': 26.69, 'lipoC3S3': 11.64, 'lipoC3S2': 7.74, 'rot1': 6, 'rot0': 8, 'rot3': 33, 'rot2': 31, 'state': 'normal', 'yaw': 10.01, 'datetime': '2018-10-09 19:56:02.915618', 'mgs': 0, 'volt': 0.8789, 'depth': 1.233, 'time': 11, 'pitch': 4.43, 'roll': -1.92, 'pres': 180}
{'lipoC2': 7.34, 'lipoC3S1': 3.87, 'temp': 26.69, 'lipoC3S3': 11.71, 'lipoC3S2': 7.74, 'rot1': 6, 'rot0': 8, 'rot3': 33, 'rot2': 32, 'state': 'normal', 'yaw': 9.9, 'datetime': '2018-10-09 19:56:03.020114', 'mgs': 0, 'volt': 0.8984, 'depth': 1.538, 'time': 11, 'pitch': 4.69, 'roll': -1.79, 'pres': 184}
{'lipoC2': 7.34, 'lipoC3S1': 3.84, 'temp': 26.69, 'lipoC3S3': 11.71, 'lipoC3S2': 7.72, 'rot1': 6, 'rot0': 8, 'rot3': 34, 'rot2': 32, 'state': 'normal', 'yaw': 9.79, 'datetime': '2018-10-09 19:56:03.123795', 'mgs': 0, 'volt': 0.8789, 'depth': 1.233, 'time': 11, 'pitch': 4.88, 'roll': -1.69, 'pres': 180}
{'lipoC2': 7.33, 'lipoC3S1': 3.88, 'temp': 26.69, 'lipoC3S3': 11.71, 'lipoC3S2': 7.74, 'rot1': 6, 'rot0': 8, 'rot3': 35, 'rot2': 33, 'state': 'normal', 'yaw': 9.72, 'datetime': '2018-10-09 19:56:03.228850', 'mgs': 0, 'volt': 0.8936, 'depth': 1.462, 'time': 12, 'pitch': 4.95, 'roll': -1.65, 'pres': 183}
{'lipoC2': 7.34, 'lipoC3S1': 3.85, 'temp': 26.69, 'lipoC3S3': 11.71, 'lipoC3S2': 7.74, 'rot1': 6, 'rot0': 8, 'rot3': 35, 'rot2': 33, 'state': 'normal', 'yaw': 9.67, 'datetime': '2018-10-09 19:56:03.332505', 'mgs': 0, 'volt': 0.8789, 'depth': 1.233, 'time': 12, 'pitch': 4.95, 'roll': -1.66, 'pres': 180}
{'lipoC2': 7.34, 'lipoC3S1': 3.84, 'temp': 26.69, 'lipoC3S3': 11.72, 'lipoC3S2': 7.71, 'rot1': 6, 'rot0': 8, 'rot3': 36, 'rot2': 34, 'state': 'normal', 'yaw': 9.67, 'datetime': '2018-10-09 19:56:03.436921', 'mgs': 0, 'volt': 0.8789, 'depth': 1.233, 'time': 12, 'pitch': 4.95, 'roll': -1.7, 'pres': 180}
{'lipoC2': 7.33, 'lipoC3S1': 3.88, 'temp': 26.69, 'lipoC3S3': 11.71, 'lipoC3S2': 7.74, 'rot1': 6, 'rot0': 8, 'rot3': 37, 'rot2': 35, 'state': 'normal', 'yaw': 9.68, 'datetime': '2018-10-09 19:56:03.541675', 'mgs': 0, 'volt': 0.8838, 'depth': 1.309, 'time': 12, 'pitch': 4.92, 'roll': -1.8, 'pres': 181}
{'lipoC2': 7.34, 'lipoC3S1': 3.86, 'temp': 26.69, 'lipoC3S3': 11.71, 'lipoC3S2': 7.74, 'rot1': 6, 'rot0': 8, 'rot3': 37, 'rot2': 35, 'state': 'normal', 'yaw': 9.72, 'datetime': '2018-10-09 19:56:03.645479', 'mgs': 0, 'volt': 0.8984, 'depth': 1.538, 'time': 12, 'pitch': 4.89, 'roll': -1.95, 'pres': 184}
{'lipoC2': 7.34, 'lipoC3S1': 3.84, 'temp': 26.69, 'lipoC3S3': 11.72, 'lipoC3S2': 7.71, 'rot1': 6, 'rot0': 9, 'rot3': 38, 'rot2': 36, 'state': 'normal', 'yaw': 9.76, 'datetime': '2018-10-09 19:56:03.749112', 'mgs': 0, 'volt': 0.874, 'depth': 1.157, 'time': 12, 'pitch': 4.89, 'roll': -2.11, 'pres': 179}
{'lipoC2': 7.34, 'lipoC3S1': 3.88, 'temp': 26.69, 'lipoC3S3': 11.71, 'lipoC3S2': 7.74, 'rot1': 6, 'rot0': 9, 'rot3': 38, 'rot2': 36, 'state': 'normal', 'yaw': 9.76, 'datetime': '2018-10-09 19:56:03.853066', 'mgs': 0, 'volt': 0.8789, 'depth': 1.233, 'time': 12, 'pitch': 4.89, 'roll': -2.28, 'pres': 180}
{'lipoC2': 7.34, 'lipoC3S1': 3.86, 'temp': 26.69, 'lipoC3S3': 11.71, 'lipoC3S2': 7.74, 'rot1': 6, 'rot0': 9, 'rot3': 39, 'rot2': 37, 'state': 'normal', 'yaw': 9.75, 'datetime': '2018-10-09 19:56:03.956703', 'mgs': 0, 'volt': 0.8936, 'depth': 1.462, 'time': 12, 'pitch': 4.94, 'roll': -2.45, 'pres': 183}
{'lipoC2': 7.34, 'lipoC3S1': 3.87, 'temp': 26.63, 'lipoC3S3': 11.71, 'lipoC3S2': 7.71, 'rot1': 6, 'rot0': 9, 'rot3': 40, 'rot2': 38, 'state': 'normal', 'yaw': 9.75, 'datetime': '2018-10-09 19:56:04.060367', 'mgs': 0, 'volt': 0.8691, 'depth': 1.08, 'time': 12, 'pitch': 5.01, 'roll': -2.6, 'pres': 178}
{'lipoC2': 7.34, 'lipoC3S1': 3.88, 'temp': 26.63, 'lipoC3S3': 11.73, 'lipoC3S2': 7.76, 'rot1': 6, 'rot0': 9, 'rot3': 40, 'rot2': 38, 'state': 'normal', 'yaw': 9.75, 'datetime': '2018-10-09 19:56:04.163971', 'mgs': 0, 'volt': 0.8691, 'depth': 1.08, 'time': 12, 'pitch': 5.02, 'roll': -2.73, 'pres': 178}
{'lipoC2': 7.34, 'lipoC3S1': 3.85, 'temp': 26.63, 'lipoC3S3': 11.73, 'lipoC3S2': 7.76, 'rot1': 6, 'rot0': 9, 'rot3': 40, 'rot2': 38, 'state': 'normal', 'yaw': 9.76, 'datetime': '2018-10-09 19:56:04.267796', 'mgs': 0, 'volt': 0.8691, 'depth': 1.08, 'time': 13, 'pitch': 4.9, 'roll': -2.85, 'pres': 178}
{'lipoC2': 7.34, 'lipoC3S1': 3.88, 'temp': 26.63, 'lipoC3S3': 11.73, 'lipoC3S2': 7.76, 'rot1': 6, 'rot0': 9, 'rot3': 40, 'rot2': 38, 'state': 'normal', 'yaw': 9.77, 'datetime': '2018-10-09 19:56:04.372758', 'mgs': 0, 'volt': 0.8643, 'depth': 1.004, 'time': 13, 'pitch': 4.65, 'roll': -2.93, 'pres': 177}
{'lipoC2': 7.34, 'lipoC3S1': 3.88, 'temp': 26.63, 'lipoC3S3': 11.73, 'lipoC3S2': 7.76, 'rot1': 6, 'rot0': 9, 'rot3': 40, 'rot2': 38, 'state': 'normal', 'yaw': 9.78, 'datetime': '2018-10-09 19:56:04.476491', 'mgs': 0, 'volt': 0.8691, 'depth': 1.08, 'time': 13, 'pitch': 4.31, 'roll': -3.01, 'pres': 178}
{'lipoC2': 7.34, 'lipoC3S1': 3.88, 'temp': 26.63, 'lipoC3S3': 11.73, 'lipoC3S2': 7.76, 'rot1': 6, 'rot0': 9, 'rot3': 40, 'rot2': 38, 'state': 'normal', 'yaw': 9.8, 'datetime': '2018-10-09 19:56:04.580729', 'mgs': 0, 'volt': 0.8643, 'depth': 1.004, 'time': 13, 'pitch': 4.03, 'roll': -3.05, 'pres': 177}
{'lipoC2': 7.34, 'lipoC3S1': 3.88, 'temp': 26.63, 'lipoC3S3': 11.73, 'lipoC3S2': 7.76, 'rot1': 6, 'rot0': 9, 'rot3': 40, 'rot2': 38, 'state': 'normal', 'yaw': 9.84, 'datetime': '2018-10-09 19:56:04.685092', 'mgs': 0, 'volt': 0.8643, 'depth': 1.004, 'time': 13, 'pitch': 3.81, 'roll': -3.04, 'pres': 177}
{'lipoC2': 7.34, 'lipoC3S1': 3.88, 'temp': 26.69, 'lipoC3S3': 11.73, 'lipoC3S2': 7.76, 'rot1': 6, 'rot0': 9, 'rot3': 40, 'rot2': 38, 'state': 'normal', 'yaw': 9.9, 'datetime': '2018-10-09 19:56:04.788681', 'mgs': 0, 'volt': 0.8643, 'depth': 1.004, 'time': 13, 'pitch': 3.64, 'roll': -3.04, 'pres': 177}
{'lipoC2': 7.34, 'lipoC3S1': 3.88, 'temp': 26.69, 'lipoC3S3': 11.73, 'lipoC3S2': 7.76, 'rot1': 6, 'rot0': 9, 'rot3': 40, 'rot2': 38, 'state': 'normal', 'yaw': 9.94, 'datetime': '2018-10-09 19:56:04.893825', 'mgs': 0, 'volt': 0.8643, 'depth': 1.004, 'time': 13, 'pitch': 3.56, 'roll': -3.03, 'pres': 177}
{'lipoC2': 7.34, 'lipoC3S1': 3.86, 'temp': 26.69, 'lipoC3S3': 11.73, 'lipoC3S2': 7.76, 'rot1': 6, 'rot0': 9, 'rot3': 40, 'rot2': 38, 'state': 'normal', 'yaw': 9.96, 'datetime': '2018-10-09 19:56:04.997473', 'mgs': 0, 'volt': 0.8691, 'depth': 1.08, 'time': 13, 'pitch': 3.55, 'roll': -3.03, 'pres': 178}
{'lipoC2': 7.34, 'lipoC3S1': 3.88, 'temp': 26.69, 'lipoC3S3': 11.73, 'lipoC3S2': 7.76, 'rot1': 6, 'rot0': 9, 'rot3': 40, 'rot2': 38, 'state': 'normal', 'yaw': 10.0, 'datetime': '2018-10-09 19:56:05.101138', 'mgs': 0, 'volt': 0.8691, 'depth': 1.08, 'time': 13, 'pitch': 3.57, 'roll': -3.03, 'pres': 178}
{'lipoC2': 7.34, 'lipoC3S1': 3.88, 'temp': 26.69, 'lipoC3S3': 11.73, 'lipoC3S2': 7.76, 'rot1': 6, 'rot0': 9, 'rot3': 40, 'rot2': 38, 'state': 'normal', 'yaw': 10.0, 'datetime': '2018-10-09 19:56:05.204761', 'mgs': 0, 'volt': 0.8691, 'depth': 1.08, 'time': 14, 'pitch': 3.69, 'roll': -3.03, 'pres': 178}
{'lipoC2': 7.34, 'lipoC3S1': 3.88, 'temp': 26.69, 'lipoC3S3': 11.73, 'lipoC3S2': 7.76, 'rot1': 6, 'rot0': 9, 'rot3': 40, 'rot2': 38, 'state': 'normal', 'yaw': 9.99, 'datetime': '2018-10-09 19:56:05.308480', 'mgs': 0, 'volt': 0.8691, 'depth': 1.08, 'time': 14, 'pitch': 3.87, 'roll': -2.98, 'pres': 178}
{'lipoC2': 7.34, 'lipoC3S1': 3.88, 'temp': 26.69, 'lipoC3S3': 11.75, 'lipoC3S2': 7.76, 'rot1': 6, 'rot0': 9, 'rot3': 40, 'rot2': 38, 'state': 'normal', 'yaw': 9.99, 'datetime': '2018-10-09 19:56:05.412073', 'mgs': 0, 'volt': 0.874, 'depth': 1.157, 'time': 14, 'pitch': 4.08, 'roll': -2.92, 'pres': 179}
{'lipoC2': 7.34, 'lipoC3S1': 3.88, 'temp': 26.69, 'lipoC3S3': 11.73, 'lipoC3S2': 7.76, 'rot1': 6, 'rot0': 9, 'rot3': 40, 'rot2': 38, 'state': 'normal', 'yaw': 9.97, 'datetime': '2018-10-09 19:56:05.519849', 'mgs': 0, 'volt': 0.874, 'depth': 1.157, 'time': 14, 'pitch': 4.3, 'roll': -2.92, 'pres': 179}
{'lipoC2': 7.34, 'lipoC3S1': 3.88, 'temp': 26.69, 'lipoC3S3': 11.75, 'lipoC3S2': 7.76, 'rot1': 6, 'rot0': 9, 'rot3': 40, 'rot2': 38, 'state': 'normal', 'yaw': 9.96, 'datetime': '2018-10-09 19:56:05.623538', 'mgs': 0, 'volt': 0.874, 'depth': 1.157, 'time': 14, 'pitch': 4.56, 'roll': -2.92, 'pres': 179}
{'lipoC2': 7.34, 'lipoC3S1': 3.88, 'temp': 26.69, 'lipoC3S3': 11.73, 'lipoC3S2': 7.76, 'rot1': 6, 'rot0': 9, 'rot3': 40, 'rot2': 38, 'state': 'normal', 'yaw': 9.94, 'datetime': '2018-10-09 19:56:05.728077', 'mgs': 0, 'volt': 0.8789, 'depth': 1.233, 'time': 14, 'pitch': 4.81, 'roll': -2.92, 'pres': 180}
{'lipoC2': 7.34, 'lipoC3S1': 3.87, 'temp': 26.69, 'lipoC3S3': 11.63, 'lipoC3S2': 7.73, 'rot1': 6, 'rot0': 9, 'rot3': 40, 'rot2': 38, 'state': 'normal', 'yaw': 9.93, 'datetime': '2018-10-09 19:56:05.832472', 'mgs': 0, 'volt': 0.8789, 'depth': 1.233, 'time': 14, 'pitch': 5.08, 'roll': -2.92, 'pres': 180}
{'lipoC2': 7.34, 'lipoC3S1': 3.86, 'temp': 26.69, 'lipoC3S3': 11.71, 'lipoC3S2': 7.74, 'rot1': 6, 'rot0': 9, 'rot3': 41, 'rot2': 39, 'state': 'normal', 'yaw': 9.91, 'datetime': '2018-10-09 19:56:05.939348', 'mgs': 0, 'volt': 0.8984, 'depth': 1.538, 'time': 14, 'pitch': 5.43, 'roll': -2.86, 'pres': 184}
{'lipoC2': 7.34, 'lipoC3S1': 3.87, 'temp': 26.63, 'lipoC3S3': 11.67, 'lipoC3S2': 7.69, 'rot1': 6, 'rot0': 9, 'rot3': 41, 'rot2': 39, 'state': 'normal', 'yaw': 9.9, 'datetime': '2018-10-09 19:56:06.040579', 'mgs': 0, 'volt': 0.8838, 'depth': 1.309, 'time': 14, 'pitch': 5.8, 'roll': -2.76, 'pres': 181}
{'lipoC2': 7.33, 'lipoC3S1': 3.87, 'temp': 26.63, 'lipoC3S3': 11.71, 'lipoC3S2': 7.74, 'rot1': 6, 'rot0': 9, 'rot3': 42, 'rot2': 40, 'state': 'normal', 'yaw': 9.88, 'datetime': '2018-10-09 19:56:06.144751', 'mgs': 0, 'volt': 0.8936, 'depth': 1.462, 'time': 14, 'pitch': 6.18, 'roll': -2.67, 'pres': 183}
{'lipoC2': 7.34, 'lipoC3S1': 3.85, 'temp': 26.69, 'lipoC3S3': 11.71, 'lipoC3S2': 7.75, 'rot1': 6, 'rot0': 9, 'rot3': 43, 'rot2': 41, 'state': 'normal', 'yaw': 9.82, 'datetime': '2018-10-09 19:56:06.249394', 'mgs': 0, 'volt': 0.8789, 'depth': 1.233, 'time': 15, 'pitch': 6.47, 'roll': -2.65, 'pres': 180}
{'lipoC2': 7.34, 'lipoC3S1': 3.88, 'temp': 26.69, 'lipoC3S3': 11.69, 'lipoC3S2': 7.71, 'rot1': 6, 'rot0': 9, 'rot3': 43, 'rot2': 41, 'state': 'normal', 'yaw': 9.72, 'datetime': '2018-10-09 19:56:06.354210', 'mgs': 0, 'volt': 0.8838, 'depth': 1.309, 'time': 15, 'pitch': 6.72, 'roll': -2.66, 'pres': 181}
{'lipoC2': 7.34, 'lipoC3S1': 3.87, 'temp': 26.69, 'lipoC3S3': 11.65, 'lipoC3S2': 7.74, 'rot1': 6, 'rot0': 9, 'rot3': 44, 'rot2': 42, 'state': 'normal', 'yaw': 9.62, 'datetime': '2018-10-09 19:56:06.457676', 'mgs': 0, 'volt': 0.8936, 'depth': 1.462, 'time': 15, 'pitch': 6.98, 'roll': -2.67, 'pres': 183}
{'lipoC2': 7.34, 'lipoC3S1': 3.87, 'temp': 26.69, 'lipoC3S3': 11.71, 'lipoC3S2': 7.74, 'rot1': 6, 'rot0': 9, 'rot3': 45, 'rot2': 42, 'state': 'normal', 'yaw': 9.53, 'datetime': '2018-10-09 19:56:06.561411', 'mgs': 0, 'volt': 0.8984, 'depth': 1.538, 'time': 15, 'pitch': 7.15, 'roll': -2.69, 'pres': 184}
{'lipoC2': 7.34, 'lipoC3S1': 3.84, 'temp': 26.69, 'lipoC3S3': 11.71, 'lipoC3S2': 7.71, 'rot1': 6, 'rot0': 9, 'rot3': 45, 'rot2': 43, 'state': 'normal', 'yaw': 9.43, 'datetime': '2018-10-09 19:56:06.665021', 'mgs': 0, 'volt': 0.8789, 'depth': 1.233, 'time': 15, 'pitch': 7.21, 'roll': -2.7, 'pres': 180}
{'lipoC2': 7.34, 'lipoC3S1': 3.87, 'temp': 26.63, 'lipoC3S3': 11.65, 'lipoC3S2': 7.73, 'rot1': 6, 'rot0': 9, 'rot3': 46, 'rot2': 44, 'state': 'normal', 'yaw': 9.36, 'datetime': '2018-10-09 19:56:06.768712', 'mgs': 0, 'volt': 0.8789, 'depth': 1.233, 'time': 15, 'pitch': 7.18, 'roll': -2.71, 'pres': 180}
{'lipoC2': 7.34, 'lipoC3S1': 3.89, 'temp': 26.63, 'lipoC3S3': 11.71, 'lipoC3S2': 7.74, 'rot1': 6, 'rot0': 9, 'rot3': 46, 'rot2': 44, 'state': 'normal', 'yaw': 9.29, 'datetime': '2018-10-09 19:56:06.872394', 'mgs': 0, 'volt': 0.8936, 'depth': 1.462, 'time': 15, 'pitch': 7.02, 'roll': -2.72, 'pres': 183}
