{'lipoC2': 7.42, 'lipoC3S1': 4.0, 'temp': 30.56, 'lipoC3S3': 12.12, 'lipoC3S2': 8.01, 'rot1': 0, 'rot0': 0, 'rot3': 0, 'rot2': 0, 'state': 'normal', 'yaw': 1.57, 'datetime': '2018-10-09 13:02:54.253911', 'mgs': 0, 'volt': 0.9424, 'depth': 2.225, 'time': 1, 'pitch': 16.57, 'roll': -8.37, 'pres': 193}
{'lipoC2': 7.42, 'lipoC3S1': 4.0, 'temp': 30.56, 'lipoC3S3': 12.12, 'lipoC3S2': 8.01, 'rot1': 0, 'rot0': 0, 'rot3': 0, 'rot2': 0, 'state': 'normal', 'yaw': 2.38, 'datetime': '2018-10-09 13:02:54.277135', 'mgs': 0, 'volt': 0.9375, 'depth': 2.148, 'time': 1, 'pitch': 14.58, 'roll': -8.53, 'pres': 192}
{'lipoC2': 7.42, 'lipoC3S1': 4.0, 'temp': 30.56, 'lipoC3S3': 12.13, 'lipoC3S2': 8.01, 'rot1': 0, 'rot0': 0, 'rot3': 0, 'rot2': 0, 'state': 'normal', 'yaw': 2.33, 'datetime': '2018-10-09 13:02:54.300379', 'mgs': 0, 'volt': 0.9375, 'depth': 2.148, 'time': 1, 'pitch': 12.29, 'roll': -8.08, 'pres': 192}
{'lipoC2': 7.43, 'lipoC3S1': 4.0, 'temp': 30.56, 'lipoC3S3': 12.12, 'lipoC3S2': 8.01, 'rot1': 0, 'rot0': 0, 'rot3': 0, 'rot2': 0, 'state': 'normal', 'yaw': 2.03, 'datetime': '2018-10-09 13:02:54.323524', 'mgs': 0, 'volt': 0.9326, 'depth': 2.072, 'time': 1, 'pitch': 9.99, 'roll': -7.38, 'pres': 191}
{'lipoC2': 7.42, 'lipoC3S1': 4.0, 'temp': 30.56, 'lipoC3S3': 12.12, 'lipoC3S2': 8.01, 'rot1': 0, 'rot0': 0, 'rot3': 0, 'rot2': 0, 'state': 'normal', 'yaw': 2.04, 'datetime': '2018-10-09 13:02:54.341045', 'mgs': 0, 'volt': 0.9326, 'depth': 2.072, 'time': 1, 'pitch': 7.92, 'roll': -6.57, 'pres': 191}
{'lipoC2': 7.42, 'lipoC3S1': 4.0, 'temp': 30.56, 'lipoC3S3': 12.13, 'lipoC3S2': 8.01, 'rot1': 0, 'rot0': 0, 'rot3': 0, 'rot2': 0, 'state': 'normal', 'yaw': 2.39, 'datetime': '2018-10-09 13:02:54.351082', 'mgs': 0, 'volt': 0.9326, 'depth': 2.072, 'time': 1, 'pitch': 6.86, 'roll': -6.12, 'pres': 191}
{'lipoC2': 7.42, 'lipoC3S1': 4.0, 'temp': 30.56, 'lipoC3S3': 12.13, 'lipoC3S2': 8.01, 'rot1': 0, 'rot0': 0, 'rot3': 0, 'rot2': 0, 'state': 'normal', 'yaw': 2.34, 'datetime': '2018-10-09 13:02:54.361074', 'mgs': 0, 'volt': 0.9277, 'depth': 1.996, 'time': 1, 'pitch': 6.57, 'roll': -5.94, 'pres': 190}
{'lipoC2': 7.42, 'lipoC3S1': 4.0, 'temp': 30.56, 'lipoC3S3': 12.13, 'lipoC3S2': 8.01, 'rot1': 0, 'rot0': 0, 'rot3': 0, 'rot2': 0, 'state': 'normal', 'yaw': 1.45, 'datetime': '2018-10-09 13:02:54.371078', 'mgs': 0, 'volt': 0.9277, 'depth': 1.996, 'time': 2, 'pitch': 5.98, 'roll': -5.58, 'pres': 190}
{'lipoC2': 7.42, 'lipoC3S1': 4.0, 'temp': 30.56, 'lipoC3S3': 12.13, 'lipoC3S2': 8.01, 'rot1': 0, 'rot0': 0, 'rot3': 0, 'rot2': 0, 'state': 'normal', 'yaw': 0.23, 'datetime': '2018-10-09 13:02:54.381058', 'mgs': 0, 'volt': 0.9229, 'depth': 1.92, 'time': 2, 'pitch': 4.94, 'roll': -5.14, 'pres': 189}
{'lipoC2': 7.43, 'lipoC3S1': 4.0, 'temp': 30.56, 'lipoC3S3': 12.12, 'lipoC3S2': 8.01, 'rot1': 0, 'rot0': 0, 'rot3': 0, 'rot2': 0, 'state': 'normal', 'yaw': -1.06, 'datetime': '2018-10-09 13:02:54.391047', 'mgs': 0, 'volt': 0.9229, 'depth': 1.92, 'time': 2, 'pitch': 3.6, 'roll': -4.72, 'pres': 189}
{'lipoC2': 7.43, 'lipoC3S1': 4.0, 'temp': 30.56, 'lipoC3S3': 12.12, 'lipoC3S2': 8.01, 'rot1': 0, 'rot0': 0, 'rot3': 0, 'rot2': 0, 'state': 'normal', 'yaw': -2.24, 'datetime': '2018-10-09 13:02:54.401058', 'mgs': 0, 'volt': 0.918, 'depth': 1.843, 'time': 2, 'pitch': 2.23, 'roll': -4.33, 'pres': 188}
{'lipoC2': 7.43, 'lipoC3S1': 4.0, 'temp': 30.56, 'lipoC3S3': 12.12, 'lipoC3S2': 8.01, 'rot1': 0, 'rot0': 0, 'rot3': 0, 'rot2': 0, 'state': 'normal', 'yaw': -3.01, 'datetime': '2018-10-09 13:02:54.411058', 'mgs': 0, 'volt': 0.918, 'depth': 1.843, 'time': 2, 'pitch': 1.34, 'roll': -3.99, 'pres': 188}
{'lipoC2': 7.42, 'lipoC3S1': 4.0, 'temp': 30.56, 'lipoC3S3': 12.13, 'lipoC3S2': 8.01, 'rot1': 0, 'rot0': 0, 'rot3': 0, 'rot2': 0, 'state': 'normal', 'yaw': -3.56, 'datetime': '2018-10-09 13:02:54.421040', 'mgs': 0, 'volt': 0.918, 'depth': 1.843, 'time': 2, 'pitch': 0.63, 'roll': -3.63, 'pres': 188}
{'lipoC2': 7.42, 'lipoC3S1': 4.0, 'temp': 30.63, 'lipoC3S3': 12.13, 'lipoC3S2': 8.01, 'rot1': 0, 'rot0': 0, 'rot3': 0, 'rot2': 0, 'state': 'normal', 'yaw': -3.89, 'datetime': '2018-10-09 13:02:54.431218', 'mgs': 0, 'volt': 0.9131, 'depth': 1.767, 'time': 2, 'pitch': 0.27, 'roll': -3.22, 'pres': 187}
{'lipoC2': 7.42, 'lipoC3S1': 4.0, 'temp': 30.63, 'lipoC3S3': 12.13, 'lipoC3S2': 8.01, 'rot1': 0, 'rot0': 0, 'rot3': 0, 'rot2': 0, 'state': 'normal', 'yaw': -4.0, 'datetime': '2018-10-09 13:02:54.441582', 'mgs': 0, 'volt': 0.9131, 'depth': 1.767, 'time': 2, 'pitch': 0.36, 'roll': -2.92, 'pres': 187}
{'lipoC2': 7.42, 'lipoC3S1': 4.0, 'temp': 30.56, 'lipoC3S3': 12.12, 'lipoC3S2': 8.01, 'rot1': 0, 'rot0': 0, 'rot3': 0, 'rot2': 0, 'state': 'normal', 'yaw': -4.01, 'datetime': '2018-10-09 13:02:54.451637', 'mgs': 0, 'volt': 0.9082, 'depth': 1.691, 'time': 2, 'pitch': 0.59, 'roll': -2.67, 'pres': 186}
{'lipoC2': 7.42, 'lipoC3S1': 4.0, 'temp': 30.56, 'lipoC3S3': 12.12, 'lipoC3S2': 8.01, 'rot1': 0, 'rot0': 0, 'rot3': 0, 'rot2': 0, 'state': 'normal', 'yaw': -3.97, 'datetime': '2018-10-09 13:02:54.461666', 'mgs': 0, 'volt': 0.9082, 'depth': 1.691, 'time': 3, 'pitch': 0.69, 'roll': -2.46, 'pres': 186}
{'lipoC2': 7.42, 'lipoC3S1': 4.0, 'temp': 30.56, 'lipoC3S3': 12.12, 'lipoC3S2': 8.01, 'rot1': 0, 'rot0': 0, 'rot3': 0, 'rot2': 0, 'state': 'normal', 'yaw': -3.74, 'datetime': '2018-10-09 13:02:54.471700', 'mgs': 0, 'volt': 0.9082, 'depth': 1.691, 'time': 3, 'pitch': 0.48, 'roll': -2.28, 'pres': 186}
{'lipoC2': 7.42, 'lipoC3S1': 4.0, 'temp': 30.56, 'lipoC3S3': 12.12, 'lipoC3S2': 8.01, 'rot1': 0, 'rot0': 0, 'rot3': 0, 'rot2': 0, 'state': 'normal', 'yaw': -2.83, 'datetime': '2018-10-09 13:02:54.481718', 'mgs': 0, 'volt': 0.9082, 'depth': 1.691, 'time': 3, 'pitch': -0.48, 'roll': -2.39, 'pres': 186}
{'lipoC2': 7.42, 'lipoC3S1': 4.0, 'temp': 30.56, 'lipoC3S3': 12.13, 'lipoC3S2': 8.01, 'rot1': 0, 'rot0': 0, 'rot3': 0, 'rot2': 0, 'state': 'normal', 'yaw': -2.27, 'datetime': '2018-10-09 13:02:54.491251', 'mgs': 0, 'volt': 0.9082, 'depth': 1.691, 'time': 3, 'pitch': -1.27, 'roll': -2.43, 'pres': 186}
{'lipoC2': 7.42, 'lipoC3S1': 4.0, 'temp': 30.56, 'lipoC3S3': 12.13, 'lipoC3S2': 8.01, 'rot1': 0, 'rot0': 0, 'rot3': 0, 'rot2': 0, 'state': 'normal', 'yaw': -2.19, 'datetime': '2018-10-09 13:02:54.500701', 'mgs': 0, 'volt': 0.9082, 'depth': 1.691, 'time': 3, 'pitch': -1.5, 'roll': -2.15, 'pres': 186}
{'lipoC2': 7.42, 'lipoC3S1': 4.0, 'temp': 30.56, 'lipoC3S3': 12.12, 'lipoC3S2': 8.01, 'rot1': 0, 'rot0': 0, 'rot3': 0, 'rot2': 0, 'state': 'normal', 'yaw': -2.53, 'datetime': '2018-10-09 13:02:54.510144', 'mgs': 0, 'volt': 0.9082, 'depth': 1.691, 'time': 3, 'pitch': -0.8, 'roll': -1.58, 'pres': 186}
{'lipoC2': 7.42, 'lipoC3S1': 4.0, 'temp': 30.56, 'lipoC3S3': 12.12, 'lipoC3S2': 8.01, 'rot1': 0, 'rot0': 0, 'rot3': 0, 'rot2': 0, 'state': 'normal', 'yaw': -2.84, 'datetime': '2018-10-09 13:02:54.519580', 'mgs': 0, 'volt': 0.9082, 'depth': 1.691, 'time': 3, 'pitch': 0.42, 'roll': -0.99, 'pres': 186}
{'lipoC2': 7.42, 'lipoC3S1': 4.0, 'temp': 30.56, 'lipoC3S3': 12.12, 'lipoC3S2': 8.01, 'rot1': 0, 'rot0': 0, 'rot3': 0, 'rot2': 0, 'state': 'normal', 'yaw': -2.98, 'datetime': '2018-10-09 13:02:54.529019', 'mgs': 0, 'volt': 0.9082, 'depth': 1.691, 'time': 3, 'pitch': 1.6, 'roll': -0.52, 'pres': 186}
{'lipoC2': 7.42, 'lipoC3S1': 4.0, 'temp': 30.56, 'lipoC3S3': 12.12, 'lipoC3S2': 8.01, 'rot1': 0, 'rot0': 0, 'rot3': 0, 'rot2': 0, 'state': 'normal', 'yaw': -2.86, 'datetime': '2018-10-09 13:02:54.538508', 'mgs': 0, 'volt': 0.9082, 'depth': 1.691, 'time': 3, 'pitch': 2.07, 'roll': -0.28, 'pres': 186}
{'lipoC2': 7.42, 'lipoC3S1': 4.0, 'temp': 30.56, 'lipoC3S3': 12.13, 'lipoC3S2': 8.01, 'rot1': 0, 'rot0': 0, 'rot3': 0, 'rot2': 0, 'state': 'normal', 'yaw': -2.7, 'datetime': '2018-10-09 13:02:54.547951', 'mgs': 0, 'volt': 0.9131, 'depth': 1.767, 'time': 3, 'pitch': 2.82, 'roll': -0.27, 'pres': 187}
{'lipoC2': 7.42, 'lipoC3S1': 4.0, 'temp': 30.56, 'lipoC3S3': 12.12, 'lipoC3S2': 8.01, 'rot1': 0, 'rot0': 0, 'rot3': 0, 'rot2': 0, 'state': 'normal', 'yaw': -2.43, 'datetime': '2018-10-09 13:02:54.557453', 'mgs': 0, 'volt': 0.9131, 'depth': 1.767, 'time': 4, 'pitch': 3.87, 'roll': -0.61, 'pres': 187}
{'lipoC2': 7.43, 'lipoC3S1': 4.0, 'temp': 30.56, 'lipoC3S3': 12.12, 'lipoC3S2': 8.01, 'rot1': 0, 'rot0': 0, 'rot3': 0, 'rot2': 0, 'state': 'normal', 'yaw': -2.07, 'datetime': '2018-10-09 13:02:54.566991', 'mgs': 0, 'volt': 0.9131, 'depth': 1.767, 'time': 4, 'pitch': 3.92, 'roll': -1.27, 'pres': 187}
{'lipoC2': 7.42, 'lipoC3S1': 4.0, 'temp': 30.56, 'lipoC3S3': 12.12, 'lipoC3S2': 8.01, 'rot1': 0, 'rot0': 0, 'rot3': 0, 'rot2': 0, 'state': 'normal', 'yaw': -1.97, 'datetime': '2018-10-09 13:02:54.576682', 'mgs': 0, 'volt': 0.9131, 'depth': 1.767, 'time': 4, 'pitch': 3.45, 'roll': -1.99, 'pres': 187}
{'lipoC2': 7.42, 'lipoC3S1': 4.0, 'temp': 30.56, 'lipoC3S3': 12.13, 'lipoC3S2': 8.01, 'rot1': 0, 'rot0': 0, 'rot3': 0, 'rot2': 0, 'state': 'normal', 'yaw': -1.83, 'datetime': '2018-10-09 13:02:54.586189', 'mgs': 0, 'volt': 0.9131, 'depth': 1.767, 'time': 4, 'pitch': 2.67, 'roll': -2.76, 'pres': 187}
{'lipoC2': 7.42, 'lipoC3S1': 4.0, 'temp': 30.56, 'lipoC3S3': 12.13, 'lipoC3S2': 8.01, 'rot1': 0, 'rot0': 0, 'rot3': 0, 'rot2': 0, 'state': 'normal', 'yaw': -1.43, 'datetime': '2018-10-09 13:02:54.595647', 'mgs': 0, 'volt': 0.9131, 'depth': 1.767, 'time': 4, 'pitch': 2.06, 'roll': -3.56, 'pres': 187}
{'lipoC2': 7.42, 'lipoC3S1': 4.0, 'temp': 30.56, 'lipoC3S3': 12.12, 'lipoC3S2': 8.01, 'rot1': 0, 'rot0': 0, 'rot3': 0, 'rot2': 0, 'state': 'normal', 'yaw': -1.04, 'datetime': '2018-10-09 13:02:54.605069', 'mgs': 0, 'volt': 0.9131, 'depth': 1.767, 'time': 4, 'pitch': 2.09, 'roll': -4.37, 'pres': 187}
{'lipoC2': 7.42, 'lipoC3S1': 4.0, 'temp': 30.63, 'lipoC3S3': 12.12, 'lipoC3S2': 8.01, 'rot1': 0, 'rot0': 0, 'rot3': 0, 'rot2': 0, 'state': 'normal', 'yaw': -0.76, 'datetime': '2018-10-09 13:02:54.614466', 'mgs': 0, 'volt': 0.9131, 'depth': 1.767, 'time': 4, 'pitch': 2.55, 'roll': -5.08, 'pres': 187}
{'lipoC2': 7.42, 'lipoC3S1': 4.0, 'temp': 30.63, 'lipoC3S3': 12.12, 'lipoC3S2': 8.01, 'rot1': 0, 'rot0': 0, 'rot3': 0, 'rot2': 0, 'state': 'normal', 'yaw': -0.66, 'datetime': '2018-10-09 13:02:54.623879', 'mgs': 0, 'volt': 0.918, 'depth': 1.843, 'time': 4, 'pitch': 3.26, 'roll': -5.46, 'pres': 188}
{'lipoC2': 7.42, 'lipoC3S1': 4.0, 'temp': 30.63, 'lipoC3S3': 12.12, 'lipoC3S2': 8.01, 'rot1': 0, 'rot0': 0, 'rot3': 0, 'rot2': 0, 'state': 'normal', 'yaw': -0.6, 'datetime': '2018-10-09 13:02:54.633301', 'mgs': 0, 'volt': 0.918, 'depth': 1.843, 'time': 4, 'pitch': 4.18, 'roll': -5.55, 'pres': 188}
{'lipoC2': 7.42, 'lipoC3S1': 4.0, 'temp': 30.63, 'lipoC3S3': 12.13, 'lipoC3S2': 8.01, 'rot1': 0, 'rot0': 0, 'rot3': 0, 'rot2': 0, 'state': 'normal', 'yaw': -0.06, 'datetime': '2018-10-09 13:02:54.642758', 'mgs': 0, 'volt': 0.9229, 'depth': 1.92, 'time': 4, 'pitch': 4.77, 'roll': -5.5, 'pres': 189}
{'lipoC2': 7.42, 'lipoC3S1': 4.0, 'temp': 30.5, 'lipoC3S3': 12.12, 'lipoC3S2': 8.01, 'rot1': 0, 'rot0': 0, 'rot3': 0, 'rot2': 0, 'state': 'normal', 'yaw': 0.91, 'datetime': '2018-10-09 13:02:54.672430', 'mgs': 0, 'volt': 0.9229, 'depth': 1.92, 'time': 5, 'pitch': 4.97, 'roll': -5.41, 'pres': 189}
{'lipoC2': 7.42, 'lipoC3S1': 4.0, 'temp': 30.5, 'lipoC3S3': 12.13, 'lipoC3S2': 8.01, 'rot1': 0, 'rot0': 0, 'rot3': 0, 'rot2': 0, 'state': 'normal', 'yaw': 2.26, 'datetime': '2018-10-09 13:02:54.775546', 'mgs': 0, 'volt': 0.9229, 'depth': 1.92, 'time': 5, 'pitch': 5.01, 'roll': -5.25, 'pres': 189}
{'lipoC2': 7.42, 'lipoC3S1': 4.0, 'temp': 30.5, 'lipoC3S3': 12.13, 'lipoC3S2': 8.01, 'rot1': 0, 'rot0': 0, 'rot3': 0, 'rot2': 0, 'state': 'normal', 'yaw': 4.3, 'datetime': '2018-10-09 13:02:54.879016', 'mgs': 0, 'volt': 0.9277, 'depth': 1.996, 'time': 5, 'pitch': 4.54, 'roll': -5.07, 'pres': 190}
{'lipoC2': 7.42, 'lipoC3S1': 4.0, 'temp': 30.56, 'lipoC3S3': 12.12, 'lipoC3S2': 8.01, 'rot1': 0, 'rot0': 0, 'rot3': 0, 'rot2': 0, 'state': 'normal', 'yaw': 6.27, 'datetime': '2018-10-09 13:02:54.982229', 'mgs': 0, 'volt': 0.9277, 'depth': 1.996, 'time': 5, 'pitch': 3.63, 'roll': -4.87, 'pres': 190}
{'lipoC2': 7.42, 'lipoC3S1': 4.0, 'temp': 30.56, 'lipoC3S3': 12.13, 'lipoC3S2': 8.01, 'rot1': 0, 'rot0': 0, 'rot3': 0, 'rot2': 0, 'state': 'normal', 'yaw': 8.09, 'datetime': '2018-10-09 13:02:55.086229', 'mgs': 0, 'volt': 0.9229, 'depth': 1.92, 'time': 5, 'pitch': 2.49, 'roll': -4.48, 'pres': 189}
{'lipoC2': 7.42, 'lipoC3S1': 4.0, 'temp': 30.56, 'lipoC3S3': 12.12, 'lipoC3S2': 8.01, 'rot1': 0, 'rot0': 0, 'rot3': 0, 'rot2': 0, 'state': 'normal', 'yaw': 9.76, 'datetime': '2018-10-09 13:02:55.194075', 'mgs': 0, 'volt': 0.9277, 'depth': 1.996, 'time': 5, 'pitch': 1.18, 'roll': -3.89, 'pres': 190}
{'lipoC2': 7.42, 'lipoC3S1': 4.0, 'temp': 30.56, 'lipoC3S3': 12.13, 'lipoC3S2': 8.01, 'rot1': 0, 'rot0': 0, 'rot3': 0, 'rot2': 0, 'state': 'normal', 'yaw': 11.26, 'datetime': '2018-10-09 13:02:55.299444', 'mgs': 0, 'volt': 0.9277, 'depth': 1.996, 'time': 5, 'pitch': -0.15, 'roll': -2.97, 'pres': 190}
{'lipoC2': 7.42, 'lipoC3S1': 4.0, 'temp': 30.56, 'lipoC3S3': 12.13, 'lipoC3S2': 8.01, 'rot1': 0, 'rot0': 0, 'rot3': 0, 'rot2': 0, 'state': 'normal', 'yaw': 12.32, 'datetime': '2018-10-09 13:02:55.402875', 'mgs': 0, 'volt': 0.9277, 'depth': 1.996, 'time': 5, 'pitch': -1.16, 'roll': -1.91, 'pres': 190}
{'lipoC2': 7.42, 'lipoC3S1': 4.0, 'temp': 30.63, 'lipoC3S3': 12.13, 'lipoC3S2': 8.01, 'rot1': 0, 'rot0': 0, 'rot3': 0, 'rot2': 0, 'state': 'normal', 'yaw': 13.0, 'datetime': '2018-10-09 13:02:55.506989', 'mgs': 0, 'volt': 0.9277, 'depth': 1.996, 'time': 5, 'pitch': -1.85, 'roll': -0.71, 'pres': 190}
{'lipoC2': 7.42, 'lipoC3S1': 4.0, 'temp': 30.63, 'lipoC3S3': 12.12, 'lipoC3S2': 8.01, 'rot1': 0, 'rot0': 0, 'rot3': 0, 'rot2': 0, 'state': 'normal', 'yaw': 13.46, 'datetime': '2018-10-09 13:02:55.610001', 'mgs': 0, 'volt': 0.9326, 'depth': 2.072, 'time': 6, 'pitch': -2.19, 'roll': 0.58, 'pres': 191}
{'lipoC2': 7.42, 'lipoC3S1': 4.0, 'temp': 30.63, 'lipoC3S3': 12.12, 'lipoC3S2': 8.01, 'rot1': 0, 'rot0': 0, 'rot3': 0, 'rot2': 0, 'state': 'normal', 'yaw': 13.7, 'datetime': '2018-10-09 13:02:55.714060', 'mgs': 0, 'volt': 0.9326, 'depth': 2.072, 'time': 6, 'pitch': -2.17, 'roll': 1.62, 'pres': 191}
{'lipoC2': 7.42, 'lipoC3S1': 4.0, 'temp': 30.63, 'lipoC3S3': 12.12, 'lipoC3S2': 8.01, 'rot1': 0, 'rot0': 0, 'rot3': 0, 'rot2': 0, 'state': 'normal', 'yaw': 13.86, 'datetime': '2018-10-09 13:02:55.817988', 'mgs': 0, 'volt': 0.9326, 'depth': 2.072, 'time': 6, 'pitch': -1.93, 'roll': 2.48, 'pres': 191}
{'lipoC2': 7.42, 'lipoC3S1': 4.0, 'temp': 30.56, 'lipoC3S3': 12.12, 'lipoC3S2': 8.01, 'rot1': 0, 'rot0': 0, 'rot3': 0, 'rot2': 0, 'state': 'normal', 'yaw': 14.07, 'datetime': '2018-10-09 13:02:55.921097', 'mgs': 0, 'volt': 0.9375, 'depth': 2.148, 'time': 6, 'pitch': -1.53, 'roll': 3.16, 'pres': 192}
{'lipoC2': 7.42, 'lipoC3S1': 4.0, 'temp': 30.56, 'lipoC3S3': 12.12, 'lipoC3S2': 8.01, 'rot1': 0, 'rot0': 0, 'rot3': 0, 'rot2': 0, 'state': 'normal', 'yaw': 14.3, 'datetime': '2018-10-09 13:02:56.024331', 'mgs': 0, 'volt': 0.9375, 'depth': 2.148, 'time': 6, 'pitch': -0.9, 'roll': 3.49, 'pres': 192}
{'lipoC2': 7.43, 'lipoC3S1': 4.0, 'temp': 30.56, 'lipoC3S3': 12.12, 'lipoC3S2': 8.01, 'rot1': 0, 'rot0': 0, 'rot3': 0, 'rot2': 0, 'state': 'normal', 'yaw': 14.55, 'datetime': '2018-10-09 13:02:56.127882', 'mgs': 0, 'volt': 0.9424, 'depth': 2.225, 'time': 6, 'pitch': -0.07, 'roll': 3.56, 'pres': 193}
{'lipoC2': 7.42, 'lipoC3S1': 4.0, 'temp': 30.63, 'lipoC3S3': 12.13, 'lipoC3S2': 8.01, 'rot1': 0, 'rot0': 0, 'rot3': 0, 'rot2': 0, 'state': 'normal', 'yaw': 15.07, 'datetime': '2018-10-09 13:02:56.230949', 'mgs': 0, 'volt': 0.9473, 'depth': 2.301, 'time': 6, 'pitch': 1.03, 'roll': 3.2, 'pres': 194}
{'lipoC2': 7.42, 'lipoC3S1': 4.0, 'temp': 30.63, 'lipoC3S3': 12.12, 'lipoC3S2': 8.01, 'rot1': 0, 'rot0': 0, 'rot3': 0, 'rot2': 0, 'state': 'normal', 'yaw': 15.9, 'datetime': '2018-10-09 13:02:56.334055', 'mgs': 0, 'volt': 0.9473, 'depth': 2.301, 'time': 6, 'pitch': 2.42, 'roll': 2.45, 'pres': 194}
{'lipoC2': 7.42, 'lipoC3S1': 4.0, 'temp': 30.63, 'lipoC3S3': 12.12, 'lipoC3S2': 8.01, 'rot1': 0, 'rot0': 0, 'rot3': 0, 'rot2': 0, 'state': 'normal', 'yaw': 16.85, 'datetime': '2018-10-09 13:02:56.437376', 'mgs': 0, 'volt': 0.9473, 'depth': 2.301, 'time': 6, 'pitch': 3.8, 'roll': 1.45, 'pres': 194}
{'lipoC2': 7.42, 'lipoC3S1': 4.0, 'temp': 30.63, 'lipoC3S3': 12.12, 'lipoC3S2': 8.01, 'rot1': 0, 'rot0': 0, 'rot3': 0, 'rot2': 0, 'state': 'normal', 'yaw': 17.99, 'datetime': '2018-10-09 13:02:56.540577', 'mgs': 0, 'volt': 0.9473, 'depth': 2.301, 'time': 6, 'pitch': 4.97, 'roll': 0.19, 'pres': 194}
{'lipoC2': 7.42, 'lipoC3S1': 4.0, 'temp': 30.56, 'lipoC3S3': 12.13, 'lipoC3S2': 8.01, 'rot1': 0, 'rot0': 0, 'rot3': 0, 'rot2': 0, 'state': 'normal', 'yaw': 18.97, 'datetime': '2018-10-09 13:02:56.643809', 'mgs': 0, 'volt': 0.9473, 'depth': 2.301, 'time': 7, 'pitch': 5.61, 'roll': -0.97, 'pres': 194}
{'lipoC2': 7.42, 'lipoC3S1': 4.0, 'temp': 30.56, 'lipoC3S3': 12.12, 'lipoC3S2': 8.01, 'rot1': 0, 'rot0': 0, 'rot3': 0, 'rot2': 0, 'state': 'normal', 'yaw': 19.77, 'datetime': '2018-10-09 13:02:56.747024', 'mgs': 0, 'volt': 0.9473, 'depth': 2.301, 'time': 7, 'pitch': 5.85, 'roll': -2.01, 'pres': 194}
{'lipoC2': 7.42, 'lipoC3S1': 4.0, 'temp': 30.56, 'lipoC3S3': 12.12, 'lipoC3S2': 8.01, 'rot1': 0, 'rot0': 0, 'rot3': 0, 'rot2': 0, 'state': 'normal', 'yaw': 20.45, 'datetime': '2018-10-09 13:02:56.850436', 'mgs': 0, 'volt': 0.9473, 'depth': 2.301, 'time': 7, 'pitch': 5.84, 'roll': -2.92, 'pres': 194}
{'lipoC2': 7.42, 'lipoC3S1': 4.0, 'temp': 30.56, 'lipoC3S3': 12.12, 'lipoC3S2': 8.01, 'rot1': 0, 'rot0': 0, 'rot3': 0, 'rot2': 0, 'state': 'normal', 'yaw': 20.92, 'datetime': '2018-10-09 13:02:56.953533', 'mgs': 0, 'volt': 0.9473, 'depth': 2.301, 'time': 7, 'pitch': 5.66, 'roll': -3.52, 'pres': 194}
{'lipoC2': 7.42, 'lipoC3S1': 4.0, 'temp': 30.56, 'lipoC3S3': 12.12, 'lipoC3S2': 8.01, 'rot1': 0, 'rot0': 0, 'rot3': 0, 'rot2': 0, 'state': 'normal', 'yaw': 21.19, 'datetime': '2018-10-09 13:02:57.057921', 'mgs': 0, 'volt': 0.9521, 'depth': 2.377, 'time': 7, 'pitch': 5.49, 'roll': -3.86, 'pres': 195}
{'lipoC2': 7.42, 'lipoC3S1': 4.0, 'temp': 30.63, 'lipoC3S3': 12.12, 'lipoC3S2': 8.01, 'rot1': 0, 'rot0': 0, 'rot3': 0, 'rot2': 0, 'state': 'normal', 'yaw': 21.22, 'datetime': '2018-10-09 13:02:57.161360', 'mgs': 0, 'volt': 0.9521, 'depth': 2.377, 'time': 7, 'pitch': 5.36, 'roll': -3.95, 'pres': 195}
{'lipoC2': 7.42, 'lipoC3S1': 4.0, 'temp': 30.63, 'lipoC3S3': 12.13, 'lipoC3S2': 8.01, 'rot1': 0, 'rot0': 0, 'rot3': 0, 'rot2': 0, 'state': 'normal', 'yaw': 21.06, 'datetime': '2018-10-09 13:02:57.264445', 'mgs': 0, 'volt': 0.9473, 'depth': 2.301, 'time': 7, 'pitch': 5.2, 'roll': -3.76, 'pres': 194}
{'lipoC2': 7.42, 'lipoC3S1': 4.0, 'temp': 30.63, 'lipoC3S3': 12.12, 'lipoC3S2': 8.01, 'rot1': 0, 'rot0': 0, 'rot3': 0, 'rot2': 0, 'state': 'normal', 'yaw': 20.77, 'datetime': '2018-10-09 13:02:57.368921', 'mgs': 0, 'volt': 0.9473, 'depth': 2.301, 'time': 7, 'pitch': 4.89, 'roll': -3.36, 'pres': 194}
{'lipoC2': 7.42, 'lipoC3S1': 4.0, 'temp': 30.63, 'lipoC3S3': 12.12, 'lipoC3S2': 8.01, 'rot1': 0, 'rot0': 0, 'rot3': 0, 'rot2': 0, 'state': 'normal', 'yaw': 20.61, 'datetime': '2018-10-09 13:02:57.472152', 'mgs': 0, 'volt': 0.9521, 'depth': 2.377, 'time': 7, 'pitch': 4.11, 'roll': -2.81, 'pres': 195}
{'lipoC2': 7.42, 'lipoC3S1': 4.0, 'temp': 30.63, 'lipoC3S3': 12.12, 'lipoC3S2': 8.01, 'rot1': 0, 'rot0': 0, 'rot3': 0, 'rot2': 0, 'state': 'normal', 'yaw': 20.87, 'datetime': '2018-10-09 13:02:57.575292', 'mgs': 0, 'volt': 0.9473, 'depth': 2.301, 'time': 7, 'pitch': 2.88, 'roll': -2.41, 'pres': 194}
{'lipoC2': 7.42, 'lipoC3S1': 4.0, 'temp': 30.56, 'lipoC3S3': 12.12, 'lipoC3S2': 8.01, 'rot1': 0, 'rot0': 0, 'rot3': 0, 'rot2': 0, 'state': 'normal', 'yaw': 21.45, 'datetime': '2018-10-09 13:02:57.678520', 'mgs': 0, 'volt': 0.9473, 'depth': 2.301, 'time': 8, 'pitch': 1.47, 'roll': -2.09, 'pres': 194}
{'lipoC2': 7.42, 'lipoC3S1': 4.0, 'temp': 30.56, 'lipoC3S3': 12.12, 'lipoC3S2': 8.01, 'rot1': 0, 'rot0': 0, 'rot3': 0, 'rot2': 0, 'state': 'normal', 'yaw': 22.31, 'datetime': '2018-10-09 13:02:57.781885', 'mgs': 0, 'volt': 0.9473, 'depth': 2.301, 'time': 8, 'pitch': 0.09, 'roll': -1.83, 'pres': 194}
{'lipoC2': 7.42, 'lipoC3S1': 4.0, 'temp': 30.56, 'lipoC3S3': 12.12, 'lipoC3S2': 8.01, 'rot1': 0, 'rot0': 0, 'rot3': 0, 'rot2': 0, 'state': 'normal', 'yaw': 23.17, 'datetime': '2018-10-09 13:02:57.885140', 'mgs': 0, 'volt': 0.9473, 'depth': 2.301, 'time': 8, 'pitch': -0.72, 'roll': -1.65, 'pres': 194}
{'lipoC2': 7.42, 'lipoC3S1': 4.0, 'temp': 30.56, 'lipoC3S3': 12.12, 'lipoC3S2': 8.01, 'rot1': 0, 'rot0': 0, 'rot3': 0, 'rot2': 0, 'state': 'normal', 'yaw': 23.91, 'datetime': '2018-10-09 13:02:57.988493', 'mgs': 0, 'volt': 0.9473, 'depth': 2.301, 'time': 8, 'pitch': -0.95, 'roll': -1.38, 'pres': 194}
{'lipoC2': 7.42, 'lipoC3S1': 4.0, 'temp': 30.56, 'lipoC3S3': 12.12, 'lipoC3S2': 8.01, 'rot1': 0, 'rot0': 0, 'rot3': 0, 'rot2': 0, 'state': 'normal', 'yaw': 24.55, 'datetime': '2018-10-09 13:02:58.090190', 'mgs': 0, 'volt': 0.9473, 'depth': 2.301, 'time': 8, 'pitch': -0.62, 'roll': -1.07, 'pres': 194}
{'lipoC2': 7.42, 'lipoC3S1': 4.0, 'temp': 30.56, 'lipoC3S3': 12.12, 'lipoC3S2': 8.01, 'rot1': 0, 'rot0': 0, 'rot3': 0, 'rot2': 0, 'state': 'normal', 'yaw': 25.23, 'datetime': '2018-10-09 13:02:58.194173', 'mgs': 0, 'volt': 0.9473, 'depth': 2.301, 'time': 8, 'pitch': 0.02, 'roll': -0.7, 'pres': 194}
{'lipoC2': 7.42, 'lipoC3S1': 4.0, 'temp': 30.56, 'lipoC3S3': 12.12, 'lipoC3S2': 8.01, 'rot1': 0, 'rot0': 0, 'rot3': 0, 'rot2': 0, 'state': 'normal', 'yaw': 25.8, 'datetime': '2018-10-09 13:02:58.295720', 'mgs': 0, 'volt': 0.9473, 'depth': 2.301, 'time': 8, 'pitch': 0.59, 'roll': -0.37, 'pres': 194}
{'lipoC2': 7.42, 'lipoC3S1': 4.0, 'temp': 30.56, 'lipoC3S3': 12.12, 'lipoC3S2': 8.01, 'rot1': 0, 'rot0': 0, 'rot3': 0, 'rot2': 0, 'state': 'normal', 'yaw': 26.31, 'datetime': '2018-10-09 13:02:58.401375', 'mgs': 0, 'volt': 0.9473, 'depth': 2.301, 'time': 8, 'pitch': 0.9, 'roll': -0.11, 'pres': 194}
{'lipoC2': 7.42, 'lipoC3S1': 4.0, 'temp': 30.56, 'lipoC3S3': 12.12, 'lipoC3S2': 8.01, 'rot1': 0, 'rot0': 0, 'rot3': 0, 'rot2': 0, 'state': 'normal', 'yaw': 26.65, 'datetime': '2018-10-09 13:02:58.504567', 'mgs': 0, 'volt': 0.9473, 'depth': 2.301, 'time': 8, 'pitch': 0.81, 'roll': 0.15, 'pres': 194}
{'lipoC2': 7.42, 'lipoC3S1': 4.0, 'temp': 30.56, 'lipoC3S3': 12.12, 'lipoC3S2': 8.01, 'rot1': 0, 'rot0': 0, 'rot3': 0, 'rot2': 0, 'state': 'normal', 'yaw': 26.77, 'datetime': '2018-10-09 13:02:58.607793', 'mgs': 0, 'volt': 0.9521, 'depth': 2.377, 'time': 9, 'pitch': 0.49, 'roll': 0.35, 'pres': 195}
{'lipoC2': 7.42, 'lipoC3S1': 4.0, 'temp': 30.56, 'lipoC3S3': 12.12, 'lipoC3S2': 8.01, 'rot1': 0, 'rot0': 0, 'rot3': 0, 'rot2': 0, 'state': 'normal', 'yaw': 26.77, 'datetime': '2018-10-09 13:02:58.712392', 'mgs': 0, 'volt': 0.9521, 'depth': 2.377, 'time': 9, 'pitch': 0.18, 'roll': 0.48, 'pres': 195}
{'lipoC2': 7.42, 'lipoC3S1': 4.0, 'temp': 30.63, 'lipoC3S3': 12.13, 'lipoC3S2': 8.01, 'rot1': 0, 'rot0': 0, 'rot3': 0, 'rot2': 0, 'state': 'normal', 'yaw': 26.66, 'datetime': '2018-10-09 13:02:58.815521', 'mgs': 0, 'volt': 0.9521, 'depth': 2.377, 'time': 9, 'pitch': 0.14, 'roll': 0.53, 'pres': 195}
{'lipoC2': 7.42, 'lipoC3S1': 4.0, 'temp': 30.63, 'lipoC3S3': 12.13, 'lipoC3S2': 8.01, 'rot1': 0, 'rot0': 0, 'rot3': 0, 'rot2': 0, 'state': 'normal', 'yaw': 26.48, 'datetime': '2018-10-09 13:02:58.918826', 'mgs': 0, 'volt': 0.9521, 'depth': 2.377, 'time': 9, 'pitch': 0.48, 'roll': 0.52, 'pres': 195}
{'lipoC2': 7.42, 'lipoC3S1': 4.0, 'temp': 30.63, 'lipoC3S3': 12.12, 'lipoC3S2': 8.01, 'rot1': 0, 'rot0': 0, 'rot3': 0, 'rot2': 0, 'state': 'normal', 'yaw': 26.27, 'datetime': '2018-10-09 13:02:59.023280', 'mgs': 0, 'volt': 0.9473, 'depth': 2.301, 'time': 9, 'pitch': 0.99, 'roll': 0.42, 'pres': 194}
{'lipoC2': 7.42, 'lipoC3S1': 4.0, 'temp': 30.56, 'lipoC3S3': 12.13, 'lipoC3S2': 8.01, 'rot1': 0, 'rot0': 0, 'rot3': 0, 'rot2': 0, 'state': 'normal', 'yaw': 25.92, 'datetime': '2018-10-09 13:02:59.126507', 'mgs': 0, 'volt': 0.9473, 'depth': 2.301, 'time': 9, 'pitch': 1.56, 'roll': 0.22, 'pres': 194}
{'lipoC2': 7.42, 'lipoC3S1': 4.0, 'temp': 30.56, 'lipoC3S3': 12.12, 'lipoC3S2': 8.01, 'rot1': 0, 'rot0': 0, 'rot3': 0, 'rot2': 0, 'state': 'normal', 'yaw': 25.49, 'datetime': '2018-10-09 13:02:59.229974', 'mgs': 0, 'volt': 0.9473, 'depth': 2.301, 'time': 9, 'pitch': 1.83, 'roll': -0.03, 'pres': 194}
{'lipoC2': 7.42, 'lipoC3S1': 4.0, 'temp': 30.56, 'lipoC3S3': 12.13, 'lipoC3S2': 8.01, 'rot1': 0, 'rot0': 0, 'rot3': 0, 'rot2': 0, 'state': 'normal', 'yaw': 24.92, 'datetime': '2018-10-09 13:02:59.332980', 'mgs': 0, 'volt': 0.9473, 'depth': 2.301, 'time': 9, 'pitch': 1.81, 'roll': -0.31, 'pres': 194}
{'lipoC2': 7.42, 'lipoC3S1': 4.0, 'temp': 30.56, 'lipoC3S3': 12.12, 'lipoC3S2': 8.01, 'rot1': 0, 'rot0': 0, 'rot3': 0, 'rot2': 0, 'state': 'normal', 'yaw': 24.28, 'datetime': '2018-10-09 13:02:59.434869', 'mgs': 0, 'volt': 0.9473, 'depth': 2.301, 'time': 9, 'pitch': 1.33, 'roll': -0.69, 'pres': 194}
{'lipoC2': 7.42, 'lipoC3S1': 4.0, 'temp': 30.63, 'lipoC3S3': 12.12, 'lipoC3S2': 8.01, 'rot1': 0, 'rot0': 0, 'rot3': 0, 'rot2': 0, 'state': 'normal', 'yaw': 23.79, 'datetime': '2018-10-09 13:02:59.537300', 'mgs': 0, 'volt': 0.9473, 'depth': 2.301, 'time': 9, 'pitch': 0.59, 'roll': -1.11, 'pres': 194}
{'lipoC2': 7.42, 'lipoC3S1': 4.0, 'temp': 30.63, 'lipoC3S3': 12.13, 'lipoC3S2': 8.01, 'rot1': 0, 'rot0': 0, 'rot3': 0, 'rot2': 0, 'state': 'normal', 'yaw': 23.4, 'datetime': '2018-10-09 13:02:59.642616', 'mgs': 0, 'volt': 0.9424, 'depth': 2.225, 'time': 10, 'pitch': -0.13, 'roll': -1.55, 'pres': 193}
{'lipoC2': 7.42, 'lipoC3S1': 4.0, 'temp': 30.63, 'lipoC3S3': 12.12, 'lipoC3S2': 8.0, 'rot1': 0, 'rot0': 0, 'rot3': 0, 'rot2': 0, 'state': 'normal', 'yaw': 23.02, 'datetime': '2018-10-09 13:02:59.746208', 'mgs': 0, 'volt': 0.9424, 'depth': 2.225, 'time': 10, 'pitch': -0.64, 'roll': -1.95, 'pres': 193}
{'lipoC2': 7.42, 'lipoC3S1': 4.0, 'temp': 30.56, 'lipoC3S3': 12.12, 'lipoC3S2': 8.01, 'rot1': 0, 'rot0': 0, 'rot3': 0, 'rot2': 0, 'state': 'normal', 'yaw': 22.62, 'datetime': '2018-10-09 13:02:59.849725', 'mgs': 0, 'volt': 0.9424, 'depth': 2.225, 'time': 10, 'pitch': -0.87, 'roll': -2.31, 'pres': 193}
{'lipoC2': 7.42, 'lipoC3S1': 4.0, 'temp': 30.56, 'lipoC3S3': 12.12, 'lipoC3S2': 8.01, 'rot1': 0, 'rot0': 0, 'rot3': 0, 'rot2': 0, 'state': 'normal', 'yaw': 22.26, 'datetime': '2018-10-09 13:02:59.952893', 'mgs': 0, 'volt': 0.9375, 'depth': 2.148, 'time': 10, 'pitch': -0.84, 'roll': -2.55, 'pres': 192}
{'lipoC2': 7.42, 'lipoC3S1': 4.0, 'temp': 30.63, 'lipoC3S3': 12.13, 'lipoC3S2': 8.01, 'rot1': 0, 'rot0': 0, 'rot3': 0, 'rot2': 0, 'state': 'normal', 'yaw': 21.9, 'datetime': '2018-10-09 13:03:00.056816', 'mgs': 0, 'volt': 0.9375, 'depth': 2.148, 'time': 10, 'pitch': -0.66, 'roll': -2.71, 'pres': 192}
{'lipoC2': 7.42, 'lipoC3S1': 4.0, 'temp': 30.63, 'lipoC3S3': 12.12, 'lipoC3S2': 8.01, 'rot1': 0, 'rot0': 0, 'rot3': 0, 'rot2': 0, 'state': 'normal', 'yaw': 21.65, 'datetime': '2018-10-09 13:03:00.160911', 'mgs': 0, 'volt': 0.9326, 'depth': 2.072, 'time': 10, 'pitch': -0.71, 'roll': -2.84, 'pres': 191}
{'lipoC2': 7.42, 'lipoC3S1': 4.0, 'temp': 30.56, 'lipoC3S3': 12.12, 'lipoC3S2': 8.01, 'rot1': 0, 'rot0': 0, 'rot3': 0, 'rot2': 0, 'state': 'normal', 'yaw': 21.7, 'datetime': '2018-10-09 13:03:00.264921', 'mgs': 0, 'volt': 0.9277, 'depth': 1.996, 'time': 10, 'pitch': -1.36, 'roll': -3.06, 'pres': 190}
{'lipoC2': 7.42, 'lipoC3S1': 4.0, 'temp': 30.56, 'lipoC3S3': 12.12, 'lipoC3S2': 8.01, 'rot1': 0, 'rot0': 0, 'rot3': 0, 'rot2': 0, 'state': 'normal', 'yaw': 22.26, 'datetime': '2018-10-09 13:03:00.368183', 'mgs': 0, 'volt': 0.9229, 'depth': 1.92, 'time': 10, 'pitch': -2.9, 'roll': -3.48, 'pres': 189}
{'lipoC2': 7.42, 'lipoC3S1': 4.0, 'temp': 30.56, 'lipoC3S3': 12.12, 'lipoC3S2': 8.01, 'rot1': 0, 'rot0': 0, 'rot3': 0, 'rot2': 0, 'state': 'normal', 'yaw': 23.06, 'datetime': '2018-10-09 13:03:00.471505', 'mgs': 0, 'volt': 0.9229, 'depth': 1.92, 'time': 10, 'pitch': -4.72, 'roll': -3.92, 'pres': 189}
{'lipoC2': 7.42, 'lipoC3S1': 4.0, 'temp': 30.63, 'lipoC3S3': 12.12, 'lipoC3S2': 8.01, 'rot1': 0, 'rot0': 0, 'rot3': 0, 'rot2': 0, 'state': 'normal', 'yaw': 23.99, 'datetime': '2018-10-09 13:03:00.575990', 'mgs': 0, 'volt': 0.9229, 'depth': 1.92, 'time': 10, 'pitch': -6.32, 'roll': -4.27, 'pres': 189}
{'lipoC2': 7.42, 'lipoC3S1': 4.0, 'temp': 30.63, 'lipoC3S3': 12.12, 'lipoC3S2': 8.01, 'rot1': 0, 'rot0': 0, 'rot3': 0, 'rot2': 0, 'state': 'normal', 'yaw': 25.08, 'datetime': '2018-10-09 13:03:00.679388', 'mgs': 0, 'volt': 0.9229, 'depth': 1.92, 'time': 11, 'pitch': -7.08, 'roll': -4.46, 'pres': 189}
{'lipoC2': 7.42, 'lipoC3S1': 4.0, 'temp': 30.56, 'lipoC3S3': 12.12, 'lipoC3S2': 8.01, 'rot1': 0, 'rot0': 0, 'rot3': 0, 'rot2': 0, 'state': 'normal', 'yaw': 26.0, 'datetime': '2018-10-09 13:03:00.782673', 'mgs': 0, 'volt': 0.9229, 'depth': 1.92, 'time': 11, 'pitch': -6.64, 'roll': -4.37, 'pres': 189}
{'lipoC2': 7.42, 'lipoC3S1': 4.0, 'temp': 30.56, 'lipoC3S3': 12.12, 'lipoC3S2': 8.01, 'rot1': 0, 'rot0': 0, 'rot3': 0, 'rot2': 0, 'state': 'normal', 'yaw': 26.79, 'datetime': '2018-10-09 13:03:00.886135', 'mgs': 0, 'volt': 0.918, 'depth': 1.843, 'time': 11, 'pitch': -5.44, 'roll': -3.97, 'pres': 188}
{'lipoC2': 7.42, 'lipoC3S1': 4.0, 'temp': 30.63, 'lipoC3S3': 12.13, 'lipoC3S2': 8.01, 'rot1': 0, 'rot0': 0, 'rot3': 0, 'rot2': 0, 'state': 'normal', 'yaw': 27.56, 'datetime': '2018-10-09 13:03:00.989449', 'mgs': 0, 'volt': 0.918, 'depth': 1.843, 'time': 11, 'pitch': -3.83, 'roll': -3.31, 'pres': 188}
{'lipoC2': 7.42, 'lipoC3S1': 4.0, 'temp': 30.63, 'lipoC3S3': 12.12, 'lipoC3S2': 8.01, 'rot1': 0, 'rot0': 0, 'rot3': 0, 'rot2': 0, 'state': 'normal', 'yaw': 28.03, 'datetime': '2018-10-09 13:03:01.092880', 'mgs': 0, 'volt': 0.9229, 'depth': 1.92, 'time': 11, 'pitch': -2.4, 'roll': -2.51, 'pres': 189}
{'lipoC2': 7.42, 'lipoC3S1': 4.0, 'temp': 30.63, 'lipoC3S3': 12.12, 'lipoC3S2': 8.01, 'rot1': 0, 'rot0': 0, 'rot3': 0, 'rot2': 0, 'state': 'normal', 'yaw': 28.22, 'datetime': '2018-10-09 13:03:01.196101', 'mgs': 0, 'volt': 0.9229, 'depth': 1.92, 'time': 11, 'pitch': -1.21, 'roll': -1.56, 'pres': 189}
{'lipoC2': 7.42, 'lipoC3S1': 4.0, 'temp': 30.56, 'lipoC3S3': 12.12, 'lipoC3S2': 8.01, 'rot1': 0, 'rot0': 0, 'rot3': 0, 'rot2': 0, 'state': 'normal', 'yaw': 27.84, 'datetime': '2018-10-09 13:03:01.299767', 'mgs': 0, 'volt': 0.9229, 'depth': 1.92, 'time': 11, 'pitch': -0.14, 'roll': -0.38, 'pres': 189}
{'lipoC2': 7.42, 'lipoC3S1': 4.0, 'temp': 30.56, 'lipoC3S3': 12.13, 'lipoC3S2': 8.01, 'rot1': 0, 'rot0': 0, 'rot3': 0, 'rot2': 0, 'state': 'normal', 'yaw': 27.12, 'datetime': '2018-10-09 13:03:01.402870', 'mgs': 0, 'volt': 0.9229, 'depth': 1.92, 'time': 11, 'pitch': 0.47, 'roll': 0.68, 'pres': 189}
{'lipoC2': 7.42, 'lipoC3S1': 4.0, 'temp': 30.63, 'lipoC3S3': 12.12, 'lipoC3S2': 8.01, 'rot1': 0, 'rot0': 0, 'rot3': 0, 'rot2': 0, 'state': 'normal', 'yaw': 26.34, 'datetime': '2018-10-09 13:03:01.506192', 'mgs': 0, 'volt': 0.9229, 'depth': 1.92, 'time': 11, 'pitch': 0.52, 'roll': 1.46, 'pres': 189}
{'lipoC2': 7.42, 'lipoC3S1': 4.0, 'temp': 30.63, 'lipoC3S3': 12.12, 'lipoC3S2': 8.01, 'rot1': 0, 'rot0': 0, 'rot3': 0, 'rot2': 0, 'state': 'normal', 'yaw': 25.59, 'datetime': '2018-10-09 13:03:01.610129', 'mgs': 0, 'volt': 0.918, 'depth': 1.843, 'time': 12, 'pitch': 0.35, 'roll': 2.01, 'pres': 188}
{'lipoC2': 7.42, 'lipoC3S1': 4.0, 'temp': 30.56, 'lipoC3S3': 12.13, 'lipoC3S2': 8.01, 'rot1': 0, 'rot0': 0, 'rot3': 0, 'rot2': 0, 'state': 'normal', 'yaw': 25.06, 'datetime': '2018-10-09 13:03:01.713526', 'mgs': 0, 'volt': 0.918, 'depth': 1.843, 'time': 12, 'pitch': 0.17, 'roll': 2.27, 'pres': 188}
{'lipoC2': 7.42, 'lipoC3S1': 4.0, 'temp': 30.56, 'lipoC3S3': 12.12, 'lipoC3S2': 8.01, 'rot1': 0, 'rot0': 0, 'rot3': 0, 'rot2': 0, 'state': 'normal', 'yaw': 25.11, 'datetime': '2018-10-09 13:03:01.818011', 'mgs': 0, 'volt': 0.9131, 'depth': 1.767, 'time': 12, 'pitch': -0.28, 'roll': 1.91, 'pres': 187}
{'lipoC2': 7.42, 'lipoC3S1': 4.0, 'temp': 30.56, 'lipoC3S3': 12.12, 'lipoC3S2': 8.01, 'rot1': 0, 'rot0': 0, 'rot3': 0, 'rot2': 0, 'state': 'normal', 'yaw': 24.52, 'datetime': '2018-10-09 13:03:01.921394', 'mgs': 0, 'volt': 0.9131, 'depth': 1.767, 'time': 12, 'pitch': -0.63, 'roll': 1.31, 'pres': 187}
{'lipoC2': 7.42, 'lipoC3S1': 4.0, 'temp': 30.63, 'lipoC3S3': 12.12, 'lipoC3S2': 8.01, 'rot1': 0, 'rot0': 0, 'rot3': 0, 'rot2': 0, 'state': 'normal', 'yaw': 23.35, 'datetime': '2018-10-09 13:03:02.024667', 'mgs': 0, 'volt': 0.9082, 'depth': 1.691, 'time': 12, 'pitch': -0.03, 'roll': 0.71, 'pres': 186}
{'lipoC2': 7.42, 'lipoC3S1': 4.0, 'temp': 30.63, 'lipoC3S3': 12.12, 'lipoC3S2': 8.01, 'rot1': 0, 'rot0': 0, 'rot3': 0, 'rot2': 0, 'state': 'normal', 'yaw': 21.94, 'datetime': '2018-10-09 13:03:02.129280', 'mgs': 0, 'volt': 0.9033, 'depth': 1.614, 'time': 12, 'pitch': 1.42, 'roll': -0.32, 'pres': 185}
{'lipoC2': 7.42, 'lipoC3S1': 4.0, 'temp': 30.56, 'lipoC3S3': 12.13, 'lipoC3S2': 8.01, 'rot1': 0, 'rot0': 0, 'rot3': 0, 'rot2': 0, 'state': 'normal', 'yaw': 19.58, 'datetime': '2018-10-09 13:03:02.232637', 'mgs': 0, 'volt': 0.9033, 'depth': 1.614, 'time': 12, 'pitch': 3.61, 'roll': -1.65, 'pres': 185}
{'lipoC2': 7.42, 'lipoC3S1': 4.0, 'temp': 30.56, 'lipoC3S3': 12.12, 'lipoC3S2': 8.01, 'rot1': 0, 'rot0': 0, 'rot3': 0, 'rot2': 0, 'state': 'normal', 'yaw': 16.32, 'datetime': '2018-10-09 13:03:02.336070', 'mgs': 0, 'volt': 0.8984, 'depth': 1.538, 'time': 12, 'pitch': 5.55, 'roll': -2.84, 'pres': 184}
{'lipoC2': 7.42, 'lipoC3S1': 4.0, 'temp': 30.56, 'lipoC3S3': 12.13, 'lipoC3S2': 8.01, 'rot1': 0, 'rot0': 0, 'rot3': 0, 'rot2': 0, 'state': 'normal', 'yaw': 12.44, 'datetime': '2018-10-09 13:03:02.439316', 'mgs': 0, 'volt': 0.8984, 'depth': 1.538, 'time': 12, 'pitch': 6.85, 'roll': -3.85, 'pres': 184}
{'lipoC2': 7.42, 'lipoC3S1': 4.0, 'temp': 30.56, 'lipoC3S3': 12.12, 'lipoC3S2': 8.01, 'rot1': 0, 'rot0': 0, 'rot3': 0, 'rot2': 0, 'state': 'normal', 'yaw': 8.42, 'datetime': '2018-10-09 13:03:02.542639', 'mgs': 0, 'volt': 0.8936, 'depth': 1.462, 'time': 12, 'pitch': 7.4, 'roll': -4.99, 'pres': 183}
{'lipoC2': 7.42, 'lipoC3S1': 4.0, 'temp': 30.56, 'lipoC3S3': 12.12, 'lipoC3S2': 8.01, 'rot1': 0, 'rot0': 0, 'rot3': 0, 'rot2': 0, 'state': 'normal', 'yaw': 5.06, 'datetime': '2018-10-09 13:03:02.645946', 'mgs': 0, 'volt': 0.8887, 'depth': 1.385, 'time': 13, 'pitch': 7.0, 'roll': -5.94, 'pres': 182}
{'lipoC2': 7.42, 'lipoC3S1': 4.0, 'temp': 30.63, 'lipoC3S3': 12.12, 'lipoC3S2': 8.01, 'rot1': 0, 'rot0': 0, 'rot3': 0, 'rot2': 0, 'state': 'normal', 'yaw': 2.14, 'datetime': '2018-10-09 13:03:02.749401', 'mgs': 0, 'volt': 0.8887, 'depth': 1.385, 'time': 13, 'pitch': 5.68, 'roll': -6.87, 'pres': 182}
{'lipoC2': 7.42, 'lipoC3S1': 4.0, 'temp': 30.63, 'lipoC3S3': 12.12, 'lipoC3S2': 8.01, 'rot1': 0, 'rot0': 0, 'rot3': 0, 'rot2': 0, 'state': 'normal', 'yaw': -0.37, 'datetime': '2018-10-09 13:03:02.853337', 'mgs': 0, 'volt': 0.8838, 'depth': 1.309, 'time': 13, 'pitch': 4.02, 'roll': -8.01, 'pres': 181}
{'lipoC2': 7.42, 'lipoC3S1': 4.0, 'temp': 30.56, 'lipoC3S3': 12.12, 'lipoC3S2': 8.01, 'rot1': 0, 'rot0': 0, 'rot3': 0, 'rot2': 0, 'state': 'normal', 'yaw': -2.21, 'datetime': '2018-10-09 13:03:02.956353', 'mgs': 0, 'volt': 0.8789, 'depth': 1.233, 'time': 13, 'pitch': 2.79, 'roll': -9.16, 'pres': 180}
{'lipoC2': 7.42, 'lipoC3S1': 4.0, 'temp': 30.56, 'lipoC3S3': 12.12, 'lipoC3S2': 8.01, 'rot1': 0, 'rot0': 0, 'rot3': 0, 'rot2': 0, 'state': 'normal', 'yaw': -4.11, 'datetime': '2018-10-09 13:03:03.059262', 'mgs': 0, 'volt': 0.8789, 'depth': 1.233, 'time': 13, 'pitch': 1.96, 'roll': -10.12, 'pres': 180}
{'lipoC2': 7.42, 'lipoC3S1': 4.0, 'temp': 30.56, 'lipoC3S3': 12.12, 'lipoC3S2': 8.01, 'rot1': 0, 'rot0': 0, 'rot3': 0, 'rot2': 0, 'state': 'normal', 'yaw': -6.45, 'datetime': '2018-10-09 13:03:03.161093', 'mgs': 0, 'volt': 0.874, 'depth': 1.157, 'time': 13, 'pitch': 1.56, 'roll': -10.63, 'pres': 179}
{'lipoC2': 7.42, 'lipoC3S1': 4.0, 'temp': 30.56, 'lipoC3S3': 12.12, 'lipoC3S2': 8.01, 'rot1': 0, 'rot0': 0, 'rot3': 0, 'rot2': 0, 'state': 'normal', 'yaw': -9.4, 'datetime': '2018-10-09 13:03:03.266953', 'mgs': 0, 'volt': 0.8789, 'depth': 1.233, 'time': 13, 'pitch': 1.52, 'roll': -10.51, 'pres': 180}
{'lipoC2': 7.42, 'lipoC3S1': 4.0, 'temp': 30.56, 'lipoC3S3': 12.12, 'lipoC3S2': 8.01, 'rot1': 0, 'rot0': 0, 'rot3': 0, 'rot2': 0, 'state': 'normal', 'yaw': -12.05, 'datetime': '2018-10-09 13:03:03.371608', 'mgs': 0, 'volt': 0.8789, 'depth': 1.233, 'time': 13, 'pitch': 1.86, 'roll': -9.92, 'pres': 180}
{'lipoC2': 7.42, 'lipoC3S1': 4.0, 'temp': 30.56, 'lipoC3S3': 12.12, 'lipoC3S2': 8.01, 'rot1': 0, 'rot0': 0, 'rot3': 0, 'rot2': 0, 'state': 'normal', 'yaw': -14.54, 'datetime': '2018-10-09 13:03:03.474995', 'mgs': 0, 'volt': 0.8838, 'depth': 1.309, 'time': 13, 'pitch': 2.86, 'roll': -8.95, 'pres': 181}
{'lipoC2': 7.42, 'lipoC3S1': 4.0, 'temp': 30.56, 'lipoC3S3': 12.12, 'lipoC3S2': 8.01, 'rot1': 0, 'rot0': 0, 'rot3': 0, 'rot2': 0, 'state': 'normal', 'yaw': -16.36, 'datetime': '2018-10-09 13:03:03.578297', 'mgs': 0, 'volt': 0.8838, 'depth': 1.309, 'time': 13, 'pitch': 4.27, 'roll': -7.95, 'pres': 181}
{'lipoC2': 7.42, 'lipoC3S1': 4.0, 'temp': 30.56, 'lipoC3S3': 12.12, 'lipoC3S2': 8.01, 'rot1': 0, 'rot0': 0, 'rot3': 0, 'rot2': 0, 'state': 'normal', 'yaw': -17.86, 'datetime': '2018-10-09 13:03:03.683003', 'mgs': 0, 'volt': 0.8887, 'depth': 1.385, 'time': 14, 'pitch': 5.68, 'roll': -6.84, 'pres': 182}
{'lipoC2': 7.42, 'lipoC3S1': 4.0, 'temp': 30.56, 'lipoC3S3': 12.12, 'lipoC3S2': 8.01, 'rot1': 0, 'rot0': 0, 'rot3': 0, 'rot2': 0, 'state': 'normal', 'yaw': -19.01, 'datetime': '2018-10-09 13:03:03.786573', 'mgs': 0, 'volt': 0.8887, 'depth': 1.385, 'time': 14, 'pitch': 7.0, 'roll': -5.69, 'pres': 182}
{'lipoC2': 7.42, 'lipoC3S1': 4.0, 'temp': 30.56, 'lipoC3S3': 12.12, 'lipoC3S2': 8.01, 'rot1': 0, 'rot0': 0, 'rot3': 0, 'rot2': 0, 'state': 'normal', 'yaw': -19.19, 'datetime': '2018-10-09 13:03:03.889661', 'mgs': 0, 'volt': 0.8936, 'depth': 1.462, 'time': 14, 'pitch': 7.67, 'roll': -4.91, 'pres': 183}
{'lipoC2': 7.42, 'lipoC3S1': 4.0, 'temp': 30.56, 'lipoC3S3': 12.13, 'lipoC3S2': 8.01, 'rot1': 0, 'rot0': 0, 'rot3': 0, 'rot2': 0, 'state': 'normal', 'yaw': -18.27, 'datetime': '2018-10-09 13:03:03.992958', 'mgs': 0, 'volt': 0.8887, 'depth': 1.385, 'time': 14, 'pitch': 7.35, 'roll': -4.63, 'pres': 182}
{'lipoC2': 7.42, 'lipoC3S1': 4.0, 'temp': 30.56, 'lipoC3S3': 12.12, 'lipoC3S2': 8.01, 'rot1': 0, 'rot0': 0, 'rot3': 0, 'rot2': 0, 'state': 'normal', 'yaw': -16.53, 'datetime': '2018-10-09 13:03:04.096338', 'mgs': 0, 'volt': 0.8936, 'depth': 1.462, 'time': 14, 'pitch': 5.73, 'roll': -4.7, 'pres': 183}
{'lipoC2': 7.42, 'lipoC3S1': 4.0, 'temp': 30.56, 'lipoC3S3': 12.12, 'lipoC3S2': 8.01, 'rot1': 0, 'rot0': 0, 'rot3': 0, 'rot2': 0, 'state': 'normal', 'yaw': -14.91, 'datetime': '2018-10-09 13:03:04.201423', 'mgs': 0, 'volt': 0.8887, 'depth': 1.385, 'time': 14, 'pitch': 3.44, 'roll': -4.72, 'pres': 182}
{'lipoC2': 7.42, 'lipoC3S1': 4.0, 'temp': 30.56, 'lipoC3S3': 12.13, 'lipoC3S2': 8.01, 'rot1': 0, 'rot0': 0, 'rot3': 0, 'rot2': 0, 'state': 'normal', 'yaw': -13.54, 'datetime': '2018-10-09 13:03:04.299544', 'mgs': 0, 'volt': 0.8887, 'depth': 1.385, 'time': 14, 'pitch': 0.84, 'roll': -4.58, 'pres': 182}
{'lipoC2': 7.42, 'lipoC3S1': 4.0, 'temp': 30.56, 'lipoC3S3': 12.13, 'lipoC3S2': 8.01, 'rot1': 0, 'rot0': 0, 'rot3': 0, 'rot2': 0, 'state': 'normal', 'yaw': -12.61, 'datetime': '2018-10-09 13:03:04.404408', 'mgs': 0, 'volt': 0.8887, 'depth': 1.385, 'time': 14, 'pitch': -1.48, 'roll': -4.23, 'pres': 182}
{'lipoC2': 7.42, 'lipoC3S1': 4.0, 'temp': 30.56, 'lipoC3S3': 12.12, 'lipoC3S2': 8.01, 'rot1': 0, 'rot0': 0, 'rot3': 0, 'rot2': 0, 'state': 'normal', 'yaw': -11.83, 'datetime': '2018-10-09 13:03:04.509922', 'mgs': 0, 'volt': 0.8887, 'depth': 1.385, 'time': 14, 'pitch': -3.15, 'roll': -3.8, 'pres': 182}
{'lipoC2': 7.42, 'lipoC3S1': 4.0, 'temp': 30.56, 'lipoC3S3': 12.12, 'lipoC3S2': 8.01, 'rot1': 0, 'rot0': 0, 'rot3': 0, 'rot2': 0, 'state': 'normal', 'yaw': -11.08, 'datetime': '2018-10-09 13:03:04.613042', 'mgs': 0, 'volt': 0.8887, 'depth': 1.385, 'time': 14, 'pitch': -3.77, 'roll': -3.55, 'pres': 182}
{'lipoC2': 7.42, 'lipoC3S1': 4.0, 'temp': 30.56, 'lipoC3S3': 12.12, 'lipoC3S2': 8.01, 'rot1': 0, 'rot0': 0, 'rot3': 0, 'rot2': 0, 'state': 'normal', 'yaw': -10.16, 'datetime': '2018-10-09 13:03:04.717214', 'mgs': 0, 'volt': 0.8887, 'depth': 1.385, 'time': 15, 'pitch': -3.6, 'roll': -3.54, 'pres': 182}
{'lipoC2': 7.42, 'lipoC3S1': 4.0, 'temp': 30.56, 'lipoC3S3': 12.12, 'lipoC3S2': 8.01, 'rot1': 0, 'rot0': 0, 'rot3': 0, 'rot2': 0, 'state': 'normal', 'yaw': -8.76, 'datetime': '2018-10-09 13:03:04.820378', 'mgs': 0, 'volt': 0.8887, 'depth': 1.385, 'time': 15, 'pitch': -2.63, 'roll': -3.89, 'pres': 182}
{'lipoC2': 7.42, 'lipoC3S1': 4.0, 'temp': 30.56, 'lipoC3S3': 12.12, 'lipoC3S2': 8.0, 'rot1': 0, 'rot0': 0, 'rot3': 0, 'rot2': 0, 'state': 'normal', 'yaw': -6.83, 'datetime': '2018-10-09 13:03:04.925015', 'mgs': 0, 'volt': 0.8887, 'depth': 1.385, 'time': 15, 'pitch': -1.59, 'roll': -4.57, 'pres': 182}
{'lipoC2': 7.42, 'lipoC3S1': 4.0, 'temp': 30.56, 'lipoC3S3': 12.12, 'lipoC3S2': 8.01, 'rot1': 0, 'rot0': 0, 'rot3': 0, 'rot2': 0, 'state': 'normal', 'yaw': -3.57, 'datetime': '2018-10-09 13:03:05.028386', 'mgs': 0, 'volt': 0.8887, 'depth': 1.385, 'time': 15, 'pitch': -1.07, 'roll': -5.85, 'pres': 182}
{'lipoC2': 7.42, 'lipoC3S1': 4.0, 'temp': 30.56, 'lipoC3S3': 12.12, 'lipoC3S2': 8.01, 'rot1': 0, 'rot0': 0, 'rot3': 0, 'rot2': 0, 'state': 'normal', 'yaw': 0.25, 'datetime': '2018-10-09 13:03:05.128448', 'mgs': 0, 'volt': 0.8887, 'depth': 1.385, 'time': 15, 'pitch': -1.06, 'roll': -7.47, 'pres': 182}
{'lipoC2': 7.42, 'lipoC3S1': 4.0, 'temp': 30.56, 'lipoC3S3': 12.12, 'lipoC3S2': 8.01, 'rot1': 0, 'rot0': 0, 'rot3': 0, 'rot2': 0, 'state': 'normal', 'yaw': 4.33, 'datetime': '2018-10-09 13:03:05.230293', 'mgs': 0, 'volt': 0.8887, 'depth': 1.385, 'time': 15, 'pitch': -0.57, 'roll': -9.28, 'pres': 182}
{'lipoC2': 7.42, 'lipoC3S1': 4.0, 'temp': 30.5, 'lipoC3S3': 12.12, 'lipoC3S2': 8.01, 'rot1': 0, 'rot0': 0, 'rot3': 0, 'rot2': 0, 'state': 'normal', 'yaw': 8.3, 'datetime': '2018-10-09 13:03:05.333597', 'mgs': 0, 'volt': 0.8887, 'depth': 1.385, 'time': 15, 'pitch': 0.36, 'roll': -10.87, 'pres': 182}
{'lipoC2': 7.42, 'lipoC3S1': 4.0, 'temp': 30.5, 'lipoC3S3': 12.13, 'lipoC3S2': 8.01, 'rot1': 0, 'rot0': 0, 'rot3': 0, 'rot2': 0, 'state': 'normal', 'yaw': 11.45, 'datetime': '2018-10-09 13:03:05.440179', 'mgs': 0, 'volt': 0.8838, 'depth': 1.309, 'time': 15, 'pitch': 1.01, 'roll': -11.77, 'pres': 181}
{'lipoC2': 7.42, 'lipoC3S1': 4.0, 'temp': 30.5, 'lipoC3S3': 12.13, 'lipoC3S2': 8.01, 'rot1': 0, 'rot0': 0, 'rot3': 0, 'rot2': 0, 'state': 'normal', 'yaw': 14.72, 'datetime': '2018-10-09 13:03:05.546283', 'mgs': 0, 'volt': 0.8887, 'depth': 1.385, 'time': 15, 'pitch': 1.23, 'roll': -12.26, 'pres': 182}
{'lipoC2': 7.42, 'lipoC3S1': 4.0, 'temp': 30.56, 'lipoC3S3': 12.12, 'lipoC3S2': 8.01, 'rot1': 0, 'rot0': 0, 'rot3': 0, 'rot2': 0, 'state': 'normal', 'yaw': 18.55, 'datetime': '2018-10-09 13:03:05.649679', 'mgs': 0, 'volt': 0.8887, 'depth': 1.385, 'time': 16, 'pitch': 0.62, 'roll': -12.12, 'pres': 182}
{'lipoC2': 7.42, 'lipoC3S1': 4.0, 'temp': 30.56, 'lipoC3S3': 12.12, 'lipoC3S2': 8.01, 'rot1': 0, 'rot0': 0, 'rot3': 0, 'rot2': 0, 'state': 'normal', 'yaw': 22.09, 'datetime': '2018-10-09 13:03:05.751390', 'mgs': 0, 'volt': 0.8887, 'depth': 1.385, 'time': 16, 'pitch': 0.01, 'roll': -11.57, 'pres': 182}
{'lipoC2': 7.42, 'lipoC3S1': 4.0, 'temp': 30.56, 'lipoC3S3': 12.12, 'lipoC3S2': 8.01, 'rot1': 0, 'rot0': 0, 'rot3': 0, 'rot2': 0, 'state': 'normal', 'yaw': 25.39, 'datetime': '2018-10-09 13:03:05.856717', 'mgs': 0, 'volt': 0.8887, 'depth': 1.385, 'time': 16, 'pitch': -0.39, 'roll': -10.67, 'pres': 182}
{'lipoC2': 7.42, 'lipoC3S1': 4.0, 'temp': 30.56, 'lipoC3S3': 12.13, 'lipoC3S2': 8.01, 'rot1': 0, 'rot0': 0, 'rot3': 0, 'rot2': 0, 'state': 'normal', 'yaw': 28.45, 'datetime': '2018-10-09 13:03:05.959817', 'mgs': 0, 'volt': 0.8887, 'depth': 1.385, 'time': 16, 'pitch': -0.37, 'roll': -9.21, 'pres': 182}
{'lipoC2': 7.42, 'lipoC3S1': 4.0, 'temp': 30.56, 'lipoC3S3': 12.12, 'lipoC3S2': 8.01, 'rot1': 0, 'rot0': 0, 'rot3': 0, 'rot2': 0, 'state': 'normal', 'yaw': 30.32, 'datetime': '2018-10-09 13:03:06.061044', 'mgs': 0, 'volt': 0.8887, 'depth': 1.385, 'time': 16, 'pitch': -0.2, 'roll': -7.31, 'pres': 182}
{'lipoC2': 7.42, 'lipoC3S1': 4.0, 'temp': 30.56, 'lipoC3S3': 12.12, 'lipoC3S2': 8.01, 'rot1': 0, 'rot0': 0, 'rot3': 0, 'rot2': 0, 'state': 'normal', 'yaw': 30.44, 'datetime': '2018-10-09 13:03:06.166493', 'mgs': 0, 'volt': 0.8887, 'depth': 1.385, 'time': 16, 'pitch': 0.26, 'roll': -4.95, 'pres': 182}
{'lipoC2': 7.42, 'lipoC3S1': 4.0, 'temp': 30.56, 'lipoC3S3': 12.12, 'lipoC3S2': 8.01, 'rot1': 0, 'rot0': 0, 'rot3': 0, 'rot2': 0, 'state': 'normal', 'yaw': 28.31, 'datetime': '2018-10-09 13:03:06.270454', 'mgs': 0, 'volt': 0.8887, 'depth': 1.385, 'time': 16, 'pitch': 0.81, 'roll': -2.45, 'pres': 182}
{'lipoC2': 7.42, 'lipoC3S1': 4.0, 'temp': 30.56, 'lipoC3S3': 12.12, 'lipoC3S2': 8.01, 'rot1': 0, 'rot0': 0, 'rot3': 0, 'rot2': 0, 'state': 'normal', 'yaw': 24.22, 'datetime': '2018-10-09 13:03:06.373743', 'mgs': 0, 'volt': 0.8887, 'depth': 1.385, 'time': 16, 'pitch': 0.8, 'roll': -0.04, 'pres': 182}
{'lipoC2': 7.42, 'lipoC3S1': 4.0, 'temp': 30.56, 'lipoC3S3': 12.12, 'lipoC3S2': 8.01, 'rot1': 0, 'rot0': 0, 'rot3': 0, 'rot2': 0, 'state': 'normal', 'yaw': 20.13, 'datetime': '2018-10-09 13:03:06.478372', 'mgs': 0, 'volt': 0.8887, 'depth': 1.385, 'time': 16, 'pitch': 0.18, 'roll': 1.47, 'pres': 182}
{'lipoC2': 7.42, 'lipoC3S1': 4.0, 'temp': 30.56, 'lipoC3S3': 12.13, 'lipoC3S2': 8.01, 'rot1': 0, 'rot0': 0, 'rot3': 0, 'rot2': 0, 'state': 'normal', 'yaw': 15.83, 'datetime': '2018-10-09 13:03:06.581836', 'mgs': 0, 'volt': 0.8838, 'depth': 1.309, 'time': 16, 'pitch': -0.5, 'roll': 2.17, 'pres': 181}
{'lipoC2': 7.42, 'lipoC3S1': 4.0, 'temp': 30.56, 'lipoC3S3': 12.13, 'lipoC3S2': 8.01, 'rot1': 0, 'rot0': 0, 'rot3': 0, 'rot2': 0, 'state': 'normal', 'yaw': 12.11, 'datetime': '2018-10-09 13:03:06.685004', 'mgs': 0, 'volt': 0.8838, 'depth': 1.309, 'time': 17, 'pitch': -0.75, 'roll': 1.96, 'pres': 181}
{'lipoC2': 7.42, 'lipoC3S1': 4.0, 'temp': 30.56, 'lipoC3S3': 12.12, 'lipoC3S2': 8.01, 'rot1': 0, 'rot0': 0, 'rot3': 0, 'rot2': 0, 'state': 'normal', 'yaw': 8.57, 'datetime': '2018-10-09 13:03:06.789721', 'mgs': 0, 'volt': 0.8838, 'depth': 1.309, 'time': 17, 'pitch': -0.69, 'roll': 1.03, 'pres': 181}
{'lipoC2': 7.42, 'lipoC3S1': 4.0, 'temp': 30.63, 'lipoC3S3': 12.13, 'lipoC3S2': 8.01, 'rot1': 0, 'rot0': 0, 'rot3': 0, 'rot2': 0, 'state': 'normal', 'yaw': 4.92, 'datetime': '2018-10-09 13:03:06.892921', 'mgs': 0, 'volt': 0.8789, 'depth': 1.233, 'time': 17, 'pitch': -0.36, 'roll': -0.62, 'pres': 180}
{'lipoC2': 7.42, 'lipoC3S1': 4.0, 'temp': 30.63, 'lipoC3S3': 12.12, 'lipoC3S2': 8.0, 'rot1': 0, 'rot0': 0, 'rot3': 0, 'rot2': 0, 'state': 'normal', 'yaw': 1.98, 'datetime': '2018-10-09 13:03:06.996232', 'mgs': 0, 'volt': 0.874, 'depth': 1.157, 'time': 17, 'pitch': -0.01, 'roll': -2.48, 'pres': 179}
{'lipoC2': 7.42, 'lipoC3S1': 4.0, 'temp': 30.63, 'lipoC3S3': 12.12, 'lipoC3S2': 8.0, 'rot1': 0, 'rot0': 0, 'rot3': 0, 'rot2': 0, 'state': 'normal', 'yaw': -0.5, 'datetime': '2018-10-09 13:03:07.099531', 'mgs': 0, 'volt': 0.8691, 'depth': 1.08, 'time': 17, 'pitch': 0.22, 'roll': -4.47, 'pres': 178}
{'lipoC2': 7.42, 'lipoC3S1': 4.0, 'temp': 30.63, 'lipoC3S3': 12.13, 'lipoC3S2': 8.01, 'rot1': 0, 'rot0': 0, 'rot3': 0, 'rot2': 0, 'state': 'normal', 'yaw': -2.43, 'datetime': '2018-10-09 13:03:07.202957', 'mgs': 0, 'volt': 0.8643, 'depth': 1.004, 'time': 17, 'pitch': 0.37, 'roll': -6.61, 'pres': 177}
{'lipoC2': 7.42, 'lipoC3S1': 4.0, 'temp': 30.56, 'lipoC3S3': 12.12, 'lipoC3S2': 8.01, 'rot1': 0, 'rot0': 0, 'rot3': 0, 'rot2': 0, 'state': 'normal', 'yaw': -3.56, 'datetime': '2018-10-09 13:03:07.306504', 'mgs': 0, 'volt': 0.8643, 'depth': 1.004, 'time': 17, 'pitch': 0.04, 'roll': -8.37, 'pres': 177}
{'lipoC2': 7.42, 'lipoC3S1': 4.0, 'temp': 30.56, 'lipoC3S3': 12.12, 'lipoC3S2': 8.01, 'rot1': 0, 'rot0': 0, 'rot3': 0, 'rot2': 0, 'state': 'normal', 'yaw': -4.24, 'datetime': '2018-10-09 13:03:07.409484', 'mgs': 0, 'volt': 0.8594, 'depth': 0.928, 'time': 17, 'pitch': -0.88, 'roll': -9.82, 'pres': 176}
{'lipoC2': 7.42, 'lipoC3S1': 4.0, 'temp': 30.56, 'lipoC3S3': 12.12, 'lipoC3S2': 8.01, 'rot1': 0, 'rot0': 0, 'rot3': 0, 'rot2': 0, 'state': 'normal', 'yaw': -4.71, 'datetime': '2018-10-09 13:03:07.513129', 'mgs': 0, 'volt': 0.8594, 'depth': 0.928, 'time': 17, 'pitch': -2.52, 'roll': -10.84, 'pres': 176}
{'lipoC2': 7.42, 'lipoC3S1': 4.0, 'temp': 30.56, 'lipoC3S3': 12.12, 'lipoC3S2': 8.01, 'rot1': 0, 'rot0': 0, 'rot3': 0, 'rot2': 0, 'state': 'normal', 'yaw': -4.79, 'datetime': '2018-10-09 13:03:07.616471', 'mgs': 0, 'volt': 0.8594, 'depth': 0.928, 'time': 17, 'pitch': -4.48, 'roll': -11.06, 'pres': 176}
{'lipoC2': 7.42, 'lipoC3S1': 4.0, 'temp': 30.56, 'lipoC3S3': 12.12, 'lipoC3S2': 8.01, 'rot1': 0, 'rot0': 0, 'rot3': 0, 'rot2': 0, 'state': 'normal', 'yaw': -5.0, 'datetime': '2018-10-09 13:03:07.719875', 'mgs': 0, 'volt': 0.8594, 'depth': 0.928, 'time': 18, 'pitch': -6.65, 'roll': -10.28, 'pres': 176}
{'lipoC2': 7.42, 'lipoC3S1': 4.0, 'temp': 30.56, 'lipoC3S3': 12.13, 'lipoC3S2': 8.01, 'rot1': 0, 'rot0': 0, 'rot3': 0, 'rot2': 0, 'state': 'normal', 'yaw': -5.72, 'datetime': '2018-10-09 13:03:07.823767', 'mgs': 0, 'volt': 0.8643, 'depth': 1.004, 'time': 18, 'pitch': -8.53, 'roll': -8.29, 'pres': 177}
{'lipoC2': 7.42, 'lipoC3S1': 4.0, 'temp': 30.56, 'lipoC3S3': 12.12, 'lipoC3S2': 8.01, 'rot1': 0, 'rot0': 0, 'rot3': 0, 'rot2': 0, 'state': 'normal', 'yaw': -6.95, 'datetime': '2018-10-09 13:03:07.927172', 'mgs': 0, 'volt': 0.8691, 'depth': 1.08, 'time': 18, 'pitch': -9.92, 'roll': -5.31, 'pres': 178}
{'lipoC2': 7.42, 'lipoC3S1': 4.0, 'temp': 30.63, 'lipoC3S3': 12.13, 'lipoC3S2': 8.01, 'rot1': 0, 'rot0': 0, 'rot3': 0, 'rot2': 0, 'state': 'normal', 'yaw': -8.11, 'datetime': '2018-10-09 13:03:08.031796', 'mgs': 0, 'volt': 0.8691, 'depth': 1.08, 'time': 18, 'pitch': -10.22, 'roll': -2.49, 'pres': 178}
{'lipoC2': 7.42, 'lipoC3S1': 4.0, 'temp': 30.63, 'lipoC3S3': 12.12, 'lipoC3S2': 8.01, 'rot1': 0, 'rot0': 0, 'rot3': 0, 'rot2': 0, 'state': 'normal', 'yaw': -9.02, 'datetime': '2018-10-09 13:03:08.135034', 'mgs': 0, 'volt': 0.8789, 'depth': 1.233, 'time': 18, 'pitch': -9.66, 'roll': 0.36, 'pres': 180}
{'lipoC2': 7.42, 'lipoC3S1': 4.0, 'temp': 30.63, 'lipoC3S3': 12.12, 'lipoC3S2': 8.01, 'rot1': 0, 'rot0': 0, 'rot3': 0, 'rot2': 0, 'state': 'normal', 'yaw': -9.4, 'datetime': '2018-10-09 13:03:08.238347', 'mgs': 0, 'volt': 0.8838, 'depth': 1.309, 'time': 18, 'pitch': -8.3, 'roll': 2.44, 'pres': 181}
{'lipoC2': 7.42, 'lipoC3S1': 4.0, 'temp': 30.56, 'lipoC3S3': 12.12, 'lipoC3S2': 8.01, 'rot1': 0, 'rot0': 0, 'rot3': 0, 'rot2': 0, 'state': 'normal', 'yaw': -9.56, 'datetime': '2018-10-09 13:03:08.343027', 'mgs': 0, 'volt': 0.8838, 'depth': 1.309, 'time': 18, 'pitch': -6.62, 'roll': 3.89, 'pres': 181}
{'lipoC2': 7.42, 'lipoC3S1': 4.0, 'temp': 30.56, 'lipoC3S3': 12.12, 'lipoC3S2': 8.01, 'rot1': 0, 'rot0': 0, 'rot3': 0, 'rot2': 0, 'state': 'normal', 'yaw': -9.71, 'datetime': '2018-10-09 13:03:08.446406', 'mgs': 0, 'volt': 0.8887, 'depth': 1.385, 'time': 18, 'pitch': -4.5, 'roll': 4.72, 'pres': 182}
{'lipoC2': 7.42, 'lipoC3S1': 4.0, 'temp': 30.56, 'lipoC3S3': 12.12, 'lipoC3S2': 8.01, 'rot1': 0, 'rot0': 0, 'rot3': 0, 'rot2': 0, 'state': 'normal', 'yaw': -10.07, 'datetime': '2018-10-09 13:03:08.549646', 'mgs': 0, 'volt': 0.8936, 'depth': 1.462, 'time': 18, 'pitch': -2.57, 'roll': 5.01, 'pres': 183}
{'lipoC2': 7.42, 'lipoC3S1': 4.0, 'temp': 30.56, 'lipoC3S3': 12.12, 'lipoC3S2': 8.0, 'rot1': 0, 'rot0': 0, 'rot3': 0, 'rot2': 0, 'state': 'normal', 'yaw': -10.65, 'datetime': '2018-10-09 13:03:08.653035', 'mgs': 0, 'volt': 0.8936, 'depth': 1.462, 'time': 19, 'pitch': -1.01, 'roll': 5.03, 'pres': 183}
{'lipoC2': 7.42, 'lipoC3S1': 4.0, 'temp': 30.56, 'lipoC3S3': 12.12, 'lipoC3S2': 8.01, 'rot1': 0, 'rot0': 0, 'rot3': 0, 'rot2': 0, 'state': 'normal', 'yaw': -11.72, 'datetime': '2018-10-09 13:03:08.756315', 'mgs': 0, 'volt': 0.8984, 'depth': 1.538, 'time': 19, 'pitch': -0.22, 'roll': 4.84, 'pres': 184}
{'lipoC2': 7.42, 'lipoC3S1': 4.0, 'temp': 30.56, 'lipoC3S3': 12.12, 'lipoC3S2': 8.01, 'rot1': 0, 'rot0': 0, 'rot3': 0, 'rot2': 0, 'state': 'normal', 'yaw': -13.21, 'datetime': '2018-10-09 13:03:08.859959', 'mgs': 0, 'volt': 0.8984, 'depth': 1.538, 'time': 19, 'pitch': -0.31, 'roll': 4.56, 'pres': 184}
{'lipoC2': 7.42, 'lipoC3S1': 4.0, 'temp': 30.56, 'lipoC3S3': 12.12, 'lipoC3S2': 8.01, 'rot1': 0, 'rot0': 0, 'rot3': 0, 'rot2': 0, 'state': 'normal', 'yaw': -14.97, 'datetime': '2018-10-09 13:03:08.963005', 'mgs': 0, 'volt': 0.8984, 'depth': 1.538, 'time': 19, 'pitch': -1.23, 'roll': 4.18, 'pres': 184}
{'lipoC2': 7.42, 'lipoC3S1': 4.0, 'temp': 30.63, 'lipoC3S3': 12.12, 'lipoC3S2': 8.01, 'rot1': 0, 'rot0': 0, 'rot3': 0, 'rot2': 0, 'state': 'normal', 'yaw': -16.6, 'datetime': '2018-10-09 13:03:09.066590', 'mgs': 0, 'volt': 0.8984, 'depth': 1.538, 'time': 19, 'pitch': -2.65, 'roll': 3.4, 'pres': 184}
{'lipoC2': 7.42, 'lipoC3S1': 4.0, 'temp': 30.63, 'lipoC3S3': 12.12, 'lipoC3S2': 8.0, 'rot1': 0, 'rot0': 0, 'rot3': 0, 'rot2': 0, 'state': 'normal', 'yaw': -17.66, 'datetime': '2018-10-09 13:03:09.169923', 'mgs': 0, 'volt': 0.8984, 'depth': 1.538, 'time': 19, 'pitch': -3.65, 'roll': 2.42, 'pres': 184}
{'lipoC2': 7.42, 'lipoC3S1': 4.0, 'temp': 30.56, 'lipoC3S3': 12.12, 'lipoC3S2': 8.01, 'rot1': 0, 'rot0': 0, 'rot3': 0, 'rot2': 0, 'state': 'normal', 'yaw': -18.34, 'datetime': '2018-10-09 13:03:09.273516', 'mgs': 0, 'volt': 0.8984, 'depth': 1.538, 'time': 19, 'pitch': -3.69, 'roll': 1.33, 'pres': 184}
{'lipoC2': 7.42, 'lipoC3S1': 4.0, 'temp': 30.56, 'lipoC3S3': 12.12, 'lipoC3S2': 8.01, 'rot1': 0, 'rot0': 0, 'rot3': 0, 'rot2': 0, 'state': 'normal', 'yaw': -18.77, 'datetime': '2018-10-09 13:03:09.377231', 'mgs': 0, 'volt': 0.8984, 'depth': 1.538, 'time': 19, 'pitch': -2.6, 'roll': 0.16, 'pres': 184}
{'lipoC2': 7.42, 'lipoC3S1': 4.0, 'temp': 30.56, 'lipoC3S3': 12.12, 'lipoC3S2': 8.01, 'rot1': 0, 'rot0': 0, 'rot3': 0, 'rot2': 0, 'state': 'normal', 'yaw': -18.92, 'datetime': '2018-10-09 13:03:09.480728', 'mgs': 0, 'volt': 0.8984, 'depth': 1.538, 'time': 19, 'pitch': -1.25, 'roll': -1.04, 'pres': 184}
{'lipoC2': 7.42, 'lipoC3S1': 4.0, 'temp': 30.56, 'lipoC3S3': 12.12, 'lipoC3S2': 8.0, 'rot1': 0, 'rot0': 0, 'rot3': 0, 'rot2': 0, 'state': 'normal', 'yaw': -18.74, 'datetime': '2018-10-09 13:03:09.585241', 'mgs': 0, 'volt': 0.8984, 'depth': 1.538, 'time': 19, 'pitch': -0.48, 'roll': -1.91, 'pres': 184}
{'lipoC2': 7.42, 'lipoC3S1': 4.0, 'temp': 30.56, 'lipoC3S3': 12.12, 'lipoC3S2': 8.01, 'rot1': 0, 'rot0': 0, 'rot3': 0, 'rot2': 0, 'state': 'normal', 'yaw': -18.35, 'datetime': '2018-10-09 13:03:09.688631', 'mgs': 0, 'volt': 0.9033, 'depth': 1.614, 'time': 20, 'pitch': -0.22, 'roll': -2.57, 'pres': 185}
{'lipoC2': 7.42, 'lipoC3S1': 4.0, 'temp': 30.56, 'lipoC3S3': 12.13, 'lipoC3S2': 8.01, 'rot1': 0, 'rot0': 0, 'rot3': 0, 'rot2': 0, 'state': 'normal', 'yaw': -17.8, 'datetime': '2018-10-09 13:03:09.789965', 'mgs': 0, 'volt': 0.9033, 'depth': 1.614, 'time': 20, 'pitch': -0.33, 'roll': -2.92, 'pres': 185}
{'lipoC2': 7.42, 'lipoC3S1': 4.0, 'temp': 30.56, 'lipoC3S3': 12.13, 'lipoC3S2': 8.01, 'rot1': 0, 'rot0': 0, 'rot3': 0, 'rot2': 0, 'state': 'normal', 'yaw': -17.08, 'datetime': '2018-10-09 13:03:09.896557', 'mgs': 0, 'volt': 0.8984, 'depth': 1.538, 'time': 20, 'pitch': -0.47, 'roll': -3.09, 'pres': 184}
{'lipoC2': 7.42, 'lipoC3S1': 4.0, 'temp': 30.56, 'lipoC3S3': 12.12, 'lipoC3S2': 8.01, 'rot1': 0, 'rot0': 0, 'rot3': 0, 'rot2': 0, 'state': 'normal', 'yaw': -16.17, 'datetime': '2018-10-09 13:03:09.999950', 'mgs': 0, 'volt': 0.8984, 'depth': 1.538, 'time': 20, 'pitch': -0.47, 'roll': -3.16, 'pres': 184}
{'lipoC2': 7.42, 'lipoC3S1': 4.0, 'temp': 30.56, 'lipoC3S3': 12.12, 'lipoC3S2': 8.01, 'rot1': 0, 'rot0': 0, 'rot3': 0, 'rot2': 0, 'state': 'normal', 'yaw': -15.42, 'datetime': '2018-10-09 13:03:10.103242', 'mgs': 0, 'volt': 0.8984, 'depth': 1.538, 'time': 20, 'pitch': -0.39, 'roll': -3.17, 'pres': 184}
{'lipoC2': 7.42, 'lipoC3S1': 4.0, 'temp': 30.56, 'lipoC3S3': 12.12, 'lipoC3S2': 8.01, 'rot1': 0, 'rot0': 0, 'rot3': 0, 'rot2': 0, 'state': 'normal', 'yaw': -14.74, 'datetime': '2018-10-09 13:03:10.206423', 'mgs': 0, 'volt': 0.8984, 'depth': 1.538, 'time': 20, 'pitch': -0.16, 'roll': -3.16, 'pres': 184}
{'lipoC2': 7.42, 'lipoC3S1': 4.0, 'temp': 30.56, 'lipoC3S3': 12.12, 'lipoC3S2': 8.01, 'rot1': 0, 'rot0': 0, 'rot3': 0, 'rot2': 0, 'state': 'normal', 'yaw': -13.88, 'datetime': '2018-10-09 13:03:10.310023', 'mgs': 0, 'volt': 0.8984, 'depth': 1.538, 'time': 20, 'pitch': 0.11, 'roll': -3.14, 'pres': 184}
{'lipoC2': 7.42, 'lipoC3S1': 4.0, 'temp': 30.56, 'lipoC3S3': 12.12, 'lipoC3S2': 8.01, 'rot1': 0, 'rot0': 0, 'rot3': 0, 'rot2': 0, 'state': 'normal', 'yaw': -13.06, 'datetime': '2018-10-09 13:03:10.413051', 'mgs': 0, 'volt': 0.8984, 'depth': 1.538, 'time': 20, 'pitch': 0.08, 'roll': -3.12, 'pres': 184}
{'lipoC2': 7.42, 'lipoC3S1': 4.0, 'temp': 30.56, 'lipoC3S3': 12.12, 'lipoC3S2': 8.01, 'rot1': 0, 'rot0': 0, 'rot3': 0, 'rot2': 0, 'state': 'normal', 'yaw': -12.13, 'datetime': '2018-10-09 13:03:10.516429', 'mgs': 0, 'volt': 0.8984, 'depth': 1.538, 'time': 20, 'pitch': -0.15, 'roll': -3.03, 'pres': 184}
{'lipoC2': 7.42, 'lipoC3S1': 4.0, 'temp': 30.56, 'lipoC3S3': 12.13, 'lipoC3S2': 8.01, 'rot1': 0, 'rot0': 0, 'rot3': 0, 'rot2': 0, 'state': 'normal', 'yaw': -11.07, 'datetime': '2018-10-09 13:03:10.619922', 'mgs': 0, 'volt': 0.9033, 'depth': 1.614, 'time': 20, 'pitch': -0.37, 'roll': -2.84, 'pres': 185}
{'lipoC2': 7.42, 'lipoC3S1': 4.0, 'temp': 30.5, 'lipoC3S3': 12.12, 'lipoC3S2': 8.01, 'rot1': 0, 'rot0': 0, 'rot3': 0, 'rot2': 0, 'state': 'normal', 'yaw': -10.15, 'datetime': '2018-10-09 13:03:10.723366', 'mgs': 0, 'volt': 0.8984, 'depth': 1.538, 'time': 21, 'pitch': -0.82, 'roll': -2.55, 'pres': 184}
{'lipoC2': 7.42, 'lipoC3S1': 4.0, 'temp': 30.5, 'lipoC3S3': 12.12, 'lipoC3S2': 8.01, 'rot1': 0, 'rot0': 0, 'rot3': 0, 'rot2': 0, 'state': 'normal', 'yaw': -9.29, 'datetime': '2018-10-09 13:03:10.826670', 'mgs': 0, 'volt': 0.9033, 'depth': 1.614, 'time': 21, 'pitch': -1.12, 'roll': -2.24, 'pres': 185}
{'lipoC2': 7.42, 'lipoC3S1': 4.0, 'temp': 30.56, 'lipoC3S3': 12.12, 'lipoC3S2': 8.01, 'rot1': 0, 'rot0': 0, 'rot3': 0, 'rot2': 0, 'state': 'normal', 'yaw': -8.45, 'datetime': '2018-10-09 13:03:10.930648', 'mgs': 0, 'volt': 0.9033, 'depth': 1.614, 'time': 21, 'pitch': -1.07, 'roll': -1.99, 'pres': 185}
{'lipoC2': 7.42, 'lipoC3S1': 4.0, 'temp': 30.56, 'lipoC3S3': 12.13, 'lipoC3S2': 8.01, 'rot1': 0, 'rot0': 0, 'rot3': 0, 'rot2': 0, 'state': 'normal', 'yaw': -7.58, 'datetime': '2018-10-09 13:03:11.033605', 'mgs': 0, 'volt': 0.9033, 'depth': 1.614, 'time': 21, 'pitch': -0.59, 'roll': -1.81, 'pres': 185}
{'lipoC2': 7.42, 'lipoC3S1': 4.0, 'temp': 30.56, 'lipoC3S3': 12.12, 'lipoC3S2': 8.0, 'rot1': 0, 'rot0': 0, 'rot3': 0, 'rot2': 0, 'state': 'normal', 'yaw': -6.74, 'datetime': '2018-10-09 13:03:11.138283', 'mgs': 0, 'volt': 0.9033, 'depth': 1.614, 'time': 21, 'pitch': 0.35, 'roll': -1.77, 'pres': 185}
{'lipoC2': 7.42, 'lipoC3S1': 4.0, 'temp': 30.56, 'lipoC3S3': 12.12, 'lipoC3S2': 8.01, 'rot1': 0, 'rot0': 0, 'rot3': 0, 'rot2': 0, 'state': 'normal', 'yaw': -5.76, 'datetime': '2018-10-09 13:03:11.241647', 'mgs': 0, 'volt': 0.9082, 'depth': 1.691, 'time': 21, 'pitch': 1.63, 'roll': -1.76, 'pres': 186}
{'lipoC2': 7.42, 'lipoC3S1': 4.0, 'temp': 30.56, 'lipoC3S3': 12.13, 'lipoC3S2': 8.01, 'rot1': 0, 'rot0': 0, 'rot3': 0, 'rot2': 0, 'state': 'normal', 'yaw': -4.67, 'datetime': '2018-10-09 13:03:11.338298', 'mgs': 0, 'volt': 0.9082, 'depth': 1.691, 'time': 21, 'pitch': 2.74, 'roll': -1.88, 'pres': 186}
{'lipoC2': 7.42, 'lipoC3S1': 4.0, 'temp': 30.56, 'lipoC3S3': 12.13, 'lipoC3S2': 8.01, 'rot1': 0, 'rot0': 0, 'rot3': 0, 'rot2': 0, 'state': 'normal', 'yaw': -3.62, 'datetime': '2018-10-09 13:03:11.442855', 'mgs': 0, 'volt': 0.9033, 'depth': 1.614, 'time': 21, 'pitch': 3.39, 'roll': -2.19, 'pres': 185}
