{'lipoC2': 7.56, 'lipoC3S1': 4.1, 'temp': 29.69, 'lipoC3S3': 12.41, 'lipoC3S2': 8.22, 'rot1': 0, 'rot0': 0, 'rot3': 0, 'rot2': 0, 'state': 'normal', 'yaw': 0.0, 'datetime': '2018-10-10 00:30:06.972684', 'mgs': 0, 'volt': 0.835, 'depth': 0.546, 'time': 1, 'pitch': -27.77, 'roll': -10.98, 'pres': 171}
{'lipoC2': 7.56, 'lipoC3S1': 4.1, 'temp': 29.69, 'lipoC3S3': 12.41, 'lipoC3S2': 8.22, 'rot1': 0, 'rot0': 0, 'rot3': 0, 'rot2': 0, 'state': 'normal', 'yaw': 0.13, 'datetime': '2018-10-10 00:30:06.995491', 'mgs': 0, 'volt': 0.835, 'depth': 0.546, 'time': 1, 'pitch': -28.42, 'roll': -11.63, 'pres': 171}
{'lipoC2': 7.56, 'lipoC3S1': 4.1, 'temp': 29.75, 'lipoC3S3': 12.41, 'lipoC3S2': 8.22, 'rot1': 0, 'rot0': 0, 'rot3': 0, 'rot2': 0, 'state': 'normal', 'yaw': 0.0, 'datetime': '2018-10-10 00:30:07.018638', 'mgs': 0, 'volt': 0.835, 'depth': 0.546, 'time': 1, 'pitch': -29.06, 'roll': -13.01, 'pres': 171}
{'lipoC2': 7.56, 'lipoC3S1': 4.1, 'temp': 29.75, 'lipoC3S3': 12.41, 'lipoC3S2': 8.22, 'rot1': 0, 'rot0': 0, 'rot3': 0, 'rot2': 0, 'state': 'normal', 'yaw': -0.36, 'datetime': '2018-10-10 00:30:07.041635', 'mgs': 0, 'volt': 0.835, 'depth': 0.546, 'time': 1, 'pitch': -29.49, 'roll': -14.3, 'pres': 171}
{'lipoC2': 7.56, 'lipoC3S1': 4.1, 'temp': 29.75, 'lipoC3S3': 12.41, 'lipoC3S2': 8.22, 'rot1': 0, 'rot0': 0, 'rot3': 0, 'rot2': 0, 'state': 'normal', 'yaw': -0.71, 'datetime': '2018-10-10 00:30:07.064534', 'mgs': 0, 'volt': 0.835, 'depth': 0.546, 'time': 1, 'pitch': -29.63, 'roll': -15.11, 'pres': 171}
{'lipoC2': 7.56, 'lipoC3S1': 4.1, 'temp': 29.69, 'lipoC3S3': 12.41, 'lipoC3S2': 8.22, 'rot1': 0, 'rot0': 0, 'rot3': 0, 'rot2': 0, 'state': 'normal', 'yaw': -0.72, 'datetime': '2018-10-10 00:30:07.087475', 'mgs': 0, 'volt': 0.8301, 'depth': 0.47, 'time': 1, 'pitch': -29.48, 'roll': -15.19, 'pres': 170}
{'lipoC2': 7.56, 'lipoC3S1': 4.1, 'temp': 29.69, 'lipoC3S3': 12.41, 'lipoC3S2': 8.22, 'rot1': 0, 'rot0': 0, 'rot3': 0, 'rot2': 0, 'state': 'normal', 'yaw': -0.46, 'datetime': '2018-10-10 00:30:07.106531', 'mgs': 0, 'volt': 0.8301, 'depth': 0.47, 'time': 1, 'pitch': -29.26, 'roll': -14.71, 'pres': 170}
{'lipoC2': 7.56, 'lipoC3S1': 4.1, 'temp': 29.69, 'lipoC3S3': 12.41, 'lipoC3S2': 8.22, 'rot1': 0, 'rot0': 0, 'rot3': 0, 'rot2': 0, 'state': 'normal', 'yaw': -0.05, 'datetime': '2018-10-10 00:30:07.116506', 'mgs': 0, 'volt': 0.8301, 'depth': 0.47, 'time': 1, 'pitch': -28.96, 'roll': -13.82, 'pres': 170}
{'lipoC2': 7.56, 'lipoC3S1': 4.1, 'temp': 29.69, 'lipoC3S3': 12.41, 'lipoC3S2': 8.22, 'rot1': 0, 'rot0': 0, 'rot3': 0, 'rot2': 0, 'state': 'normal', 'yaw': 0.25, 'datetime': '2018-10-10 00:30:07.126494', 'mgs': 0, 'volt': 0.8301, 'depth': 0.47, 'time': 2, 'pitch': -28.63, 'roll': -13.14, 'pres': 170}
{'lipoC2': 7.56, 'lipoC3S1': 4.1, 'temp': 29.69, 'lipoC3S3': 12.41, 'lipoC3S2': 8.22, 'rot1': 0, 'rot0': 0, 'rot3': 0, 'rot2': 0, 'state': 'normal', 'yaw': 0.39, 'datetime': '2018-10-10 00:30:07.136418', 'mgs': 0, 'volt': 0.8301, 'depth': 0.47, 'time': 2, 'pitch': -28.54, 'roll': -12.81, 'pres': 170}
{'lipoC2': 7.56, 'lipoC3S1': 4.1, 'temp': 29.69, 'lipoC3S3': 12.41, 'lipoC3S2': 8.22, 'rot1': 0, 'rot0': 0, 'rot3': 0, 'rot2': 0, 'state': 'normal', 'yaw': 0.31, 'datetime': '2018-10-10 00:30:07.146325', 'mgs': 0, 'volt': 0.835, 'depth': 0.546, 'time': 2, 'pitch': -28.6, 'roll': -12.64, 'pres': 171}
{'lipoC2': 7.56, 'lipoC3S1': 4.1, 'temp': 29.69, 'lipoC3S3': 12.41, 'lipoC3S2': 8.22, 'rot1': 0, 'rot0': 0, 'rot3': 0, 'rot2': 0, 'state': 'normal', 'yaw': 0.15, 'datetime': '2018-10-10 00:30:07.156175', 'mgs': 0, 'volt': 0.835, 'depth': 0.546, 'time': 2, 'pitch': -28.59, 'roll': -12.33, 'pres': 171}
{'lipoC2': 7.56, 'lipoC3S1': 4.1, 'temp': 29.69, 'lipoC3S3': 12.41, 'lipoC3S2': 8.22, 'rot1': 0, 'rot0': 0, 'rot3': 0, 'rot2': 0, 'state': 'normal', 'yaw': 0.15, 'datetime': '2018-10-10 00:30:07.165526', 'mgs': 0, 'volt': 0.8301, 'depth': 0.47, 'time': 2, 'pitch': -28.38, 'roll': -11.89, 'pres': 170}
{'lipoC2': 7.56, 'lipoC3S1': 4.1, 'temp': 29.69, 'lipoC3S3': 12.41, 'lipoC3S2': 8.22, 'rot1': 0, 'rot0': 0, 'rot3': 0, 'rot2': 0, 'state': 'normal', 'yaw': 0.38, 'datetime': '2018-10-10 00:30:07.174868', 'mgs': 0, 'volt': 0.8301, 'depth': 0.47, 'time': 2, 'pitch': -28.19, 'roll': -11.42, 'pres': 170}
{'lipoC2': 7.56, 'lipoC3S1': 4.1, 'temp': 29.75, 'lipoC3S3': 12.41, 'lipoC3S2': 8.22, 'rot1': 0, 'rot0': 0, 'rot3': 0, 'rot2': 0, 'state': 'normal', 'yaw': 0.67, 'datetime': '2018-10-10 00:30:07.184441', 'mgs': 0, 'volt': 0.8301, 'depth': 0.47, 'time': 2, 'pitch': -28.16, 'roll': -11.16, 'pres': 170}
{'lipoC2': 7.56, 'lipoC3S1': 4.1, 'temp': 29.75, 'lipoC3S3': 12.41, 'lipoC3S2': 8.22, 'rot1': 0, 'rot0': 0, 'rot3': 0, 'rot2': 0, 'state': 'normal', 'yaw': 0.81, 'datetime': '2018-10-10 00:30:07.193809', 'mgs': 0, 'volt': 0.835, 'depth': 0.546, 'time': 2, 'pitch': -28.37, 'roll': -11.02, 'pres': 171}
{'lipoC2': 7.56, 'lipoC3S1': 4.1, 'temp': 29.75, 'lipoC3S3': 12.41, 'lipoC3S2': 8.22, 'rot1': 0, 'rot0': 0, 'rot3': 0, 'rot2': 0, 'state': 'normal', 'yaw': 0.72, 'datetime': '2018-10-10 00:30:07.203202', 'mgs': 0, 'volt': 0.8301, 'depth': 0.47, 'time': 2, 'pitch': -29.01, 'roll': -11.03, 'pres': 170}
{'lipoC2': 7.56, 'lipoC3S1': 4.1, 'temp': 29.75, 'lipoC3S3': 12.41, 'lipoC3S2': 8.22, 'rot1': 0, 'rot0': 0, 'rot3': 0, 'rot2': 0, 'state': 'normal', 'yaw': 0.8, 'datetime': '2018-10-10 00:30:07.212621', 'mgs': 0, 'volt': 0.8301, 'depth': 0.47, 'time': 3, 'pitch': -29.89, 'roll': -11.39, 'pres': 170}
{'lipoC2': 7.56, 'lipoC3S1': 4.1, 'temp': 29.75, 'lipoC3S3': 12.41, 'lipoC3S2': 8.22, 'rot1': 0, 'rot0': 0, 'rot3': 0, 'rot2': 0, 'state': 'normal', 'yaw': 1.11, 'datetime': '2018-10-10 00:30:07.222008', 'mgs': 0, 'volt': 0.8301, 'depth': 0.47, 'time': 3, 'pitch': -30.59, 'roll': -11.95, 'pres': 170}
{'lipoC2': 7.56, 'lipoC3S1': 4.1, 'temp': 29.75, 'lipoC3S3': 12.41, 'lipoC3S2': 8.22, 'rot1': 0, 'rot0': 0, 'rot3': 0, 'rot2': 0, 'state': 'normal', 'yaw': 1.42, 'datetime': '2018-10-10 00:30:07.231340', 'mgs': 0, 'volt': 0.835, 'depth': 0.546, 'time': 3, 'pitch': -30.65, 'roll': -12.43, 'pres': 171}
{'lipoC2': 7.56, 'lipoC3S1': 4.1, 'temp': 29.75, 'lipoC3S3': 12.41, 'lipoC3S2': 8.22, 'rot1': 0, 'rot0': 0, 'rot3': 0, 'rot2': 0, 'state': 'normal', 'yaw': 1.54, 'datetime': '2018-10-10 00:30:07.240703', 'mgs': 0, 'volt': 0.8301, 'depth': 0.47, 'time': 3, 'pitch': -30.22, 'roll': -12.6, 'pres': 170}
{'lipoC2': 7.56, 'lipoC3S1': 4.1, 'temp': 29.69, 'lipoC3S3': 12.41, 'lipoC3S2': 8.22, 'rot1': 0, 'rot0': 0, 'rot3': 0, 'rot2': 0, 'state': 'normal', 'yaw': 1.58, 'datetime': '2018-10-10 00:30:07.250051', 'mgs': 0, 'volt': 0.8301, 'depth': 0.47, 'time': 3, 'pitch': -29.7, 'roll': -12.7, 'pres': 170}
{'lipoC2': 7.56, 'lipoC3S1': 4.1, 'temp': 29.69, 'lipoC3S3': 12.41, 'lipoC3S2': 8.22, 'rot1': 0, 'rot0': 0, 'rot3': 0, 'rot2': 0, 'state': 'normal', 'yaw': 1.68, 'datetime': '2018-10-10 00:30:07.259419', 'mgs': 0, 'volt': 0.8301, 'depth': 0.47, 'time': 3, 'pitch': -29.49, 'roll': -12.87, 'pres': 170}
{'lipoC2': 7.56, 'lipoC3S1': 4.1, 'temp': 29.75, 'lipoC3S3': 12.41, 'lipoC3S2': 8.22, 'rot1': 0, 'rot0': 0, 'rot3': 0, 'rot2': 0, 'state': 'normal', 'yaw': 1.72, 'datetime': '2018-10-10 00:30:07.268751', 'mgs': 0, 'volt': 0.8301, 'depth': 0.47, 'time': 3, 'pitch': -29.7, 'roll': -12.9, 'pres': 170}
{'lipoC2': 7.56, 'lipoC3S1': 4.1, 'temp': 29.75, 'lipoC3S3': 12.41, 'lipoC3S2': 8.22, 'rot1': 0, 'rot0': 0, 'rot3': 0, 'rot2': 0, 'state': 'normal', 'yaw': 1.56, 'datetime': '2018-10-10 00:30:07.278132', 'mgs': 0, 'volt': 0.835, 'depth': 0.546, 'time': 3, 'pitch': -30.19, 'roll': -12.77, 'pres': 171}
{'lipoC2': 7.56, 'lipoC3S1': 4.1, 'temp': 29.75, 'lipoC3S3': 12.41, 'lipoC3S2': 8.22, 'rot1': 0, 'rot0': 0, 'rot3': 0, 'rot2': 0, 'state': 'normal', 'yaw': 1.25, 'datetime': '2018-10-10 00:30:07.287494', 'mgs': 0, 'volt': 0.8301, 'depth': 0.47, 'time': 3, 'pitch': -30.56, 'roll': -12.39, 'pres': 170}
{'lipoC2': 7.56, 'lipoC3S1': 4.1, 'temp': 29.69, 'lipoC3S3': 12.41, 'lipoC3S2': 8.22, 'rot1': 0, 'rot0': 0, 'rot3': 0, 'rot2': 0, 'state': 'normal', 'yaw': 0.95, 'datetime': '2018-10-10 00:30:07.296866', 'mgs': 0, 'volt': 0.835, 'depth': 0.546, 'time': 3, 'pitch': -30.43, 'roll': -11.85, 'pres': 171}
{'lipoC2': 7.56, 'lipoC3S1': 4.1, 'temp': 29.69, 'lipoC3S3': 12.41, 'lipoC3S2': 8.22, 'rot1': 0, 'rot0': 0, 'rot3': 0, 'rot2': 0, 'state': 'normal', 'yaw': 0.57, 'datetime': '2018-10-10 00:30:07.306254', 'mgs': 0, 'volt': 0.835, 'depth': 0.546, 'time': 4, 'pitch': -29.83, 'roll': -11.16, 'pres': 171}
{'lipoC2': 7.56, 'lipoC3S1': 4.1, 'temp': 29.75, 'lipoC3S3': 12.41, 'lipoC3S2': 8.22, 'rot1': 0, 'rot0': 0, 'rot3': 0, 'rot2': 0, 'state': 'normal', 'yaw': 0.08, 'datetime': '2018-10-10 00:30:07.315777', 'mgs': 0, 'volt': 0.835, 'depth': 0.546, 'time': 4, 'pitch': -28.91, 'roll': -10.46, 'pres': 171}
{'lipoC2': 7.55, 'lipoC3S1': 4.1, 'temp': 29.75, 'lipoC3S3': 12.41, 'lipoC3S2': 8.22, 'rot1': 0, 'rot0': 0, 'rot3': 0, 'rot2': 0, 'state': 'normal', 'yaw': -0.35, 'datetime': '2018-10-10 00:30:07.337655', 'mgs': 0, 'volt': 0.835, 'depth': 0.546, 'time': 4, 'pitch': -28.46, 'roll': -10.12, 'pres': 171}
{'lipoC2': 7.56, 'lipoC3S1': 4.1, 'temp': 29.63, 'lipoC3S3': 12.41, 'lipoC3S2': 8.22, 'rot1': 0, 'rot0': 0, 'rot3': 0, 'rot2': 0, 'state': 'normal', 'yaw': -0.73, 'datetime': '2018-10-10 00:30:07.442260', 'mgs': 0, 'volt': 0.835, 'depth': 0.546, 'time': 4, 'pitch': -28.62, 'roll': -10.03, 'pres': 171}
{'lipoC2': 7.56, 'lipoC3S1': 4.1, 'temp': 29.63, 'lipoC3S3': 12.41, 'lipoC3S2': 8.22, 'rot1': 0, 'rot0': 0, 'rot3': 0, 'rot2': 0, 'state': 'normal', 'yaw': -1.15, 'datetime': '2018-10-10 00:30:07.545544', 'mgs': 0, 'volt': 0.835, 'depth': 0.546, 'time': 4, 'pitch': -29.34, 'roll': -9.99, 'pres': 171}
{'lipoC2': 7.56, 'lipoC3S1': 4.1, 'temp': 29.63, 'lipoC3S3': 12.41, 'lipoC3S2': 8.22, 'rot1': 0, 'rot0': 0, 'rot3': 0, 'rot2': 0, 'state': 'normal', 'yaw': -1.45, 'datetime': '2018-10-10 00:30:07.648838', 'mgs': 0, 'volt': 0.8398, 'depth': 0.623, 'time': 4, 'pitch': -30.22, 'roll': -9.82, 'pres': 172}
{'lipoC2': 7.56, 'lipoC3S1': 4.1, 'temp': 29.69, 'lipoC3S3': 12.41, 'lipoC3S2': 8.22, 'rot1': 0, 'rot0': 0, 'rot3': 0, 'rot2': 0, 'state': 'normal', 'yaw': -1.64, 'datetime': '2018-10-10 00:30:07.752154', 'mgs': 0, 'volt': 0.835, 'depth': 0.546, 'time': 4, 'pitch': -30.96, 'roll': -9.43, 'pres': 171}
{'lipoC2': 7.56, 'lipoC3S1': 4.1, 'temp': 29.69, 'lipoC3S3': 12.41, 'lipoC3S2': 8.22, 'rot1': 0, 'rot0': 0, 'rot3': 0, 'rot2': 0, 'state': 'normal', 'yaw': -1.68, 'datetime': '2018-10-10 00:30:07.856150', 'mgs': 0, 'volt': 0.835, 'depth': 0.546, 'time': 4, 'pitch': -31.25, 'roll': -8.93, 'pres': 171}
{'lipoC2': 7.56, 'lipoC3S1': 4.1, 'temp': 29.69, 'lipoC3S3': 12.41, 'lipoC3S2': 8.22, 'rot1': 0, 'rot0': 0, 'rot3': 0, 'rot2': 0, 'state': 'normal', 'yaw': -1.59, 'datetime': '2018-10-10 00:30:07.959482', 'mgs': 0, 'volt': 0.835, 'depth': 0.546, 'time': 4, 'pitch': -30.89, 'roll': -8.84, 'pres': 171}
{'lipoC2': 7.56, 'lipoC3S1': 4.1, 'temp': 29.69, 'lipoC3S3': 12.41, 'lipoC3S2': 8.22, 'rot1': 0, 'rot0': 0, 'rot3': 0, 'rot2': 0, 'state': 'normal', 'yaw': -1.45, 'datetime': '2018-10-10 00:30:08.062788', 'mgs': 0, 'volt': 0.835, 'depth': 0.546, 'time': 4, 'pitch': -30.08, 'roll': -9.35, 'pres': 171}
{'lipoC2': 7.56, 'lipoC3S1': 4.1, 'temp': 29.69, 'lipoC3S3': 12.41, 'lipoC3S2': 8.22, 'rot1': 0, 'rot0': 0, 'rot3': 0, 'rot2': 0, 'state': 'normal', 'yaw': -1.12, 'datetime': '2018-10-10 00:30:08.166067', 'mgs': 0, 'volt': 0.835, 'depth': 0.546, 'time': 5, 'pitch': -29.14, 'roll': -10.47, 'pres': 171}
{'lipoC2': 7.56, 'lipoC3S1': 4.1, 'temp': 29.69, 'lipoC3S3': 12.41, 'lipoC3S2': 8.22, 'rot1': 0, 'rot0': 0, 'rot3': 0, 'rot2': 0, 'state': 'normal', 'yaw': -0.7, 'datetime': '2018-10-10 00:30:08.269374', 'mgs': 0, 'volt': 0.835, 'depth': 0.546, 'time': 5, 'pitch': -28.77, 'roll': -11.44, 'pres': 171}
{'lipoC2': 7.56, 'lipoC3S1': 4.1, 'temp': 29.69, 'lipoC3S3': 12.41, 'lipoC3S2': 8.22, 'rot1': 0, 'rot0': 0, 'rot3': 0, 'rot2': 0, 'state': 'normal', 'yaw': -0.39, 'datetime': '2018-10-10 00:30:08.374002', 'mgs': 0, 'volt': 0.835, 'depth': 0.546, 'time': 5, 'pitch': -28.89, 'roll': -11.88, 'pres': 171}
{'lipoC2': 7.56, 'lipoC3S1': 4.1, 'temp': 29.69, 'lipoC3S3': 12.41, 'lipoC3S2': 8.22, 'rot1': 0, 'rot0': 0, 'rot3': 0, 'rot2': 0, 'state': 'normal', 'yaw': -0.42, 'datetime': '2018-10-10 00:30:08.477314', 'mgs': 0, 'volt': 0.835, 'depth': 0.546, 'time': 5, 'pitch': -29.27, 'roll': -11.54, 'pres': 171}
{'lipoC2': 7.56, 'lipoC3S1': 4.1, 'temp': 29.69, 'lipoC3S3': 12.41, 'lipoC3S2': 8.22, 'rot1': 0, 'rot0': 0, 'rot3': 0, 'rot2': 0, 'state': 'normal', 'yaw': -0.84, 'datetime': '2018-10-10 00:30:08.582235', 'mgs': 0, 'volt': 0.835, 'depth': 0.546, 'time': 5, 'pitch': -29.71, 'roll': -10.71, 'pres': 171}
{'lipoC2': 7.56, 'lipoC3S1': 4.1, 'temp': 29.69, 'lipoC3S3': 12.41, 'lipoC3S2': 8.22, 'rot1': 0, 'rot0': 0, 'rot3': 0, 'rot2': 0, 'state': 'normal', 'yaw': -1.39, 'datetime': '2018-10-10 00:30:08.685265', 'mgs': 0, 'volt': 0.835, 'depth': 0.546, 'time': 5, 'pitch': -30.05, 'roll': -9.91, 'pres': 171}
{'lipoC2': 7.56, 'lipoC3S1': 4.1, 'temp': 29.69, 'lipoC3S3': 12.41, 'lipoC3S2': 8.22, 'rot1': 0, 'rot0': 0, 'rot3': 0, 'rot2': 0, 'state': 'normal', 'yaw': -1.79, 'datetime': '2018-10-10 00:30:08.788520', 'mgs': 0, 'volt': 0.835, 'depth': 0.546, 'time': 5, 'pitch': -30.21, 'roll': -9.68, 'pres': 171}
{'lipoC2': 7.56, 'lipoC3S1': 4.1, 'temp': 29.69, 'lipoC3S3': 12.41, 'lipoC3S2': 8.22, 'rot1': 0, 'rot0': 0, 'rot3': 0, 'rot2': 0, 'state': 'normal', 'yaw': -2.1, 'datetime': '2018-10-10 00:30:08.892356', 'mgs': 0, 'volt': 0.835, 'depth': 0.546, 'time': 5, 'pitch': -30.52, 'roll': -10.01, 'pres': 171}
{'lipoC2': 7.56, 'lipoC3S1': 4.1, 'temp': 29.69, 'lipoC3S3': 12.41, 'lipoC3S2': 8.22, 'rot1': 0, 'rot0': 0, 'rot3': 0, 'rot2': 0, 'state': 'normal', 'yaw': -2.6, 'datetime': '2018-10-10 00:30:08.997002', 'mgs': 0, 'volt': 0.835, 'depth': 0.546, 'time': 5, 'pitch': -30.9, 'roll': -10.45, 'pres': 171}
{'lipoC2': 7.56, 'lipoC3S1': 4.1, 'temp': 29.69, 'lipoC3S3': 12.41, 'lipoC3S2': 8.22, 'rot1': 0, 'rot0': 0, 'rot3': 0, 'rot2': 0, 'state': 'normal', 'yaw': -3.36, 'datetime': '2018-10-10 00:30:09.100264', 'mgs': 0, 'volt': 0.8301, 'depth': 0.47, 'time': 6, 'pitch': -31.08, 'roll': -10.75, 'pres': 170}
{'lipoC2': 7.56, 'lipoC3S1': 4.1, 'temp': 29.69, 'lipoC3S3': 12.41, 'lipoC3S2': 8.22, 'rot1': 0, 'rot0': 0, 'rot3': 0, 'rot2': 0, 'state': 'normal', 'yaw': -4.06, 'datetime': '2018-10-10 00:30:09.203549', 'mgs': 0, 'volt': 0.8301, 'depth': 0.47, 'time': 6, 'pitch': -31.12, 'roll': -10.72, 'pres': 170}
{'lipoC2': 7.56, 'lipoC3S1': 4.1, 'temp': 29.69, 'lipoC3S3': 12.41, 'lipoC3S2': 8.22, 'rot1': 0, 'rot0': 0, 'rot3': 0, 'rot2': 0, 'state': 'normal', 'yaw': -4.62, 'datetime': '2018-10-10 00:30:09.306832', 'mgs': 0, 'volt': 0.8301, 'depth': 0.47, 'time': 6, 'pitch': -31.42, 'roll': -10.51, 'pres': 170}
{'lipoC2': 7.56, 'lipoC3S1': 4.1, 'temp': 29.69, 'lipoC3S3': 12.41, 'lipoC3S2': 8.22, 'rot1': 0, 'rot0': 0, 'rot3': 0, 'rot2': 0, 'state': 'normal', 'yaw': -5.02, 'datetime': '2018-10-10 00:30:09.410122', 'mgs': 0, 'volt': 0.8301, 'depth': 0.47, 'time': 6, 'pitch': -31.95, 'roll': -10.3, 'pres': 170}
{'lipoC2': 7.56, 'lipoC3S1': 4.1, 'temp': 29.69, 'lipoC3S3': 12.41, 'lipoC3S2': 8.22, 'rot1': 0, 'rot0': 0, 'rot3': 0, 'rot2': 0, 'state': 'normal', 'yaw': -5.35, 'datetime': '2018-10-10 00:30:09.513470', 'mgs': 0, 'volt': 0.8301, 'depth': 0.47, 'time': 6, 'pitch': -32.58, 'roll': -10.33, 'pres': 170}
{'lipoC2': 7.56, 'lipoC3S1': 4.1, 'temp': 29.69, 'lipoC3S3': 12.41, 'lipoC3S2': 8.22, 'rot1': 0, 'rot0': 0, 'rot3': 0, 'rot2': 0, 'state': 'normal', 'yaw': -5.66, 'datetime': '2018-10-10 00:30:09.616800', 'mgs': 0, 'volt': 0.8301, 'depth': 0.47, 'time': 6, 'pitch': -33.06, 'roll': -10.59, 'pres': 170}
{'lipoC2': 7.56, 'lipoC3S1': 4.1, 'temp': 29.69, 'lipoC3S3': 12.41, 'lipoC3S2': 8.22, 'rot1': 0, 'rot0': 0, 'rot3': 0, 'rot2': 0, 'state': 'normal', 'yaw': -6.01, 'datetime': '2018-10-10 00:30:09.720112', 'mgs': 0, 'volt': 0.8252, 'depth': 0.394, 'time': 6, 'pitch': -33.38, 'roll': -10.92, 'pres': 169}
{'lipoC2': 7.56, 'lipoC3S1': 4.1, 'temp': 29.69, 'lipoC3S3': 12.41, 'lipoC3S2': 8.22, 'rot1': 0, 'rot0': 0, 'rot3': 0, 'rot2': 0, 'state': 'normal', 'yaw': -6.26, 'datetime': '2018-10-10 00:30:09.823445', 'mgs': 0, 'volt': 0.8252, 'depth': 0.394, 'time': 6, 'pitch': -33.56, 'roll': -11.14, 'pres': 169}
{'lipoC2': 7.56, 'lipoC3S1': 4.1, 'temp': 29.69, 'lipoC3S3': 12.41, 'lipoC3S2': 8.22, 'rot1': 0, 'rot0': 0, 'rot3': 0, 'rot2': 0, 'state': 'normal', 'yaw': -6.19, 'datetime': '2018-10-10 00:30:09.928022', 'mgs': 0, 'volt': 0.8252, 'depth': 0.394, 'time': 6, 'pitch': -33.67, 'roll': -11.32, 'pres': 169}
{'lipoC2': 7.56, 'lipoC3S1': 4.1, 'temp': 29.69, 'lipoC3S3': 12.41, 'lipoC3S2': 8.22, 'rot1': 0, 'rot0': 0, 'rot3': 0, 'rot2': 0, 'state': 'normal', 'yaw': -5.51, 'datetime': '2018-10-10 00:30:10.031339', 'mgs': 0, 'volt': 0.8252, 'depth': 0.394, 'time': 6, 'pitch': -33.49, 'roll': -11.56, 'pres': 169}
{'lipoC2': 7.56, 'lipoC3S1': 4.1, 'temp': 29.69, 'lipoC3S3': 12.41, 'lipoC3S2': 8.22, 'rot1': 0, 'rot0': 0, 'rot3': 0, 'rot2': 0, 'state': 'normal', 'yaw': -4.4, 'datetime': '2018-10-10 00:30:10.135171', 'mgs': 0, 'volt': 0.8252, 'depth': 0.394, 'time': 7, 'pitch': -33.19, 'roll': -11.89, 'pres': 169}
{'lipoC2': 7.56, 'lipoC3S1': 4.1, 'temp': 29.69, 'lipoC3S3': 12.41, 'lipoC3S2': 8.22, 'rot1': 0, 'rot0': 0, 'rot3': 0, 'rot2': 0, 'state': 'normal', 'yaw': -3.15, 'datetime': '2018-10-10 00:30:10.239562', 'mgs': 0, 'volt': 0.8252, 'depth': 0.394, 'time': 7, 'pitch': -32.96, 'roll': -12.28, 'pres': 169}
{'lipoC2': 7.56, 'lipoC3S1': 4.1, 'temp': 29.69, 'lipoC3S3': 12.41, 'lipoC3S2': 8.22, 'rot1': 0, 'rot0': 0, 'rot3': 0, 'rot2': 0, 'state': 'normal', 'yaw': -1.97, 'datetime': '2018-10-10 00:30:10.342915', 'mgs': 0, 'volt': 0.8252, 'depth': 0.394, 'time': 7, 'pitch': -32.89, 'roll': -12.71, 'pres': 169}
{'lipoC2': 7.56, 'lipoC3S1': 4.1, 'temp': 29.69, 'lipoC3S3': 12.41, 'lipoC3S2': 8.22, 'rot1': 0, 'rot0': 0, 'rot3': 0, 'rot2': 0, 'state': 'normal', 'yaw': -1.3, 'datetime': '2018-10-10 00:30:10.447459', 'mgs': 0, 'volt': 0.8252, 'depth': 0.394, 'time': 7, 'pitch': -32.88, 'roll': -13.0, 'pres': 169}
{'lipoC2': 7.56, 'lipoC3S1': 4.1, 'temp': 29.69, 'lipoC3S3': 12.41, 'lipoC3S2': 8.22, 'rot1': 0, 'rot0': 0, 'rot3': 0, 'rot2': 0, 'state': 'normal', 'yaw': -1.25, 'datetime': '2018-10-10 00:30:10.551160', 'mgs': 0, 'volt': 0.8252, 'depth': 0.394, 'time': 7, 'pitch': -32.93, 'roll': -12.93, 'pres': 169}
{'lipoC2': 7.56, 'lipoC3S1': 4.1, 'temp': 29.69, 'lipoC3S3': 12.41, 'lipoC3S2': 8.22, 'rot1': 0, 'rot0': 0, 'rot3': 0, 'rot2': 0, 'state': 'normal', 'yaw': -1.78, 'datetime': '2018-10-10 00:30:10.654507', 'mgs': 0, 'volt': 0.8301, 'depth': 0.47, 'time': 7, 'pitch': -33.03, 'roll': -12.42, 'pres': 170}
{'lipoC2': 7.56, 'lipoC3S1': 4.1, 'temp': 29.69, 'lipoC3S3': 12.41, 'lipoC3S2': 8.22, 'rot1': 0, 'rot0': 0, 'rot3': 0, 'rot2': 0, 'state': 'normal', 'yaw': -2.42, 'datetime': '2018-10-10 00:30:10.757811', 'mgs': 0, 'volt': 0.8252, 'depth': 0.394, 'time': 7, 'pitch': -33.27, 'roll': -11.72, 'pres': 169}
{'lipoC2': 7.56, 'lipoC3S1': 4.1, 'temp': 29.75, 'lipoC3S3': 12.41, 'lipoC3S2': 8.22, 'rot1': 0, 'rot0': 0, 'rot3': 0, 'rot2': 0, 'state': 'normal', 'yaw': -2.91, 'datetime': '2018-10-10 00:30:10.861326', 'mgs': 0, 'volt': 0.8252, 'depth': 0.394, 'time': 7, 'pitch': -33.52, 'roll': -10.96, 'pres': 169}
{'lipoC2': 7.56, 'lipoC3S1': 4.1, 'temp': 29.75, 'lipoC3S3': 12.41, 'lipoC3S2': 8.22, 'rot1': 0, 'rot0': 0, 'rot3': 0, 'rot2': 0, 'state': 'normal', 'yaw': -3.52, 'datetime': '2018-10-10 00:30:10.964651', 'mgs': 0, 'volt': 0.8252, 'depth': 0.394, 'time': 7, 'pitch': -33.73, 'roll': -10.02, 'pres': 169}
{'lipoC2': 7.56, 'lipoC3S1': 4.1, 'temp': 29.75, 'lipoC3S3': 12.41, 'lipoC3S2': 8.22, 'rot1': 0, 'rot0': 0, 'rot3': 0, 'rot2': 0, 'state': 'normal', 'yaw': -4.29, 'datetime': '2018-10-10 00:30:11.067940', 'mgs': 0, 'volt': 0.8252, 'depth': 0.394, 'time': 7, 'pitch': -33.94, 'roll': -9.36, 'pres': 169}
{'lipoC2': 7.56, 'lipoC3S1': 4.1, 'temp': 29.75, 'lipoC3S3': 12.41, 'lipoC3S2': 8.22, 'rot1': 0, 'rot0': 0, 'rot3': 0, 'rot2': 0, 'state': 'normal', 'yaw': -5.07, 'datetime': '2018-10-10 00:30:11.171448', 'mgs': 0, 'volt': 0.8252, 'depth': 0.394, 'time': 8, 'pitch': -34.04, 'roll': -9.16, 'pres': 169}
{'lipoC2': 7.56, 'lipoC3S1': 4.1, 'temp': 29.75, 'lipoC3S3': 12.41, 'lipoC3S2': 8.22, 'rot1': 0, 'rot0': 0, 'rot3': 0, 'rot2': 0, 'state': 'normal', 'yaw': -5.58, 'datetime': '2018-10-10 00:30:11.274755', 'mgs': 0, 'volt': 0.8252, 'depth': 0.394, 'time': 8, 'pitch': -34.22, 'roll': -9.61, 'pres': 169}
{'lipoC2': 7.56, 'lipoC3S1': 4.1, 'temp': 29.69, 'lipoC3S3': 12.41, 'lipoC3S2': 8.22, 'rot1': 0, 'rot0': 0, 'rot3': 0, 'rot2': 0, 'state': 'normal', 'yaw': -5.64, 'datetime': '2018-10-10 00:30:11.378104', 'mgs': 0, 'volt': 0.8252, 'depth': 0.394, 'time': 8, 'pitch': -34.36, 'roll': -10.5, 'pres': 169}
{'lipoC2': 7.56, 'lipoC3S1': 4.1, 'temp': 29.69, 'lipoC3S3': 12.41, 'lipoC3S2': 8.22, 'rot1': 0, 'rot0': 0, 'rot3': 0, 'rot2': 0, 'state': 'normal', 'yaw': -5.58, 'datetime': '2018-10-10 00:30:11.482423', 'mgs': 0, 'volt': 0.8252, 'depth': 0.394, 'time': 8, 'pitch': -34.24, 'roll': -11.39, 'pres': 169}
{'lipoC2': 7.56, 'lipoC3S1': 4.1, 'temp': 29.69, 'lipoC3S3': 12.41, 'lipoC3S2': 8.22, 'rot1': 0, 'rot0': 0, 'rot3': 0, 'rot2': 0, 'state': 'normal', 'yaw': -5.54, 'datetime': '2018-10-10 00:30:11.588500', 'mgs': 0, 'volt': 0.8252, 'depth': 0.394, 'time': 8, 'pitch': -33.92, 'roll': -11.91, 'pres': 169}
{'lipoC2': 7.56, 'lipoC3S1': 4.1, 'temp': 29.69, 'lipoC3S3': 12.41, 'lipoC3S2': 8.22, 'rot1': 0, 'rot0': 0, 'rot3': 0, 'rot2': 0, 'state': 'normal', 'yaw': -5.45, 'datetime': '2018-10-10 00:30:11.690098', 'mgs': 0, 'volt': 0.8252, 'depth': 0.394, 'time': 8, 'pitch': -33.64, 'roll': -12.0, 'pres': 169}
{'lipoC2': 7.56, 'lipoC3S1': 4.1, 'temp': 29.69, 'lipoC3S3': 12.41, 'lipoC3S2': 8.22, 'rot1': 0, 'rot0': 0, 'rot3': 0, 'rot2': 0, 'state': 'normal', 'yaw': -5.23, 'datetime': '2018-10-10 00:30:11.793786', 'mgs': 0, 'volt': 0.8203, 'depth': 0.317, 'time': 8, 'pitch': -33.41, 'roll': -11.94, 'pres': 168}
{'lipoC2': 7.56, 'lipoC3S1': 4.1, 'temp': 29.75, 'lipoC3S3': 12.41, 'lipoC3S2': 8.22, 'rot1': 0, 'rot0': 0, 'rot3': 0, 'rot2': 0, 'state': 'normal', 'yaw': -4.7, 'datetime': '2018-10-10 00:30:11.897125', 'mgs': 0, 'volt': 0.8252, 'depth': 0.394, 'time': 8, 'pitch': -33.23, 'roll': -12.05, 'pres': 169}
{'lipoC2': 7.56, 'lipoC3S1': 4.1, 'temp': 29.75, 'lipoC3S3': 12.41, 'lipoC3S2': 8.22, 'rot1': 0, 'rot0': 0, 'rot3': 0, 'rot2': 0, 'state': 'normal', 'yaw': -4.09, 'datetime': '2018-10-10 00:30:12.001776', 'mgs': 0, 'volt': 0.8252, 'depth': 0.394, 'time': 8, 'pitch': -33.12, 'roll': -12.24, 'pres': 169}
{'lipoC2': 7.56, 'lipoC3S1': 4.1, 'temp': 29.69, 'lipoC3S3': 12.41, 'lipoC3S2': 8.22, 'rot1': 0, 'rot0': 0, 'rot3': 0, 'rot2': 0, 'state': 'normal', 'yaw': -3.63, 'datetime': '2018-10-10 00:30:12.105043', 'mgs': 0, 'volt': 0.8252, 'depth': 0.394, 'time': 9, 'pitch': -33.03, 'roll': -12.29, 'pres': 169}
{'lipoC2': 7.56, 'lipoC3S1': 4.1, 'temp': 29.69, 'lipoC3S3': 12.41, 'lipoC3S2': 8.22, 'rot1': 0, 'rot0': 0, 'rot3': 0, 'rot2': 0, 'state': 'normal', 'yaw': -3.45, 'datetime': '2018-10-10 00:30:12.208347', 'mgs': 0, 'volt': 0.8252, 'depth': 0.394, 'time': 9, 'pitch': -33.1, 'roll': -12.13, 'pres': 169}
{'lipoC2': 7.56, 'lipoC3S1': 4.1, 'temp': 29.75, 'lipoC3S3': 12.41, 'lipoC3S2': 8.22, 'rot1': 0, 'rot0': 0, 'rot3': 0, 'rot2': 0, 'state': 'normal', 'yaw': -3.49, 'datetime': '2018-10-10 00:30:12.311700', 'mgs': 0, 'volt': 0.8252, 'depth': 0.394, 'time': 9, 'pitch': -33.24, 'roll': -11.85, 'pres': 169}
{'lipoC2': 7.56, 'lipoC3S1': 4.1, 'temp': 29.75, 'lipoC3S3': 12.41, 'lipoC3S2': 8.22, 'rot1': 0, 'rot0': 0, 'rot3': 0, 'rot2': 0, 'state': 'normal', 'yaw': -3.56, 'datetime': '2018-10-10 00:30:12.415191', 'mgs': 0, 'volt': 0.8252, 'depth': 0.394, 'time': 9, 'pitch': -33.43, 'roll': -11.59, 'pres': 169}
{'lipoC2': 7.56, 'lipoC3S1': 4.1, 'temp': 29.75, 'lipoC3S3': 12.41, 'lipoC3S2': 8.22, 'rot1': 0, 'rot0': 0, 'rot3': 0, 'rot2': 0, 'state': 'normal', 'yaw': -3.52, 'datetime': '2018-10-10 00:30:12.518528', 'mgs': 0, 'volt': 0.8252, 'depth': 0.394, 'time': 9, 'pitch': -33.63, 'roll': -11.23, 'pres': 169}
{'lipoC2': 7.56, 'lipoC3S1': 4.1, 'temp': 29.69, 'lipoC3S3': 12.41, 'lipoC3S2': 8.22, 'rot1': 0, 'rot0': 0, 'rot3': 0, 'rot2': 0, 'state': 'normal', 'yaw': -3.43, 'datetime': '2018-10-10 00:30:12.621851', 'mgs': 0, 'volt': 0.8301, 'depth': 0.47, 'time': 9, 'pitch': -33.49, 'roll': -10.78, 'pres': 170}
{'lipoC2': 7.56, 'lipoC3S1': 4.1, 'temp': 29.69, 'lipoC3S3': 12.41, 'lipoC3S2': 8.22, 'rot1': 0, 'rot0': 0, 'rot3': 0, 'rot2': 0, 'state': 'normal', 'yaw': -3.0, 'datetime': '2018-10-10 00:30:12.725382', 'mgs': 0, 'volt': 0.8252, 'depth': 0.394, 'time': 9, 'pitch': -33.06, 'roll': -10.67, 'pres': 169}
{'lipoC2': 7.56, 'lipoC3S1': 4.1, 'temp': 29.69, 'lipoC3S3': 12.41, 'lipoC3S2': 8.22, 'rot1': 0, 'rot0': 0, 'rot3': 0, 'rot2': 0, 'state': 'normal', 'yaw': -2.08, 'datetime': '2018-10-10 00:30:12.828690', 'mgs': 0, 'volt': 0.8252, 'depth': 0.394, 'time': 9, 'pitch': -32.61, 'roll': -11.36, 'pres': 169}
{'lipoC2': 7.56, 'lipoC3S1': 4.1, 'temp': 29.69, 'lipoC3S3': 12.41, 'lipoC3S2': 8.22, 'rot1': 0, 'rot0': 0, 'rot3': 0, 'rot2': 0, 'state': 'normal', 'yaw': -1.46, 'datetime': '2018-10-10 00:30:12.932023', 'mgs': 0, 'volt': 0.8252, 'depth': 0.394, 'time': 9, 'pitch': -32.36, 'roll': -12.28, 'pres': 169}
{'lipoC2': 7.56, 'lipoC3S1': 4.1, 'temp': 29.75, 'lipoC3S3': 12.41, 'lipoC3S2': 8.22, 'rot1': 0, 'rot0': 0, 'rot3': 0, 'rot2': 0, 'state': 'normal', 'yaw': -1.42, 'datetime': '2018-10-10 00:30:13.036131', 'mgs': 0, 'volt': 0.8301, 'depth': 0.47, 'time': 9, 'pitch': -32.27, 'roll': -12.95, 'pres': 170}
{'lipoC2': 7.56, 'lipoC3S1': 4.1, 'temp': 29.75, 'lipoC3S3': 12.41, 'lipoC3S2': 8.22, 'rot1': 0, 'rot0': 0, 'rot3': 0, 'rot2': 0, 'state': 'normal', 'yaw': -1.79, 'datetime': '2018-10-10 00:30:13.139605', 'mgs': 0, 'volt': 0.8301, 'depth': 0.47, 'time': 10, 'pitch': -32.4, 'roll': -13.14, 'pres': 170}
{'lipoC2': 7.56, 'lipoC3S1': 4.1, 'temp': 29.75, 'lipoC3S3': 12.41, 'lipoC3S2': 8.22, 'rot1': 0, 'rot0': 0, 'rot3': 0, 'rot2': 0, 'state': 'normal', 'yaw': -2.1, 'datetime': '2018-10-10 00:30:13.244300', 'mgs': 1, 'volt': 0.8301, 'depth': 0.47, 'time': 10, 'pitch': -32.78, 'roll': -12.98, 'pres': 170}
{'lipoC2': 7.56, 'lipoC3S1': 4.1, 'temp': 29.69, 'lipoC3S3': 12.41, 'lipoC3S2': 8.22, 'rot1': 0, 'rot0': 0, 'rot3': 0, 'rot2': 0, 'state': 'normal', 'yaw': -0.03, 'datetime': '2018-10-10 00:30:17.773298', 'mgs': 1, 'volt': 0.8301, 'depth': 0.47, 'time': 1, 'pitch': -11.95, 'roll': -3.28, 'pres': 170}
{'lipoC2': 7.56, 'lipoC3S1': 4.1, 'temp': 29.69, 'lipoC3S3': 12.41, 'lipoC3S2': 8.22, 'rot1': 0, 'rot0': 0, 'rot3': 0, 'rot2': 0, 'state': 'normal', 'yaw': -0.38, 'datetime': '2018-10-10 00:30:20.824563', 'mgs': 1, 'volt': 0.8301, 'depth': 0.47, 'time': 1, 'pitch': -10.47, 'roll': -2.51, 'pres': 170}
{'lipoC2': 7.56, 'lipoC3S1': 4.1, 'temp': 29.69, 'lipoC3S3': 12.41, 'lipoC3S2': 8.22, 'rot1': 0, 'rot0': 0, 'rot3': 0, 'rot2': 0, 'state': 'normal', 'yaw': -0.86, 'datetime': '2018-10-10 00:30:20.853379', 'mgs': 0, 'volt': 0.8252, 'depth': 0.394, 'time': 1, 'pitch': -9.43, 'roll': -1.95, 'pres': 169}
{'lipoC2': 7.56, 'lipoC3S1': 4.1, 'temp': 29.69, 'lipoC3S3': 12.41, 'lipoC3S2': 8.22, 'rot1': 0, 'rot0': 0, 'rot3': 0, 'rot2': 0, 'state': 'normal', 'yaw': -1.38, 'datetime': '2018-10-10 00:30:20.876228', 'mgs': 1, 'volt': 0.8252, 'depth': 0.394, 'time': 1, 'pitch': -8.84, 'roll': -1.53, 'pres': 169}
{'lipoC2': 7.56, 'lipoC3S1': 4.1, 'temp': 29.69, 'lipoC3S3': 12.41, 'lipoC3S2': 8.22, 'rot1': 0, 'rot0': 0, 'rot3': 0, 'rot2': 0, 'state': 'normal', 'yaw': -1.84, 'datetime': '2018-10-10 00:30:20.894484', 'mgs': 1, 'volt': 0.8301, 'depth': 0.47, 'time': 1, 'pitch': -8.94, 'roll': -1.17, 'pres': 170}
{'lipoC2': 7.56, 'lipoC3S1': 4.1, 'temp': 29.69, 'lipoC3S3': 12.41, 'lipoC3S2': 8.22, 'rot1': 0, 'rot0': 0, 'rot3': 0, 'rot2': 0, 'state': 'normal', 'yaw': -2.02, 'datetime': '2018-10-10 00:30:20.910270', 'mgs': 0, 'volt': 0.8301, 'depth': 0.47, 'time': 1, 'pitch': -9.16, 'roll': -1.05, 'pres': 170}
{'lipoC2': 7.56, 'lipoC3S1': 4.1, 'temp': 29.69, 'lipoC3S3': 12.41, 'lipoC3S2': 8.22, 'rot1': 0, 'rot0': 0, 'rot3': 0, 'rot2': 0, 'state': 'normal', 'yaw': -2.04, 'datetime': '2018-10-10 00:30:20.920207', 'mgs': 0, 'volt': 0.8252, 'depth': 0.394, 'time': 1, 'pitch': -9.0, 'roll': -0.95, 'pres': 169}
{'lipoC2': 7.56, 'lipoC3S1': 4.1, 'temp': 29.69, 'lipoC3S3': 12.41, 'lipoC3S2': 8.22, 'rot1': 0, 'rot0': 0, 'rot3': 0, 'rot2': 0, 'state': 'normal', 'yaw': -2.05, 'datetime': '2018-10-10 00:30:20.935910', 'mgs': 0, 'volt': 0.8301, 'depth': 0.47, 'time': 1, 'pitch': -8.66, 'roll': -0.66, 'pres': 170}
{'lipoC2': 7.56, 'lipoC3S1': 4.11, 'temp': 29.69, 'lipoC3S3': 12.41, 'lipoC3S2': 8.22, 'rot1': 0, 'rot0': 0, 'rot3': 0, 'rot2': 0, 'state': 'normal', 'yaw': -2.08, 'datetime': '2018-10-10 00:30:20.951718', 'mgs': 1, 'volt': 0.8252, 'depth': 0.394, 'time': 2, 'pitch': -8.43, 'roll': -0.34, 'pres': 169}
{'lipoC2': 7.56, 'lipoC3S1': 4.1, 'temp': 29.69, 'lipoC3S3': 12.41, 'lipoC3S2': 8.22, 'rot1': 0, 'rot0': 0, 'rot3': 0, 'rot2': 0, 'state': 'normal', 'yaw': -2.29, 'datetime': '2018-10-10 00:30:20.961662', 'mgs': 1, 'volt': 0.8252, 'depth': 0.394, 'time': 2, 'pitch': -8.39, 'roll': -0.08, 'pres': 169}
{'lipoC2': 7.56, 'lipoC3S1': 4.1, 'temp': 29.69, 'lipoC3S3': 12.41, 'lipoC3S2': 8.22, 'rot1': 0, 'rot0': 0, 'rot3': 0, 'rot2': 0, 'state': 'normal', 'yaw': -2.58, 'datetime': '2018-10-10 00:30:20.977394', 'mgs': 0, 'volt': 0.8252, 'depth': 0.394, 'time': 2, 'pitch': -8.51, 'roll': -0.03, 'pres': 169}
{'lipoC2': 7.56, 'lipoC3S1': 4.11, 'temp': 29.69, 'lipoC3S3': 12.41, 'lipoC3S2': 8.22, 'rot1': 0, 'rot0': 0, 'rot3': 0, 'rot2': 0, 'state': 'normal', 'yaw': -2.82, 'datetime': '2018-10-10 00:30:20.993083', 'mgs': 0, 'volt': 0.8301, 'depth': 0.47, 'time': 2, 'pitch': -8.65, 'roll': 0.16, 'pres': 170}
{'lipoC2': 7.56, 'lipoC3S1': 4.1, 'temp': 29.69, 'lipoC3S3': 12.41, 'lipoC3S2': 8.22, 'rot1': 0, 'rot0': 0, 'rot3': 0, 'rot2': 0, 'state': 'normal', 'yaw': -2.81, 'datetime': '2018-10-10 00:30:21.003013', 'mgs': 0, 'volt': 0.8252, 'depth': 0.394, 'time': 2, 'pitch': -8.84, 'roll': 0.68, 'pres': 169}
{'lipoC2': 7.56, 'lipoC3S1': 4.1, 'temp': 29.69, 'lipoC3S3': 12.41, 'lipoC3S2': 8.22, 'rot1': 0, 'rot0': 0, 'rot3': 0, 'rot2': 0, 'state': 'normal', 'yaw': -2.49, 'datetime': '2018-10-10 00:30:21.018805', 'mgs': 0, 'volt': 0.8252, 'depth': 0.394, 'time': 2, 'pitch': -9.22, 'roll': 1.38, 'pres': 169}
{'lipoC2': 7.56, 'lipoC3S1': 4.1, 'temp': 29.69, 'lipoC3S3': 12.41, 'lipoC3S2': 8.22, 'rot1': 0, 'rot0': 0, 'rot3': 0, 'rot2': 0, 'state': 'normal', 'yaw': -2.15, 'datetime': '2018-10-10 00:30:21.034580', 'mgs': 0, 'volt': 0.8203, 'depth': 0.317, 'time': 2, 'pitch': -9.71, 'roll': 2.37, 'pres': 168}
{'lipoC2': 7.56, 'lipoC3S1': 4.1, 'temp': 29.69, 'lipoC3S3': 12.41, 'lipoC3S2': 8.22, 'rot1': 0, 'rot0': 0, 'rot3': 0, 'rot2': 0, 'state': 'normal', 'yaw': -2.13, 'datetime': '2018-10-10 00:30:21.044619', 'mgs': 0, 'volt': 0.8203, 'depth': 0.317, 'time': 2, 'pitch': -9.69, 'roll': 3.28, 'pres': 168}
{'lipoC2': 7.56, 'lipoC3S1': 4.1, 'temp': 29.69, 'lipoC3S3': 12.41, 'lipoC3S2': 8.22, 'rot1': 0, 'rot0': 0, 'rot3': 0, 'rot2': 0, 'state': 'normal', 'yaw': -2.4, 'datetime': '2018-10-10 00:30:21.060432', 'mgs': 0, 'volt': 0.8203, 'depth': 0.317, 'time': 2, 'pitch': -9.16, 'roll': 3.87, 'pres': 168}
{'lipoC2': 7.56, 'lipoC3S1': 4.1, 'temp': 29.69, 'lipoC3S3': 12.41, 'lipoC3S2': 8.22, 'rot1': 0, 'rot0': 0, 'rot3': 0, 'rot2': 0, 'state': 'normal', 'yaw': -2.87, 'datetime': '2018-10-10 00:30:21.076229', 'mgs': 0, 'volt': 0.8252, 'depth': 0.394, 'time': 3, 'pitch': -8.3, 'roll': 3.95, 'pres': 169}
{'lipoC2': 7.56, 'lipoC3S1': 4.1, 'temp': 29.69, 'lipoC3S3': 12.41, 'lipoC3S2': 8.22, 'rot1': 0, 'rot0': 0, 'rot3': 0, 'rot2': 0, 'state': 'normal', 'yaw': -2.98, 'datetime': '2018-10-10 00:30:21.086206', 'mgs': 0, 'volt': 0.8301, 'depth': 0.47, 'time': 3, 'pitch': -7.51, 'roll': 3.48, 'pres': 170}
{'lipoC2': 7.56, 'lipoC3S1': 4.1, 'temp': 29.75, 'lipoC3S3': 12.42, 'lipoC3S2': 8.22, 'rot1': 0, 'rot0': 0, 'rot3': 0, 'rot2': 0, 'state': 'normal', 'yaw': -2.57, 'datetime': '2018-10-10 00:30:21.102083', 'mgs': 0, 'volt': 0.8301, 'depth': 0.47, 'time': 3, 'pitch': -6.82, 'roll': 2.82, 'pres': 170}
{'lipoC2': 7.56, 'lipoC3S1': 4.1, 'temp': 29.75, 'lipoC3S3': 12.42, 'lipoC3S2': 8.22, 'rot1': 0, 'rot0': 0, 'rot3': 0, 'rot2': 0, 'state': 'normal', 'yaw': -2.09, 'datetime': '2018-10-10 00:30:21.117898', 'mgs': 0, 'volt': 0.835, 'depth': 0.546, 'time': 3, 'pitch': -6.12, 'roll': 2.46, 'pres': 171}
{'lipoC2': 7.56, 'lipoC3S1': 4.1, 'temp': 29.69, 'lipoC3S3': 12.41, 'lipoC3S2': 8.22, 'rot1': 0, 'rot0': 0, 'rot3': 0, 'rot2': 0, 'state': 'normal', 'yaw': -1.47, 'datetime': '2018-10-10 00:30:21.127823', 'mgs': 0, 'volt': 0.8301, 'depth': 0.47, 'time': 3, 'pitch': -5.52, 'roll': 2.33, 'pres': 170}
{'lipoC2': 7.56, 'lipoC3S1': 4.1, 'temp': 29.69, 'lipoC3S3': 12.41, 'lipoC3S2': 8.22, 'rot1': 0, 'rot0': 0, 'rot3': 0, 'rot2': 0, 'state': 'normal', 'yaw': -1.01, 'datetime': '2018-10-10 00:30:21.143710', 'mgs': 0, 'volt': 0.835, 'depth': 0.546, 'time': 3, 'pitch': -5.23, 'roll': 2.33, 'pres': 171}
{'lipoC2': 7.56, 'lipoC3S1': 4.1, 'temp': 29.69, 'lipoC3S3': 12.41, 'lipoC3S2': 8.22, 'rot1': 0, 'rot0': 0, 'rot3': 0, 'rot2': 0, 'state': 'normal', 'yaw': -0.79, 'datetime': '2018-10-10 00:30:21.159432', 'mgs': 0, 'volt': 0.835, 'depth': 0.546, 'time': 3, 'pitch': -5.09, 'roll': 2.45, 'pres': 171}
{'lipoC2': 7.56, 'lipoC3S1': 4.1, 'temp': 29.69, 'lipoC3S3': 12.41, 'lipoC3S2': 8.22, 'rot1': 0, 'rot0': 0, 'rot3': 0, 'rot2': 0, 'state': 'normal', 'yaw': -0.83, 'datetime': '2018-10-10 00:30:21.169333', 'mgs': 0, 'volt': 0.8398, 'depth': 0.623, 'time': 3, 'pitch': -4.96, 'roll': 2.58, 'pres': 172}
{'lipoC2': 7.56, 'lipoC3S1': 4.1, 'temp': 29.69, 'lipoC3S3': 12.41, 'lipoC3S2': 8.22, 'rot1': 0, 'rot0': 0, 'rot3': 0, 'rot2': 0, 'state': 'normal', 'yaw': -0.92, 'datetime': '2018-10-10 00:30:21.185136', 'mgs': 0, 'volt': 0.8398, 'depth': 0.623, 'time': 3, 'pitch': -4.85, 'roll': 2.74, 'pres': 172}
{'lipoC2': 7.56, 'lipoC3S1': 4.1, 'temp': 29.75, 'lipoC3S3': 12.42, 'lipoC3S2': 8.22, 'rot1': 0, 'rot0': 0, 'rot3': 0, 'rot2': 0, 'state': 'normal', 'yaw': -0.83, 'datetime': '2018-10-10 00:30:21.200916', 'mgs': 0, 'volt': 0.8398, 'depth': 0.623, 'time': 3, 'pitch': -4.49, 'roll': 2.99, 'pres': 172}
{'lipoC2': 7.56, 'lipoC3S1': 4.1, 'temp': 29.75, 'lipoC3S3': 12.41, 'lipoC3S2': 8.22, 'rot1': 0, 'rot0': 0, 'rot3': 0, 'rot2': 0, 'state': 'normal', 'yaw': -0.55, 'datetime': '2018-10-10 00:30:21.210890', 'mgs': 0, 'volt': 0.8398, 'depth': 0.623, 'time': 4, 'pitch': -4.05, 'roll': 3.26, 'pres': 172}
{'lipoC2': 7.56, 'lipoC3S1': 4.1, 'temp': 29.69, 'lipoC3S3': 12.41, 'lipoC3S2': 8.22, 'rot1': 0, 'rot0': 0, 'rot3': 0, 'rot2': 0, 'state': 'normal', 'yaw': -0.22, 'datetime': '2018-10-10 00:30:21.226712', 'mgs': 0, 'volt': 0.8398, 'depth': 0.623, 'time': 4, 'pitch': -3.81, 'roll': 3.5, 'pres': 172}
{'lipoC2': 7.56, 'lipoC3S1': 4.1, 'temp': 29.69, 'lipoC3S3': 12.41, 'lipoC3S2': 8.22, 'rot1': 0, 'rot0': 0, 'rot3': 0, 'rot2': 0, 'state': 'normal', 'yaw': -0.04, 'datetime': '2018-10-10 00:30:21.242440', 'mgs': 0, 'volt': 0.8447, 'depth': 0.699, 'time': 4, 'pitch': -4.0, 'roll': 3.55, 'pres': 173}
{'lipoC2': 7.56, 'lipoC3S1': 4.1, 'temp': 29.69, 'lipoC3S3': 12.41, 'lipoC3S2': 8.22, 'rot1': 0, 'rot0': 0, 'rot3': 0, 'rot2': 0, 'state': 'normal', 'yaw': -0.15, 'datetime': '2018-10-10 00:30:21.252349', 'mgs': 0, 'volt': 0.8447, 'depth': 0.699, 'time': 4, 'pitch': -4.46, 'roll': 3.5, 'pres': 173}
{'lipoC2': 7.56, 'lipoC3S1': 4.1, 'temp': 29.75, 'lipoC3S3': 12.41, 'lipoC3S2': 8.21, 'rot1': 0, 'rot0': 0, 'rot3': 0, 'rot2': 0, 'state': 'normal', 'yaw': -0.32, 'datetime': '2018-10-10 00:30:21.268099', 'mgs': 0, 'volt': 0.8398, 'depth': 0.623, 'time': 4, 'pitch': -4.96, 'roll': 3.24, 'pres': 172}
{'lipoC2': 7.55, 'lipoC3S1': 4.04, 'temp': 29.75, 'lipoC3S3': 12.31, 'lipoC3S2': 8.17, 'rot1': 0, 'rot0': 0, 'rot3': 1, 'rot2': 0, 'state': 'normal', 'yaw': -0.11, 'datetime': '2018-10-10 00:30:21.283813', 'mgs': 0, 'volt': 0.8643, 'depth': 1.004, 'time': 4, 'pitch': -5.3, 'roll': 2.73, 'pres': 177}
{'lipoC2': 7.55, 'lipoC3S1': 4.03, 'temp': 29.69, 'lipoC3S3': 12.29, 'lipoC3S2': 8.13, 'rot1': 0, 'rot0': 0, 'rot3': 2, 'rot2': 1, 'state': 'normal', 'yaw': 0.35, 'datetime': '2018-10-10 00:30:21.293776', 'mgs': 0, 'volt': 0.8398, 'depth': 0.623, 'time': 4, 'pitch': -4.88, 'roll': 2.42, 'pres': 172}
{'lipoC2': 7.55, 'lipoC3S1': 4.05, 'temp': 29.69, 'lipoC3S3': 12.31, 'lipoC3S2': 8.17, 'rot1': 0, 'rot0': 0, 'rot3': 3, 'rot2': 2, 'state': 'normal', 'yaw': 0.85, 'datetime': '2018-10-10 00:30:21.309591', 'mgs': 0, 'volt': 0.8447, 'depth': 0.699, 'time': 4, 'pitch': -3.97, 'roll': 2.26, 'pres': 173}
{'lipoC2': 7.55, 'lipoC3S1': 4.06, 'temp': 29.69, 'lipoC3S3': 12.29, 'lipoC3S2': 8.18, 'rot1': 0, 'rot0': 0, 'rot3': 4, 'rot2': 3, 'state': 'normal', 'yaw': 1.26, 'datetime': '2018-10-10 00:30:21.325478', 'mgs': 0, 'volt': 0.8545, 'depth': 0.851, 'time': 4, 'pitch': -2.81, 'roll': 2.34, 'pres': 175}
{'lipoC2': 7.55, 'lipoC3S1': 4.06, 'temp': 29.69, 'lipoC3S3': 12.31, 'lipoC3S2': 8.15, 'rot1': 0, 'rot0': 0, 'rot3': 5, 'rot2': 3, 'state': 'normal', 'yaw': 1.23, 'datetime': '2018-10-10 00:30:21.335448', 'mgs': 0, 'volt': 0.835, 'depth': 0.546, 'time': 4, 'pitch': -2.09, 'roll': 2.56, 'pres': 171}
{'lipoC2': 7.55, 'lipoC3S1': 4.07, 'temp': 29.69, 'lipoC3S3': 12.31, 'lipoC3S2': 8.18, 'rot1': 0, 'rot0': 0, 'rot3': 7, 'rot2': 4, 'state': 'normal', 'yaw': 1.01, 'datetime': '2018-10-10 00:30:21.351225', 'mgs': 0, 'volt': 0.8496, 'depth': 0.775, 'time': 5, 'pitch': -1.84, 'roll': 2.78, 'pres': 174}
{'lipoC2': 7.55, 'lipoC3S1': 4.04, 'temp': 29.69, 'lipoC3S3': 12.33, 'lipoC3S2': 8.15, 'rot1': 0, 'rot0': 0, 'rot3': 8, 'rot2': 5, 'state': 'normal', 'yaw': 0.73, 'datetime': '2018-10-10 00:30:21.367029', 'mgs': 0, 'volt': 0.835, 'depth': 0.546, 'time': 5, 'pitch': -2.08, 'roll': 2.81, 'pres': 171}
{'lipoC2': 7.55, 'lipoC3S1': 4.06, 'temp': 29.69, 'lipoC3S3': 12.34, 'lipoC3S2': 8.19, 'rot1': 0, 'rot0': 0, 'rot3': 9, 'rot2': 6, 'state': 'normal', 'yaw': 0.64, 'datetime': '2018-10-10 00:30:21.376973', 'mgs': 0, 'volt': 0.8447, 'depth': 0.699, 'time': 5, 'pitch': -2.59, 'roll': 2.77, 'pres': 173}
{'lipoC2': 7.55, 'lipoC3S1': 4.04, 'temp': 29.75, 'lipoC3S3': 12.33, 'lipoC3S2': 8.15, 'rot1': 0, 'rot0': 0, 'rot3': 10, 'rot2': 7, 'state': 'normal', 'yaw': 1.01, 'datetime': '2018-10-10 00:30:21.392796', 'mgs': 0, 'volt': 0.8301, 'depth': 0.47, 'time': 5, 'pitch': -2.9, 'roll': 2.67, 'pres': 170}
{'lipoC2': 7.56, 'lipoC3S1': 4.06, 'temp': 29.75, 'lipoC3S3': 12.33, 'lipoC3S2': 8.16, 'rot1': 0, 'rot0': 0, 'rot3': 12, 'rot2': 8, 'state': 'normal', 'yaw': 1.67, 'datetime': '2018-10-10 00:30:21.408625', 'mgs': 0, 'volt': 0.8545, 'depth': 0.851, 'time': 5, 'pitch': -2.83, 'roll': 2.54, 'pres': 175}
{'lipoC2': 7.56, 'lipoC3S1': 4.05, 'temp': 29.69, 'lipoC3S3': 12.34, 'lipoC3S2': 8.16, 'rot1': 0, 'rot0': 0, 'rot3': 13, 'rot2': 9, 'state': 'normal', 'yaw': 2.34, 'datetime': '2018-10-10 00:30:21.418614', 'mgs': 0, 'volt': 0.8496, 'depth': 0.775, 'time': 5, 'pitch': -2.68, 'roll': 2.35, 'pres': 174}
{'lipoC2': 7.55, 'lipoC3S1': 4.06, 'temp': 29.69, 'lipoC3S3': 12.34, 'lipoC3S2': 8.19, 'rot1': 0, 'rot0': 0, 'rot3': 14, 'rot2': 10, 'state': 'normal', 'yaw': 2.56, 'datetime': '2018-10-10 00:30:21.434479', 'mgs': 0, 'volt': 0.8447, 'depth': 0.699, 'time': 5, 'pitch': -2.46, 'roll': 1.99, 'pres': 173}
{'lipoC2': 7.55, 'lipoC3S1': 4.06, 'temp': 29.69, 'lipoC3S3': 12.27, 'lipoC3S2': 8.18, 'rot1': 0, 'rot0': 0, 'rot3': 16, 'rot2': 10, 'state': 'normal', 'yaw': 2.28, 'datetime': '2018-10-10 00:30:21.450316', 'mgs': 0, 'volt': 0.8545, 'depth': 0.851, 'time': 5, 'pitch': -2.32, 'roll': 1.62, 'pres': 175}
{'lipoC2': 7.55, 'lipoC3S1': 4.07, 'temp': 29.69, 'lipoC3S3': 12.3, 'lipoC3S2': 8.18, 'rot1': 0, 'rot0': 0, 'rot3': 17, 'rot2': 11, 'state': 'normal', 'yaw': 1.81, 'datetime': '2018-10-10 00:30:21.460291', 'mgs': 0, 'volt': 0.8447, 'depth': 0.699, 'time': 5, 'pitch': -2.47, 'roll': 0.96, 'pres': 173}
{'lipoC2': 7.55, 'lipoC3S1': 4.07, 'temp': 29.69, 'lipoC3S3': 12.27, 'lipoC3S2': 8.17, 'rot1': 0, 'rot0': 0, 'rot3': 18, 'rot2': 12, 'state': 'normal', 'yaw': 1.23, 'datetime': '2018-10-10 00:30:21.476154', 'mgs': 0, 'volt': 0.8545, 'depth': 0.851, 'time': 5, 'pitch': -2.39, 'roll': 0.83, 'pres': 175}
{'lipoC2': 7.56, 'lipoC3S1': 4.06, 'temp': 29.69, 'lipoC3S3': 12.34, 'lipoC3S2': 8.15, 'rot1': 0, 'rot0': 0, 'rot3': 19, 'rot2': 13, 'state': 'normal', 'yaw': 0.86, 'datetime': '2018-10-10 00:30:21.492004', 'mgs': 0, 'volt': 0.8545, 'depth': 0.851, 'time': 6, 'pitch': -2.1, 'roll': 1.36, 'pres': 175}
{'lipoC2': 7.55, 'lipoC3S1': 4.05, 'temp': 29.69, 'lipoC3S3': 12.33, 'lipoC3S2': 8.17, 'rot1': 0, 'rot0': 0, 'rot3': 21, 'rot2': 14, 'state': 'normal', 'yaw': 0.85, 'datetime': '2018-10-10 00:30:21.502046', 'mgs': 0, 'volt': 0.8594, 'depth': 0.928, 'time': 6, 'pitch': -1.65, 'roll': 2.43, 'pres': 176}
{'lipoC2': 7.55, 'lipoC3S1': 4.06, 'temp': 29.75, 'lipoC3S3': 12.34, 'lipoC3S2': 8.18, 'rot1': 0, 'rot0': 0, 'rot3': 22, 'rot2': 15, 'state': 'normal', 'yaw': 1.11, 'datetime': '2018-10-10 00:30:21.518021', 'mgs': 0, 'volt': 0.8496, 'depth': 0.775, 'time': 6, 'pitch': -1.52, 'roll': 3.38, 'pres': 174}
{'lipoC2': 7.56, 'lipoC3S1': 4.04, 'temp': 29.75, 'lipoC3S3': 12.33, 'lipoC3S2': 8.15, 'rot1': 0, 'rot0': 0, 'rot3': 23, 'rot2': 16, 'state': 'normal', 'yaw': 1.51, 'datetime': '2018-10-10 00:30:21.533854', 'mgs': 0, 'volt': 0.835, 'depth': 0.546, 'time': 6, 'pitch': -1.87, 'roll': 3.43, 'pres': 171}
{'lipoC2': 7.55, 'lipoC3S1': 4.05, 'temp': 29.75, 'lipoC3S3': 12.34, 'lipoC3S2': 8.16, 'rot1': 0, 'rot0': 0, 'rot3': 24, 'rot2': 17, 'state': 'normal', 'yaw': 1.88, 'datetime': '2018-10-10 00:30:21.543885', 'mgs': 0, 'volt': 0.8545, 'depth': 0.851, 'time': 6, 'pitch': -2.52, 'roll': 2.73, 'pres': 175}
{'lipoC2': 7.56, 'lipoC3S1': 4.05, 'temp': 29.69, 'lipoC3S3': 12.35, 'lipoC3S2': 8.16, 'rot1': 0, 'rot0': 0, 'rot3': 26, 'rot2': 17, 'state': 'normal', 'yaw': 1.91, 'datetime': '2018-10-10 00:30:21.559201', 'mgs': 0, 'volt': 0.8594, 'depth': 0.928, 'time': 6, 'pitch': -3.33, 'roll': 1.47, 'pres': 176}
{'lipoC2': 7.55, 'lipoC3S1': 4.06, 'temp': 29.69, 'lipoC3S3': 12.34, 'lipoC3S2': 8.17, 'rot1': 0, 'rot0': 0, 'rot3': 27, 'rot2': 18, 'state': 'normal', 'yaw': 1.44, 'datetime': '2018-10-10 00:30:21.574488', 'mgs': 0, 'volt': 0.8545, 'depth': 0.851, 'time': 6, 'pitch': -3.86, 'roll': 0.67, 'pres': 175}
{'lipoC2': 7.55, 'lipoC3S1': 4.05, 'temp': 29.69, 'lipoC3S3': 12.34, 'lipoC3S2': 8.17, 'rot1': 0, 'rot0': 0, 'rot3': 28, 'rot2': 19, 'state': 'normal', 'yaw': 0.68, 'datetime': '2018-10-10 00:30:21.583916', 'mgs': 0, 'volt': 0.8447, 'depth': 0.699, 'time': 6, 'pitch': -3.88, 'roll': 0.63, 'pres': 173}
{'lipoC2': 7.55, 'lipoC3S1': 4.05, 'temp': 29.69, 'lipoC3S3': 12.33, 'lipoC3S2': 8.18, 'rot1': 0, 'rot0': 0, 'rot3': 29, 'rot2': 20, 'state': 'normal', 'yaw': 0.15, 'datetime': '2018-10-10 00:30:21.599233', 'mgs': 0, 'volt': 0.8545, 'depth': 0.851, 'time': 6, 'pitch': -3.53, 'roll': 1.26, 'pres': 175}
{'lipoC2': 7.55, 'lipoC3S1': 4.06, 'temp': 29.69, 'lipoC3S3': 12.31, 'lipoC3S2': 8.17, 'rot1': 0, 'rot0': 0, 'rot3': 31, 'rot2': 21, 'state': 'normal', 'yaw': 0.23, 'datetime': '2018-10-10 00:30:21.614577', 'mgs': 0, 'volt': 0.8545, 'depth': 0.851, 'time': 7, 'pitch': -3.08, 'roll': 2.12, 'pres': 175}
{'lipoC2': 7.55, 'lipoC3S1': 4.07, 'temp': 29.69, 'lipoC3S3': 12.27, 'lipoC3S2': 8.17, 'rot1': 0, 'rot0': 0, 'rot3': 32, 'rot2': 22, 'state': 'normal', 'yaw': 0.88, 'datetime': '2018-10-10 00:30:21.624048', 'mgs': 0, 'volt': 0.8447, 'depth': 0.699, 'time': 7, 'pitch': -2.75, 'roll': 2.58, 'pres': 173}
{'lipoC2': 7.55, 'lipoC3S1': 4.07, 'temp': 29.69, 'lipoC3S3': 12.29, 'lipoC3S2': 8.17, 'rot1': 0, 'rot0': 0, 'rot3': 33, 'rot2': 23, 'state': 'normal', 'yaw': 1.59, 'datetime': '2018-10-10 00:30:21.639333', 'mgs': 0, 'volt': 0.8447, 'depth': 0.699, 'time': 7, 'pitch': -2.82, 'roll': 2.55, 'pres': 173}
{'lipoC2': 7.55, 'lipoC3S1': 4.08, 'temp': 29.75, 'lipoC3S3': 12.27, 'lipoC3S2': 8.17, 'rot1': 0, 'rot0': 0, 'rot3': 35, 'rot2': 24, 'state': 'normal', 'yaw': 1.87, 'datetime': '2018-10-10 00:30:21.654608', 'mgs': 0, 'volt': 0.8496, 'depth': 0.775, 'time': 7, 'pitch': -3.01, 'roll': 2.26, 'pres': 174}
{'lipoC2': 7.55, 'lipoC3S1': 4.07, 'temp': 29.75, 'lipoC3S3': 12.3, 'lipoC3S2': 8.13, 'rot1': 0, 'rot0': 0, 'rot3': 36, 'rot2': 25, 'state': 'normal', 'yaw': 1.71, 'datetime': '2018-10-10 00:30:21.664066', 'mgs': 0, 'volt': 0.8447, 'depth': 0.699, 'time': 7, 'pitch': -3.2, 'roll': 1.95, 'pres': 173}
{'lipoC2': 7.56, 'lipoC3S1': 4.09, 'temp': 29.75, 'lipoC3S3': 12.39, 'lipoC3S2': 8.21, 'rot1': 0, 'rot0': 0, 'rot3': 37, 'rot2': 25, 'state': 'normal', 'yaw': 1.2, 'datetime': '2018-10-10 00:30:21.679383', 'mgs': 0, 'volt': 0.8301, 'depth': 0.47, 'time': 7, 'pitch': -3.28, 'roll': 1.95, 'pres': 170}
{'lipoC2': 7.55, 'lipoC3S1': 3.99, 'temp': 29.75, 'lipoC3S3': 12.3, 'lipoC3S2': 8.17, 'rot1': 0, 'rot0': 0, 'rot3': 37, 'rot2': 25, 'state': 'normal', 'yaw': 0.59, 'datetime': '2018-10-10 00:30:21.694740', 'mgs': 0, 'volt': 0.8301, 'depth': 0.47, 'time': 7, 'pitch': -3.15, 'roll': 2.24, 'pres': 170}
{'lipoC2': 7.56, 'lipoC3S1': 3.95, 'temp': 29.69, 'lipoC3S3': 12.3, 'lipoC3S2': 8.13, 'rot1': 2, 'rot0': 2, 'rot3': 37, 'rot2': 25, 'state': 'normal', 'yaw': 0.18, 'datetime': '2018-10-10 00:30:21.704418', 'mgs': 0, 'volt': 0.8398, 'depth': 0.623, 'time': 7, 'pitch': -2.33, 'roll': 2.52, 'pres': 172}
{'lipoC2': 7.52, 'lipoC3S1': 4.06, 'temp': 29.69, 'lipoC3S3': 12.27, 'lipoC3S2': 8.15, 'rot1': 3, 'rot0': 3, 'rot3': 37, 'rot2': 25, 'state': 'normal', 'yaw': -0.16, 'datetime': '2018-10-10 00:30:21.719854', 'mgs': 0, 'volt': 0.8936, 'depth': 1.462, 'time': 7, 'pitch': -1.44, 'roll': 2.48, 'pres': 183}
{'lipoC2': 7.53, 'lipoC3S1': 4.06, 'temp': 29.69, 'lipoC3S3': 12.26, 'lipoC3S2': 8.15, 'rot1': 4, 'rot0': 4, 'rot3': 37, 'rot2': 25, 'state': 'normal', 'yaw': -0.6, 'datetime': '2018-10-10 00:30:21.735273', 'mgs': 0, 'volt': 0.8789, 'depth': 1.233, 'time': 7, 'pitch': -0.92, 'roll': 2.03, 'pres': 180}
{'lipoC2': 7.56, 'lipoC3S1': 4.05, 'temp': 29.63, 'lipoC3S3': 12.26, 'lipoC3S2': 8.09, 'rot1': 5, 'rot0': 6, 'rot3': 37, 'rot2': 25, 'state': 'normal', 'yaw': -1.19, 'datetime': '2018-10-10 00:30:21.744802', 'mgs': 0, 'volt': 0.8398, 'depth': 0.623, 'time': 8, 'pitch': -0.43, 'roll': 1.54, 'pres': 172}
{'lipoC2': 7.55, 'lipoC3S1': 4.03, 'temp': 29.63, 'lipoC3S3': 12.31, 'lipoC3S2': 8.15, 'rot1': 6, 'rot0': 7, 'rot3': 37, 'rot2': 25, 'state': 'normal', 'yaw': -2.17, 'datetime': '2018-10-10 00:30:21.760176', 'mgs': 0, 'volt': 0.8447, 'depth': 0.699, 'time': 8, 'pitch': 0.45, 'roll': 1.33, 'pres': 173}
{'lipoC2': 7.55, 'lipoC3S1': 3.99, 'temp': 29.63, 'lipoC3S3': 12.3, 'lipoC3S2': 8.16, 'rot1': 7, 'rot0': 9, 'rot3': 37, 'rot2': 25, 'state': 'normal', 'yaw': -3.88, 'datetime': '2018-10-10 00:30:21.775594', 'mgs': 0, 'volt': 0.9912, 'depth': 2.988, 'time': 8, 'pitch': 1.92, 'roll': 1.48, 'pres': 203}
{'lipoC2': 7.55, 'lipoC3S1': 4.02, 'temp': 29.63, 'lipoC3S3': 12.31, 'lipoC3S2': 8.17, 'rot1': 8, 'rot0': 10, 'rot3': 37, 'rot2': 25, 'state': 'normal', 'yaw': -5.77, 'datetime': '2018-10-10 00:30:21.785165', 'mgs': 0, 'volt': 0.8984, 'depth': 1.538, 'time': 8, 'pitch': 3.29, 'roll': 1.67, 'pres': 184}
{'lipoC2': 7.55, 'lipoC3S1': 3.98, 'temp': 29.69, 'lipoC3S3': 12.26, 'lipoC3S2': 7.99, 'rot1': 9, 'rot0': 12, 'rot3': 37, 'rot2': 25, 'state': 'normal', 'yaw': -7.87, 'datetime': '2018-10-10 00:30:21.840398', 'mgs': 0, 'volt': 0.8545, 'depth': 0.851, 'time': 8, 'pitch': 4.03, 'roll': 1.65, 'pres': 175}
{'lipoC2': 7.56, 'lipoC3S1': 4.05, 'temp': 29.69, 'lipoC3S3': 12.19, 'lipoC3S2': 8.02, 'rot1': 11, 'rot0': 13, 'rot3': 37, 'rot2': 26, 'state': 'normal', 'yaw': -10.01, 'datetime': '2018-10-10 00:30:21.943932', 'mgs': 0, 'volt': 0.8545, 'depth': 0.851, 'time': 8, 'pitch': 4.44, 'roll': 1.5, 'pres': 175}
{'lipoC2': 7.54, 'lipoC3S1': 4.06, 'temp': 29.69, 'lipoC3S3': 12.19, 'lipoC3S2': 8.14, 'rot1': 12, 'rot0': 14, 'rot3': 38, 'rot2': 26, 'state': 'normal', 'yaw': -11.19, 'datetime': '2018-10-10 00:30:22.047453', 'mgs': 0, 'volt': 0.8447, 'depth': 0.699, 'time': 8, 'pitch': 5.11, 'roll': 1.29, 'pres': 173}
{'lipoC2': 7.55, 'lipoC3S1': 4.01, 'temp': 29.69, 'lipoC3S3': 12.34, 'lipoC3S2': 8.13, 'rot1': 14, 'rot0': 15, 'rot3': 38, 'rot2': 27, 'state': 'normal', 'yaw': -11.67, 'datetime': '2018-10-10 00:30:22.151258', 'mgs': 0, 'volt': 0.8594, 'depth': 0.928, 'time': 8, 'pitch': 6.25, 'roll': 1.27, 'pres': 176}
{'lipoC2': 7.56, 'lipoC3S1': 4.07, 'temp': 29.69, 'lipoC3S3': 12.21, 'lipoC3S2': 8.06, 'rot1': 15, 'rot0': 16, 'rot3': 38, 'rot2': 27, 'state': 'normal', 'yaw': -11.55, 'datetime': '2018-10-10 00:30:22.254808', 'mgs': 0, 'volt': 0.8643, 'depth': 1.004, 'time': 8, 'pitch': 7.85, 'roll': 1.65, 'pres': 177}
{'lipoC2': 7.55, 'lipoC3S1': 4.07, 'temp': 29.63, 'lipoC3S3': 12.31, 'lipoC3S2': 8.17, 'rot1': 16, 'rot0': 17, 'rot3': 38, 'rot2': 27, 'state': 'normal', 'yaw': -11.0, 'datetime': '2018-10-10 00:30:22.359080', 'mgs': 0, 'volt': 0.8887, 'depth': 1.385, 'time': 8, 'pitch': 9.09, 'roll': 2.19, 'pres': 182}
{'lipoC2': 7.53, 'lipoC3S1': 4.06, 'temp': 29.63, 'lipoC3S3': 12.26, 'lipoC3S2': 8.15, 'rot1': 17, 'rot0': 17, 'rot3': 38, 'rot2': 27, 'state': 'normal', 'yaw': -10.14, 'datetime': '2018-10-10 00:30:22.463358', 'mgs': 0, 'volt': 0.918, 'depth': 1.843, 'time': 9, 'pitch': 9.74, 'roll': 2.66, 'pres': 188}
{'lipoC2': 7.56, 'lipoC3S1': 3.98, 'temp': 29.75, 'lipoC3S3': 12.3, 'lipoC3S2': 8.16, 'rot1': 19, 'rot0': 18, 'rot3': 39, 'rot2': 27, 'state': 'normal', 'yaw': -8.94, 'datetime': '2018-10-10 00:30:22.566896', 'mgs': 0, 'volt': 0.9619, 'depth': 2.53, 'time': 9, 'pitch': 9.81, 'roll': 2.9, 'pres': 197}
{'lipoC2': 7.56, 'lipoC3S1': 4.06, 'temp': 29.75, 'lipoC3S3': 12.27, 'lipoC3S2': 8.14, 'rot1': 20, 'rot0': 19, 'rot3': 40, 'rot2': 28, 'state': 'normal', 'yaw': -7.64, 'datetime': '2018-10-10 00:30:22.671883', 'mgs': 0, 'volt': 0.8936, 'depth': 1.462, 'time': 9, 'pitch': 9.92, 'roll': 2.79, 'pres': 183}
{'lipoC2': 7.56, 'lipoC3S1': 4.0, 'temp': 29.75, 'lipoC3S3': 12.29, 'lipoC3S2': 8.16, 'rot1': 21, 'rot0': 20, 'rot3': 40, 'rot2': 29, 'state': 'normal', 'yaw': -5.94, 'datetime': '2018-10-10 00:30:22.775343', 'mgs': 0, 'volt': 0.8984, 'depth': 1.538, 'time': 9, 'pitch': 10.3, 'roll': 2.46, 'pres': 184}
{'lipoC2': 7.56, 'lipoC3S1': 4.01, 'temp': 29.75, 'lipoC3S3': 12.27, 'lipoC3S2': 8.13, 'rot1': 23, 'rot0': 21, 'rot3': 41, 'rot2': 29, 'state': 'normal', 'yaw': -4.19, 'datetime': '2018-10-10 00:30:22.878882', 'mgs': 0, 'volt': 0.8691, 'depth': 1.08, 'time': 9, 'pitch': 10.78, 'roll': 2.22, 'pres': 178}
{'lipoC2': 7.56, 'lipoC3S1': 4.02, 'temp': 29.75, 'lipoC3S3': 12.3, 'lipoC3S2': 8.1, 'rot1': 24, 'rot0': 22, 'rot3': 42, 'rot2': 30, 'state': 'normal', 'yaw': -2.35, 'datetime': '2018-10-10 00:30:22.983882', 'mgs': 0, 'volt': 0.8691, 'depth': 1.08, 'time': 9, 'pitch': 11.12, 'roll': 2.17, 'pres': 178}
{'lipoC2': 7.56, 'lipoC3S1': 4.06, 'temp': 29.75, 'lipoC3S3': 12.22, 'lipoC3S2': 8.08, 'rot1': 26, 'rot0': 22, 'rot3': 42, 'rot2': 30, 'state': 'normal', 'yaw': -0.28, 'datetime': '2018-10-10 00:30:23.087452', 'mgs': 0, 'volt': 0.8691, 'depth': 1.08, 'time': 9, 'pitch': 10.99, 'roll': 2.25, 'pres': 178}
{'lipoC2': 7.54, 'lipoC3S1': 4.05, 'temp': 29.75, 'lipoC3S3': 12.25, 'lipoC3S2': 8.14, 'rot1': 27, 'rot0': 23, 'rot3': 42, 'rot2': 30, 'state': 'normal', 'yaw': 1.56, 'datetime': '2018-10-10 00:30:23.190958', 'mgs': 0, 'volt': 0.8936, 'depth': 1.462, 'time': 9, 'pitch': 10.43, 'roll': 2.52, 'pres': 183}
{'lipoC2': 7.55, 'lipoC3S1': 3.91, 'temp': 29.69, 'lipoC3S3': 12.3, 'lipoC3S2': 8.06, 'rot1': 28, 'rot0': 25, 'rot3': 42, 'rot2': 30, 'state': 'normal', 'yaw': 2.89, 'datetime': '2018-10-10 00:30:23.294755', 'mgs': 0, 'volt': 0.8643, 'depth': 1.004, 'time': 9, 'pitch': 9.96, 'roll': 2.72, 'pres': 177}
{'lipoC2': 7.55, 'lipoC3S1': 4.05, 'temp': 29.69, 'lipoC3S3': 12.12, 'lipoC3S2': 8.13, 'rot1': 30, 'rot0': 26, 'rot3': 42, 'rot2': 30, 'state': 'normal', 'yaw': 3.72, 'datetime': '2018-10-10 00:30:23.398423', 'mgs': 0, 'volt': 0.8643, 'depth': 1.004, 'time': 10, 'pitch': 9.85, 'roll': 2.46, 'pres': 177}
{'lipoC2': 7.56, 'lipoC3S1': 4.01, 'temp': 29.69, 'lipoC3S3': 12.3, 'lipoC3S2': 8.16, 'rot1': 31, 'rot0': 28, 'rot3': 42, 'rot2': 30, 'state': 'normal', 'yaw': 4.05, 'datetime': '2018-10-10 00:30:23.502193', 'mgs': 0, 'volt': 0.9326, 'depth': 2.072, 'time': 10, 'pitch': 9.92, 'roll': 1.95, 'pres': 191}
{'lipoC2': 7.55, 'lipoC3S1': 4.06, 'temp': 29.69, 'lipoC3S3': 12.31, 'lipoC3S2': 8.15, 'rot1': 32, 'rot0': 29, 'rot3': 42, 'rot2': 30, 'state': 'normal', 'yaw': 3.68, 'datetime': '2018-10-10 00:30:23.606094', 'mgs': 0, 'volt': 0.8789, 'depth': 1.233, 'time': 10, 'pitch': 9.83, 'roll': 1.42, 'pres': 180}
{'lipoC2': 7.55, 'lipoC3S1': 4.0, 'temp': 29.69, 'lipoC3S3': 12.31, 'lipoC3S2': 8.13, 'rot1': 33, 'rot0': 31, 'rot3': 42, 'rot2': 30, 'state': 'normal', 'yaw': 2.56, 'datetime': '2018-10-10 00:30:23.709781', 'mgs': 0, 'volt': 0.8691, 'depth': 1.08, 'time': 10, 'pitch': 9.89, 'roll': 1.03, 'pres': 178}
{'lipoC2': 7.54, 'lipoC3S1': 4.06, 'temp': 29.69, 'lipoC3S3': 12.18, 'lipoC3S2': 8.15, 'rot1': 33, 'rot0': 32, 'rot3': 42, 'rot2': 30, 'state': 'normal', 'yaw': 1.03, 'datetime': '2018-10-10 00:30:23.813406', 'mgs': 0, 'volt': 0.8643, 'depth': 1.004, 'time': 10, 'pitch': 10.13, 'roll': 0.79, 'pres': 177}
{'lipoC2': 7.56, 'lipoC3S1': 3.99, 'temp': 29.69, 'lipoC3S3': 12.3, 'lipoC3S2': 8.16, 'rot1': 34, 'rot0': 34, 'rot3': 42, 'rot2': 30, 'state': 'normal', 'yaw': -1.14, 'datetime': '2018-10-10 00:30:23.917093', 'mgs': 0, 'volt': 0.9277, 'depth': 1.996, 'time': 10, 'pitch': 10.2, 'roll': 0.56, 'pres': 190}
{'lipoC2': 7.56, 'lipoC3S1': 4.03, 'temp': 29.69, 'lipoC3S3': 12.16, 'lipoC3S2': 8.09, 'rot1': 35, 'rot0': 35, 'rot3': 42, 'rot2': 30, 'state': 'normal', 'yaw': -3.42, 'datetime': '2018-10-10 00:30:24.020822', 'mgs': 0, 'volt': 0.8691, 'depth': 1.08, 'time': 10, 'pitch': 9.97, 'roll': 0.26, 'pres': 178}
{'lipoC2': 7.56, 'lipoC3S1': 3.97, 'temp': 29.69, 'lipoC3S3': 12.19, 'lipoC3S2': 7.94, 'rot1': 36, 'rot0': 37, 'rot3': 43, 'rot2': 31, 'state': 'normal', 'yaw': -5.86, 'datetime': '2018-10-10 00:30:24.125869', 'mgs': 0, 'volt': 0.8691, 'depth': 1.08, 'time': 10, 'pitch': 9.97, 'roll': -0.09, 'pres': 178}
{'lipoC2': 7.54, 'lipoC3S1': 4.04, 'temp': 29.69, 'lipoC3S3': 12.21, 'lipoC3S2': 8.13, 'rot1': 38, 'rot0': 39, 'rot3': 43, 'rot2': 32, 'state': 'normal', 'yaw': -8.23, 'datetime': '2018-10-10 00:30:24.229590', 'mgs': 0, 'volt': 0.9424, 'depth': 2.225, 'time': 10, 'pitch': 10.71, 'roll': -0.43, 'pres': 193}
{'lipoC2': 7.56, 'lipoC3S1': 3.93, 'temp': 29.75, 'lipoC3S3': 12.25, 'lipoC3S2': 8.13, 'rot1': 39, 'rot0': 40, 'rot3': 44, 'rot2': 32, 'state': 'normal', 'yaw': -10.06, 'datetime': '2018-10-10 00:30:24.334065', 'mgs': 0, 'volt': 0.9131, 'depth': 1.767, 'time': 10, 'pitch': 11.62, 'roll': -0.52, 'pres': 187}
{'lipoC2': 7.56, 'lipoC3S1': 4.02, 'temp': 29.75, 'lipoC3S3': 12.27, 'lipoC3S2': 8.15, 'rot1': 41, 'rot0': 41, 'rot3': 45, 'rot2': 33, 'state': 'normal', 'yaw': -11.76, 'datetime': '2018-10-10 00:30:24.438175', 'mgs': 0, 'volt': 0.8789, 'depth': 1.233, 'time': 11, 'pitch': 12.25, 'roll': -0.17, 'pres': 180}
{'lipoC2': 7.56, 'lipoC3S1': 4.04, 'temp': 29.69, 'lipoC3S3': 12.16, 'lipoC3S2': 8.01, 'rot1': 42, 'rot0': 42, 'rot3': 45, 'rot2': 33, 'state': 'normal', 'yaw': -12.69, 'datetime': '2018-10-10 00:30:24.541920', 'mgs': 0, 'volt': 0.8691, 'depth': 1.08, 'time': 11, 'pitch': 12.19, 'roll': 0.39, 'pres': 178}
{'lipoC2': 7.56, 'lipoC3S1': 4.07, 'temp': 29.69, 'lipoC3S3': 12.31, 'lipoC3S2': 8.16, 'rot1': 43, 'rot0': 43, 'rot3': 46, 'rot2': 34, 'state': 'normal', 'yaw': -13.04, 'datetime': '2018-10-10 00:30:24.645595', 'mgs': 0, 'volt': 0.8594, 'depth': 0.928, 'time': 11, 'pitch': 11.61, 'roll': 0.83, 'pres': 176}
{'lipoC2': 7.56, 'lipoC3S1': 4.06, 'temp': 29.69, 'lipoC3S3': 12.23, 'lipoC3S2': 8.16, 'rot1': 44, 'rot0': 44, 'rot3': 46, 'rot2': 34, 'state': 'normal', 'yaw': -12.84, 'datetime': '2018-10-10 00:30:24.749358', 'mgs': 0, 'volt': 0.8643, 'depth': 1.004, 'time': 11, 'pitch': 10.36, 'roll': 0.82, 'pres': 177}
{'lipoC2': 7.56, 'lipoC3S1': 4.07, 'temp': 29.69, 'lipoC3S3': 12.31, 'lipoC3S2': 8.16, 'rot1': 46, 'rot0': 45, 'rot3': 46, 'rot2': 34, 'state': 'normal', 'yaw': -12.22, 'datetime': '2018-10-10 00:30:24.853094', 'mgs': 0, 'volt': 0.9375, 'depth': 2.148, 'time': 11, 'pitch': 9.04, 'roll': 0.53, 'pres': 192}
{'lipoC2': 7.56, 'lipoC3S1': 3.99, 'temp': 29.69, 'lipoC3S3': 12.26, 'lipoC3S2': 8.04, 'rot1': 47, 'rot0': 46, 'rot3': 46, 'rot2': 34, 'state': 'normal', 'yaw': -11.23, 'datetime': '2018-10-10 00:30:24.956746', 'mgs': 0, 'volt': 0.8643, 'depth': 1.004, 'time': 11, 'pitch': 8.13, 'roll': 0.31, 'pres': 177}
{'lipoC2': 7.55, 'lipoC3S1': 4.05, 'temp': 29.75, 'lipoC3S3': 12.17, 'lipoC3S2': 8.14, 'rot1': 49, 'rot0': 47, 'rot3': 47, 'rot2': 35, 'state': 'normal', 'yaw': -9.85, 'datetime': '2018-10-10 00:30:25.060442', 'mgs': 0, 'volt': 0.9131, 'depth': 1.767, 'time': 11, 'pitch': 7.76, 'roll': 0.36, 'pres': 187}
{'lipoC2': 7.56, 'lipoC3S1': 3.96, 'temp': 29.75, 'lipoC3S3': 12.29, 'lipoC3S2': 8.1, 'rot1': 50, 'rot0': 47, 'rot3': 47, 'rot2': 35, 'state': 'normal', 'yaw': -8.47, 'datetime': '2018-10-10 00:30:25.164204', 'mgs': 0, 'volt': 0.8643, 'depth': 1.004, 'time': 11, 'pitch': 8.08, 'roll': 0.74, 'pres': 177}
{'lipoC2': 7.56, 'lipoC3S1': 4.07, 'temp': 29.69, 'lipoC3S3': 12.3, 'lipoC3S2': 8.16, 'rot1': 51, 'rot0': 48, 'rot3': 48, 'rot2': 36, 'state': 'normal', 'yaw': -7.08, 'datetime': '2018-10-10 00:30:25.268979', 'mgs': 0, 'volt': 0.9277, 'depth': 1.996, 'time': 11, 'pitch': 8.16, 'roll': 1.0, 'pres': 190}
{'lipoC2': 7.56, 'lipoC3S1': 3.99, 'temp': 29.69, 'lipoC3S3': 12.31, 'lipoC3S2': 8.05, 'rot1': 53, 'rot0': 49, 'rot3': 48, 'rot2': 36, 'state': 'normal', 'yaw': -5.48, 'datetime': '2018-10-10 00:30:25.372779', 'mgs': 0, 'volt': 0.8643, 'depth': 1.004, 'time': 11, 'pitch': 7.75, 'roll': 0.68, 'pres': 177}
{'lipoC2': 7.56, 'lipoC3S1': 4.03, 'temp': 29.75, 'lipoC3S3': 12.31, 'lipoC3S2': 8.16, 'rot1': 54, 'rot0': 50, 'rot3': 48, 'rot2': 36, 'state': 'normal', 'yaw': -3.77, 'datetime': '2018-10-10 00:30:25.477707', 'mgs': 0, 'volt': 0.8691, 'depth': 1.08, 'time': 12, 'pitch': 7.26, 'roll': 0.13, 'pres': 178}
{'lipoC2': 7.55, 'lipoC3S1': 4.06, 'temp': 29.75, 'lipoC3S3': 12.22, 'lipoC3S2': 8.15, 'rot1': 55, 'rot0': 51, 'rot3': 48, 'rot2': 36, 'state': 'normal', 'yaw': -1.65, 'datetime': '2018-10-10 00:30:25.581385', 'mgs': 0, 'volt': 0.8691, 'depth': 1.08, 'time': 12, 'pitch': 6.88, 'roll': -0.19, 'pres': 178}
{'lipoC2': 7.56, 'lipoC3S1': 4.0, 'temp': 29.75, 'lipoC3S3': 12.27, 'lipoC3S2': 8.14, 'rot1': 57, 'rot0': 52, 'rot3': 48, 'rot2': 36, 'state': 'normal', 'yaw': 0.36, 'datetime': '2018-10-10 00:30:25.685069', 'mgs': 0, 'volt': 0.9814, 'depth': 2.835, 'time': 12, 'pitch': 6.84, 'roll': 0.05, 'pres': 201}
{'lipoC2': 7.55, 'lipoC3S1': 4.04, 'temp': 29.69, 'lipoC3S3': 12.26, 'lipoC3S2': 8.14, 'rot1': 58, 'rot0': 54, 'rot3': 48, 'rot2': 36, 'state': 'normal', 'yaw': 1.96, 'datetime': '2018-10-10 00:30:25.790172', 'mgs': 0, 'volt': 0.957, 'depth': 2.454, 'time': 12, 'pitch': 7.3, 'roll': 0.58, 'pres': 196}
{'lipoC2': 7.56, 'lipoC3S1': 3.96, 'temp': 29.69, 'lipoC3S3': 12.12, 'lipoC3S2': 7.89, 'rot1': 59, 'rot0': 55, 'rot3': 48, 'rot2': 36, 'state': 'normal', 'yaw': 3.12, 'datetime': '2018-10-10 00:30:25.893956', 'mgs': 0, 'volt': 0.874, 'depth': 1.157, 'time': 12, 'pitch': 8.13, 'roll': 1.01, 'pres': 179}
{'lipoC2': 7.55, 'lipoC3S1': 4.04, 'temp': 29.75, 'lipoC3S3': 12.23, 'lipoC3S2': 8.13, 'rot1': 61, 'rot0': 56, 'rot3': 49, 'rot2': 37, 'state': 'normal', 'yaw': 3.71, 'datetime': '2018-10-10 00:30:25.997655', 'mgs': 0, 'volt': 0.9326, 'depth': 2.072, 'time': 12, 'pitch': 8.99, 'roll': 1.12, 'pres': 191}
