{'lipoC2': 7.84, 'lipoC3S1': 3.94, 'temp': 28.06, 'lipoC3S3': 11.92, 'lipoC3S2': 7.88, 'rot1': 300, 'rot0': 304, 'rot3': 249, 'rot2': 201, 'state': 'normal', 'yaw': 14.22, 'datetime': '2018-10-05 19:44:02.649283', 'mgs': 0, 'volt': 1.0059, 'depth': 3.217, 'time': 291, 'pitch': -9.79, 'roll': 4.47, 'pres': 206}
{'lipoC2': 7.84, 'lipoC3S1': 3.94, 'temp': 28.06, 'lipoC3S3': 11.92, 'lipoC3S2': 7.88, 'rot1': 300, 'rot0': 304, 'rot3': 249, 'rot2': 201, 'state': 'normal', 'yaw': 13.95, 'datetime': '2018-10-05 19:44:02.677275', 'mgs': 0, 'volt': 1.0059, 'depth': 3.217, 'time': 291, 'pitch': -9.77, 'roll': 4.52, 'pres': 206}
{'lipoC2': 7.84, 'lipoC3S1': 3.94, 'temp': 28.06, 'lipoC3S3': 11.9, 'lipoC3S2': 7.88, 'rot1': 300, 'rot0': 304, 'rot3': 249, 'rot2': 201, 'state': 'normal', 'yaw': 13.71, 'datetime': '2018-10-05 19:44:02.703437', 'mgs': 0, 'volt': 1.0059, 'depth': 3.217, 'time': 291, 'pitch': -9.75, 'roll': 4.56, 'pres': 206}
{'lipoC2': 7.84, 'lipoC3S1': 3.94, 'temp': 28.06, 'lipoC3S3': 11.9, 'lipoC3S2': 7.88, 'rot1': 300, 'rot0': 304, 'rot3': 249, 'rot2': 201, 'state': 'normal', 'yaw': 13.46, 'datetime': '2018-10-05 19:44:02.727670', 'mgs': 0, 'volt': 1.0059, 'depth': 3.217, 'time': 291, 'pitch': -9.73, 'roll': 4.6, 'pres': 206}
{'lipoC2': 7.84, 'lipoC3S1': 3.94, 'temp': 28.13, 'lipoC3S3': 11.92, 'lipoC3S2': 7.88, 'rot1': 300, 'rot0': 304, 'rot3': 249, 'rot2': 201, 'state': 'normal', 'yaw': 13.22, 'datetime': '2018-10-05 19:44:02.751890', 'mgs': 0, 'volt': 1.0059, 'depth': 3.217, 'time': 291, 'pitch': -9.71, 'roll': 4.64, 'pres': 206}
{'lipoC2': 7.84, 'lipoC3S1': 3.94, 'temp': 28.13, 'lipoC3S3': 11.92, 'lipoC3S2': 7.88, 'rot1': 300, 'rot0': 304, 'rot3': 249, 'rot2': 201, 'state': 'normal', 'yaw': 12.93, 'datetime': '2018-10-05 19:44:02.771960', 'mgs': 0, 'volt': 1.0059, 'depth': 3.217, 'time': 291, 'pitch': -9.68, 'roll': 4.69, 'pres': 206}
{'lipoC2': 7.84, 'lipoC3S1': 3.94, 'temp': 28.13, 'lipoC3S3': 11.9, 'lipoC3S2': 7.88, 'rot1': 300, 'rot0': 304, 'rot3': 249, 'rot2': 201, 'state': 'normal', 'yaw': 12.65, 'datetime': '2018-10-05 19:44:02.783262', 'mgs': 0, 'volt': 1.0059, 'depth': 3.217, 'time': 292, 'pitch': -9.66, 'roll': 4.74, 'pres': 206}
{'lipoC2': 7.84, 'lipoC3S1': 3.94, 'temp': 28.06, 'lipoC3S3': 11.92, 'lipoC3S2': 7.88, 'rot1': 300, 'rot0': 304, 'rot3': 249, 'rot2': 201, 'state': 'normal', 'yaw': 12.35, 'datetime': '2018-10-05 19:44:02.793954', 'mgs': 0, 'volt': 1.001, 'depth': 3.14, 'time': 292, 'pitch': -9.64, 'roll': 4.85, 'pres': 205}
{'lipoC2': 7.84, 'lipoC3S1': 3.94, 'temp': 28.06, 'lipoC3S3': 11.9, 'lipoC3S2': 7.88, 'rot1': 300, 'rot0': 304, 'rot3': 249, 'rot2': 201, 'state': 'normal', 'yaw': 12.01, 'datetime': '2018-10-05 19:44:02.804183', 'mgs': 0, 'volt': 1.001, 'depth': 3.14, 'time': 292, 'pitch': -9.61, 'roll': 5.01, 'pres': 205}
{'lipoC2': 7.84, 'lipoC3S1': 3.94, 'temp': 28.06, 'lipoC3S3': 11.9, 'lipoC3S2': 7.87, 'rot1': 300, 'rot0': 304, 'rot3': 249, 'rot2': 201, 'state': 'normal', 'yaw': 11.7, 'datetime': '2018-10-05 19:44:02.814389', 'mgs': 0, 'volt': 1.001, 'depth': 3.14, 'time': 292, 'pitch': -9.58, 'roll': 5.16, 'pres': 205}
{'lipoC2': 7.84, 'lipoC3S1': 3.94, 'temp': 28.06, 'lipoC3S3': 11.9, 'lipoC3S2': 7.88, 'rot1': 300, 'rot0': 304, 'rot3': 249, 'rot2': 201, 'state': 'normal', 'yaw': 11.36, 'datetime': '2018-10-05 19:44:02.824665', 'mgs': 0, 'volt': 1.001, 'depth': 3.14, 'time': 292, 'pitch': -9.55, 'roll': 5.31, 'pres': 205}
{'lipoC2': 7.84, 'lipoC3S1': 3.94, 'temp': 28.06, 'lipoC3S3': 11.9, 'lipoC3S2': 7.88, 'rot1': 300, 'rot0': 304, 'rot3': 249, 'rot2': 201, 'state': 'normal', 'yaw': 11.04, 'datetime': '2018-10-05 19:44:02.834749', 'mgs': 0, 'volt': 1.001, 'depth': 3.14, 'time': 292, 'pitch': -9.51, 'roll': 5.37, 'pres': 205}
{'lipoC2': 7.84, 'lipoC3S1': 3.94, 'temp': 28.06, 'lipoC3S3': 11.9, 'lipoC3S2': 7.88, 'rot1': 300, 'rot0': 304, 'rot3': 249, 'rot2': 201, 'state': 'normal', 'yaw': 10.68, 'datetime': '2018-10-05 19:44:02.844988', 'mgs': 0, 'volt': 1.001, 'depth': 3.14, 'time': 292, 'pitch': -9.46, 'roll': 5.44, 'pres': 205}
{'lipoC2': 7.84, 'lipoC3S1': 3.94, 'temp': 28.06, 'lipoC3S3': 11.9, 'lipoC3S2': 7.88, 'rot1': 300, 'rot0': 304, 'rot3': 249, 'rot2': 201, 'state': 'normal', 'yaw': 10.34, 'datetime': '2018-10-05 19:44:02.855107', 'mgs': 0, 'volt': 1.0059, 'depth': 3.217, 'time': 292, 'pitch': -9.42, 'roll': 5.49, 'pres': 206}
{'lipoC2': 7.84, 'lipoC3S1': 3.94, 'temp': 28.06, 'lipoC3S3': 11.9, 'lipoC3S2': 7.88, 'rot1': 300, 'rot0': 304, 'rot3': 249, 'rot2': 201, 'state': 'normal', 'yaw': 10.02, 'datetime': '2018-10-05 19:44:02.865474', 'mgs': 0, 'volt': 1.001, 'depth': 3.14, 'time': 292, 'pitch': -9.4, 'roll': 5.5, 'pres': 205}
{'lipoC2': 7.84, 'lipoC3S1': 3.94, 'temp': 28.06, 'lipoC3S3': 11.9, 'lipoC3S2': 7.87, 'rot1': 300, 'rot0': 304, 'rot3': 249, 'rot2': 201, 'state': 'normal', 'yaw': 9.66, 'datetime': '2018-10-05 19:44:02.876179', 'mgs': 0, 'volt': 1.001, 'depth': 3.14, 'time': 293, 'pitch': -9.33, 'roll': 5.47, 'pres': 205}
{'lipoC2': 7.84, 'lipoC3S1': 3.94, 'temp': 28.06, 'lipoC3S3': 11.9, 'lipoC3S2': 7.88, 'rot1': 300, 'rot0': 304, 'rot3': 249, 'rot2': 201, 'state': 'normal', 'yaw': 9.31, 'datetime': '2018-10-05 19:44:02.887419', 'mgs': 0, 'volt': 1.001, 'depth': 3.14, 'time': 293, 'pitch': -9.25, 'roll': 5.45, 'pres': 205}
{'lipoC2': 7.84, 'lipoC3S1': 3.94, 'temp': 28.06, 'lipoC3S3': 11.9, 'lipoC3S2': 7.88, 'rot1': 300, 'rot0': 304, 'rot3': 249, 'rot2': 201, 'state': 'normal', 'yaw': 8.88, 'datetime': '2018-10-05 19:44:02.898223', 'mgs': 0, 'volt': 1.001, 'depth': 3.14, 'time': 293, 'pitch': -9.2, 'roll': 5.47, 'pres': 205}
{'lipoC2': 7.83, 'lipoC3S1': 3.94, 'temp': 28.06, 'lipoC3S3': 11.9, 'lipoC3S2': 7.88, 'rot1': 300, 'rot0': 304, 'rot3': 249, 'rot2': 201, 'state': 'normal', 'yaw': 8.44, 'datetime': '2018-10-05 19:44:02.908334', 'mgs': 0, 'volt': 1.001, 'depth': 3.14, 'time': 293, 'pitch': -9.16, 'roll': 5.55, 'pres': 205}
{'lipoC2': 7.84, 'lipoC3S1': 3.94, 'temp': 28.06, 'lipoC3S3': 11.9, 'lipoC3S2': 7.87, 'rot1': 300, 'rot0': 304, 'rot3': 249, 'rot2': 201, 'state': 'normal', 'yaw': 7.87, 'datetime': '2018-10-05 19:44:02.918548', 'mgs': 0, 'volt': 1.001, 'depth': 3.14, 'time': 293, 'pitch': -9.16, 'roll': 5.64, 'pres': 205}
{'lipoC2': 7.84, 'lipoC3S1': 3.94, 'temp': 28.06, 'lipoC3S3': 11.9, 'lipoC3S2': 7.87, 'rot1': 300, 'rot0': 304, 'rot3': 249, 'rot2': 201, 'state': 'normal', 'yaw': 7.3, 'datetime': '2018-10-05 19:44:02.998719', 'mgs': 0, 'volt': 1.001, 'depth': 3.14, 'time': 293, 'pitch': -9.24, 'roll': 5.73, 'pres': 205}
{'lipoC2': 7.84, 'lipoC3S1': 3.94, 'temp': 28.06, 'lipoC3S3': 11.9, 'lipoC3S2': 7.88, 'rot1': 300, 'rot0': 304, 'rot3': 249, 'rot2': 201, 'state': 'normal', 'yaw': 6.71, 'datetime': '2018-10-05 19:44:03.103160', 'mgs': 0, 'volt': 1.0059, 'depth': 3.217, 'time': 293, 'pitch': -9.34, 'roll': 5.83, 'pres': 206}
{'lipoC2': 7.84, 'lipoC3S1': 3.94, 'temp': 28.06, 'lipoC3S3': 11.9, 'lipoC3S2': 7.88, 'rot1': 300, 'rot0': 304, 'rot3': 249, 'rot2': 201, 'state': 'normal', 'yaw': 6.05, 'datetime': '2018-10-05 19:44:03.207412', 'mgs': 0, 'volt': 1.001, 'depth': 3.14, 'time': 293, 'pitch': -9.44, 'roll': 5.93, 'pres': 205}
{'lipoC2': 7.84, 'lipoC3S1': 3.94, 'temp': 28.13, 'lipoC3S3': 11.9, 'lipoC3S2': 7.88, 'rot1': 300, 'rot0': 304, 'rot3': 249, 'rot2': 201, 'state': 'normal', 'yaw': 5.5, 'datetime': '2018-10-05 19:44:03.312940', 'mgs': 0, 'volt': 1.0059, 'depth': 3.217, 'time': 293, 'pitch': -9.39, 'roll': 5.84, 'pres': 206}
{'lipoC2': 7.84, 'lipoC3S1': 3.94, 'temp': 28.13, 'lipoC3S3': 11.9, 'lipoC3S2': 7.88, 'rot1': 300, 'rot0': 304, 'rot3': 249, 'rot2': 201, 'state': 'normal', 'yaw': 4.9, 'datetime': '2018-10-05 19:44:03.417173', 'mgs': 0, 'volt': 1.0059, 'depth': 3.217, 'time': 293, 'pitch': -9.33, 'roll': 5.77, 'pres': 206}
{'lipoC2': 7.84, 'lipoC3S1': 3.94, 'temp': 28.06, 'lipoC3S3': 11.9, 'lipoC3S2': 7.88, 'rot1': 300, 'rot0': 304, 'rot3': 249, 'rot2': 201, 'state': 'normal', 'yaw': 4.34, 'datetime': '2018-10-05 19:44:03.526906', 'mgs': 0, 'volt': 1.0059, 'depth': 3.217, 'time': 294, 'pitch': -9.26, 'roll': 5.71, 'pres': 206}
{'lipoC2': 7.84, 'lipoC3S1': 3.94, 'temp': 28.06, 'lipoC3S3': 11.9, 'lipoC3S2': 7.87, 'rot1': 300, 'rot0': 304, 'rot3': 249, 'rot2': 201, 'state': 'normal', 'yaw': 3.74, 'datetime': '2018-10-05 19:44:03.631121', 'mgs': 0, 'volt': 1.0059, 'depth': 3.217, 'time': 294, 'pitch': -9.11, 'roll': 5.65, 'pres': 206}
{'lipoC2': 7.84, 'lipoC3S1': 3.94, 'temp': 28.06, 'lipoC3S3': 11.9, 'lipoC3S2': 7.88, 'rot1': 300, 'rot0': 304, 'rot3': 249, 'rot2': 201, 'state': 'normal', 'yaw': 3.18, 'datetime': '2018-10-05 19:44:03.736793', 'mgs': 0, 'volt': 1.0059, 'depth': 3.217, 'time': 294, 'pitch': -8.95, 'roll': 5.6, 'pres': 206}
{'lipoC2': 7.84, 'lipoC3S1': 3.94, 'temp': 28.06, 'lipoC3S3': 11.9, 'lipoC3S2': 7.88, 'rot1': 300, 'rot0': 304, 'rot3': 249, 'rot2': 201, 'state': 'normal', 'yaw': 2.54, 'datetime': '2018-10-05 19:44:03.840992', 'mgs': 0, 'volt': 1.0059, 'depth': 3.217, 'time': 294, 'pitch': -8.78, 'roll': 5.59, 'pres': 206}
{'lipoC2': 7.84, 'lipoC3S1': 3.94, 'temp': 28.06, 'lipoC3S3': 11.9, 'lipoC3S2': 7.87, 'rot1': 300, 'rot0': 304, 'rot3': 249, 'rot2': 201, 'state': 'normal', 'yaw': 1.94, 'datetime': '2018-10-05 19:44:03.945213', 'mgs': 0, 'volt': 1.0107, 'depth': 3.293, 'time': 294, 'pitch': -8.65, 'roll': 5.64, 'pres': 207}
{'lipoC2': 7.84, 'lipoC3S1': 3.94, 'temp': 28.06, 'lipoC3S3': 11.9, 'lipoC3S2': 7.87, 'rot1': 300, 'rot0': 304, 'rot3': 249, 'rot2': 201, 'state': 'normal', 'yaw': 1.31, 'datetime': '2018-10-05 19:44:04.049531', 'mgs': 0, 'volt': 1.0107, 'depth': 3.293, 'time': 294, 'pitch': -8.55, 'roll': 5.73, 'pres': 207}
{'lipoC2': 7.84, 'lipoC3S1': 3.94, 'temp': 28.06, 'lipoC3S3': 11.9, 'lipoC3S2': 7.88, 'rot1': 300, 'rot0': 304, 'rot3': 249, 'rot2': 201, 'state': 'normal', 'yaw': 0.63, 'datetime': '2018-10-05 19:44:04.155726', 'mgs': 0, 'volt': 1.0059, 'depth': 3.217, 'time': 294, 'pitch': -8.49, 'roll': 5.77, 'pres': 206}
{'lipoC2': 7.84, 'lipoC3S1': 3.94, 'temp': 28.06, 'lipoC3S3': 11.9, 'lipoC3S2': 7.87, 'rot1': 300, 'rot0': 304, 'rot3': 249, 'rot2': 201, 'state': 'normal', 'yaw': 0.05, 'datetime': '2018-10-05 19:44:04.258008', 'mgs': 0, 'volt': 1.0107, 'depth': 3.293, 'time': 294, 'pitch': -8.42, 'roll': 5.8, 'pres': 207}
{'lipoC2': 7.84, 'lipoC3S1': 3.94, 'temp': 28.06, 'lipoC3S3': 11.9, 'lipoC3S2': 7.88, 'rot1': 300, 'rot0': 304, 'rot3': 249, 'rot2': 201, 'state': 'normal', 'yaw': -0.51, 'datetime': '2018-10-05 19:44:04.362370', 'mgs': 0, 'volt': 1.0107, 'depth': 3.293, 'time': 294, 'pitch': -8.45, 'roll': 5.79, 'pres': 207}
{'lipoC2': 7.84, 'lipoC3S1': 3.94, 'temp': 28.06, 'lipoC3S3': 11.9, 'lipoC3S2': 7.88, 'rot1': 300, 'rot0': 304, 'rot3': 249, 'rot2': 201, 'state': 'normal', 'yaw': -1.01, 'datetime': '2018-10-05 19:44:04.466476', 'mgs': 0, 'volt': 1.0059, 'depth': 3.217, 'time': 294, 'pitch': -8.47, 'roll': 5.8, 'pres': 206}
{'lipoC2': 7.84, 'lipoC3S1': 3.94, 'temp': 28.06, 'lipoC3S3': 11.9, 'lipoC3S2': 7.88, 'rot1': 300, 'rot0': 304, 'rot3': 249, 'rot2': 201, 'state': 'normal', 'yaw': -1.53, 'datetime': '2018-10-05 19:44:04.571339', 'mgs': 0, 'volt': 1.0059, 'depth': 3.217, 'time': 295, 'pitch': -8.46, 'roll': 5.81, 'pres': 206}
{'lipoC2': 7.84, 'lipoC3S1': 3.94, 'temp': 28.06, 'lipoC3S3': 11.9, 'lipoC3S2': 7.88, 'rot1': 300, 'rot0': 304, 'rot3': 249, 'rot2': 201, 'state': 'normal', 'yaw': -2.12, 'datetime': '2018-10-05 19:44:04.675629', 'mgs': 0, 'volt': 1.0059, 'depth': 3.217, 'time': 295, 'pitch': -8.4, 'roll': 5.89, 'pres': 206}
{'lipoC2': 7.84, 'lipoC3S1': 3.94, 'temp': 28.06, 'lipoC3S3': 11.9, 'lipoC3S2': 7.88, 'rot1': 300, 'rot0': 304, 'rot3': 249, 'rot2': 201, 'state': 'normal', 'yaw': -2.67, 'datetime': '2018-10-05 19:44:04.781333', 'mgs': 0, 'volt': 1.001, 'depth': 3.14, 'time': 295, 'pitch': -8.35, 'roll': 5.97, 'pres': 205}
{'lipoC2': 7.84, 'lipoC3S1': 3.94, 'temp': 28.06, 'lipoC3S3': 11.9, 'lipoC3S2': 7.88, 'rot1': 300, 'rot0': 304, 'rot3': 249, 'rot2': 201, 'state': 'normal', 'yaw': -3.26, 'datetime': '2018-10-05 19:44:04.885326', 'mgs': 0, 'volt': 1.001, 'depth': 3.14, 'time': 295, 'pitch': -8.29, 'roll': 6.05, 'pres': 205}
{'lipoC2': 7.84, 'lipoC3S1': 3.94, 'temp': 28.06, 'lipoC3S3': 11.9, 'lipoC3S2': 7.87, 'rot1': 300, 'rot0': 304, 'rot3': 249, 'rot2': 201, 'state': 'normal', 'yaw': -3.77, 'datetime': '2018-10-05 19:44:04.990775', 'mgs': 0, 'volt': 1.001, 'depth': 3.14, 'time': 295, 'pitch': -8.25, 'roll': 6.13, 'pres': 205}
{'lipoC2': 7.84, 'lipoC3S1': 3.94, 'temp': 28.06, 'lipoC3S3': 11.9, 'lipoC3S2': 7.88, 'rot1': 300, 'rot0': 304, 'rot3': 249, 'rot2': 201, 'state': 'normal', 'yaw': -4.32, 'datetime': '2018-10-05 19:44:05.095727', 'mgs': 0, 'volt': 1.001, 'depth': 3.14, 'time': 295, 'pitch': -8.23, 'roll': 6.21, 'pres': 205}
{'lipoC2': 7.84, 'lipoC3S1': 3.94, 'temp': 28.06, 'lipoC3S3': 11.9, 'lipoC3S2': 7.88, 'rot1': 300, 'rot0': 304, 'rot3': 249, 'rot2': 201, 'state': 'normal', 'yaw': -4.81, 'datetime': '2018-10-05 19:44:05.199482', 'mgs': 0, 'volt': 1.001, 'depth': 3.14, 'time': 295, 'pitch': -8.18, 'roll': 6.28, 'pres': 205}
{'lipoC2': 7.84, 'lipoC3S1': 3.94, 'temp': 28.06, 'lipoC3S3': 11.9, 'lipoC3S2': 7.87, 'rot1': 300, 'rot0': 304, 'rot3': 249, 'rot2': 201, 'state': 'normal', 'yaw': -5.35, 'datetime': '2018-10-05 19:44:05.310601', 'mgs': 0, 'volt': 1.001, 'depth': 3.14, 'time': 295, 'pitch': -8.12, 'roll': 6.36, 'pres': 205}
{'lipoC2': 7.84, 'lipoC3S1': 3.94, 'temp': 28.06, 'lipoC3S3': 11.9, 'lipoC3S2': 7.88, 'rot1': 300, 'rot0': 304, 'rot3': 249, 'rot2': 201, 'state': 'normal', 'yaw': -5.84, 'datetime': '2018-10-05 19:44:05.414732', 'mgs': 0, 'volt': 1.001, 'depth': 3.14, 'time': 295, 'pitch': -8.06, 'roll': 6.42, 'pres': 205}
{'lipoC2': 7.84, 'lipoC3S1': 3.94, 'temp': 28.06, 'lipoC3S3': 11.9, 'lipoC3S2': 7.87, 'rot1': 300, 'rot0': 304, 'rot3': 249, 'rot2': 201, 'state': 'normal', 'yaw': -6.33, 'datetime': '2018-10-05 19:44:05.519065', 'mgs': 0, 'volt': 1.001, 'depth': 3.14, 'time': 296, 'pitch': -7.95, 'roll': 6.49, 'pres': 205}
{'lipoC2': 7.84, 'lipoC3S1': 3.94, 'temp': 28.06, 'lipoC3S3': 11.9, 'lipoC3S2': 7.87, 'rot1': 300, 'rot0': 304, 'rot3': 249, 'rot2': 201, 'state': 'normal', 'yaw': -6.88, 'datetime': '2018-10-05 19:44:05.623164', 'mgs': 0, 'volt': 1.001, 'depth': 3.14, 'time': 296, 'pitch': -7.75, 'roll': 6.57, 'pres': 205}
{'lipoC2': 7.84, 'lipoC3S1': 3.94, 'temp': 28.06, 'lipoC3S3': 11.9, 'lipoC3S2': 7.87, 'rot1': 300, 'rot0': 304, 'rot3': 249, 'rot2': 201, 'state': 'normal', 'yaw': -7.39, 'datetime': '2018-10-05 19:44:05.728134', 'mgs': 0, 'volt': 1.001, 'depth': 3.14, 'time': 296, 'pitch': -7.55, 'roll': 6.64, 'pres': 205}
{'lipoC2': 7.84, 'lipoC3S1': 3.94, 'temp': 28.06, 'lipoC3S3': 11.9, 'lipoC3S2': 7.87, 'rot1': 300, 'rot0': 304, 'rot3': 249, 'rot2': 201, 'state': 'normal', 'yaw': -7.98, 'datetime': '2018-10-05 19:44:05.832081', 'mgs': 0, 'volt': 1.001, 'depth': 3.14, 'time': 296, 'pitch': -7.32, 'roll': 6.71, 'pres': 205}
{'lipoC2': 7.84, 'lipoC3S1': 3.94, 'temp': 28.06, 'lipoC3S3': 11.9, 'lipoC3S2': 7.88, 'rot1': 300, 'rot0': 304, 'rot3': 249, 'rot2': 201, 'state': 'normal', 'yaw': -8.52, 'datetime': '2018-10-05 19:44:05.936493', 'mgs': 0, 'volt': 1.001, 'depth': 3.14, 'time': 296, 'pitch': -7.17, 'roll': 6.78, 'pres': 205}
{'lipoC2': 7.84, 'lipoC3S1': 3.94, 'temp': 28.06, 'lipoC3S3': 11.9, 'lipoC3S2': 7.87, 'rot1': 300, 'rot0': 304, 'rot3': 249, 'rot2': 201, 'state': 'normal', 'yaw': -9.08, 'datetime': '2018-10-05 19:44:06.042074', 'mgs': 0, 'volt': 1.001, 'depth': 3.14, 'time': 296, 'pitch': -7.11, 'roll': 6.84, 'pres': 205}
{'lipoC2': 7.84, 'lipoC3S1': 3.94, 'temp': 28.06, 'lipoC3S3': 11.9, 'lipoC3S2': 7.88, 'rot1': 300, 'rot0': 304, 'rot3': 249, 'rot2': 201, 'state': 'normal', 'yaw': -9.68, 'datetime': '2018-10-05 19:44:06.145969', 'mgs': 0, 'volt': 1.001, 'depth': 3.14, 'time': 296, 'pitch': -7.03, 'roll': 6.92, 'pres': 205}
{'lipoC2': 7.84, 'lipoC3S1': 3.94, 'temp': 28.06, 'lipoC3S3': 11.9, 'lipoC3S2': 7.87, 'rot1': 300, 'rot0': 304, 'rot3': 249, 'rot2': 201, 'state': 'normal', 'yaw': -10.23, 'datetime': '2018-10-05 19:44:06.254154', 'mgs': 0, 'volt': 1.001, 'depth': 3.14, 'time': 296, 'pitch': -6.98, 'roll': 6.99, 'pres': 205}
{'lipoC2': 7.84, 'lipoC3S1': 3.94, 'temp': 28.06, 'lipoC3S3': 11.9, 'lipoC3S2': 7.87, 'rot1': 300, 'rot0': 304, 'rot3': 249, 'rot2': 201, 'state': 'normal', 'yaw': -10.84, 'datetime': '2018-10-05 19:44:06.355678', 'mgs': 0, 'volt': 1.001, 'depth': 3.14, 'time': 296, 'pitch': -6.96, 'roll': 7.06, 'pres': 205}
{'lipoC2': 7.83, 'lipoC3S1': 3.94, 'temp': 28.06, 'lipoC3S3': 11.9, 'lipoC3S2': 7.88, 'rot1': 300, 'rot0': 304, 'rot3': 249, 'rot2': 201, 'state': 'normal', 'yaw': -11.39, 'datetime': '2018-10-05 19:44:06.460147', 'mgs': 0, 'volt': 1.001, 'depth': 3.14, 'time': 296, 'pitch': -6.98, 'roll': 7.13, 'pres': 205}
{'lipoC2': 7.84, 'lipoC3S1': 3.94, 'temp': 28.06, 'lipoC3S3': 11.9, 'lipoC3S2': 7.87, 'rot1': 300, 'rot0': 304, 'rot3': 249, 'rot2': 201, 'state': 'normal', 'yaw': -11.99, 'datetime': '2018-10-05 19:44:06.564347', 'mgs': 0, 'volt': 1.0059, 'depth': 3.217, 'time': 297, 'pitch': -7.01, 'roll': 7.2, 'pres': 206}
{'lipoC2': 7.84, 'lipoC3S1': 3.94, 'temp': 28.06, 'lipoC3S3': 11.9, 'lipoC3S2': 7.88, 'rot1': 300, 'rot0': 304, 'rot3': 249, 'rot2': 201, 'state': 'normal', 'yaw': -12.49, 'datetime': '2018-10-05 19:44:06.668440', 'mgs': 0, 'volt': 1.001, 'depth': 3.14, 'time': 297, 'pitch': -7.04, 'roll': 7.14, 'pres': 205}
{'lipoC2': 7.84, 'lipoC3S1': 3.94, 'temp': 28.06, 'lipoC3S3': 11.9, 'lipoC3S2': 7.88, 'rot1': 300, 'rot0': 304, 'rot3': 249, 'rot2': 201, 'state': 'normal', 'yaw': -12.89, 'datetime': '2018-10-05 19:44:06.772862', 'mgs': 0, 'volt': 1.001, 'depth': 3.14, 'time': 297, 'pitch': -7.06, 'roll': 6.86, 'pres': 205}
{'lipoC2': 7.84, 'lipoC3S1': 3.94, 'temp': 28.06, 'lipoC3S3': 11.9, 'lipoC3S2': 7.87, 'rot1': 300, 'rot0': 304, 'rot3': 249, 'rot2': 201, 'state': 'normal', 'yaw': -13.34, 'datetime': '2018-10-05 19:44:06.876912', 'mgs': 0, 'volt': 1.001, 'depth': 3.14, 'time': 297, 'pitch': -7.04, 'roll': 6.64, 'pres': 205}
{'lipoC2': 7.84, 'lipoC3S1': 3.94, 'temp': 28.06, 'lipoC3S3': 11.9, 'lipoC3S2': 7.87, 'rot1': 300, 'rot0': 304, 'rot3': 249, 'rot2': 201, 'state': 'normal', 'yaw': -13.68, 'datetime': '2018-10-05 19:44:06.982335', 'mgs': 0, 'volt': 1.0059, 'depth': 3.217, 'time': 297, 'pitch': -6.83, 'roll': 6.66, 'pres': 206}
{'lipoC2': 7.84, 'lipoC3S1': 3.94, 'temp': 28.06, 'lipoC3S3': 11.9, 'lipoC3S2': 7.87, 'rot1': 300, 'rot0': 304, 'rot3': 249, 'rot2': 201, 'state': 'normal', 'yaw': -14.03, 'datetime': '2018-10-05 19:44:07.086971', 'mgs': 0, 'volt': 1.001, 'depth': 3.14, 'time': 297, 'pitch': -6.6, 'roll': 6.7, 'pres': 205}
{'lipoC2': 7.84, 'lipoC3S1': 3.94, 'temp': 28.06, 'lipoC3S3': 11.9, 'lipoC3S2': 7.87, 'rot1': 300, 'rot0': 304, 'rot3': 249, 'rot2': 201, 'state': 'normal', 'yaw': -14.36, 'datetime': '2018-10-05 19:44:07.192102', 'mgs': 0, 'volt': 1.0059, 'depth': 3.217, 'time': 297, 'pitch': -6.4, 'roll': 6.79, 'pres': 206}
{'lipoC2': 7.84, 'lipoC3S1': 3.94, 'temp': 28.06, 'lipoC3S3': 11.9, 'lipoC3S2': 7.87, 'rot1': 300, 'rot0': 304, 'rot3': 249, 'rot2': 201, 'state': 'normal', 'yaw': -14.73, 'datetime': '2018-10-05 19:44:07.296381', 'mgs': 0, 'volt': 1.0059, 'depth': 3.217, 'time': 297, 'pitch': -6.25, 'roll': 6.93, 'pres': 206}
{'lipoC2': 7.84, 'lipoC3S1': 3.94, 'temp': 28.06, 'lipoC3S3': 11.9, 'lipoC3S2': 7.88, 'rot1': 300, 'rot0': 304, 'rot3': 249, 'rot2': 201, 'state': 'normal', 'yaw': -15.08, 'datetime': '2018-10-05 19:44:07.401311', 'mgs': 0, 'volt': 1.0059, 'depth': 3.217, 'time': 297, 'pitch': -6.21, 'roll': 7.1, 'pres': 206}
{'lipoC2': 7.83, 'lipoC3S1': 3.94, 'temp': 28.06, 'lipoC3S3': 11.9, 'lipoC3S2': 7.87, 'rot1': 300, 'rot0': 304, 'rot3': 249, 'rot2': 201, 'state': 'normal', 'yaw': -15.44, 'datetime': '2018-10-05 19:44:07.506564', 'mgs': 0, 'volt': 1.0107, 'depth': 3.293, 'time': 298, 'pitch': -6.2, 'roll': 7.28, 'pres': 207}
{'lipoC2': 7.84, 'lipoC3S1': 3.94, 'temp': 28.06, 'lipoC3S3': 11.9, 'lipoC3S2': 7.88, 'rot1': 300, 'rot0': 304, 'rot3': 249, 'rot2': 201, 'state': 'normal', 'yaw': -15.84, 'datetime': '2018-10-05 19:44:07.610553', 'mgs': 0, 'volt': 1.0107, 'depth': 3.293, 'time': 298, 'pitch': -6.27, 'roll': 7.48, 'pres': 207}
{'lipoC2': 7.83, 'lipoC3S1': 3.94, 'temp': 28.06, 'lipoC3S3': 11.9, 'lipoC3S2': 7.87, 'rot1': 300, 'rot0': 304, 'rot3': 249, 'rot2': 201, 'state': 'normal', 'yaw': -16.2, 'datetime': '2018-10-05 19:44:07.717318', 'mgs': 0, 'volt': 1.0107, 'depth': 3.293, 'time': 298, 'pitch': -6.33, 'roll': 7.62, 'pres': 207}
{'lipoC2': 7.84, 'lipoC3S1': 3.94, 'temp': 28.06, 'lipoC3S3': 11.9, 'lipoC3S2': 7.87, 'rot1': 300, 'rot0': 304, 'rot3': 249, 'rot2': 201, 'state': 'normal', 'yaw': -16.6, 'datetime': '2018-10-05 19:44:07.819153', 'mgs': 0, 'volt': 1.0107, 'depth': 3.293, 'time': 298, 'pitch': -6.13, 'roll': 7.48, 'pres': 207}
{'lipoC2': 7.84, 'lipoC3S1': 3.94, 'temp': 28.06, 'lipoC3S3': 11.9, 'lipoC3S2': 7.87, 'rot1': 300, 'rot0': 304, 'rot3': 249, 'rot2': 201, 'state': 'normal', 'yaw': -16.97, 'datetime': '2018-10-05 19:44:07.923100', 'mgs': 0, 'volt': 1.0059, 'depth': 3.217, 'time': 298, 'pitch': -5.98, 'roll': 7.31, 'pres': 206}
{'lipoC2': 7.84, 'lipoC3S1': 3.94, 'temp': 28.06, 'lipoC3S3': 11.9, 'lipoC3S2': 7.87, 'rot1': 300, 'rot0': 304, 'rot3': 249, 'rot2': 201, 'state': 'normal', 'yaw': -17.33, 'datetime': '2018-10-05 19:44:08.027825', 'mgs': 0, 'volt': 1.0107, 'depth': 3.293, 'time': 298, 'pitch': -5.86, 'roll': 7.15, 'pres': 207}
{'lipoC2': 7.84, 'lipoC3S1': 3.94, 'temp': 28.06, 'lipoC3S3': 11.9, 'lipoC3S2': 7.87, 'rot1': 300, 'rot0': 304, 'rot3': 249, 'rot2': 201, 'state': 'normal', 'yaw': -17.71, 'datetime': '2018-10-05 19:44:08.132021', 'mgs': 0, 'volt': 1.0059, 'depth': 3.217, 'time': 298, 'pitch': -5.69, 'roll': 7.05, 'pres': 206}
{'lipoC2': 7.84, 'lipoC3S1': 3.94, 'temp': 28.06, 'lipoC3S3': 11.9, 'lipoC3S2': 7.88, 'rot1': 300, 'rot0': 304, 'rot3': 249, 'rot2': 201, 'state': 'normal', 'yaw': -18.13, 'datetime': '2018-10-05 19:44:08.237527', 'mgs': 0, 'volt': 1.0059, 'depth': 3.217, 'time': 298, 'pitch': -5.71, 'roll': 7.23, 'pres': 206}
{'lipoC2': 7.84, 'lipoC3S1': 3.94, 'temp': 28.06, 'lipoC3S3': 11.9, 'lipoC3S2': 7.88, 'rot1': 300, 'rot0': 304, 'rot3': 249, 'rot2': 201, 'state': 'normal', 'yaw': -18.56, 'datetime': '2018-10-05 19:44:08.341941', 'mgs': 0, 'volt': 1.0059, 'depth': 3.217, 'time': 298, 'pitch': -5.78, 'roll': 7.38, 'pres': 206}
{'lipoC2': 7.83, 'lipoC3S1': 3.94, 'temp': 28.13, 'lipoC3S3': 11.9, 'lipoC3S2': 7.88, 'rot1': 300, 'rot0': 304, 'rot3': 249, 'rot2': 201, 'state': 'normal', 'yaw': -18.84, 'datetime': '2018-10-05 19:44:08.447244', 'mgs': 0, 'volt': 1.0059, 'depth': 3.217, 'time': 298, 'pitch': -5.68, 'roll': 7.28, 'pres': 206}
{'lipoC2': 7.84, 'lipoC3S1': 3.94, 'temp': 28.13, 'lipoC3S3': 11.9, 'lipoC3S2': 7.88, 'rot1': 300, 'rot0': 304, 'rot3': 249, 'rot2': 201, 'state': 'normal', 'yaw': -19.04, 'datetime': '2018-10-05 19:44:08.551367', 'mgs': 0, 'volt': 1.001, 'depth': 3.14, 'time': 299, 'pitch': -5.43, 'roll': 7.17, 'pres': 205}
{'lipoC2': 7.84, 'lipoC3S1': 3.94, 'temp': 28.06, 'lipoC3S3': 11.9, 'lipoC3S2': 7.87, 'rot1': 300, 'rot0': 304, 'rot3': 249, 'rot2': 201, 'state': 'normal', 'yaw': -18.76, 'datetime': '2018-10-05 19:44:08.656871', 'mgs': 0, 'volt': 1.001, 'depth': 3.14, 'time': 299, 'pitch': -5.21, 'roll': 7.12, 'pres': 205}
{'lipoC2': 7.84, 'lipoC3S1': 3.94, 'temp': 28.06, 'lipoC3S3': 11.9, 'lipoC3S2': 7.87, 'rot1': 300, 'rot0': 304, 'rot3': 249, 'rot2': 201, 'state': 'normal', 'yaw': -18.16, 'datetime': '2018-10-05 19:44:08.761039', 'mgs': 0, 'volt': 1.001, 'depth': 3.14, 'time': 299, 'pitch': -5.28, 'roll': 7.06, 'pres': 205}
{'lipoC2': 7.84, 'lipoC3S1': 3.94, 'temp': 28.13, 'lipoC3S3': 11.9, 'lipoC3S2': 7.88, 'rot1': 300, 'rot0': 304, 'rot3': 249, 'rot2': 201, 'state': 'normal', 'yaw': -17.65, 'datetime': '2018-10-05 19:44:08.865561', 'mgs': 0, 'volt': 0.9961, 'depth': 3.064, 'time': 299, 'pitch': -6.22, 'roll': 7.02, 'pres': 204}
{'lipoC2': 7.84, 'lipoC3S1': 3.94, 'temp': 28.13, 'lipoC3S3': 11.9, 'lipoC3S2': 7.88, 'rot1': 300, 'rot0': 304, 'rot3': 249, 'rot2': 201, 'state': 'normal', 'yaw': -17.01, 'datetime': '2018-10-05 19:44:08.969831', 'mgs': 0, 'volt': 0.9961, 'depth': 3.064, 'time': 299, 'pitch': -7.73, 'roll': 6.92, 'pres': 204}
{'lipoC2': 7.84, 'lipoC3S1': 3.94, 'temp': 28.13, 'lipoC3S3': 11.9, 'lipoC3S2': 7.88, 'rot1': 300, 'rot0': 304, 'rot3': 249, 'rot2': 201, 'state': 'normal', 'yaw': -15.8, 'datetime': '2018-10-05 19:44:09.074069', 'mgs': 0, 'volt': 0.9912, 'depth': 2.988, 'time': 299, 'pitch': -9.08, 'roll': 6.92, 'pres': 203}
{'lipoC2': 7.84, 'lipoC3S1': 3.94, 'temp': 28.13, 'lipoC3S3': 11.9, 'lipoC3S2': 7.88, 'rot1': 300, 'rot0': 304, 'rot3': 249, 'rot2': 201, 'state': 'normal', 'yaw': -14.14, 'datetime': '2018-10-05 19:44:09.178151', 'mgs': 0, 'volt': 0.9863, 'depth': 2.911, 'time': 299, 'pitch': -10.68, 'roll': 7.35, 'pres': 202}
{'lipoC2': 7.83, 'lipoC3S1': 3.94, 'temp': 28.13, 'lipoC3S3': 11.9, 'lipoC3S2': 7.88, 'rot1': 300, 'rot0': 304, 'rot3': 249, 'rot2': 201, 'state': 'normal', 'yaw': -11.94, 'datetime': '2018-10-05 19:44:09.282713', 'mgs': 0, 'volt': 0.9814, 'depth': 2.835, 'time': 299, 'pitch': -12.32, 'roll': 7.53, 'pres': 201}
{'lipoC2': 7.84, 'lipoC3S1': 3.94, 'temp': 28.13, 'lipoC3S3': 11.9, 'lipoC3S2': 7.87, 'rot1': 300, 'rot0': 304, 'rot3': 249, 'rot2': 201, 'state': 'normal', 'yaw': -9.88, 'datetime': '2018-10-05 19:44:09.386963', 'mgs': 0, 'volt': 0.9766, 'depth': 2.759, 'time': 299, 'pitch': -14.85, 'roll': 7.8, 'pres': 200}
{'lipoC2': 7.84, 'lipoC3S1': 3.94, 'temp': 28.13, 'lipoC3S3': 11.9, 'lipoC3S2': 7.87, 'rot1': 300, 'rot0': 304, 'rot3': 249, 'rot2': 201, 'state': 'normal', 'yaw': -7.88, 'datetime': '2018-10-05 19:44:09.491494', 'mgs': 0, 'volt': 0.9717, 'depth': 2.682, 'time': 299, 'pitch': -17.4, 'roll': 8.04, 'pres': 199}
{'lipoC2': 7.84, 'lipoC3S1': 3.94, 'temp': 28.06, 'lipoC3S3': 11.9, 'lipoC3S2': 7.88, 'rot1': 300, 'rot0': 304, 'rot3': 249, 'rot2': 201, 'state': 'normal', 'yaw': -5.75, 'datetime': '2018-10-05 19:44:09.596078', 'mgs': 0, 'volt': 0.9668, 'depth': 2.606, 'time': 300, 'pitch': -20.1, 'roll': 8.8, 'pres': 198}
{'lipoC2': 7.84, 'lipoC3S1': 3.94, 'temp': 28.06, 'lipoC3S3': 11.9, 'lipoC3S2': 7.88, 'rot1': 300, 'rot0': 304, 'rot3': 249, 'rot2': 201, 'state': 'normal', 'yaw': -3.72, 'datetime': '2018-10-05 19:44:09.701317', 'mgs': 0, 'volt': 0.9619, 'depth': 2.53, 'time': 300, 'pitch': -22.17, 'roll': 9.81, 'pres': 197}
{'lipoC2': 7.84, 'lipoC3S1': 3.94, 'temp': 28.06, 'lipoC3S3': 11.9, 'lipoC3S2': 7.87, 'rot1': 300, 'rot0': 304, 'rot3': 249, 'rot2': 201, 'state': 'normal', 'yaw': -1.03, 'datetime': '2018-10-05 19:44:09.805690', 'mgs': 0, 'volt': 0.957, 'depth': 2.454, 'time': 300, 'pitch': -23.82, 'roll': 10.75, 'pres': 196}
{'lipoC2': 7.84, 'lipoC3S1': 3.94, 'temp': 28.13, 'lipoC3S3': 11.9, 'lipoC3S2': 7.88, 'rot1': 300, 'rot0': 304, 'rot3': 249, 'rot2': 201, 'state': 'normal', 'yaw': 2.06, 'datetime': '2018-10-05 19:44:09.911330', 'mgs': 0, 'volt': 0.9473, 'depth': 2.301, 'time': 300, 'pitch': -24.69, 'roll': 11.15, 'pres': 194}
{'lipoC2': 7.84, 'lipoC3S1': 3.94, 'temp': 28.13, 'lipoC3S3': 11.9, 'lipoC3S2': 7.87, 'rot1': 300, 'rot0': 304, 'rot3': 249, 'rot2': 201, 'state': 'normal', 'yaw': 6.07, 'datetime': '2018-10-05 19:44:10.015534', 'mgs': 0, 'volt': 0.9424, 'depth': 2.225, 'time': 300, 'pitch': -25.1, 'roll': 11.08, 'pres': 193}
{'lipoC2': 7.84, 'lipoC3S1': 3.94, 'temp': 28.13, 'lipoC3S3': 11.9, 'lipoC3S2': 7.87, 'rot1': 300, 'rot0': 304, 'rot3': 249, 'rot2': 201, 'state': 'normal', 'yaw': 9.69, 'datetime': '2018-10-05 19:44:10.119987', 'mgs': 0, 'volt': 0.9326, 'depth': 2.072, 'time': 300, 'pitch': -25.17, 'roll': 11.09, 'pres': 191}
{'lipoC2': 7.84, 'lipoC3S1': 3.94, 'temp': 28.13, 'lipoC3S3': 11.9, 'lipoC3S2': 7.88, 'rot1': 300, 'rot0': 304, 'rot3': 249, 'rot2': 201, 'state': 'normal', 'yaw': 13.23, 'datetime': '2018-10-05 19:44:10.224234', 'mgs': 0, 'volt': 0.9277, 'depth': 1.996, 'time': 300, 'pitch': -25.35, 'roll': 11.35, 'pres': 190}
{'lipoC2': 7.84, 'lipoC3S1': 3.94, 'temp': 28.06, 'lipoC3S3': 11.9, 'lipoC3S2': 7.88, 'rot1': 300, 'rot0': 304, 'rot3': 249, 'rot2': 201, 'state': 'normal', 'yaw': 16.1, 'datetime': '2018-10-05 19:44:10.321963', 'mgs': 0, 'volt': 0.918, 'depth': 1.843, 'time': 300, 'pitch': -25.37, 'roll': 11.71, 'pres': 188}
{'lipoC2': 7.84, 'lipoC3S1': 3.94, 'temp': 28.06, 'lipoC3S3': 11.9, 'lipoC3S2': 7.88, 'rot1': 300, 'rot0': 304, 'rot3': 249, 'rot2': 201, 'state': 'normal', 'yaw': 18.62, 'datetime': '2018-10-05 19:44:10.432885', 'mgs': 0, 'volt': 0.9082, 'depth': 1.691, 'time': 300, 'pitch': -25.41, 'roll': 12.07, 'pres': 186}
{'lipoC2': 7.84, 'lipoC3S1': 3.94, 'temp': 28.13, 'lipoC3S3': 11.9, 'lipoC3S2': 7.88, 'rot1': 300, 'rot0': 304, 'rot3': 249, 'rot2': 201, 'state': 'normal', 'yaw': 21.07, 'datetime': '2018-10-05 19:44:10.537277', 'mgs': 0, 'volt': 0.9033, 'depth': 1.614, 'time': 301, 'pitch': -25.38, 'roll': 12.37, 'pres': 185}
{'lipoC2': 7.84, 'lipoC3S1': 3.94, 'temp': 28.13, 'lipoC3S3': 11.9, 'lipoC3S2': 7.88, 'rot1': 300, 'rot0': 304, 'rot3': 249, 'rot2': 201, 'state': 'normal', 'yaw': 22.96, 'datetime': '2018-10-05 19:44:10.642888', 'mgs': 0, 'volt': 0.8984, 'depth': 1.538, 'time': 301, 'pitch': -24.85, 'roll': 12.63, 'pres': 184}
{'lipoC2': 7.83, 'lipoC3S1': 3.94, 'temp': 28.13, 'lipoC3S3': 11.9, 'lipoC3S2': 7.88, 'rot1': 300, 'rot0': 304, 'rot3': 249, 'rot2': 201, 'state': 'normal', 'yaw': 24.91, 'datetime': '2018-10-05 19:44:10.747277', 'mgs': 0, 'volt': 0.8984, 'depth': 1.538, 'time': 301, 'pitch': -23.38, 'roll': 12.77, 'pres': 184}
{'lipoC2': 7.84, 'lipoC3S1': 3.94, 'temp': 28.06, 'lipoC3S3': 11.9, 'lipoC3S2': 7.87, 'rot1': 300, 'rot0': 304, 'rot3': 249, 'rot2': 201, 'state': 'normal', 'yaw': 26.54, 'datetime': '2018-10-05 19:44:10.852699', 'mgs': 0, 'volt': 0.8936, 'depth': 1.462, 'time': 301, 'pitch': -21.52, 'roll': 12.73, 'pres': 183}
{'lipoC2': 7.84, 'lipoC3S1': 3.94, 'temp': 28.06, 'lipoC3S3': 11.9, 'lipoC3S2': 7.88, 'rot1': 300, 'rot0': 304, 'rot3': 249, 'rot2': 201, 'state': 'normal', 'yaw': 27.84, 'datetime': '2018-10-05 19:44:10.957075', 'mgs': 0, 'volt': 0.8887, 'depth': 1.385, 'time': 301, 'pitch': -19.18, 'roll': 12.77, 'pres': 182}
{'lipoC2': 7.83, 'lipoC3S1': 3.94, 'temp': 28.13, 'lipoC3S3': 11.9, 'lipoC3S2': 7.88, 'rot1': 300, 'rot0': 304, 'rot3': 249, 'rot2': 201, 'state': 'normal', 'yaw': 29.09, 'datetime': '2018-10-05 19:44:11.062532', 'mgs': 0, 'volt': 0.8789, 'depth': 1.233, 'time': 301, 'pitch': -17.36, 'roll': 12.32, 'pres': 180}
{'lipoC2': 7.84, 'lipoC3S1': 3.94, 'temp': 28.13, 'lipoC3S3': 11.9, 'lipoC3S2': 7.88, 'rot1': 300, 'rot0': 304, 'rot3': 249, 'rot2': 201, 'state': 'normal', 'yaw': 29.69, 'datetime': '2018-10-05 19:44:11.167008', 'mgs': 0, 'volt': 0.8789, 'depth': 1.233, 'time': 301, 'pitch': -17.0, 'roll': 11.79, 'pres': 180}
{'lipoC2': 7.84, 'lipoC3S1': 3.94, 'temp': 28.06, 'lipoC3S3': 11.9, 'lipoC3S2': 7.88, 'rot1': 300, 'rot0': 304, 'rot3': 249, 'rot2': 201, 'state': 'normal', 'yaw': 30.17, 'datetime': '2018-10-05 19:44:11.271158', 'mgs': 0, 'volt': 0.8691, 'depth': 1.08, 'time': 301, 'pitch': -16.97, 'roll': 11.12, 'pres': 178}
{'lipoC2': 7.83, 'lipoC3S1': 3.94, 'temp': 28.06, 'lipoC3S3': 11.9, 'lipoC3S2': 7.87, 'rot1': 300, 'rot0': 304, 'rot3': 249, 'rot2': 201, 'state': 'normal', 'yaw': 30.67, 'datetime': '2018-10-05 19:44:11.375719', 'mgs': 0, 'volt': 0.8643, 'depth': 1.004, 'time': 301, 'pitch': -16.71, 'roll': 10.34, 'pres': 177}
{'lipoC2': 7.84, 'lipoC3S1': 3.94, 'temp': 28.06, 'lipoC3S3': 11.9, 'lipoC3S2': 7.88, 'rot1': 300, 'rot0': 304, 'rot3': 249, 'rot2': 201, 'state': 'normal', 'yaw': 30.92, 'datetime': '2018-10-05 19:44:11.480156', 'mgs': 0, 'volt': 0.8594, 'depth': 0.928, 'time': 301, 'pitch': -16.69, 'roll': 9.53, 'pres': 176}
{'lipoC2': 7.84, 'lipoC3S1': 3.94, 'temp': 28.06, 'lipoC3S3': 11.9, 'lipoC3S2': 7.88, 'rot1': 300, 'rot0': 304, 'rot3': 249, 'rot2': 201, 'state': 'normal', 'yaw': 31.07, 'datetime': '2018-10-05 19:44:11.584473', 'mgs': 0, 'volt': 0.8545, 'depth': 0.851, 'time': 302, 'pitch': -16.71, 'roll': 8.78, 'pres': 175}
{'lipoC2': 7.84, 'lipoC3S1': 3.94, 'temp': 28.06, 'lipoC3S3': 11.9, 'lipoC3S2': 7.88, 'rot1': 300, 'rot0': 304, 'rot3': 249, 'rot2': 201, 'state': 'normal', 'yaw': 31.33, 'datetime': '2018-10-05 19:44:11.688867', 'mgs': 0, 'volt': 0.8496, 'depth': 0.775, 'time': 302, 'pitch': -16.58, 'roll': 7.94, 'pres': 174}
{'lipoC2': 7.84, 'lipoC3S1': 3.94, 'temp': 28.06, 'lipoC3S3': 11.9, 'lipoC3S2': 7.88, 'rot1': 300, 'rot0': 304, 'rot3': 249, 'rot2': 201, 'state': 'normal', 'yaw': 31.94, 'datetime': '2018-10-05 19:44:11.793468', 'mgs': 0, 'volt': 0.8398, 'depth': 0.623, 'time': 302, 'pitch': -16.15, 'roll': 6.98, 'pres': 172}
{'lipoC2': 7.84, 'lipoC3S1': 3.94, 'temp': 28.06, 'lipoC3S3': 11.9, 'lipoC3S2': 7.88, 'rot1': 300, 'rot0': 304, 'rot3': 249, 'rot2': 201, 'state': 'normal', 'yaw': 32.46, 'datetime': '2018-10-05 19:44:11.897933', 'mgs': 0, 'volt': 0.8398, 'depth': 0.623, 'time': 302, 'pitch': -15.53, 'roll': 6.24, 'pres': 172}
{'lipoC2': 7.84, 'lipoC3S1': 3.94, 'temp': 28.13, 'lipoC3S3': 11.9, 'lipoC3S2': 7.88, 'rot1': 300, 'rot0': 304, 'rot3': 249, 'rot2': 201, 'state': 'normal', 'yaw': 32.72, 'datetime': '2018-10-05 19:44:12.002243', 'mgs': 0, 'volt': 0.835, 'depth': 0.546, 'time': 302, 'pitch': -14.58, 'roll': 5.93, 'pres': 171}
{'lipoC2': 7.84, 'lipoC3S1': 3.94, 'temp': 28.13, 'lipoC3S3': 11.9, 'lipoC3S2': 7.87, 'rot1': 300, 'rot0': 304, 'rot3': 249, 'rot2': 201, 'state': 'normal', 'yaw': 32.99, 'datetime': '2018-10-05 19:44:12.107600', 'mgs': 0, 'volt': 0.8252, 'depth': 0.394, 'time': 302, 'pitch': -13.45, 'roll': 5.8, 'pres': 169}
{'lipoC2': 7.83, 'lipoC3S1': 3.94, 'temp': 28.13, 'lipoC3S3': 11.9, 'lipoC3S2': 7.87, 'rot1': 300, 'rot0': 304, 'rot3': 249, 'rot2': 201, 'state': 'normal', 'yaw': 32.8, 'datetime': '2018-10-05 19:44:12.211860', 'mgs': 0, 'volt': 0.8203, 'depth': 0.317, 'time': 302, 'pitch': -12.47, 'roll': 6.22, 'pres': 168}
{'lipoC2': 7.84, 'lipoC3S1': 3.94, 'temp': 28.13, 'lipoC3S3': 11.9, 'lipoC3S2': 7.88, 'rot1': 300, 'rot0': 304, 'rot3': 249, 'rot2': 201, 'state': 'normal', 'yaw': 32.47, 'datetime': '2018-10-05 19:44:12.317716', 'mgs': 0, 'volt': 0.8203, 'depth': 0.317, 'time': 302, 'pitch': -11.95, 'roll': 6.81, 'pres': 168}
{'lipoC2': 7.84, 'lipoC3S1': 3.94, 'temp': 28.13, 'lipoC3S3': 11.9, 'lipoC3S2': 7.88, 'rot1': 300, 'rot0': 304, 'rot3': 249, 'rot2': 201, 'state': 'normal', 'yaw': 32.19, 'datetime': '2018-10-05 19:44:12.421790', 'mgs': 0, 'volt': 0.8154, 'depth': 0.241, 'time': 302, 'pitch': -11.5, 'roll': 7.43, 'pres': 167}
{'lipoC2': 7.84, 'lipoC3S1': 3.94, 'temp': 28.06, 'lipoC3S3': 11.9, 'lipoC3S2': 7.87, 'rot1': 300, 'rot0': 304, 'rot3': 249, 'rot2': 201, 'state': 'normal', 'yaw': 32.38, 'datetime': '2018-10-05 19:44:12.525934', 'mgs': 0, 'volt': 0.8154, 'depth': 0.241, 'time': 303, 'pitch': -11.2, 'roll': 7.67, 'pres': 167}
{'lipoC2': 7.84, 'lipoC3S1': 3.94, 'temp': 28.06, 'lipoC3S3': 11.9, 'lipoC3S2': 7.88, 'rot1': 300, 'rot0': 304, 'rot3': 249, 'rot2': 201, 'state': 'normal', 'yaw': 32.94, 'datetime': '2018-10-05 19:44:12.630280', 'mgs': 0, 'volt': 0.8105, 'depth': 0.165, 'time': 303, 'pitch': -10.69, 'roll': 7.72, 'pres': 166}
{'lipoC2': 7.84, 'lipoC3S1': 3.94, 'temp': 28.06, 'lipoC3S3': 11.9, 'lipoC3S2': 7.87, 'rot1': 300, 'rot0': 304, 'rot3': 249, 'rot2': 201, 'state': 'normal', 'yaw': 33.66, 'datetime': '2018-10-05 19:44:12.735313', 'mgs': 0, 'volt': 0.8105, 'depth': 0.165, 'time': 303, 'pitch': -10.05, 'roll': 7.57, 'pres': 166}
{'lipoC2': 7.84, 'lipoC3S1': 3.94, 'temp': 28.06, 'lipoC3S3': 11.9, 'lipoC3S2': 7.88, 'rot1': 300, 'rot0': 304, 'rot3': 249, 'rot2': 201, 'state': 'normal', 'yaw': 34.72, 'datetime': '2018-10-05 19:44:12.838807', 'mgs': 0, 'volt': 0.8105, 'depth': 0.165, 'time': 303, 'pitch': -9.53, 'roll': 7.23, 'pres': 166}
{'lipoC2': 7.83, 'lipoC3S1': 3.94, 'temp': 28.06, 'lipoC3S3': 11.9, 'lipoC3S2': 7.88, 'rot1': 300, 'rot0': 304, 'rot3': 249, 'rot2': 201, 'state': 'normal', 'yaw': 35.78, 'datetime': '2018-10-05 19:44:12.942833', 'mgs': 0, 'volt': 0.8057, 'depth': 0.089, 'time': 303, 'pitch': -9.13, 'roll': 7.09, 'pres': 165}
{'lipoC2': 7.83, 'lipoC3S1': 3.94, 'temp': 28.06, 'lipoC3S3': 11.9, 'lipoC3S2': 7.87, 'rot1': 300, 'rot0': 304, 'rot3': 249, 'rot2': 201, 'state': 'normal', 'yaw': 36.21, 'datetime': '2018-10-05 19:44:13.047922', 'mgs': 0, 'volt': 0.8057, 'depth': 0.089, 'time': 303, 'pitch': -9.09, 'roll': 7.46, 'pres': 165}
{'lipoC2': 7.84, 'lipoC3S1': 3.94, 'temp': 28.06, 'lipoC3S3': 11.9, 'lipoC3S2': 7.87, 'rot1': 300, 'rot0': 304, 'rot3': 249, 'rot2': 201, 'state': 'normal', 'yaw': 36.14, 'datetime': '2018-10-05 19:44:13.150483', 'mgs': 0, 'volt': 0.8057, 'depth': 0.089, 'time': 303, 'pitch': -8.95, 'roll': 8.24, 'pres': 165}
{'lipoC2': 7.84, 'lipoC3S1': 3.94, 'temp': 28.13, 'lipoC3S3': 11.9, 'lipoC3S2': 7.87, 'rot1': 300, 'rot0': 304, 'rot3': 249, 'rot2': 201, 'state': 'normal', 'yaw': 35.62, 'datetime': '2018-10-05 19:44:13.257379', 'mgs': 0, 'volt': 0.8057, 'depth': 0.089, 'time': 303, 'pitch': -8.68, 'roll': 9.07, 'pres': 165}
{'lipoC2': 7.83, 'lipoC3S1': 3.94, 'temp': 28.13, 'lipoC3S3': 11.9, 'lipoC3S2': 7.88, 'rot1': 300, 'rot0': 304, 'rot3': 249, 'rot2': 201, 'state': 'normal', 'yaw': 35.28, 'datetime': '2018-10-05 19:44:13.361800', 'mgs': 0, 'volt': 0.8057, 'depth': 0.089, 'time': 303, 'pitch': -8.52, 'roll': 9.37, 'pres': 165}
{'lipoC2': 7.84, 'lipoC3S1': 3.94, 'temp': 28.06, 'lipoC3S3': 11.9, 'lipoC3S2': 7.88, 'rot1': 300, 'rot0': 304, 'rot3': 249, 'rot2': 201, 'state': 'normal', 'yaw': 35.21, 'datetime': '2018-10-05 19:44:13.466196', 'mgs': 0, 'volt': 0.8057, 'depth': 0.089, 'time': 303, 'pitch': -8.84, 'roll': 9.06, 'pres': 165}
{'lipoC2': 7.84, 'lipoC3S1': 3.94, 'temp': 28.06, 'lipoC3S3': 11.9, 'lipoC3S2': 7.88, 'rot1': 300, 'rot0': 304, 'rot3': 249, 'rot2': 201, 'state': 'normal', 'yaw': 35.42, 'datetime': '2018-10-05 19:44:13.572499', 'mgs': 0, 'volt': 0.8057, 'depth': 0.089, 'time': 304, 'pitch': -9.56, 'roll': 8.34, 'pres': 165}
{'lipoC2': 7.84, 'lipoC3S1': 3.94, 'temp': 28.06, 'lipoC3S3': 11.9, 'lipoC3S2': 7.87, 'rot1': 300, 'rot0': 304, 'rot3': 249, 'rot2': 201, 'state': 'normal', 'yaw': 35.6, 'datetime': '2018-10-05 19:44:13.675968', 'mgs': 0, 'volt': 0.8057, 'depth': 0.089, 'time': 304, 'pitch': -10.36, 'roll': 7.62, 'pres': 165}
{'lipoC2': 7.84, 'lipoC3S1': 3.94, 'temp': 28.06, 'lipoC3S3': 11.9, 'lipoC3S2': 7.87, 'rot1': 300, 'rot0': 304, 'rot3': 249, 'rot2': 201, 'state': 'normal', 'yaw': 35.54, 'datetime': '2018-10-05 19:44:13.780475', 'mgs': 0, 'volt': 0.8057, 'depth': 0.089, 'time': 304, 'pitch': -10.58, 'roll': 7.34, 'pres': 165}
{'lipoC2': 7.84, 'lipoC3S1': 3.94, 'temp': 28.06, 'lipoC3S3': 11.9, 'lipoC3S2': 7.88, 'rot1': 300, 'rot0': 304, 'rot3': 249, 'rot2': 201, 'state': 'normal', 'yaw': 34.83, 'datetime': '2018-10-05 19:44:13.884696', 'mgs': 0, 'volt': 0.8057, 'depth': 0.089, 'time': 304, 'pitch': -10.41, 'roll': 7.68, 'pres': 165}
{'lipoC2': 7.84, 'lipoC3S1': 3.94, 'temp': 28.06, 'lipoC3S3': 11.9, 'lipoC3S2': 7.88, 'rot1': 300, 'rot0': 304, 'rot3': 249, 'rot2': 201, 'state': 'normal', 'yaw': 33.92, 'datetime': '2018-10-05 19:44:13.988685', 'mgs': 0, 'volt': 0.8105, 'depth': 0.165, 'time': 304, 'pitch': -10.26, 'roll': 8.19, 'pres': 166}
{'lipoC2': 7.84, 'lipoC3S1': 3.94, 'temp': 28.06, 'lipoC3S3': 11.9, 'lipoC3S2': 7.87, 'rot1': 300, 'rot0': 304, 'rot3': 249, 'rot2': 201, 'state': 'normal', 'yaw': 33.13, 'datetime': '2018-10-05 19:44:14.093036', 'mgs': 0, 'volt': 0.8105, 'depth': 0.165, 'time': 304, 'pitch': -10.36, 'roll': 8.47, 'pres': 166}
{'lipoC2': 7.84, 'lipoC3S1': 3.94, 'temp': 28.06, 'lipoC3S3': 11.9, 'lipoC3S2': 7.87, 'rot1': 300, 'rot0': 304, 'rot3': 249, 'rot2': 201, 'state': 'normal', 'yaw': 32.67, 'datetime': '2018-10-05 19:44:14.197228', 'mgs': 0, 'volt': 0.8105, 'depth': 0.165, 'time': 304, 'pitch': -10.73, 'roll': 8.24, 'pres': 166}
{'lipoC2': 7.84, 'lipoC3S1': 3.94, 'temp': 28.06, 'lipoC3S3': 11.9, 'lipoC3S2': 7.87, 'rot1': 300, 'rot0': 304, 'rot3': 249, 'rot2': 201, 'state': 'normal', 'yaw': 32.5, 'datetime': '2018-10-05 19:44:14.302800', 'mgs': 0, 'volt': 0.8105, 'depth': 0.165, 'time': 304, 'pitch': -11.28, 'roll': 7.67, 'pres': 166}
{'lipoC2': 7.84, 'lipoC3S1': 3.94, 'temp': 28.06, 'lipoC3S3': 11.9, 'lipoC3S2': 7.87, 'rot1': 300, 'rot0': 304, 'rot3': 249, 'rot2': 201, 'state': 'normal', 'yaw': 32.04, 'datetime': '2018-10-05 19:44:14.407144', 'mgs': 0, 'volt': 0.8057, 'depth': 0.089, 'time': 304, 'pitch': -12.31, 'roll': 7.13, 'pres': 165}
{'lipoC2': 7.83, 'lipoC3S1': 3.94, 'temp': 28.13, 'lipoC3S3': 11.9, 'lipoC3S2': 7.88, 'rot1': 300, 'rot0': 304, 'rot3': 249, 'rot2': 201, 'state': 'normal', 'yaw': 31.32, 'datetime': '2018-10-05 19:44:14.512511', 'mgs': 0, 'volt': 0.8057, 'depth': 0.089, 'time': 305, 'pitch': -13.69, 'roll': 6.86, 'pres': 165}
{'lipoC2': 7.83, 'lipoC3S1': 3.94, 'temp': 28.13, 'lipoC3S3': 11.9, 'lipoC3S2': 7.88, 'rot1': 300, 'rot0': 304, 'rot3': 249, 'rot2': 201, 'state': 'normal', 'yaw': 29.93, 'datetime': '2018-10-05 19:44:14.617119', 'mgs': 0, 'volt': 0.7861, 'depth': -0.217, 'time': 305, 'pitch': -17.38, 'roll': 7.09, 'pres': 161}
{'lipoC2': 7.84, 'lipoC3S1': 3.94, 'temp': 28.06, 'lipoC3S3': 11.9, 'lipoC3S2': 7.88, 'rot1': 300, 'rot0': 304, 'rot3': 249, 'rot2': 201, 'state': 'normal', 'yaw': 27.51, 'datetime': '2018-10-05 19:44:14.722706', 'mgs': 0, 'volt': 0.7861, 'depth': -0.217, 'time': 305, 'pitch': -24.57, 'roll': 8.13, 'pres': 161}
{'lipoC2': 7.83, 'lipoC3S1': 3.94, 'temp': 28.06, 'lipoC3S3': 11.9, 'lipoC3S2': 7.88, 'rot1': 300, 'rot0': 304, 'rot3': 249, 'rot2': 201, 'state': 'normal', 'yaw': 24.79, 'datetime': '2018-10-05 19:44:14.827084', 'mgs': 0, 'volt': 0.7764, 'depth': -0.369, 'time': 305, 'pitch': -33.95, 'roll': 9.41, 'pres': 159}
{'lipoC2': 7.83, 'lipoC3S1': 3.94, 'temp': 28.13, 'lipoC3S3': 11.9, 'lipoC3S2': 7.87, 'rot1': 300, 'rot0': 304, 'rot3': 249, 'rot2': 201, 'state': 'normal', 'yaw': 23.04, 'datetime': '2018-10-05 19:44:14.931596', 'mgs': 0, 'volt': 0.7764, 'depth': -0.369, 'time': 305, 'pitch': -40.69, 'roll': 10.26, 'pres': 159}
{'lipoC2': 7.83, 'lipoC3S1': 3.94, 'temp': 28.13, 'lipoC3S3': 11.9, 'lipoC3S2': 7.88, 'rot1': 300, 'rot0': 304, 'rot3': 249, 'rot2': 201, 'state': 'normal', 'yaw': 22.23, 'datetime': '2018-10-05 19:44:15.036303', 'mgs': 0, 'volt': 0.7666, 'depth': -0.522, 'time': 305, 'pitch': -43.68, 'roll': 10.74, 'pres': 157}
{'lipoC2': 7.84, 'lipoC3S1': 3.94, 'temp': 28.13, 'lipoC3S3': 11.9, 'lipoC3S2': 7.88, 'rot1': 300, 'rot0': 304, 'rot3': 249, 'rot2': 201, 'state': 'normal', 'yaw': 22.35, 'datetime': '2018-10-05 19:44:15.140845', 'mgs': 0, 'volt': 0.7666, 'depth': -0.522, 'time': 305, 'pitch': -42.97, 'roll': 10.77, 'pres': 157}
{'lipoC2': 7.84, 'lipoC3S1': 3.94, 'temp': 28.13, 'lipoC3S3': 11.9, 'lipoC3S2': 7.87, 'rot1': 300, 'rot0': 304, 'rot3': 249, 'rot2': 201, 'state': 'normal', 'yaw': 23.25, 'datetime': '2018-10-05 19:44:15.245167', 'mgs': 0, 'volt': 0.7715, 'depth': -0.446, 'time': 305, 'pitch': -39.52, 'roll': 10.4, 'pres': 158}
{'lipoC2': 7.84, 'lipoC3S1': 3.94, 'temp': 28.13, 'lipoC3S3': 11.9, 'lipoC3S2': 7.88, 'rot1': 300, 'rot0': 304, 'rot3': 249, 'rot2': 201, 'state': 'normal', 'yaw': 24.63, 'datetime': '2018-10-05 19:44:15.350673', 'mgs': 0, 'volt': 0.7764, 'depth': -0.369, 'time': 305, 'pitch': -33.54, 'roll': 9.91, 'pres': 159}
{'lipoC2': 7.84, 'lipoC3S1': 3.94, 'temp': 28.06, 'lipoC3S3': 11.9, 'lipoC3S2': 7.87, 'rot1': 300, 'rot0': 304, 'rot3': 249, 'rot2': 201, 'state': 'normal', 'yaw': 26.08, 'datetime': '2018-10-05 19:44:15.454695', 'mgs': 0, 'volt': 0.7861, 'depth': -0.217, 'time': 305, 'pitch': -27.95, 'roll': 9.24, 'pres': 161}
{'lipoC2': 7.84, 'lipoC3S1': 3.94, 'temp': 28.06, 'lipoC3S3': 11.9, 'lipoC3S2': 7.88, 'rot1': 300, 'rot0': 304, 'rot3': 249, 'rot2': 201, 'state': 'normal', 'yaw': 28.13, 'datetime': '2018-10-05 19:44:15.559109', 'mgs': 0, 'volt': 0.791, 'depth': -0.14, 'time': 306, 'pitch': -21.23, 'roll': 8.06, 'pres': 162}
{'lipoC2': 7.84, 'lipoC3S1': 3.94, 'temp': 28.06, 'lipoC3S3': 11.9, 'lipoC3S2': 7.88, 'rot1': 300, 'rot0': 304, 'rot3': 249, 'rot2': 201, 'state': 'normal', 'yaw': 29.83, 'datetime': '2018-10-05 19:44:15.664685', 'mgs': 0, 'volt': 0.8057, 'depth': 0.089, 'time': 306, 'pitch': -15.04, 'roll': 7.11, 'pres': 165}
{'lipoC2': 7.84, 'lipoC3S1': 3.94, 'temp': 28.06, 'lipoC3S3': 11.9, 'lipoC3S2': 7.88, 'rot1': 300, 'rot0': 304, 'rot3': 249, 'rot2': 201, 'state': 'normal', 'yaw': 31.46, 'datetime': '2018-10-05 19:44:15.762617', 'mgs': 0, 'volt': 0.8154, 'depth': 0.241, 'time': 306, 'pitch': -8.38, 'roll': 6.39, 'pres': 167}
{'lipoC2': 7.84, 'lipoC3S1': 3.94, 'temp': 28.06, 'lipoC3S3': 11.9, 'lipoC3S2': 7.88, 'rot1': 300, 'rot0': 304, 'rot3': 249, 'rot2': 201, 'state': 'normal', 'yaw': 32.8, 'datetime': '2018-10-05 19:44:15.870880', 'mgs': 0, 'volt': 0.8203, 'depth': 0.317, 'time': 306, 'pitch': -2.85, 'roll': 6.09, 'pres': 168}
{'lipoC2': 7.84, 'lipoC3S1': 3.94, 'temp': 28.06, 'lipoC3S3': 11.9, 'lipoC3S2': 7.87, 'rot1': 300, 'rot0': 304, 'rot3': 249, 'rot2': 201, 'state': 'normal', 'yaw': 33.84, 'datetime': '2018-10-05 19:44:15.972253', 'mgs': 0, 'volt': 0.8252, 'depth': 0.394, 'time': 306, 'pitch': 0.86, 'roll': 6.09, 'pres': 169}
{'lipoC2': 7.84, 'lipoC3S1': 3.94, 'temp': 28.06, 'lipoC3S3': 11.9, 'lipoC3S2': 7.88, 'rot1': 300, 'rot0': 304, 'rot3': 249, 'rot2': 201, 'state': 'normal', 'yaw': 34.24, 'datetime': '2018-10-05 19:44:16.076127', 'mgs': 0, 'volt': 0.8301, 'depth': 0.47, 'time': 306, 'pitch': 1.93, 'roll': 6.34, 'pres': 170}
{'lipoC2': 7.84, 'lipoC3S1': 3.94, 'temp': 28.06, 'lipoC3S3': 11.9, 'lipoC3S2': 7.87, 'rot1': 300, 'rot0': 304, 'rot3': 249, 'rot2': 201, 'state': 'normal', 'yaw': 34.27, 'datetime': '2018-10-05 19:44:16.180403', 'mgs': 0, 'volt': 0.8398, 'depth': 0.623, 'time': 306, 'pitch': 2.41, 'roll': 6.81, 'pres': 172}
{'lipoC2': 7.84, 'lipoC3S1': 3.94, 'temp': 28.06, 'lipoC3S3': 11.9, 'lipoC3S2': 7.88, 'rot1': 300, 'rot0': 304, 'rot3': 249, 'rot2': 201, 'state': 'normal', 'yaw': 33.73, 'datetime': '2018-10-05 19:44:16.284504', 'mgs': 0, 'volt': 0.8447, 'depth': 0.699, 'time': 306, 'pitch': 4.2, 'roll': 7.78, 'pres': 173}
{'lipoC2': 7.84, 'lipoC3S1': 3.94, 'temp': 28.06, 'lipoC3S3': 11.9, 'lipoC3S2': 7.88, 'rot1': 300, 'rot0': 304, 'rot3': 249, 'rot2': 201, 'state': 'normal', 'yaw': 33.52, 'datetime': '2018-10-05 19:44:16.389259', 'mgs': 0, 'volt': 0.8545, 'depth': 0.851, 'time': 306, 'pitch': 7.3, 'roll': 8.57, 'pres': 175}
{'lipoC2': 7.84, 'lipoC3S1': 3.94, 'temp': 28.06, 'lipoC3S3': 11.9, 'lipoC3S2': 7.88, 'rot1': 300, 'rot0': 304, 'rot3': 249, 'rot2': 201, 'state': 'normal', 'yaw': 33.23, 'datetime': '2018-10-05 19:44:16.493019', 'mgs': 0, 'volt': 0.8594, 'depth': 0.928, 'time': 306, 'pitch': 10.88, 'roll': 9.24, 'pres': 176}
{'lipoC2': 7.84, 'lipoC3S1': 3.94, 'temp': 28.06, 'lipoC3S3': 11.9, 'lipoC3S2': 7.88, 'rot1': 300, 'rot0': 304, 'rot3': 249, 'rot2': 201, 'state': 'normal', 'yaw': 32.77, 'datetime': '2018-10-05 19:44:16.597425', 'mgs': 0, 'volt': 0.8643, 'depth': 1.004, 'time': 307, 'pitch': 14.31, 'roll': 9.75, 'pres': 177}
{'lipoC2': 7.83, 'lipoC3S1': 3.94, 'temp': 28.06, 'lipoC3S3': 11.9, 'lipoC3S2': 7.88, 'rot1': 300, 'rot0': 304, 'rot3': 249, 'rot2': 201, 'state': 'normal', 'yaw': 32.42, 'datetime': '2018-10-05 19:44:16.703180', 'mgs': 0, 'volt': 0.8691, 'depth': 1.08, 'time': 307, 'pitch': 16.41, 'roll': 9.87, 'pres': 178}
{'lipoC2': 7.84, 'lipoC3S1': 3.94, 'temp': 28.06, 'lipoC3S3': 11.9, 'lipoC3S2': 7.87, 'rot1': 300, 'rot0': 304, 'rot3': 249, 'rot2': 201, 'state': 'normal', 'yaw': 31.94, 'datetime': '2018-10-05 19:44:16.807378', 'mgs': 0, 'volt': 0.874, 'depth': 1.157, 'time': 307, 'pitch': 17.46, 'roll': 9.74, 'pres': 179}
{'lipoC2': 7.84, 'lipoC3S1': 3.94, 'temp': 28.13, 'lipoC3S3': 11.9, 'lipoC3S2': 7.88, 'rot1': 300, 'rot0': 304, 'rot3': 249, 'rot2': 201, 'state': 'normal', 'yaw': 31.49, 'datetime': '2018-10-05 19:44:16.912767', 'mgs': 0, 'volt': 0.8789, 'depth': 1.233, 'time': 307, 'pitch': 17.68, 'roll': 9.56, 'pres': 180}
{'lipoC2': 7.84, 'lipoC3S1': 3.94, 'temp': 28.13, 'lipoC3S3': 11.9, 'lipoC3S2': 7.88, 'rot1': 300, 'rot0': 304, 'rot3': 249, 'rot2': 201, 'state': 'normal', 'yaw': 31.3, 'datetime': '2018-10-05 19:44:17.017414', 'mgs': 0, 'volt': 0.8789, 'depth': 1.233, 'time': 307, 'pitch': 17.93, 'roll': 9.35, 'pres': 180}
{'lipoC2': 7.84, 'lipoC3S1': 3.94, 'temp': 28.13, 'lipoC3S3': 11.9, 'lipoC3S2': 7.88, 'rot1': 300, 'rot0': 304, 'rot3': 249, 'rot2': 201, 'state': 'normal', 'yaw': 31.3, 'datetime': '2018-10-05 19:44:17.122682', 'mgs': 0, 'volt': 0.8838, 'depth': 1.309, 'time': 307, 'pitch': 18.31, 'roll': 9.2, 'pres': 181}
{'lipoC2': 7.84, 'lipoC3S1': 3.94, 'temp': 28.13, 'lipoC3S3': 11.9, 'lipoC3S2': 7.88, 'rot1': 300, 'rot0': 304, 'rot3': 249, 'rot2': 201, 'state': 'normal', 'yaw': 31.52, 'datetime': '2018-10-05 19:44:17.227049', 'mgs': 0, 'volt': 0.8887, 'depth': 1.385, 'time': 307, 'pitch': 18.63, 'roll': 8.98, 'pres': 182}
{'lipoC2': 7.84, 'lipoC3S1': 3.94, 'temp': 28.13, 'lipoC3S3': 11.9, 'lipoC3S2': 7.87, 'rot1': 300, 'rot0': 304, 'rot3': 249, 'rot2': 201, 'state': 'normal', 'yaw': 31.77, 'datetime': '2018-10-05 19:44:17.331673', 'mgs': 0, 'volt': 0.8936, 'depth': 1.462, 'time': 307, 'pitch': 18.69, 'roll': 8.75, 'pres': 183}
{'lipoC2': 7.83, 'lipoC3S1': 3.94, 'temp': 28.13, 'lipoC3S3': 11.9, 'lipoC3S2': 7.88, 'rot1': 300, 'rot0': 304, 'rot3': 249, 'rot2': 201, 'state': 'normal', 'yaw': 31.94, 'datetime': '2018-10-05 19:44:17.435679', 'mgs': 0, 'volt': 0.8984, 'depth': 1.538, 'time': 307, 'pitch': 18.15, 'roll': 8.55, 'pres': 184}
{'lipoC2': 7.84, 'lipoC3S1': 3.94, 'temp': 28.13, 'lipoC3S3': 11.9, 'lipoC3S2': 7.88, 'rot1': 300, 'rot0': 304, 'rot3': 249, 'rot2': 201, 'state': 'normal', 'yaw': 32.03, 'datetime': '2018-10-05 19:44:17.540152', 'mgs': 0, 'volt': 0.8984, 'depth': 1.538, 'time': 308, 'pitch': 16.93, 'roll': 8.48, 'pres': 184}
{'lipoC2': 7.83, 'lipoC3S1': 3.94, 'temp': 28.13, 'lipoC3S3': 11.9, 'lipoC3S2': 7.88, 'rot1': 300, 'rot0': 304, 'rot3': 249, 'rot2': 201, 'state': 'normal', 'yaw': 32.01, 'datetime': '2018-10-05 19:44:17.644675', 'mgs': 0, 'volt': 0.9033, 'depth': 1.614, 'time': 308, 'pitch': 15.87, 'roll': 8.6, 'pres': 185}
{'lipoC2': 7.84, 'lipoC3S1': 3.94, 'temp': 28.13, 'lipoC3S3': 11.9, 'lipoC3S2': 7.88, 'rot1': 300, 'rot0': 304, 'rot3': 249, 'rot2': 201, 'state': 'normal', 'yaw': 31.89, 'datetime': '2018-10-05 19:44:17.748854', 'mgs': 0, 'volt': 0.9082, 'depth': 1.691, 'time': 308, 'pitch': 14.97, 'roll': 8.89, 'pres': 186}
{'lipoC2': 7.84, 'lipoC3S1': 3.94, 'temp': 28.13, 'lipoC3S3': 11.9, 'lipoC3S2': 7.87, 'rot1': 300, 'rot0': 304, 'rot3': 249, 'rot2': 201, 'state': 'normal', 'yaw': 31.75, 'datetime': '2018-10-05 19:44:17.853994', 'mgs': 0, 'volt': 0.9131, 'depth': 1.767, 'time': 308, 'pitch': 14.23, 'roll': 9.19, 'pres': 187}
{'lipoC2': 7.84, 'lipoC3S1': 3.94, 'temp': 28.13, 'lipoC3S3': 11.9, 'lipoC3S2': 7.88, 'rot1': 300, 'rot0': 304, 'rot3': 249, 'rot2': 201, 'state': 'normal', 'yaw': 31.45, 'datetime': '2018-10-05 19:44:17.958522', 'mgs': 0, 'volt': 0.9131, 'depth': 1.767, 'time': 308, 'pitch': 13.48, 'roll': 9.51, 'pres': 187}
{'lipoC2': 7.83, 'lipoC3S1': 3.94, 'temp': 28.13, 'lipoC3S3': 11.9, 'lipoC3S2': 7.88, 'rot1': 300, 'rot0': 304, 'rot3': 249, 'rot2': 201, 'state': 'normal', 'yaw': 31.18, 'datetime': '2018-10-05 19:44:18.063759', 'mgs': 0, 'volt': 0.9229, 'depth': 1.92, 'time': 308, 'pitch': 12.93, 'roll': 9.77, 'pres': 189}
{'lipoC2': 7.83, 'lipoC3S1': 3.94, 'temp': 28.13, 'lipoC3S3': 11.9, 'lipoC3S2': 7.87, 'rot1': 300, 'rot0': 304, 'rot3': 249, 'rot2': 201, 'state': 'normal', 'yaw': 30.95, 'datetime': '2018-10-05 19:44:18.168045', 'mgs': 0, 'volt': 0.9229, 'depth': 1.92, 'time': 308, 'pitch': 12.27, 'roll': 9.93, 'pres': 189}
{'lipoC2': 7.84, 'lipoC3S1': 3.94, 'temp': 28.13, 'lipoC3S3': 11.9, 'lipoC3S2': 7.87, 'rot1': 300, 'rot0': 304, 'rot3': 249, 'rot2': 201, 'state': 'normal', 'yaw': 30.85, 'datetime': '2018-10-05 19:44:18.273375', 'mgs': 0, 'volt': 0.9277, 'depth': 1.996, 'time': 308, 'pitch': 11.55, 'roll': 9.92, 'pres': 190}
{'lipoC2': 7.84, 'lipoC3S1': 3.94, 'temp': 28.13, 'lipoC3S3': 11.9, 'lipoC3S2': 7.87, 'rot1': 300, 'rot0': 304, 'rot3': 249, 'rot2': 201, 'state': 'normal', 'yaw': 30.92, 'datetime': '2018-10-05 19:44:18.377948', 'mgs': 0, 'volt': 0.9326, 'depth': 2.072, 'time': 308, 'pitch': 10.92, 'roll': 9.8, 'pres': 191}
{'lipoC2': 7.83, 'lipoC3S1': 3.94, 'temp': 28.13, 'lipoC3S3': 11.9, 'lipoC3S2': 7.87, 'rot1': 300, 'rot0': 304, 'rot3': 249, 'rot2': 201, 'state': 'normal', 'yaw': 31.2, 'datetime': '2018-10-05 19:44:18.482283', 'mgs': 0, 'volt': 0.9375, 'depth': 2.148, 'time': 308, 'pitch': 10.26, 'roll': 9.57, 'pres': 192}
{'lipoC2': 7.84, 'lipoC3S1': 3.94, 'temp': 28.13, 'lipoC3S3': 11.9, 'lipoC3S2': 7.88, 'rot1': 300, 'rot0': 304, 'rot3': 249, 'rot2': 201, 'state': 'normal', 'yaw': 31.52, 'datetime': '2018-10-05 19:44:18.586668', 'mgs': 0, 'volt': 0.9375, 'depth': 2.148, 'time': 309, 'pitch': 9.62, 'roll': 9.36, 'pres': 192}
{'lipoC2': 7.84, 'lipoC3S1': 3.94, 'temp': 28.13, 'lipoC3S3': 11.9, 'lipoC3S2': 7.88, 'rot1': 300, 'rot0': 304, 'rot3': 249, 'rot2': 201, 'state': 'normal', 'yaw': 31.83, 'datetime': '2018-10-05 19:44:18.690641', 'mgs': 0, 'volt': 0.9375, 'depth': 2.148, 'time': 309, 'pitch': 8.77, 'roll': 9.19, 'pres': 192}
{'lipoC2': 7.84, 'lipoC3S1': 3.94, 'temp': 28.13, 'lipoC3S3': 11.9, 'lipoC3S2': 7.87, 'rot1': 300, 'rot0': 304, 'rot3': 249, 'rot2': 201, 'state': 'normal', 'yaw': 32.04, 'datetime': '2018-10-05 19:44:18.794880', 'mgs': 0, 'volt': 0.9424, 'depth': 2.225, 'time': 309, 'pitch': 7.77, 'roll': 9.1, 'pres': 193}
{'lipoC2': 7.84, 'lipoC3S1': 3.94, 'temp': 28.13, 'lipoC3S3': 11.9, 'lipoC3S2': 7.88, 'rot1': 300, 'rot0': 304, 'rot3': 249, 'rot2': 201, 'state': 'normal', 'yaw': 32.14, 'datetime': '2018-10-05 19:44:18.899616', 'mgs': 0, 'volt': 0.9473, 'depth': 2.301, 'time': 309, 'pitch': 6.73, 'roll': 9.11, 'pres': 194}
{'lipoC2': 7.84, 'lipoC3S1': 3.94, 'temp': 28.13, 'lipoC3S3': 11.9, 'lipoC3S2': 7.88, 'rot1': 300, 'rot0': 304, 'rot3': 249, 'rot2': 201, 'state': 'normal', 'yaw': 32.74, 'datetime': '2018-10-05 19:44:19.003511', 'mgs': 0, 'volt': 0.9521, 'depth': 2.377, 'time': 309, 'pitch': 6.65, 'roll': 9.09, 'pres': 195}
{'lipoC2': 7.84, 'lipoC3S1': 3.94, 'temp': 28.13, 'lipoC3S3': 11.9, 'lipoC3S2': 7.88, 'rot1': 300, 'rot0': 304, 'rot3': 249, 'rot2': 201, 'state': 'normal', 'yaw': 34.1, 'datetime': '2018-10-05 19:44:19.108981', 'mgs': 0, 'volt': 0.9521, 'depth': 2.377, 'time': 309, 'pitch': 6.6, 'roll': 8.81, 'pres': 195}
{'lipoC2': 7.84, 'lipoC3S1': 3.94, 'temp': 28.13, 'lipoC3S3': 11.9, 'lipoC3S2': 7.88, 'rot1': 300, 'rot0': 304, 'rot3': 249, 'rot2': 201, 'state': 'normal', 'yaw': 35.11, 'datetime': '2018-10-05 19:44:19.213540', 'mgs': 0, 'volt': 0.9521, 'depth': 2.377, 'time': 309, 'pitch': 4.54, 'roll': 8.45, 'pres': 195}
{'lipoC2': 7.84, 'lipoC3S1': 3.94, 'temp': 28.19, 'lipoC3S3': 11.9, 'lipoC3S2': 7.88, 'rot1': 300, 'rot0': 304, 'rot3': 249, 'rot2': 201, 'state': 'normal', 'yaw': 35.32, 'datetime': '2018-10-05 19:44:19.318695', 'mgs': 0, 'volt': 0.957, 'depth': 2.454, 'time': 309, 'pitch': 1.58, 'roll': 8.27, 'pres': 196}
{'lipoC2': 7.84, 'lipoC3S1': 3.94, 'temp': 28.19, 'lipoC3S3': 11.9, 'lipoC3S2': 7.87, 'rot1': 300, 'rot0': 304, 'rot3': 249, 'rot2': 201, 'state': 'normal', 'yaw': 35.38, 'datetime': '2018-10-05 19:44:19.423104', 'mgs': 0, 'volt': 0.9619, 'depth': 2.53, 'time': 309, 'pitch': -1.56, 'roll': 8.16, 'pres': 197}
{'lipoC2': 7.84, 'lipoC3S1': 3.94, 'temp': 28.13, 'lipoC3S3': 11.9, 'lipoC3S2': 7.88, 'rot1': 300, 'rot0': 304, 'rot3': 249, 'rot2': 201, 'state': 'normal', 'yaw': 35.86, 'datetime': '2018-10-05 19:44:19.528759', 'mgs': 0, 'volt': 0.9619, 'depth': 2.53, 'time': 310, 'pitch': -2.95, 'roll': 8.04, 'pres': 197}
{'lipoC2': 7.84, 'lipoC3S1': 3.94, 'temp': 28.13, 'lipoC3S3': 11.9, 'lipoC3S2': 7.87, 'rot1': 300, 'rot0': 304, 'rot3': 249, 'rot2': 201, 'state': 'normal', 'yaw': 36.31, 'datetime': '2018-10-05 19:44:19.632782', 'mgs': 0, 'volt': 0.9619, 'depth': 2.53, 'time': 310, 'pitch': -3.41, 'roll': 7.98, 'pres': 197}
{'lipoC2': 7.84, 'lipoC3S1': 3.94, 'temp': 28.13, 'lipoC3S3': 11.9, 'lipoC3S2': 7.87, 'rot1': 300, 'rot0': 304, 'rot3': 249, 'rot2': 201, 'state': 'normal', 'yaw': 36.26, 'datetime': '2018-10-05 19:44:19.737368', 'mgs': 0, 'volt': 0.9619, 'depth': 2.53, 'time': 310, 'pitch': -3.61, 'roll': 8.1, 'pres': 197}
{'lipoC2': 7.83, 'lipoC3S1': 3.94, 'temp': 28.13, 'lipoC3S3': 11.9, 'lipoC3S2': 7.88, 'rot1': 300, 'rot0': 304, 'rot3': 249, 'rot2': 201, 'state': 'normal', 'yaw': 36.1, 'datetime': '2018-10-05 19:44:19.841832', 'mgs': 0, 'volt': 0.9619, 'depth': 2.53, 'time': 310, 'pitch': -4.13, 'roll': 8.14, 'pres': 197}
{'lipoC2': 7.84, 'lipoC3S1': 3.94, 'temp': 28.13, 'lipoC3S3': 11.9, 'lipoC3S2': 7.88, 'rot1': 300, 'rot0': 304, 'rot3': 249, 'rot2': 201, 'state': 'normal', 'yaw': 35.72, 'datetime': '2018-10-05 19:44:19.945625', 'mgs': 0, 'volt': 0.9668, 'depth': 2.606, 'time': 310, 'pitch': -5.04, 'roll': 8.21, 'pres': 198}
{'lipoC2': 7.84, 'lipoC3S1': 3.94, 'temp': 28.13, 'lipoC3S3': 11.9, 'lipoC3S2': 7.88, 'rot1': 300, 'rot0': 304, 'rot3': 249, 'rot2': 201, 'state': 'normal', 'yaw': 35.35, 'datetime': '2018-10-05 19:44:20.049959', 'mgs': 0, 'volt': 0.9668, 'depth': 2.606, 'time': 310, 'pitch': -5.72, 'roll': 8.35, 'pres': 198}
{'lipoC2': 7.84, 'lipoC3S1': 3.94, 'temp': 28.13, 'lipoC3S3': 11.9, 'lipoC3S2': 7.87, 'rot1': 300, 'rot0': 304, 'rot3': 249, 'rot2': 201, 'state': 'normal', 'yaw': 35.11, 'datetime': '2018-10-05 19:44:20.154490', 'mgs': 0, 'volt': 0.9619, 'depth': 2.53, 'time': 310, 'pitch': -6.12, 'roll': 8.49, 'pres': 197}
{'lipoC2': 7.84, 'lipoC3S1': 3.94, 'temp': 28.19, 'lipoC3S3': 11.9, 'lipoC3S2': 7.87, 'rot1': 300, 'rot0': 304, 'rot3': 249, 'rot2': 201, 'state': 'normal', 'yaw': 35.16, 'datetime': '2018-10-05 19:44:20.259733', 'mgs': 0, 'volt': 0.9619, 'depth': 2.53, 'time': 310, 'pitch': -6.17, 'roll': 8.52, 'pres': 197}
{'lipoC2': 7.84, 'lipoC3S1': 3.94, 'temp': 28.19, 'lipoC3S3': 11.9, 'lipoC3S2': 7.88, 'rot1': 300, 'rot0': 304, 'rot3': 249, 'rot2': 201, 'state': 'normal', 'yaw': 35.39, 'datetime': '2018-10-05 19:44:20.363899', 'mgs': 0, 'volt': 0.957, 'depth': 2.454, 'time': 310, 'pitch': -6.21, 'roll': 8.52, 'pres': 196}
{'lipoC2': 7.84, 'lipoC3S1': 3.94, 'temp': 28.19, 'lipoC3S3': 11.9, 'lipoC3S2': 7.88, 'rot1': 300, 'rot0': 304, 'rot3': 249, 'rot2': 201, 'state': 'normal', 'yaw': 35.64, 'datetime': '2018-10-05 19:44:20.470044', 'mgs': 0, 'volt': 0.9521, 'depth': 2.377, 'time': 310, 'pitch': -6.05, 'roll': 8.58, 'pres': 195}
{'lipoC2': 7.84, 'lipoC3S1': 3.94, 'temp': 28.19, 'lipoC3S3': 11.9, 'lipoC3S2': 7.88, 'rot1': 300, 'rot0': 304, 'rot3': 249, 'rot2': 201, 'state': 'normal', 'yaw': 36.16, 'datetime': '2018-10-05 19:44:20.573637', 'mgs': 0, 'volt': 0.9473, 'depth': 2.301, 'time': 311, 'pitch': -5.41, 'roll': 8.53, 'pres': 194}
{'lipoC2': 7.84, 'lipoC3S1': 3.94, 'temp': 28.19, 'lipoC3S3': 11.9, 'lipoC3S2': 7.88, 'rot1': 300, 'rot0': 304, 'rot3': 249, 'rot2': 201, 'state': 'normal', 'yaw': 36.62, 'datetime': '2018-10-05 19:44:20.677934', 'mgs': 0, 'volt': 0.9424, 'depth': 2.225, 'time': 311, 'pitch': -4.66, 'roll': 8.54, 'pres': 193}
{'lipoC2': 7.84, 'lipoC3S1': 3.94, 'temp': 28.19, 'lipoC3S3': 11.9, 'lipoC3S2': 7.88, 'rot1': 300, 'rot0': 304, 'rot3': 249, 'rot2': 201, 'state': 'normal', 'yaw': 36.88, 'datetime': '2018-10-05 19:44:20.785657', 'mgs': 0, 'volt': 0.9424, 'depth': 2.225, 'time': 311, 'pitch': -3.24, 'roll': 8.72, 'pres': 193}
{'lipoC2': 7.84, 'lipoC3S1': 3.94, 'temp': 28.19, 'lipoC3S3': 11.9, 'lipoC3S2': 7.88, 'rot1': 300, 'rot0': 304, 'rot3': 249, 'rot2': 201, 'state': 'normal', 'yaw': 36.83, 'datetime': '2018-10-05 19:44:20.887781', 'mgs': 0, 'volt': 0.9375, 'depth': 2.148, 'time': 311, 'pitch': -0.86, 'roll': 9.06, 'pres': 192}
{'lipoC2': 7.83, 'lipoC3S1': 3.94, 'temp': 28.19, 'lipoC3S3': 11.9, 'lipoC3S2': 7.88, 'rot1': 300, 'rot0': 304, 'rot3': 249, 'rot2': 201, 'state': 'normal', 'yaw': 36.49, 'datetime': '2018-10-05 19:44:20.992081', 'mgs': 0, 'volt': 0.9326, 'depth': 2.072, 'time': 311, 'pitch': 0.95, 'roll': 9.29, 'pres': 191}
