{'lipoC2': 7.87, 'lipoC3S1': 3.95, 'temp': 28.63, 'lipoC3S3': 11.94, 'lipoC3S2': 7.9, 'rot1': 295, 'rot0': 291, 'rot3': 286, 'rot2': 218, 'state': 'normal', 'yaw': 23.1, 'datetime': '2018-10-05 19:37:06.985387', 'mgs': 0, 'volt': 0.8301, 'depth': 0.47, 'time': 119, 'pitch': -24.65, 'roll': 3.37, 'pres': 170}
{'lipoC2': 7.87, 'lipoC3S1': 3.95, 'temp': 28.63, 'lipoC3S3': 11.94, 'lipoC3S2': 7.9, 'rot1': 295, 'rot0': 291, 'rot3': 286, 'rot2': 218, 'state': 'normal', 'yaw': 23.95, 'datetime': '2018-10-05 19:37:07.019646', 'mgs': 0, 'volt': 0.8301, 'depth': 0.47, 'time': 119, 'pitch': -26.73, 'roll': 7.28, 'pres': 170}
{'lipoC2': 7.87, 'lipoC3S1': 3.95, 'temp': 28.63, 'lipoC3S3': 11.94, 'lipoC3S2': 7.9, 'rot1': 295, 'rot0': 291, 'rot3': 286, 'rot2': 218, 'state': 'normal', 'yaw': 22.97, 'datetime': '2018-10-05 19:37:07.051930', 'mgs': 0, 'volt': 0.835, 'depth': 0.546, 'time': 119, 'pitch': -28.15, 'roll': 11.83, 'pres': 171}
{'lipoC2': 7.87, 'lipoC3S1': 3.95, 'temp': 28.63, 'lipoC3S3': 11.94, 'lipoC3S2': 7.9, 'rot1': 295, 'rot0': 291, 'rot3': 286, 'rot2': 218, 'state': 'normal', 'yaw': 22.04, 'datetime': '2018-10-05 19:37:07.078962', 'mgs': 0, 'volt': 0.835, 'depth': 0.546, 'time': 119, 'pitch': -28.53, 'roll': 15.91, 'pres': 171}
{'lipoC2': 7.87, 'lipoC3S1': 3.95, 'temp': 28.63, 'lipoC3S3': 11.94, 'lipoC3S2': 7.9, 'rot1': 295, 'rot0': 291, 'rot3': 286, 'rot2': 218, 'state': 'normal', 'yaw': 22.53, 'datetime': '2018-10-05 19:37:07.093065', 'mgs': 0, 'volt': 0.835, 'depth': 0.546, 'time': 119, 'pitch': -28.88, 'roll': 17.59, 'pres': 171}
{'lipoC2': 7.87, 'lipoC3S1': 3.95, 'temp': 28.63, 'lipoC3S3': 11.94, 'lipoC3S2': 7.9, 'rot1': 295, 'rot0': 291, 'rot3': 286, 'rot2': 218, 'state': 'normal', 'yaw': 24.03, 'datetime': '2018-10-05 19:37:07.105419', 'mgs': 0, 'volt': 0.8301, 'depth': 0.47, 'time': 119, 'pitch': -29.04, 'roll': 17.67, 'pres': 170}
{'lipoC2': 7.87, 'lipoC3S1': 3.95, 'temp': 28.63, 'lipoC3S3': 11.94, 'lipoC3S2': 7.9, 'rot1': 295, 'rot0': 291, 'rot3': 286, 'rot2': 218, 'state': 'normal', 'yaw': 25.24, 'datetime': '2018-10-05 19:37:07.118846', 'mgs': 0, 'volt': 0.8252, 'depth': 0.394, 'time': 119, 'pitch': -28.65, 'roll': 17.09, 'pres': 169}
{'lipoC2': 7.87, 'lipoC3S1': 3.95, 'temp': 28.63, 'lipoC3S3': 11.94, 'lipoC3S2': 7.9, 'rot1': 295, 'rot0': 291, 'rot3': 286, 'rot2': 218, 'state': 'normal', 'yaw': 26.08, 'datetime': '2018-10-05 19:37:07.132883', 'mgs': 0, 'volt': 0.8203, 'depth': 0.317, 'time': 119, 'pitch': -28.13, 'roll': 16.2, 'pres': 168}
{'lipoC2': 7.87, 'lipoC3S1': 3.95, 'temp': 28.63, 'lipoC3S3': 11.94, 'lipoC3S2': 7.9, 'rot1': 295, 'rot0': 291, 'rot3': 286, 'rot2': 218, 'state': 'normal', 'yaw': 26.73, 'datetime': '2018-10-05 19:37:07.146926', 'mgs': 0, 'volt': 0.8154, 'depth': 0.241, 'time': 119, 'pitch': -27.68, 'roll': 14.9, 'pres': 167}
{'lipoC2': 7.87, 'lipoC3S1': 3.95, 'temp': 28.63, 'lipoC3S3': 11.94, 'lipoC3S2': 7.89, 'rot1': 295, 'rot0': 291, 'rot3': 286, 'rot2': 218, 'state': 'normal', 'yaw': 27.16, 'datetime': '2018-10-05 19:37:07.160890', 'mgs': 0, 'volt': 0.8105, 'depth': 0.165, 'time': 120, 'pitch': -27.19, 'roll': 13.65, 'pres': 166}
{'lipoC2': 7.87, 'lipoC3S1': 3.95, 'temp': 28.63, 'lipoC3S3': 11.94, 'lipoC3S2': 7.89, 'rot1': 295, 'rot0': 291, 'rot3': 286, 'rot2': 218, 'state': 'normal', 'yaw': 27.47, 'datetime': '2018-10-05 19:37:07.174875', 'mgs': 0, 'volt': 0.8057, 'depth': 0.089, 'time': 120, 'pitch': -26.51, 'roll': 12.32, 'pres': 165}
{'lipoC2': 7.87, 'lipoC3S1': 3.95, 'temp': 28.56, 'lipoC3S3': 11.94, 'lipoC3S2': 7.9, 'rot1': 295, 'rot0': 291, 'rot3': 286, 'rot2': 218, 'state': 'normal', 'yaw': 28.03, 'datetime': '2018-10-05 19:37:07.188963', 'mgs': 0, 'volt': 0.8008, 'depth': 0.012, 'time': 120, 'pitch': -25.78, 'roll': 10.99, 'pres': 164}
{'lipoC2': 7.87, 'lipoC3S1': 3.95, 'temp': 28.56, 'lipoC3S3': 11.94, 'lipoC3S2': 7.89, 'rot1': 295, 'rot0': 291, 'rot3': 286, 'rot2': 218, 'state': 'normal', 'yaw': 29.35, 'datetime': '2018-10-05 19:37:07.202591', 'mgs': 0, 'volt': 0.8008, 'depth': 0.012, 'time': 120, 'pitch': -24.54, 'roll': 9.32, 'pres': 164}
{'lipoC2': 7.87, 'lipoC3S1': 3.95, 'temp': 28.56, 'lipoC3S3': 11.94, 'lipoC3S2': 7.9, 'rot1': 295, 'rot0': 291, 'rot3': 286, 'rot2': 218, 'state': 'normal', 'yaw': 30.75, 'datetime': '2018-10-05 19:37:07.215271', 'mgs': 0, 'volt': 0.7959, 'depth': -0.064, 'time': 120, 'pitch': -23.22, 'roll': 8.11, 'pres': 163}
{'lipoC2': 7.87, 'lipoC3S1': 3.95, 'temp': 28.56, 'lipoC3S3': 11.94, 'lipoC3S2': 7.9, 'rot1': 295, 'rot0': 291, 'rot3': 286, 'rot2': 218, 'state': 'normal', 'yaw': 32.19, 'datetime': '2018-10-05 19:37:07.228573', 'mgs': 0, 'volt': 0.791, 'depth': -0.14, 'time': 120, 'pitch': -21.93, 'roll': 7.37, 'pres': 162}
{'lipoC2': 7.87, 'lipoC3S1': 3.95, 'temp': 28.56, 'lipoC3S3': 11.94, 'lipoC3S2': 7.9, 'rot1': 295, 'rot0': 291, 'rot3': 286, 'rot2': 218, 'state': 'normal', 'yaw': 33.47, 'datetime': '2018-10-05 19:37:07.238880', 'mgs': 0, 'volt': 0.7861, 'depth': -0.217, 'time': 120, 'pitch': -20.91, 'roll': 7.11, 'pres': 161}
{'lipoC2': 7.87, 'lipoC3S1': 3.95, 'temp': 28.56, 'lipoC3S3': 11.94, 'lipoC3S2': 7.89, 'rot1': 295, 'rot0': 291, 'rot3': 286, 'rot2': 218, 'state': 'normal', 'yaw': 34.63, 'datetime': '2018-10-05 19:37:07.249181', 'mgs': 0, 'volt': 0.7813, 'depth': -0.293, 'time': 120, 'pitch': -19.64, 'roll': 7.23, 'pres': 160}
{'lipoC2': 7.87, 'lipoC3S1': 3.95, 'temp': 28.56, 'lipoC3S3': 11.94, 'lipoC3S2': 7.89, 'rot1': 295, 'rot0': 291, 'rot3': 286, 'rot2': 218, 'state': 'normal', 'yaw': 35.2, 'datetime': '2018-10-05 19:37:07.259567', 'mgs': 0, 'volt': 0.7813, 'depth': -0.293, 'time': 120, 'pitch': -18.34, 'roll': 7.7, 'pres': 160}
{'lipoC2': 7.87, 'lipoC3S1': 3.95, 'temp': 28.56, 'lipoC3S3': 11.94, 'lipoC3S2': 7.9, 'rot1': 295, 'rot0': 291, 'rot3': 286, 'rot2': 218, 'state': 'normal', 'yaw': 35.64, 'datetime': '2018-10-05 19:37:07.269870', 'mgs': 0, 'volt': 0.7813, 'depth': -0.293, 'time': 121, 'pitch': -17.07, 'roll': 8.21, 'pres': 160}
{'lipoC2': 7.87, 'lipoC3S1': 3.95, 'temp': 28.56, 'lipoC3S3': 11.94, 'lipoC3S2': 7.9, 'rot1': 295, 'rot0': 291, 'rot3': 286, 'rot2': 218, 'state': 'normal', 'yaw': 36.59, 'datetime': '2018-10-05 19:37:07.280207', 'mgs': 0, 'volt': 0.7764, 'depth': -0.369, 'time': 121, 'pitch': -15.46, 'roll': 8.34, 'pres': 159}
{'lipoC2': 7.87, 'lipoC3S1': 3.95, 'temp': 28.56, 'lipoC3S3': 11.94, 'lipoC3S2': 7.9, 'rot1': 295, 'rot0': 291, 'rot3': 286, 'rot2': 218, 'state': 'normal', 'yaw': 37.46, 'datetime': '2018-10-05 19:37:07.290558', 'mgs': 0, 'volt': 0.7715, 'depth': -0.446, 'time': 121, 'pitch': -14.4, 'roll': 8.26, 'pres': 158}
{'lipoC2': 7.87, 'lipoC3S1': 3.95, 'temp': 28.63, 'lipoC3S3': 11.94, 'lipoC3S2': 7.89, 'rot1': 295, 'rot0': 291, 'rot3': 286, 'rot2': 218, 'state': 'normal', 'yaw': 37.84, 'datetime': '2018-10-05 19:37:07.300824', 'mgs': 0, 'volt': 0.7764, 'depth': -0.369, 'time': 121, 'pitch': -13.89, 'roll': 8.25, 'pres': 159}
{'lipoC2': 7.87, 'lipoC3S1': 3.95, 'temp': 28.63, 'lipoC3S3': 11.94, 'lipoC3S2': 7.9, 'rot1': 295, 'rot0': 291, 'rot3': 286, 'rot2': 218, 'state': 'normal', 'yaw': 38.09, 'datetime': '2018-10-05 19:37:07.312553', 'mgs': 0, 'volt': 0.7764, 'depth': -0.369, 'time': 121, 'pitch': -13.69, 'roll': 8.0, 'pres': 159}
{'lipoC2': 7.87, 'lipoC3S1': 3.95, 'temp': 28.63, 'lipoC3S3': 11.94, 'lipoC3S2': 7.89, 'rot1': 295, 'rot0': 291, 'rot3': 286, 'rot2': 218, 'state': 'normal', 'yaw': 38.68, 'datetime': '2018-10-05 19:37:07.323000', 'mgs': 0, 'volt': 0.7715, 'depth': -0.446, 'time': 121, 'pitch': -13.71, 'roll': 7.31, 'pres': 158}
{'lipoC2': 7.87, 'lipoC3S1': 3.95, 'temp': 28.63, 'lipoC3S3': 11.94, 'lipoC3S2': 7.89, 'rot1': 295, 'rot0': 291, 'rot3': 286, 'rot2': 218, 'state': 'normal', 'yaw': 39.51, 'datetime': '2018-10-05 19:37:07.333652', 'mgs': 0, 'volt': 0.7715, 'depth': -0.446, 'time': 121, 'pitch': -13.69, 'roll': 6.38, 'pres': 158}
{'lipoC2': 7.87, 'lipoC3S1': 3.95, 'temp': 28.56, 'lipoC3S3': 11.94, 'lipoC3S2': 7.9, 'rot1': 295, 'rot0': 291, 'rot3': 286, 'rot2': 218, 'state': 'normal', 'yaw': 40.12, 'datetime': '2018-10-05 19:37:07.343959', 'mgs': 0, 'volt': 0.7715, 'depth': -0.446, 'time': 121, 'pitch': -13.76, 'roll': 5.5, 'pres': 158}
{'lipoC2': 7.87, 'lipoC3S1': 3.95, 'temp': 28.56, 'lipoC3S3': 11.94, 'lipoC3S2': 7.9, 'rot1': 295, 'rot0': 291, 'rot3': 286, 'rot2': 218, 'state': 'normal', 'yaw': 40.43, 'datetime': '2018-10-05 19:37:07.354251', 'mgs': 0, 'volt': 0.7715, 'depth': -0.446, 'time': 121, 'pitch': -14.1, 'roll': 4.83, 'pres': 158}
{'lipoC2': 7.87, 'lipoC3S1': 3.95, 'temp': 28.56, 'lipoC3S3': 11.94, 'lipoC3S2': 7.9, 'rot1': 295, 'rot0': 291, 'rot3': 286, 'rot2': 218, 'state': 'normal', 'yaw': 40.71, 'datetime': '2018-10-05 19:37:07.364687', 'mgs': 0, 'volt': 0.7715, 'depth': -0.446, 'time': 121, 'pitch': -14.35, 'roll': 4.22, 'pres': 158}
{'lipoC2': 7.87, 'lipoC3S1': 3.95, 'temp': 28.56, 'lipoC3S3': 11.94, 'lipoC3S2': 7.89, 'rot1': 295, 'rot0': 291, 'rot3': 286, 'rot2': 218, 'state': 'normal', 'yaw': 40.73, 'datetime': '2018-10-05 19:37:07.375019', 'mgs': 0, 'volt': 0.7715, 'depth': -0.446, 'time': 122, 'pitch': -14.54, 'roll': 3.89, 'pres': 158}
{'lipoC2': 7.87, 'lipoC3S1': 3.95, 'temp': 28.56, 'lipoC3S3': 11.94, 'lipoC3S2': 7.89, 'rot1': 295, 'rot0': 291, 'rot3': 286, 'rot2': 218, 'state': 'normal', 'yaw': 40.97, 'datetime': '2018-10-05 19:37:07.385491', 'mgs': 0, 'volt': 0.7715, 'depth': -0.446, 'time': 122, 'pitch': -14.72, 'roll': 3.65, 'pres': 158}
{'lipoC2': 7.87, 'lipoC3S1': 3.95, 'temp': 28.56, 'lipoC3S3': 11.94, 'lipoC3S2': 7.89, 'rot1': 295, 'rot0': 291, 'rot3': 286, 'rot2': 218, 'state': 'normal', 'yaw': 41.51, 'datetime': '2018-10-05 19:37:07.395809', 'mgs': 0, 'volt': 0.7764, 'depth': -0.369, 'time': 122, 'pitch': -15.17, 'roll': 3.41, 'pres': 159}
{'lipoC2': 7.87, 'lipoC3S1': 3.95, 'temp': 28.56, 'lipoC3S3': 11.94, 'lipoC3S2': 7.9, 'rot1': 295, 'rot0': 291, 'rot3': 286, 'rot2': 218, 'state': 'normal', 'yaw': 41.76, 'datetime': '2018-10-05 19:37:07.432472', 'mgs': 0, 'volt': 0.7764, 'depth': -0.369, 'time': 122, 'pitch': -15.62, 'roll': 3.52, 'pres': 159}
{'lipoC2': 7.87, 'lipoC3S1': 3.95, 'temp': 28.69, 'lipoC3S3': 11.94, 'lipoC3S2': 7.9, 'rot1': 295, 'rot0': 291, 'rot3': 286, 'rot2': 218, 'state': 'normal', 'yaw': 41.73, 'datetime': '2018-10-05 19:37:07.536949', 'mgs': 0, 'volt': 0.7764, 'depth': -0.369, 'time': 122, 'pitch': -15.98, 'roll': 3.98, 'pres': 159}
{'lipoC2': 7.87, 'lipoC3S1': 3.95, 'temp': 28.69, 'lipoC3S3': 11.94, 'lipoC3S2': 7.9, 'rot1': 295, 'rot0': 291, 'rot3': 286, 'rot2': 218, 'state': 'normal', 'yaw': 41.81, 'datetime': '2018-10-05 19:37:07.642621', 'mgs': 0, 'volt': 0.7764, 'depth': -0.369, 'time': 122, 'pitch': -16.28, 'roll': 4.32, 'pres': 159}
{'lipoC2': 7.87, 'lipoC3S1': 3.95, 'temp': 28.63, 'lipoC3S3': 11.94, 'lipoC3S2': 7.9, 'rot1': 295, 'rot0': 291, 'rot3': 286, 'rot2': 218, 'state': 'normal', 'yaw': 42.07, 'datetime': '2018-10-05 19:37:07.747038', 'mgs': 0, 'volt': 0.7764, 'depth': -0.369, 'time': 122, 'pitch': -16.51, 'roll': 4.52, 'pres': 159}
{'lipoC2': 7.87, 'lipoC3S1': 3.95, 'temp': 28.63, 'lipoC3S3': 11.94, 'lipoC3S2': 7.9, 'rot1': 295, 'rot0': 291, 'rot3': 286, 'rot2': 218, 'state': 'normal', 'yaw': 42.21, 'datetime': '2018-10-05 19:37:07.852641', 'mgs': 0, 'volt': 0.7715, 'depth': -0.446, 'time': 122, 'pitch': -16.64, 'roll': 4.65, 'pres': 158}
{'lipoC2': 7.87, 'lipoC3S1': 3.95, 'temp': 28.63, 'lipoC3S3': 11.94, 'lipoC3S2': 7.89, 'rot1': 295, 'rot0': 291, 'rot3': 286, 'rot2': 218, 'state': 'normal', 'yaw': 42.09, 'datetime': '2018-10-05 19:37:07.957134', 'mgs': 0, 'volt': 0.7715, 'depth': -0.446, 'time': 122, 'pitch': -17.1, 'roll': 4.76, 'pres': 158}
{'lipoC2': 7.87, 'lipoC3S1': 3.95, 'temp': 28.56, 'lipoC3S3': 11.94, 'lipoC3S2': 7.9, 'rot1': 295, 'rot0': 291, 'rot3': 286, 'rot2': 218, 'state': 'normal', 'yaw': 41.98, 'datetime': '2018-10-05 19:37:08.061539', 'mgs': 0, 'volt': 0.7764, 'depth': -0.369, 'time': 123, 'pitch': -17.87, 'roll': 4.57, 'pres': 159}
{'lipoC2': 7.87, 'lipoC3S1': 3.95, 'temp': 28.56, 'lipoC3S3': 11.94, 'lipoC3S2': 7.9, 'rot1': 295, 'rot0': 291, 'rot3': 286, 'rot2': 218, 'state': 'normal', 'yaw': 42.04, 'datetime': '2018-10-05 19:37:08.165948', 'mgs': 0, 'volt': 0.7764, 'depth': -0.369, 'time': 123, 'pitch': -18.47, 'roll': 4.1, 'pres': 159}
{'lipoC2': 7.87, 'lipoC3S1': 3.95, 'temp': 28.63, 'lipoC3S3': 11.94, 'lipoC3S2': 7.9, 'rot1': 295, 'rot0': 291, 'rot3': 286, 'rot2': 218, 'state': 'normal', 'yaw': 41.94, 'datetime': '2018-10-05 19:37:08.270342', 'mgs': 0, 'volt': 0.7715, 'depth': -0.446, 'time': 123, 'pitch': -18.58, 'roll': 3.64, 'pres': 158}
{'lipoC2': 7.87, 'lipoC3S1': 3.95, 'temp': 28.63, 'lipoC3S3': 11.94, 'lipoC3S2': 7.9, 'rot1': 295, 'rot0': 291, 'rot3': 286, 'rot2': 218, 'state': 'normal', 'yaw': 41.73, 'datetime': '2018-10-05 19:37:08.374747', 'mgs': 0, 'volt': 0.7715, 'depth': -0.446, 'time': 123, 'pitch': -18.43, 'roll': 3.36, 'pres': 158}
{'lipoC2': 7.87, 'lipoC3S1': 3.95, 'temp': 28.56, 'lipoC3S3': 11.94, 'lipoC3S2': 7.9, 'rot1': 295, 'rot0': 291, 'rot3': 286, 'rot2': 218, 'state': 'normal', 'yaw': 41.54, 'datetime': '2018-10-05 19:37:08.479127', 'mgs': 0, 'volt': 0.7764, 'depth': -0.369, 'time': 123, 'pitch': -18.36, 'roll': 3.16, 'pres': 159}
{'lipoC2': 7.87, 'lipoC3S1': 3.95, 'temp': 28.56, 'lipoC3S3': 11.94, 'lipoC3S2': 7.89, 'rot1': 295, 'rot0': 291, 'rot3': 286, 'rot2': 218, 'state': 'normal', 'yaw': 41.34, 'datetime': '2018-10-05 19:37:08.590308', 'mgs': 0, 'volt': 0.7715, 'depth': -0.446, 'time': 123, 'pitch': -18.31, 'roll': 3.17, 'pres': 158}
{'lipoC2': 7.87, 'lipoC3S1': 3.95, 'temp': 28.56, 'lipoC3S3': 11.94, 'lipoC3S2': 7.9, 'rot1': 295, 'rot0': 291, 'rot3': 286, 'rot2': 218, 'state': 'normal', 'yaw': 41.13, 'datetime': '2018-10-05 19:37:08.695281', 'mgs': 0, 'volt': 0.7764, 'depth': -0.369, 'time': 123, 'pitch': -18.12, 'roll': 3.34, 'pres': 159}
{'lipoC2': 7.87, 'lipoC3S1': 3.95, 'temp': 28.63, 'lipoC3S3': 11.94, 'lipoC3S2': 7.9, 'rot1': 295, 'rot0': 291, 'rot3': 286, 'rot2': 218, 'state': 'normal', 'yaw': 40.85, 'datetime': '2018-10-05 19:37:08.799781', 'mgs': 0, 'volt': 0.7764, 'depth': -0.369, 'time': 123, 'pitch': -17.52, 'roll': 3.64, 'pres': 159}
{'lipoC2': 7.87, 'lipoC3S1': 3.95, 'temp': 28.63, 'lipoC3S3': 11.94, 'lipoC3S2': 7.9, 'rot1': 295, 'rot0': 291, 'rot3': 286, 'rot2': 218, 'state': 'normal', 'yaw': 40.65, 'datetime': '2018-10-05 19:37:08.905202', 'mgs': 0, 'volt': 0.7715, 'depth': -0.446, 'time': 123, 'pitch': -16.8, 'roll': 3.87, 'pres': 158}
{'lipoC2': 7.87, 'lipoC3S1': 3.95, 'temp': 28.56, 'lipoC3S3': 11.94, 'lipoC3S2': 7.9, 'rot1': 295, 'rot0': 291, 'rot3': 286, 'rot2': 218, 'state': 'normal', 'yaw': 40.6, 'datetime': '2018-10-05 19:37:09.009903', 'mgs': 0, 'volt': 0.7715, 'depth': -0.446, 'time': 123, 'pitch': -16.58, 'roll': 4.0, 'pres': 158}
{'lipoC2': 7.87, 'lipoC3S1': 3.95, 'temp': 28.56, 'lipoC3S3': 11.94, 'lipoC3S2': 7.9, 'rot1': 295, 'rot0': 291, 'rot3': 286, 'rot2': 218, 'state': 'normal', 'yaw': 40.46, 'datetime': '2018-10-05 19:37:09.115385', 'mgs': 0, 'volt': 0.7715, 'depth': -0.446, 'time': 124, 'pitch': -16.67, 'roll': 4.24, 'pres': 158}
{'lipoC2': 7.87, 'lipoC3S1': 3.95, 'temp': 28.56, 'lipoC3S3': 11.94, 'lipoC3S2': 7.9, 'rot1': 295, 'rot0': 291, 'rot3': 286, 'rot2': 218, 'state': 'normal', 'yaw': 40.22, 'datetime': '2018-10-05 19:37:09.219754', 'mgs': 0, 'volt': 0.7715, 'depth': -0.446, 'time': 124, 'pitch': -16.5, 'roll': 4.67, 'pres': 158}
{'lipoC2': 7.87, 'lipoC3S1': 3.95, 'temp': 28.56, 'lipoC3S3': 11.94, 'lipoC3S2': 7.9, 'rot1': 295, 'rot0': 291, 'rot3': 286, 'rot2': 218, 'state': 'normal', 'yaw': 40.14, 'datetime': '2018-10-05 19:37:09.324143', 'mgs': 0, 'volt': 0.7715, 'depth': -0.446, 'time': 124, 'pitch': -16.03, 'roll': 5.08, 'pres': 158}
{'lipoC2': 7.87, 'lipoC3S1': 3.95, 'temp': 28.56, 'lipoC3S3': 11.94, 'lipoC3S2': 7.9, 'rot1': 295, 'rot0': 291, 'rot3': 286, 'rot2': 218, 'state': 'normal', 'yaw': 40.15, 'datetime': '2018-10-05 19:37:09.428540', 'mgs': 0, 'volt': 0.7715, 'depth': -0.446, 'time': 124, 'pitch': -15.57, 'roll': 5.52, 'pres': 158}
{'lipoC2': 7.87, 'lipoC3S1': 3.95, 'temp': 28.56, 'lipoC3S3': 11.94, 'lipoC3S2': 7.9, 'rot1': 295, 'rot0': 291, 'rot3': 286, 'rot2': 218, 'state': 'normal', 'yaw': 40.16, 'datetime': '2018-10-05 19:37:09.532970', 'mgs': 0, 'volt': 0.7715, 'depth': -0.446, 'time': 124, 'pitch': -15.5, 'roll': 5.79, 'pres': 158}
{'lipoC2': 7.87, 'lipoC3S1': 3.95, 'temp': 28.56, 'lipoC3S3': 11.94, 'lipoC3S2': 7.9, 'rot1': 295, 'rot0': 291, 'rot3': 286, 'rot2': 218, 'state': 'normal', 'yaw': 39.95, 'datetime': '2018-10-05 19:37:09.637712', 'mgs': 0, 'volt': 0.7715, 'depth': -0.446, 'time': 124, 'pitch': -15.54, 'roll': 5.99, 'pres': 158}
{'lipoC2': 7.87, 'lipoC3S1': 3.95, 'temp': 28.56, 'lipoC3S3': 11.94, 'lipoC3S2': 7.89, 'rot1': 295, 'rot0': 291, 'rot3': 286, 'rot2': 218, 'state': 'normal', 'yaw': 39.66, 'datetime': '2018-10-05 19:37:09.742144', 'mgs': 0, 'volt': 0.7666, 'depth': -0.522, 'time': 124, 'pitch': -15.41, 'roll': 6.0, 'pres': 157}
{'lipoC2': 7.87, 'lipoC3S1': 3.95, 'temp': 28.56, 'lipoC3S3': 11.94, 'lipoC3S2': 7.9, 'rot1': 295, 'rot0': 291, 'rot3': 286, 'rot2': 218, 'state': 'normal', 'yaw': 39.42, 'datetime': '2018-10-05 19:37:09.847575', 'mgs': 0, 'volt': 0.7666, 'depth': -0.522, 'time': 124, 'pitch': -15.29, 'roll': 5.82, 'pres': 157}
{'lipoC2': 7.87, 'lipoC3S1': 3.95, 'temp': 28.56, 'lipoC3S3': 11.94, 'lipoC3S2': 7.89, 'rot1': 295, 'rot0': 291, 'rot3': 286, 'rot2': 218, 'state': 'normal', 'yaw': 39.31, 'datetime': '2018-10-05 19:37:09.952057', 'mgs': 0, 'volt': 0.7666, 'depth': -0.522, 'time': 124, 'pitch': -15.53, 'roll': 5.41, 'pres': 157}
{'lipoC2': 7.87, 'lipoC3S1': 3.95, 'temp': 28.56, 'lipoC3S3': 11.94, 'lipoC3S2': 7.9, 'rot1': 295, 'rot0': 291, 'rot3': 286, 'rot2': 218, 'state': 'normal', 'yaw': 39.6, 'datetime': '2018-10-05 19:37:10.057758', 'mgs': 0, 'volt': 0.7666, 'depth': -0.522, 'time': 124, 'pitch': -15.96, 'roll': 4.81, 'pres': 157}
{'lipoC2': 7.87, 'lipoC3S1': 3.95, 'temp': 28.56, 'lipoC3S3': 11.94, 'lipoC3S2': 7.9, 'rot1': 295, 'rot0': 291, 'rot3': 286, 'rot2': 218, 'state': 'normal', 'yaw': 40.31, 'datetime': '2018-10-05 19:37:10.162067', 'mgs': 0, 'volt': 0.7666, 'depth': -0.522, 'time': 125, 'pitch': -16.04, 'roll': 4.13, 'pres': 157}
{'lipoC2': 7.87, 'lipoC3S1': 3.95, 'temp': 28.56, 'lipoC3S3': 11.94, 'lipoC3S2': 7.9, 'rot1': 295, 'rot0': 291, 'rot3': 286, 'rot2': 218, 'state': 'normal', 'yaw': 40.52, 'datetime': '2018-10-05 19:37:10.267834', 'mgs': 0, 'volt': 0.7666, 'depth': -0.522, 'time': 125, 'pitch': -15.96, 'roll': 4.07, 'pres': 157}
{'lipoC2': 7.87, 'lipoC3S1': 3.95, 'temp': 28.56, 'lipoC3S3': 11.94, 'lipoC3S2': 7.9, 'rot1': 295, 'rot0': 291, 'rot3': 286, 'rot2': 218, 'state': 'normal', 'yaw': 40.33, 'datetime': '2018-10-05 19:37:10.372226', 'mgs': 0, 'volt': 0.7666, 'depth': -0.522, 'time': 125, 'pitch': -16.05, 'roll': 4.43, 'pres': 157}
{'lipoC2': 7.87, 'lipoC3S1': 3.95, 'temp': 28.56, 'lipoC3S3': 11.94, 'lipoC3S2': 7.9, 'rot1': 295, 'rot0': 291, 'rot3': 286, 'rot2': 218, 'state': 'normal', 'yaw': 40.72, 'datetime': '2018-10-05 19:37:10.476672', 'mgs': 0, 'volt': 0.7715, 'depth': -0.446, 'time': 125, 'pitch': -15.95, 'roll': 4.49, 'pres': 158}
{'lipoC2': 7.87, 'lipoC3S1': 3.95, 'temp': 28.56, 'lipoC3S3': 11.94, 'lipoC3S2': 7.89, 'rot1': 295, 'rot0': 291, 'rot3': 286, 'rot2': 218, 'state': 'normal', 'yaw': 41.42, 'datetime': '2018-10-05 19:37:10.581203', 'mgs': 0, 'volt': 0.7715, 'depth': -0.446, 'time': 125, 'pitch': -15.29, 'roll': 4.63, 'pres': 158}
{'lipoC2': 7.87, 'lipoC3S1': 3.95, 'temp': 28.56, 'lipoC3S3': 11.94, 'lipoC3S2': 7.89, 'rot1': 295, 'rot0': 291, 'rot3': 286, 'rot2': 218, 'state': 'normal', 'yaw': 41.59, 'datetime': '2018-10-05 19:37:10.685506', 'mgs': 0, 'volt': 0.7715, 'depth': -0.446, 'time': 125, 'pitch': -14.58, 'roll': 5.22, 'pres': 158}
{'lipoC2': 7.87, 'lipoC3S1': 3.95, 'temp': 28.56, 'lipoC3S3': 11.94, 'lipoC3S2': 7.89, 'rot1': 295, 'rot0': 291, 'rot3': 286, 'rot2': 218, 'state': 'normal', 'yaw': 41.36, 'datetime': '2018-10-05 19:37:10.790168', 'mgs': 0, 'volt': 0.7764, 'depth': -0.369, 'time': 125, 'pitch': -14.37, 'roll': 6.03, 'pres': 159}
{'lipoC2': 7.87, 'lipoC3S1': 3.95, 'temp': 28.56, 'lipoC3S3': 11.94, 'lipoC3S2': 7.9, 'rot1': 295, 'rot0': 291, 'rot3': 286, 'rot2': 218, 'state': 'normal', 'yaw': 41.17, 'datetime': '2018-10-05 19:37:10.894577', 'mgs': 0, 'volt': 0.7764, 'depth': -0.369, 'time': 125, 'pitch': -14.35, 'roll': 6.72, 'pres': 159}
{'lipoC2': 7.87, 'lipoC3S1': 3.95, 'temp': 28.56, 'lipoC3S3': 11.94, 'lipoC3S2': 7.9, 'rot1': 295, 'rot0': 291, 'rot3': 286, 'rot2': 218, 'state': 'normal', 'yaw': 41.36, 'datetime': '2018-10-05 19:37:11.000304', 'mgs': 0, 'volt': 0.7764, 'depth': -0.369, 'time': 125, 'pitch': -14.36, 'roll': 6.93, 'pres': 159}
{'lipoC2': 7.87, 'lipoC3S1': 3.95, 'temp': 28.56, 'lipoC3S3': 11.94, 'lipoC3S2': 7.9, 'rot1': 295, 'rot0': 291, 'rot3': 286, 'rot2': 218, 'state': 'normal', 'yaw': 41.57, 'datetime': '2018-10-05 19:37:11.104893', 'mgs': 0, 'volt': 0.7764, 'depth': -0.369, 'time': 126, 'pitch': -14.52, 'roll': 6.98, 'pres': 159}
{'lipoC2': 7.87, 'lipoC3S1': 3.95, 'temp': 28.56, 'lipoC3S3': 11.94, 'lipoC3S2': 7.89, 'rot1': 295, 'rot0': 291, 'rot3': 286, 'rot2': 218, 'state': 'normal', 'yaw': 41.19, 'datetime': '2018-10-05 19:37:11.210387', 'mgs': 0, 'volt': 0.7813, 'depth': -0.293, 'time': 126, 'pitch': -14.97, 'roll': 7.29, 'pres': 160}
{'lipoC2': 7.87, 'lipoC3S1': 3.95, 'temp': 28.56, 'lipoC3S3': 11.94, 'lipoC3S2': 7.9, 'rot1': 295, 'rot0': 291, 'rot3': 286, 'rot2': 218, 'state': 'normal', 'yaw': 40.42, 'datetime': '2018-10-05 19:37:11.314817', 'mgs': 0, 'volt': 0.7813, 'depth': -0.293, 'time': 126, 'pitch': -15.92, 'roll': 7.71, 'pres': 160}
{'lipoC2': 7.87, 'lipoC3S1': 3.95, 'temp': 28.56, 'lipoC3S3': 11.94, 'lipoC3S2': 7.9, 'rot1': 295, 'rot0': 291, 'rot3': 286, 'rot2': 218, 'state': 'normal', 'yaw': 40.1, 'datetime': '2018-10-05 19:37:11.419411', 'mgs': 0, 'volt': 0.7813, 'depth': -0.293, 'time': 126, 'pitch': -16.64, 'roll': 7.6, 'pres': 160}
{'lipoC2': 7.87, 'lipoC3S1': 3.95, 'temp': 28.56, 'lipoC3S3': 11.94, 'lipoC3S2': 7.9, 'rot1': 295, 'rot0': 291, 'rot3': 286, 'rot2': 218, 'state': 'normal', 'yaw': 40.57, 'datetime': '2018-10-05 19:37:11.524966', 'mgs': 0, 'volt': 0.7813, 'depth': -0.293, 'time': 126, 'pitch': -16.82, 'roll': 6.82, 'pres': 160}
{'lipoC2': 7.87, 'lipoC3S1': 3.95, 'temp': 28.56, 'lipoC3S3': 11.94, 'lipoC3S2': 7.9, 'rot1': 295, 'rot0': 291, 'rot3': 286, 'rot2': 218, 'state': 'normal', 'yaw': 41.2, 'datetime': '2018-10-05 19:37:11.629494', 'mgs': 0, 'volt': 0.7813, 'depth': -0.293, 'time': 126, 'pitch': -16.53, 'roll': 5.91, 'pres': 160}
{'lipoC2': 7.87, 'lipoC3S1': 3.95, 'temp': 28.56, 'lipoC3S3': 11.94, 'lipoC3S2': 7.89, 'rot1': 295, 'rot0': 291, 'rot3': 286, 'rot2': 218, 'state': 'normal', 'yaw': 41.46, 'datetime': '2018-10-05 19:37:11.733702', 'mgs': 0, 'volt': 0.7813, 'depth': -0.293, 'time': 126, 'pitch': -16.36, 'roll': 5.14, 'pres': 160}
{'lipoC2': 7.87, 'lipoC3S1': 3.95, 'temp': 28.56, 'lipoC3S3': 11.94, 'lipoC3S2': 7.9, 'rot1': 295, 'rot0': 291, 'rot3': 286, 'rot2': 218, 'state': 'normal', 'yaw': 41.44, 'datetime': '2018-10-05 19:37:11.838113', 'mgs': 0, 'volt': 0.7813, 'depth': -0.293, 'time': 126, 'pitch': -16.54, 'roll': 4.64, 'pres': 160}
{'lipoC2': 7.87, 'lipoC3S1': 3.95, 'temp': 28.56, 'lipoC3S3': 11.94, 'lipoC3S2': 7.9, 'rot1': 295, 'rot0': 291, 'rot3': 286, 'rot2': 218, 'state': 'normal', 'yaw': 41.5, 'datetime': '2018-10-05 19:37:11.942501', 'mgs': 0, 'volt': 0.7861, 'depth': -0.217, 'time': 126, 'pitch': -16.81, 'roll': 4.26, 'pres': 161}
{'lipoC2': 7.87, 'lipoC3S1': 3.95, 'temp': 28.56, 'lipoC3S3': 11.94, 'lipoC3S2': 7.9, 'rot1': 295, 'rot0': 291, 'rot3': 286, 'rot2': 218, 'state': 'normal', 'yaw': 41.66, 'datetime': '2018-10-05 19:37:12.046998', 'mgs': 0, 'volt': 0.7861, 'depth': -0.217, 'time': 126, 'pitch': -17.11, 'roll': 4.14, 'pres': 161}
{'lipoC2': 7.87, 'lipoC3S1': 3.95, 'temp': 28.56, 'lipoC3S3': 11.94, 'lipoC3S2': 7.89, 'rot1': 295, 'rot0': 291, 'rot3': 286, 'rot2': 218, 'state': 'normal', 'yaw': 41.72, 'datetime': '2018-10-05 19:37:12.152598', 'mgs': 0, 'volt': 0.7813, 'depth': -0.293, 'time': 127, 'pitch': -17.37, 'roll': 4.43, 'pres': 160}
{'lipoC2': 7.87, 'lipoC3S1': 3.95, 'temp': 28.56, 'lipoC3S3': 11.94, 'lipoC3S2': 7.9, 'rot1': 295, 'rot0': 291, 'rot3': 286, 'rot2': 218, 'state': 'normal', 'yaw': 41.6, 'datetime': '2018-10-05 19:37:12.257068', 'mgs': 0, 'volt': 0.7813, 'depth': -0.293, 'time': 127, 'pitch': -17.84, 'roll': 5.18, 'pres': 160}
{'lipoC2': 7.87, 'lipoC3S1': 3.95, 'temp': 28.56, 'lipoC3S3': 11.94, 'lipoC3S2': 7.9, 'rot1': 295, 'rot0': 291, 'rot3': 286, 'rot2': 218, 'state': 'normal', 'yaw': 41.54, 'datetime': '2018-10-05 19:37:12.362709', 'mgs': 0, 'volt': 0.7861, 'depth': -0.217, 'time': 127, 'pitch': -18.35, 'roll': 5.97, 'pres': 161}
{'lipoC2': 7.87, 'lipoC3S1': 3.95, 'temp': 28.56, 'lipoC3S3': 11.94, 'lipoC3S2': 7.9, 'rot1': 295, 'rot0': 291, 'rot3': 286, 'rot2': 218, 'state': 'normal', 'yaw': 41.59, 'datetime': '2018-10-05 19:37:12.467137', 'mgs': 0, 'volt': 0.7861, 'depth': -0.217, 'time': 127, 'pitch': -18.75, 'roll': 6.73, 'pres': 161}
{'lipoC2': 7.87, 'lipoC3S1': 3.95, 'temp': 28.56, 'lipoC3S3': 11.94, 'lipoC3S2': 7.9, 'rot1': 295, 'rot0': 291, 'rot3': 286, 'rot2': 218, 'state': 'normal', 'yaw': 41.62, 'datetime': '2018-10-05 19:37:12.572841', 'mgs': 0, 'volt': 0.791, 'depth': -0.14, 'time': 127, 'pitch': -18.87, 'roll': 7.35, 'pres': 162}
{'lipoC2': 7.87, 'lipoC3S1': 3.95, 'temp': 28.56, 'lipoC3S3': 11.94, 'lipoC3S2': 7.9, 'rot1': 295, 'rot0': 291, 'rot3': 286, 'rot2': 218, 'state': 'normal', 'yaw': 41.61, 'datetime': '2018-10-05 19:37:12.677301', 'mgs': 0, 'volt': 0.7959, 'depth': -0.064, 'time': 127, 'pitch': -18.93, 'roll': 7.91, 'pres': 163}
{'lipoC2': 7.87, 'lipoC3S1': 3.95, 'temp': 28.56, 'lipoC3S3': 11.94, 'lipoC3S2': 7.89, 'rot1': 295, 'rot0': 291, 'rot3': 286, 'rot2': 218, 'state': 'normal', 'yaw': 41.57, 'datetime': '2018-10-05 19:37:12.781730', 'mgs': 0, 'volt': 0.7959, 'depth': -0.064, 'time': 127, 'pitch': -19.15, 'roll': 8.27, 'pres': 163}
{'lipoC2': 7.87, 'lipoC3S1': 3.95, 'temp': 28.5, 'lipoC3S3': 11.94, 'lipoC3S2': 7.9, 'rot1': 295, 'rot0': 291, 'rot3': 286, 'rot2': 218, 'state': 'normal', 'yaw': 41.55, 'datetime': '2018-10-05 19:37:12.886317', 'mgs': 0, 'volt': 0.7959, 'depth': -0.064, 'time': 127, 'pitch': -19.41, 'roll': 8.48, 'pres': 163}
{'lipoC2': 7.87, 'lipoC3S1': 3.95, 'temp': 28.5, 'lipoC3S3': 11.94, 'lipoC3S2': 7.9, 'rot1': 295, 'rot0': 291, 'rot3': 286, 'rot2': 218, 'state': 'normal', 'yaw': 41.5, 'datetime': '2018-10-05 19:37:12.991366', 'mgs': 0, 'volt': 0.7959, 'depth': -0.064, 'time': 127, 'pitch': -19.59, 'roll': 8.53, 'pres': 163}
{'lipoC2': 7.87, 'lipoC3S1': 3.95, 'temp': 28.56, 'lipoC3S3': 11.94, 'lipoC3S2': 7.9, 'rot1': 295, 'rot0': 291, 'rot3': 286, 'rot2': 218, 'state': 'normal', 'yaw': 41.37, 'datetime': '2018-10-05 19:37:13.095991', 'mgs': 0, 'volt': 0.7959, 'depth': -0.064, 'time': 128, 'pitch': -19.72, 'roll': 8.4, 'pres': 163}
{'lipoC2': 7.87, 'lipoC3S1': 3.95, 'temp': 28.56, 'lipoC3S3': 11.94, 'lipoC3S2': 7.9, 'rot1': 295, 'rot0': 291, 'rot3': 286, 'rot2': 218, 'state': 'normal', 'yaw': 41.2, 'datetime': '2018-10-05 19:37:13.200381', 'mgs': 0, 'volt': 0.791, 'depth': -0.14, 'time': 128, 'pitch': -20.17, 'roll': 7.92, 'pres': 162}
{'lipoC2': 7.87, 'lipoC3S1': 3.95, 'temp': 28.56, 'lipoC3S3': 11.94, 'lipoC3S2': 7.9, 'rot1': 295, 'rot0': 291, 'rot3': 286, 'rot2': 218, 'state': 'normal', 'yaw': 40.92, 'datetime': '2018-10-05 19:37:13.306292', 'mgs': 0, 'volt': 0.791, 'depth': -0.14, 'time': 128, 'pitch': -20.58, 'roll': 7.28, 'pres': 162}
{'lipoC2': 7.87, 'lipoC3S1': 3.95, 'temp': 28.56, 'lipoC3S3': 11.94, 'lipoC3S2': 7.9, 'rot1': 295, 'rot0': 291, 'rot3': 286, 'rot2': 218, 'state': 'normal', 'yaw': 40.67, 'datetime': '2018-10-05 19:37:13.410664', 'mgs': 0, 'volt': 0.791, 'depth': -0.14, 'time': 128, 'pitch': -20.53, 'roll': 6.39, 'pres': 162}
{'lipoC2': 7.87, 'lipoC3S1': 3.95, 'temp': 28.56, 'lipoC3S3': 11.94, 'lipoC3S2': 7.9, 'rot1': 295, 'rot0': 291, 'rot3': 286, 'rot2': 218, 'state': 'normal', 'yaw': 40.8, 'datetime': '2018-10-05 19:37:13.516457', 'mgs': 0, 'volt': 0.791, 'depth': -0.14, 'time': 128, 'pitch': -20.29, 'roll': 5.39, 'pres': 162}
{'lipoC2': 7.87, 'lipoC3S1': 3.95, 'temp': 28.56, 'lipoC3S3': 11.94, 'lipoC3S2': 7.9, 'rot1': 295, 'rot0': 291, 'rot3': 286, 'rot2': 218, 'state': 'normal', 'yaw': 40.93, 'datetime': '2018-10-05 19:37:13.620742', 'mgs': 0, 'volt': 0.7861, 'depth': -0.217, 'time': 128, 'pitch': -20.09, 'roll': 4.46, 'pres': 161}
{'lipoC2': 7.87, 'lipoC3S1': 3.95, 'temp': 28.56, 'lipoC3S3': 11.94, 'lipoC3S2': 7.9, 'rot1': 295, 'rot0': 291, 'rot3': 286, 'rot2': 218, 'state': 'normal', 'yaw': 40.94, 'datetime': '2018-10-05 19:37:13.726418', 'mgs': 0, 'volt': 0.7861, 'depth': -0.217, 'time': 128, 'pitch': -20.13, 'roll': 3.97, 'pres': 161}
{'lipoC2': 7.87, 'lipoC3S1': 3.95, 'temp': 28.56, 'lipoC3S3': 11.94, 'lipoC3S2': 7.9, 'rot1': 295, 'rot0': 291, 'rot3': 286, 'rot2': 218, 'state': 'normal', 'yaw': 41.1, 'datetime': '2018-10-05 19:37:13.830951', 'mgs': 0, 'volt': 0.7861, 'depth': -0.217, 'time': 128, 'pitch': -20.56, 'roll': 3.66, 'pres': 161}
{'lipoC2': 7.87, 'lipoC3S1': 3.95, 'temp': 28.56, 'lipoC3S3': 11.94, 'lipoC3S2': 7.89, 'rot1': 295, 'rot0': 291, 'rot3': 286, 'rot2': 218, 'state': 'normal', 'yaw': 41.47, 'datetime': '2018-10-05 19:37:13.936660', 'mgs': 0, 'volt': 0.7861, 'depth': -0.217, 'time': 128, 'pitch': -20.85, 'roll': 3.64, 'pres': 161}
{'lipoC2': 7.87, 'lipoC3S1': 3.95, 'temp': 28.56, 'lipoC3S3': 11.94, 'lipoC3S2': 7.9, 'rot1': 295, 'rot0': 291, 'rot3': 286, 'rot2': 218, 'state': 'normal', 'yaw': 41.75, 'datetime': '2018-10-05 19:37:14.038556', 'mgs': 0, 'volt': 0.7861, 'depth': -0.217, 'time': 128, 'pitch': -20.76, 'roll': 4.15, 'pres': 161}
{'lipoC2': 7.87, 'lipoC3S1': 3.95, 'temp': 28.56, 'lipoC3S3': 11.94, 'lipoC3S2': 7.9, 'rot1': 295, 'rot0': 291, 'rot3': 286, 'rot2': 218, 'state': 'normal', 'yaw': 41.96, 'datetime': '2018-10-05 19:37:14.144063', 'mgs': 0, 'volt': 0.7861, 'depth': -0.217, 'time': 129, 'pitch': -20.42, 'roll': 4.95, 'pres': 161}
{'lipoC2': 7.87, 'lipoC3S1': 3.95, 'temp': 28.56, 'lipoC3S3': 11.94, 'lipoC3S2': 7.89, 'rot1': 295, 'rot0': 291, 'rot3': 286, 'rot2': 218, 'state': 'normal', 'yaw': 42.31, 'datetime': '2018-10-05 19:37:14.248479', 'mgs': 0, 'volt': 0.7813, 'depth': -0.293, 'time': 129, 'pitch': -19.85, 'roll': 5.74, 'pres': 160}
{'lipoC2': 7.87, 'lipoC3S1': 3.95, 'temp': 28.56, 'lipoC3S3': 11.94, 'lipoC3S2': 7.9, 'rot1': 295, 'rot0': 291, 'rot3': 286, 'rot2': 218, 'state': 'normal', 'yaw': 42.74, 'datetime': '2018-10-05 19:37:14.352854', 'mgs': 0, 'volt': 0.7813, 'depth': -0.293, 'time': 129, 'pitch': -19.1, 'roll': 6.53, 'pres': 160}
{'lipoC2': 7.87, 'lipoC3S1': 3.95, 'temp': 28.56, 'lipoC3S3': 11.94, 'lipoC3S2': 7.9, 'rot1': 295, 'rot0': 291, 'rot3': 286, 'rot2': 218, 'state': 'normal', 'yaw': 42.83, 'datetime': '2018-10-05 19:37:14.458559', 'mgs': 0, 'volt': 0.7813, 'depth': -0.293, 'time': 129, 'pitch': -18.6, 'roll': 7.31, 'pres': 160}
{'lipoC2': 7.87, 'lipoC3S1': 3.95, 'temp': 28.56, 'lipoC3S3': 11.94, 'lipoC3S2': 7.9, 'rot1': 295, 'rot0': 291, 'rot3': 286, 'rot2': 218, 'state': 'normal', 'yaw': 42.62, 'datetime': '2018-10-05 19:37:14.562879', 'mgs': 0, 'volt': 0.7813, 'depth': -0.293, 'time': 129, 'pitch': -18.33, 'roll': 8.12, 'pres': 160}
{'lipoC2': 7.87, 'lipoC3S1': 3.95, 'temp': 28.56, 'lipoC3S3': 11.94, 'lipoC3S2': 7.9, 'rot1': 295, 'rot0': 291, 'rot3': 286, 'rot2': 218, 'state': 'normal', 'yaw': 42.43, 'datetime': '2018-10-05 19:37:14.668592', 'mgs': 0, 'volt': 0.7813, 'depth': -0.293, 'time': 129, 'pitch': -17.96, 'roll': 8.52, 'pres': 160}
{'lipoC2': 7.87, 'lipoC3S1': 3.95, 'temp': 28.56, 'lipoC3S3': 11.94, 'lipoC3S2': 7.9, 'rot1': 295, 'rot0': 291, 'rot3': 286, 'rot2': 218, 'state': 'normal', 'yaw': 42.44, 'datetime': '2018-10-05 19:37:14.773221', 'mgs': 0, 'volt': 0.7813, 'depth': -0.293, 'time': 129, 'pitch': -17.28, 'roll': 8.44, 'pres': 160}
{'lipoC2': 7.87, 'lipoC3S1': 3.95, 'temp': 28.56, 'lipoC3S3': 11.94, 'lipoC3S2': 7.9, 'rot1': 295, 'rot0': 291, 'rot3': 286, 'rot2': 218, 'state': 'normal', 'yaw': 42.44, 'datetime': '2018-10-05 19:37:14.878725', 'mgs': 0, 'volt': 0.7764, 'depth': -0.369, 'time': 129, 'pitch': -16.75, 'roll': 8.04, 'pres': 159}
{'lipoC2': 7.87, 'lipoC3S1': 3.95, 'temp': 28.56, 'lipoC3S3': 11.94, 'lipoC3S2': 7.9, 'rot1': 295, 'rot0': 291, 'rot3': 286, 'rot2': 218, 'state': 'normal', 'yaw': 42.42, 'datetime': '2018-10-05 19:37:14.983122', 'mgs': 0, 'volt': 0.7715, 'depth': -0.446, 'time': 129, 'pitch': -16.4, 'roll': 7.33, 'pres': 158}
{'lipoC2': 7.87, 'lipoC3S1': 3.95, 'temp': 28.56, 'lipoC3S3': 11.94, 'lipoC3S2': 7.89, 'rot1': 295, 'rot0': 291, 'rot3': 286, 'rot2': 218, 'state': 'normal', 'yaw': 42.22, 'datetime': '2018-10-05 19:37:15.087784', 'mgs': 0, 'volt': 0.7715, 'depth': -0.446, 'time': 130, 'pitch': -16.02, 'roll': 6.64, 'pres': 158}
{'lipoC2': 7.87, 'lipoC3S1': 3.95, 'temp': 28.56, 'lipoC3S3': 11.94, 'lipoC3S2': 7.89, 'rot1': 295, 'rot0': 291, 'rot3': 286, 'rot2': 218, 'state': 'normal', 'yaw': 41.77, 'datetime': '2018-10-05 19:37:15.192273', 'mgs': 0, 'volt': 0.7666, 'depth': -0.522, 'time': 130, 'pitch': -15.34, 'roll': 6.03, 'pres': 157}
{'lipoC2': 7.87, 'lipoC3S1': 3.95, 'temp': 28.56, 'lipoC3S3': 11.94, 'lipoC3S2': 7.9, 'rot1': 295, 'rot0': 291, 'rot3': 286, 'rot2': 218, 'state': 'normal', 'yaw': 41.65, 'datetime': '2018-10-05 19:37:15.296630', 'mgs': 0, 'volt': 0.7666, 'depth': -0.522, 'time': 130, 'pitch': -14.89, 'roll': 5.41, 'pres': 157}
{'lipoC2': 7.87, 'lipoC3S1': 3.95, 'temp': 28.56, 'lipoC3S3': 11.94, 'lipoC3S2': 7.9, 'rot1': 295, 'rot0': 291, 'rot3': 286, 'rot2': 218, 'state': 'normal', 'yaw': 41.87, 'datetime': '2018-10-05 19:37:15.401128', 'mgs': 0, 'volt': 0.7666, 'depth': -0.522, 'time': 130, 'pitch': -14.76, 'roll': 4.86, 'pres': 157}
{'lipoC2': 7.87, 'lipoC3S1': 3.95, 'temp': 28.56, 'lipoC3S3': 11.94, 'lipoC3S2': 7.9, 'rot1': 295, 'rot0': 291, 'rot3': 286, 'rot2': 218, 'state': 'normal', 'yaw': 42.21, 'datetime': '2018-10-05 19:37:15.505515', 'mgs': 0, 'volt': 0.7666, 'depth': -0.522, 'time': 130, 'pitch': -14.76, 'roll': 4.65, 'pres': 157}
{'lipoC2': 7.87, 'lipoC3S1': 3.95, 'temp': 28.56, 'lipoC3S3': 11.94, 'lipoC3S2': 7.9, 'rot1': 295, 'rot0': 291, 'rot3': 286, 'rot2': 218, 'state': 'normal', 'yaw': 42.66, 'datetime': '2018-10-05 19:37:15.610666', 'mgs': 0, 'volt': 0.7666, 'depth': -0.522, 'time': 130, 'pitch': -14.84, 'roll': 4.72, 'pres': 157}
{'lipoC2': 7.87, 'lipoC3S1': 3.95, 'temp': 28.56, 'lipoC3S3': 11.94, 'lipoC3S2': 7.9, 'rot1': 295, 'rot0': 291, 'rot3': 286, 'rot2': 218, 'state': 'normal', 'yaw': 43.09, 'datetime': '2018-10-05 19:37:15.715090', 'mgs': 0, 'volt': 0.7666, 'depth': -0.522, 'time': 130, 'pitch': -15.18, 'roll': 5.01, 'pres': 157}
{'lipoC2': 7.87, 'lipoC3S1': 3.95, 'temp': 28.56, 'lipoC3S3': 11.94, 'lipoC3S2': 7.9, 'rot1': 295, 'rot0': 291, 'rot3': 286, 'rot2': 218, 'state': 'normal', 'yaw': 43.16, 'datetime': '2018-10-05 19:37:15.820862', 'mgs': 0, 'volt': 0.7666, 'depth': -0.522, 'time': 130, 'pitch': -15.55, 'roll': 5.48, 'pres': 157}
{'lipoC2': 7.87, 'lipoC3S1': 3.95, 'temp': 28.56, 'lipoC3S3': 11.94, 'lipoC3S2': 7.9, 'rot1': 295, 'rot0': 291, 'rot3': 286, 'rot2': 218, 'state': 'normal', 'yaw': 43.13, 'datetime': '2018-10-05 19:37:15.925217', 'mgs': 0, 'volt': 0.7715, 'depth': -0.446, 'time': 130, 'pitch': -15.81, 'roll': 5.93, 'pres': 158}
{'lipoC2': 7.87, 'lipoC3S1': 3.95, 'temp': 28.56, 'lipoC3S3': 11.94, 'lipoC3S2': 7.9, 'rot1': 295, 'rot0': 291, 'rot3': 286, 'rot2': 218, 'state': 'normal', 'yaw': 43.12, 'datetime': '2018-10-05 19:37:16.030915', 'mgs': 0, 'volt': 0.7715, 'depth': -0.446, 'time': 130, 'pitch': -15.89, 'roll': 6.26, 'pres': 158}
{'lipoC2': 7.87, 'lipoC3S1': 3.95, 'temp': 28.56, 'lipoC3S3': 11.94, 'lipoC3S2': 7.9, 'rot1': 295, 'rot0': 291, 'rot3': 286, 'rot2': 218, 'state': 'normal', 'yaw': 42.98, 'datetime': '2018-10-05 19:37:16.135314', 'mgs': 0, 'volt': 0.7666, 'depth': -0.522, 'time': 131, 'pitch': -15.86, 'roll': 6.66, 'pres': 157}
{'lipoC2': 7.87, 'lipoC3S1': 3.95, 'temp': 28.56, 'lipoC3S3': 11.94, 'lipoC3S2': 7.9, 'rot1': 295, 'rot0': 291, 'rot3': 286, 'rot2': 218, 'state': 'normal', 'yaw': 42.83, 'datetime': '2018-10-05 19:37:16.239850', 'mgs': 0, 'volt': 0.7715, 'depth': -0.446, 'time': 131, 'pitch': -15.74, 'roll': 7.07, 'pres': 158}
{'lipoC2': 7.87, 'lipoC3S1': 3.95, 'temp': 28.56, 'lipoC3S3': 11.94, 'lipoC3S2': 7.9, 'rot1': 295, 'rot0': 291, 'rot3': 286, 'rot2': 218, 'state': 'normal', 'yaw': 42.78, 'datetime': '2018-10-05 19:37:16.344408', 'mgs': 0, 'volt': 0.7715, 'depth': -0.446, 'time': 131, 'pitch': -15.58, 'roll': 7.35, 'pres': 158}
{'lipoC2': 7.87, 'lipoC3S1': 3.95, 'temp': 28.56, 'lipoC3S3': 11.94, 'lipoC3S2': 7.9, 'rot1': 295, 'rot0': 291, 'rot3': 286, 'rot2': 218, 'state': 'normal', 'yaw': 42.79, 'datetime': '2018-10-05 19:37:16.448827', 'mgs': 0, 'volt': 0.7666, 'depth': -0.522, 'time': 131, 'pitch': -15.65, 'roll': 7.42, 'pres': 157}
{'lipoC2': 7.87, 'lipoC3S1': 3.95, 'temp': 28.56, 'lipoC3S3': 11.94, 'lipoC3S2': 7.9, 'rot1': 295, 'rot0': 291, 'rot3': 286, 'rot2': 218, 'state': 'normal', 'yaw': 42.69, 'datetime': '2018-10-05 19:37:16.553329', 'mgs': 0, 'volt': 0.7715, 'depth': -0.446, 'time': 131, 'pitch': -15.99, 'roll': 7.33, 'pres': 158}
{'lipoC2': 7.87, 'lipoC3S1': 3.95, 'temp': 28.56, 'lipoC3S3': 11.94, 'lipoC3S2': 7.9, 'rot1': 295, 'rot0': 291, 'rot3': 286, 'rot2': 218, 'state': 'normal', 'yaw': 42.34, 'datetime': '2018-10-05 19:37:16.657570', 'mgs': 0, 'volt': 0.7715, 'depth': -0.446, 'time': 131, 'pitch': -16.34, 'roll': 7.25, 'pres': 158}
{'lipoC2': 7.87, 'lipoC3S1': 3.95, 'temp': 28.56, 'lipoC3S3': 11.94, 'lipoC3S2': 7.89, 'rot1': 295, 'rot0': 291, 'rot3': 286, 'rot2': 218, 'state': 'normal', 'yaw': 42.15, 'datetime': '2018-10-05 19:37:16.762798', 'mgs': 0, 'volt': 0.7715, 'depth': -0.446, 'time': 131, 'pitch': -16.58, 'roll': 7.11, 'pres': 158}
{'lipoC2': 7.87, 'lipoC3S1': 3.95, 'temp': 28.56, 'lipoC3S3': 11.94, 'lipoC3S2': 7.9, 'rot1': 295, 'rot0': 291, 'rot3': 286, 'rot2': 218, 'state': 'normal', 'yaw': 42.31, 'datetime': '2018-10-05 19:37:16.867240', 'mgs': 0, 'volt': 0.7715, 'depth': -0.446, 'time': 131, 'pitch': -16.88, 'roll': 6.79, 'pres': 158}
{'lipoC2': 7.87, 'lipoC3S1': 3.95, 'temp': 28.56, 'lipoC3S3': 11.94, 'lipoC3S2': 7.9, 'rot1': 295, 'rot0': 291, 'rot3': 286, 'rot2': 218, 'state': 'normal', 'yaw': 42.56, 'datetime': '2018-10-05 19:37:16.972753', 'mgs': 0, 'volt': 0.7715, 'depth': -0.446, 'time': 131, 'pitch': -17.15, 'roll': 6.52, 'pres': 158}
{'lipoC2': 7.87, 'lipoC3S1': 3.95, 'temp': 28.56, 'lipoC3S3': 11.94, 'lipoC3S2': 7.9, 'rot1': 295, 'rot0': 291, 'rot3': 286, 'rot2': 218, 'state': 'normal', 'yaw': 42.75, 'datetime': '2018-10-05 19:37:17.077415', 'mgs': 0, 'volt': 0.7764, 'depth': -0.369, 'time': 131, 'pitch': -17.2, 'roll': 6.35, 'pres': 159}
{'lipoC2': 7.87, 'lipoC3S1': 3.95, 'temp': 28.56, 'lipoC3S3': 11.94, 'lipoC3S2': 7.9, 'rot1': 295, 'rot0': 291, 'rot3': 286, 'rot2': 218, 'state': 'normal', 'yaw': 42.92, 'datetime': '2018-10-05 19:37:17.181829', 'mgs': 0, 'volt': 0.7715, 'depth': -0.446, 'time': 132, 'pitch': -17.05, 'roll': 6.21, 'pres': 158}
{'lipoC2': 7.87, 'lipoC3S1': 3.95, 'temp': 28.56, 'lipoC3S3': 11.94, 'lipoC3S2': 7.89, 'rot1': 295, 'rot0': 291, 'rot3': 286, 'rot2': 218, 'state': 'normal', 'yaw': 43.16, 'datetime': '2018-10-05 19:37:17.287458', 'mgs': 0, 'volt': 0.7715, 'depth': -0.446, 'time': 132, 'pitch': -17.05, 'roll': 6.06, 'pres': 158}
{'lipoC2': 7.87, 'lipoC3S1': 3.95, 'temp': 28.56, 'lipoC3S3': 11.94, 'lipoC3S2': 7.9, 'rot1': 295, 'rot0': 291, 'rot3': 286, 'rot2': 218, 'state': 'normal', 'yaw': 43.26, 'datetime': '2018-10-05 19:37:17.392271', 'mgs': 0, 'volt': 0.7764, 'depth': -0.369, 'time': 132, 'pitch': -17.45, 'roll': 6.08, 'pres': 159}
{'lipoC2': 7.87, 'lipoC3S1': 3.95, 'temp': 28.56, 'lipoC3S3': 11.94, 'lipoC3S2': 7.9, 'rot1': 295, 'rot0': 291, 'rot3': 286, 'rot2': 218, 'state': 'normal', 'yaw': 43.27, 'datetime': '2018-10-05 19:37:17.496268', 'mgs': 0, 'volt': 0.7764, 'depth': -0.369, 'time': 132, 'pitch': -17.95, 'roll': 6.31, 'pres': 159}
{'lipoC2': 7.87, 'lipoC3S1': 3.95, 'temp': 28.56, 'lipoC3S3': 11.94, 'lipoC3S2': 7.9, 'rot1': 295, 'rot0': 291, 'rot3': 286, 'rot2': 218, 'state': 'normal', 'yaw': 43.54, 'datetime': '2018-10-05 19:37:17.600742', 'mgs': 0, 'volt': 0.7764, 'depth': -0.369, 'time': 132, 'pitch': -18.4, 'roll': 6.56, 'pres': 159}
{'lipoC2': 7.87, 'lipoC3S1': 3.95, 'temp': 28.56, 'lipoC3S3': 11.94, 'lipoC3S2': 7.9, 'rot1': 295, 'rot0': 291, 'rot3': 286, 'rot2': 218, 'state': 'normal', 'yaw': 43.92, 'datetime': '2018-10-05 19:37:17.705205', 'mgs': 0, 'volt': 0.7764, 'depth': -0.369, 'time': 132, 'pitch': -18.55, 'roll': 6.72, 'pres': 159}
{'lipoC2': 7.87, 'lipoC3S1': 3.95, 'temp': 28.56, 'lipoC3S3': 11.94, 'lipoC3S2': 7.9, 'rot1': 295, 'rot0': 291, 'rot3': 286, 'rot2': 218, 'state': 'normal', 'yaw': 44.17, 'datetime': '2018-10-05 19:37:17.809598', 'mgs': 0, 'volt': 0.7764, 'depth': -0.369, 'time': 132, 'pitch': -18.58, 'roll': 6.99, 'pres': 159}
{'lipoC2': 7.87, 'lipoC3S1': 3.95, 'temp': 28.56, 'lipoC3S3': 11.94, 'lipoC3S2': 7.9, 'rot1': 295, 'rot0': 291, 'rot3': 286, 'rot2': 218, 'state': 'normal', 'yaw': 44.07, 'datetime': '2018-10-05 19:37:17.914046', 'mgs': 0, 'volt': 0.7764, 'depth': -0.369, 'time': 132, 'pitch': -18.57, 'roll': 7.36, 'pres': 159}
{'lipoC2': 7.87, 'lipoC3S1': 3.95, 'temp': 28.56, 'lipoC3S3': 11.94, 'lipoC3S2': 7.9, 'rot1': 295, 'rot0': 291, 'rot3': 286, 'rot2': 218, 'state': 'normal', 'yaw': 43.81, 'datetime': '2018-10-05 19:37:18.019486', 'mgs': 0, 'volt': 0.7813, 'depth': -0.293, 'time': 132, 'pitch': -18.55, 'roll': 7.73, 'pres': 160}
{'lipoC2': 7.87, 'lipoC3S1': 3.95, 'temp': 28.56, 'lipoC3S3': 11.94, 'lipoC3S2': 7.9, 'rot1': 295, 'rot0': 291, 'rot3': 286, 'rot2': 218, 'state': 'normal', 'yaw': 43.84, 'datetime': '2018-10-05 19:37:18.123722', 'mgs': 0, 'volt': 0.7813, 'depth': -0.293, 'time': 133, 'pitch': -18.74, 'roll': 7.88, 'pres': 160}
{'lipoC2': 7.87, 'lipoC3S1': 3.95, 'temp': 28.56, 'lipoC3S3': 11.94, 'lipoC3S2': 7.9, 'rot1': 295, 'rot0': 291, 'rot3': 286, 'rot2': 218, 'state': 'normal', 'yaw': 44.16, 'datetime': '2018-10-05 19:37:18.229659', 'mgs': 0, 'volt': 0.7813, 'depth': -0.293, 'time': 133, 'pitch': -18.8, 'roll': 7.93, 'pres': 160}
{'lipoC2': 7.87, 'lipoC3S1': 3.95, 'temp': 28.56, 'lipoC3S3': 11.94, 'lipoC3S2': 7.9, 'rot1': 295, 'rot0': 291, 'rot3': 286, 'rot2': 218, 'state': 'normal', 'yaw': 44.08, 'datetime': '2018-10-05 19:37:18.333949', 'mgs': 0, 'volt': 0.7813, 'depth': -0.293, 'time': 133, 'pitch': -18.81, 'roll': 8.33, 'pres': 160}
{'lipoC2': 7.87, 'lipoC3S1': 3.95, 'temp': 28.56, 'lipoC3S3': 11.94, 'lipoC3S2': 7.9, 'rot1': 295, 'rot0': 291, 'rot3': 286, 'rot2': 218, 'state': 'normal', 'yaw': 43.47, 'datetime': '2018-10-05 19:37:18.439644', 'mgs': 0, 'volt': 0.7813, 'depth': -0.293, 'time': 133, 'pitch': -18.84, 'roll': 8.93, 'pres': 160}
{'lipoC2': 7.87, 'lipoC3S1': 3.95, 'temp': 28.56, 'lipoC3S3': 11.94, 'lipoC3S2': 7.9, 'rot1': 295, 'rot0': 291, 'rot3': 286, 'rot2': 218, 'state': 'normal', 'yaw': 42.88, 'datetime': '2018-10-05 19:37:18.544056', 'mgs': 0, 'volt': 0.7813, 'depth': -0.293, 'time': 133, 'pitch': -18.84, 'roll': 9.24, 'pres': 160}
{'lipoC2': 7.87, 'lipoC3S1': 3.95, 'temp': 28.56, 'lipoC3S3': 11.94, 'lipoC3S2': 7.9, 'rot1': 295, 'rot0': 291, 'rot3': 286, 'rot2': 218, 'state': 'normal', 'yaw': 42.72, 'datetime': '2018-10-05 19:37:18.648468', 'mgs': 0, 'volt': 0.7813, 'depth': -0.293, 'time': 133, 'pitch': -19.1, 'roll': 9.02, 'pres': 160}
{'lipoC2': 7.87, 'lipoC3S1': 3.95, 'temp': 28.56, 'lipoC3S3': 11.94, 'lipoC3S2': 7.89, 'rot1': 295, 'rot0': 291, 'rot3': 286, 'rot2': 218, 'state': 'normal', 'yaw': 42.59, 'datetime': '2018-10-05 19:37:18.752825', 'mgs': 0, 'volt': 0.7813, 'depth': -0.293, 'time': 133, 'pitch': -19.53, 'roll': 8.61, 'pres': 160}
{'lipoC2': 7.87, 'lipoC3S1': 3.95, 'temp': 28.56, 'lipoC3S3': 11.94, 'lipoC3S2': 7.9, 'rot1': 295, 'rot0': 291, 'rot3': 286, 'rot2': 218, 'state': 'normal', 'yaw': 42.28, 'datetime': '2018-10-05 19:37:18.857282', 'mgs': 0, 'volt': 0.7861, 'depth': -0.217, 'time': 133, 'pitch': -19.65, 'roll': 8.35, 'pres': 161}
{'lipoC2': 7.87, 'lipoC3S1': 3.95, 'temp': 28.56, 'lipoC3S3': 11.94, 'lipoC3S2': 7.9, 'rot1': 295, 'rot0': 291, 'rot3': 286, 'rot2': 218, 'state': 'normal', 'yaw': 42.25, 'datetime': '2018-10-05 19:37:18.963240', 'mgs': 0, 'volt': 0.7813, 'depth': -0.293, 'time': 133, 'pitch': -19.64, 'roll': 7.93, 'pres': 160}
{'lipoC2': 7.87, 'lipoC3S1': 3.95, 'temp': 28.56, 'lipoC3S3': 11.94, 'lipoC3S2': 7.89, 'rot1': 295, 'rot0': 291, 'rot3': 286, 'rot2': 218, 'state': 'normal', 'yaw': 42.54, 'datetime': '2018-10-05 19:37:19.066613', 'mgs': 0, 'volt': 0.7813, 'depth': -0.293, 'time': 133, 'pitch': -19.56, 'roll': 7.29, 'pres': 160}
{'lipoC2': 7.87, 'lipoC3S1': 3.95, 'temp': 28.56, 'lipoC3S3': 11.94, 'lipoC3S2': 7.89, 'rot1': 295, 'rot0': 291, 'rot3': 286, 'rot2': 218, 'state': 'normal', 'yaw': 42.69, 'datetime': '2018-10-05 19:37:19.172088', 'mgs': 0, 'volt': 0.7813, 'depth': -0.293, 'time': 134, 'pitch': -19.57, 'roll': 6.83, 'pres': 160}
{'lipoC2': 7.87, 'lipoC3S1': 3.95, 'temp': 28.56, 'lipoC3S3': 11.94, 'lipoC3S2': 7.89, 'rot1': 295, 'rot0': 291, 'rot3': 286, 'rot2': 218, 'state': 'normal', 'yaw': 42.61, 'datetime': '2018-10-05 19:37:19.276522', 'mgs': 0, 'volt': 0.7813, 'depth': -0.293, 'time': 134, 'pitch': -19.57, 'roll': 6.61, 'pres': 160}
{'lipoC2': 7.87, 'lipoC3S1': 3.95, 'temp': 28.56, 'lipoC3S3': 11.94, 'lipoC3S2': 7.9, 'rot1': 295, 'rot0': 291, 'rot3': 286, 'rot2': 218, 'state': 'normal', 'yaw': 42.38, 'datetime': '2018-10-05 19:37:19.382225', 'mgs': 0, 'volt': 0.7764, 'depth': -0.369, 'time': 134, 'pitch': -19.66, 'roll': 6.63, 'pres': 159}
{'lipoC2': 7.87, 'lipoC3S1': 3.95, 'temp': 28.56, 'lipoC3S3': 11.94, 'lipoC3S2': 7.9, 'rot1': 295, 'rot0': 291, 'rot3': 286, 'rot2': 218, 'state': 'normal', 'yaw': 42.25, 'datetime': '2018-10-05 19:37:19.486649', 'mgs': 0, 'volt': 0.7813, 'depth': -0.293, 'time': 134, 'pitch': -19.82, 'roll': 6.69, 'pres': 160}
{'lipoC2': 7.87, 'lipoC3S1': 3.95, 'temp': 28.56, 'lipoC3S3': 11.94, 'lipoC3S2': 7.9, 'rot1': 295, 'rot0': 291, 'rot3': 286, 'rot2': 218, 'state': 'normal', 'yaw': 42.38, 'datetime': '2018-10-05 19:37:19.592531', 'mgs': 0, 'volt': 0.7813, 'depth': -0.293, 'time': 134, 'pitch': -19.69, 'roll': 6.82, 'pres': 160}
{'lipoC2': 7.87, 'lipoC3S1': 3.95, 'temp': 28.56, 'lipoC3S3': 11.94, 'lipoC3S2': 7.89, 'rot1': 295, 'rot0': 291, 'rot3': 286, 'rot2': 218, 'state': 'normal', 'yaw': 42.42, 'datetime': '2018-10-05 19:37:19.696730', 'mgs': 0, 'volt': 0.7764, 'depth': -0.369, 'time': 134, 'pitch': -19.4, 'roll': 7.31, 'pres': 159}
{'lipoC2': 7.87, 'lipoC3S1': 3.95, 'temp': 28.56, 'lipoC3S3': 11.94, 'lipoC3S2': 7.9, 'rot1': 295, 'rot0': 291, 'rot3': 286, 'rot2': 218, 'state': 'normal', 'yaw': 42.32, 'datetime': '2018-10-05 19:37:19.801172', 'mgs': 0, 'volt': 0.7764, 'depth': -0.369, 'time': 134, 'pitch': -19.27, 'roll': 8.01, 'pres': 159}
{'lipoC2': 7.87, 'lipoC3S1': 3.95, 'temp': 28.5, 'lipoC3S3': 11.94, 'lipoC3S2': 7.9, 'rot1': 295, 'rot0': 291, 'rot3': 286, 'rot2': 218, 'state': 'normal', 'yaw': 42.17, 'datetime': '2018-10-05 19:37:19.905604', 'mgs': 0, 'volt': 0.7764, 'depth': -0.369, 'time': 134, 'pitch': -19.33, 'roll': 8.82, 'pres': 159}
{'lipoC2': 7.87, 'lipoC3S1': 3.95, 'temp': 28.5, 'lipoC3S3': 11.94, 'lipoC3S2': 7.89, 'rot1': 295, 'rot0': 291, 'rot3': 286, 'rot2': 218, 'state': 'normal', 'yaw': 42.16, 'datetime': '2018-10-05 19:37:20.010000', 'mgs': 0, 'volt': 0.7813, 'depth': -0.293, 'time': 134, 'pitch': -19.34, 'roll': 9.41, 'pres': 160}
{'lipoC2': 7.87, 'lipoC3S1': 3.95, 'temp': 28.56, 'lipoC3S3': 11.94, 'lipoC3S2': 7.9, 'rot1': 295, 'rot0': 291, 'rot3': 286, 'rot2': 218, 'state': 'normal', 'yaw': 42.11, 'datetime': '2018-10-05 19:37:20.114652', 'mgs': 0, 'volt': 0.7813, 'depth': -0.293, 'time': 135, 'pitch': -19.43, 'roll': 9.92, 'pres': 160}
{'lipoC2': 7.87, 'lipoC3S1': 3.95, 'temp': 28.56, 'lipoC3S3': 11.94, 'lipoC3S2': 7.9, 'rot1': 295, 'rot0': 291, 'rot3': 286, 'rot2': 218, 'state': 'normal', 'yaw': 41.72, 'datetime': '2018-10-05 19:37:20.219025', 'mgs': 0, 'volt': 0.7813, 'depth': -0.293, 'time': 135, 'pitch': -19.7, 'roll': 10.52, 'pres': 160}
{'lipoC2': 7.87, 'lipoC3S1': 3.95, 'temp': 28.56, 'lipoC3S3': 11.94, 'lipoC3S2': 7.9, 'rot1': 295, 'rot0': 291, 'rot3': 286, 'rot2': 218, 'state': 'normal', 'yaw': 41.38, 'datetime': '2018-10-05 19:37:20.324747', 'mgs': 0, 'volt': 0.7764, 'depth': -0.369, 'time': 135, 'pitch': -19.93, 'roll': 10.78, 'pres': 159}
{'lipoC2': 7.87, 'lipoC3S1': 3.95, 'temp': 28.56, 'lipoC3S3': 11.94, 'lipoC3S2': 7.9, 'rot1': 295, 'rot0': 291, 'rot3': 286, 'rot2': 218, 'state': 'normal', 'yaw': 41.55, 'datetime': '2018-10-05 19:37:20.429193', 'mgs': 0, 'volt': 0.7813, 'depth': -0.293, 'time': 135, 'pitch': -20.06, 'roll': 10.29, 'pres': 160}
{'lipoC2': 7.87, 'lipoC3S1': 3.95, 'temp': 28.56, 'lipoC3S3': 11.94, 'lipoC3S2': 7.9, 'rot1': 295, 'rot0': 291, 'rot3': 286, 'rot2': 218, 'state': 'normal', 'yaw': 42.15, 'datetime': '2018-10-05 19:37:20.534815', 'mgs': 0, 'volt': 0.7813, 'depth': -0.293, 'time': 135, 'pitch': -20.02, 'roll': 9.27, 'pres': 160}
{'lipoC2': 7.87, 'lipoC3S1': 3.95, 'temp': 28.5, 'lipoC3S3': 11.94, 'lipoC3S2': 7.89, 'rot1': 295, 'rot0': 291, 'rot3': 286, 'rot2': 218, 'state': 'normal', 'yaw': 42.8, 'datetime': '2018-10-05 19:37:20.633931', 'mgs': 0, 'volt': 0.7764, 'depth': -0.369, 'time': 135, 'pitch': -19.82, 'roll': 8.05, 'pres': 159}
{'lipoC2': 7.87, 'lipoC3S1': 3.95, 'temp': 28.5, 'lipoC3S3': 11.94, 'lipoC3S2': 7.9, 'rot1': 295, 'rot0': 291, 'rot3': 286, 'rot2': 218, 'state': 'normal', 'yaw': 43.08, 'datetime': '2018-10-05 19:37:20.738938', 'mgs': 0, 'volt': 0.7764, 'depth': -0.369, 'time': 135, 'pitch': -19.69, 'roll': 7.27, 'pres': 159}
{'lipoC2': 7.87, 'lipoC3S1': 3.95, 'temp': 28.56, 'lipoC3S3': 11.94, 'lipoC3S2': 7.9, 'rot1': 295, 'rot0': 291, 'rot3': 286, 'rot2': 218, 'state': 'normal', 'yaw': 43.17, 'datetime': '2018-10-05 19:37:20.843349', 'mgs': 0, 'volt': 0.7813, 'depth': -0.293, 'time': 135, 'pitch': -19.71, 'roll': 6.78, 'pres': 160}
{'lipoC2': 7.87, 'lipoC3S1': 3.95, 'temp': 28.56, 'lipoC3S3': 11.94, 'lipoC3S2': 7.9, 'rot1': 295, 'rot0': 291, 'rot3': 286, 'rot2': 218, 'state': 'normal', 'yaw': 43.32, 'datetime': '2018-10-05 19:37:20.947751', 'mgs': 0, 'volt': 0.7764, 'depth': -0.369, 'time': 135, 'pitch': -19.78, 'roll': 6.49, 'pres': 159}
{'lipoC2': 7.87, 'lipoC3S1': 3.95, 'temp': 28.56, 'lipoC3S3': 11.94, 'lipoC3S2': 7.9, 'rot1': 295, 'rot0': 291, 'rot3': 286, 'rot2': 218, 'state': 'normal', 'yaw': 43.55, 'datetime': '2018-10-05 19:37:21.052210', 'mgs': 0, 'volt': 0.7764, 'depth': -0.369, 'time': 135, 'pitch': -19.8, 'roll': 6.34, 'pres': 159}
{'lipoC2': 7.87, 'lipoC3S1': 3.95, 'temp': 28.5, 'lipoC3S3': 11.94, 'lipoC3S2': 7.9, 'rot1': 295, 'rot0': 291, 'rot3': 286, 'rot2': 218, 'state': 'normal', 'yaw': 43.73, 'datetime': '2018-10-05 19:37:21.156634', 'mgs': 0, 'volt': 0.7764, 'depth': -0.369, 'time': 136, 'pitch': -19.88, 'roll': 6.4, 'pres': 159}
{'lipoC2': 7.87, 'lipoC3S1': 3.95, 'temp': 28.5, 'lipoC3S3': 11.94, 'lipoC3S2': 7.89, 'rot1': 295, 'rot0': 291, 'rot3': 286, 'rot2': 218, 'state': 'normal', 'yaw': 43.92, 'datetime': '2018-10-05 19:37:21.261026', 'mgs': 0, 'volt': 0.7764, 'depth': -0.369, 'time': 136, 'pitch': -20.0, 'roll': 6.62, 'pres': 159}
{'lipoC2': 7.87, 'lipoC3S1': 3.95, 'temp': 28.56, 'lipoC3S3': 11.94, 'lipoC3S2': 7.9, 'rot1': 295, 'rot0': 291, 'rot3': 286, 'rot2': 218, 'state': 'normal', 'yaw': 44.07, 'datetime': '2018-10-05 19:37:21.365477', 'mgs': 0, 'volt': 0.7764, 'depth': -0.369, 'time': 136, 'pitch': -20.1, 'roll': 7.09, 'pres': 159}
{'lipoC2': 7.87, 'lipoC3S1': 3.95, 'temp': 28.56, 'lipoC3S3': 11.94, 'lipoC3S2': 7.9, 'rot1': 295, 'rot0': 291, 'rot3': 286, 'rot2': 218, 'state': 'normal', 'yaw': 44.08, 'datetime': '2018-10-05 19:37:21.471190', 'mgs': 0, 'volt': 0.7764, 'depth': -0.369, 'time': 136, 'pitch': -20.1, 'roll': 7.72, 'pres': 159}
{'lipoC2': 7.87, 'lipoC3S1': 3.95, 'temp': 28.56, 'lipoC3S3': 11.94, 'lipoC3S2': 7.9, 'rot1': 295, 'rot0': 291, 'rot3': 286, 'rot2': 218, 'state': 'normal', 'yaw': 44.08, 'datetime': '2018-10-05 19:37:21.580063', 'mgs': 1, 'volt': 0.7813, 'depth': -0.293, 'time': 136, 'pitch': -20.09, 'roll': 8.52, 'pres': 160}
{'lipoC2': 7.87, 'lipoC3S1': 3.95, 'temp': 28.5, 'lipoC3S3': 11.94, 'lipoC3S2': 7.9, 'rot1': 0, 'rot0': 0, 'rot3': 0, 'rot2': 0, 'state': 'normal', 'yaw': 0.0, 'datetime': '2018-10-05 19:37:27.614812', 'mgs': 0, 'volt': 0.7764, 'depth': -0.369, 'time': 1, 'pitch': -15.3, 'roll': 0.84, 'pres': 159}
{'lipoC2': 7.87, 'lipoC3S1': 3.95, 'temp': 28.5, 'lipoC3S3': 11.94, 'lipoC3S2': 7.89, 'rot1': 0, 'rot0': 0, 'rot3': 0, 'rot2': 0, 'state': 'normal', 'yaw': 0.2, 'datetime': '2018-10-05 19:37:30.657280', 'mgs': 0, 'volt': 0.7764, 'depth': -0.369, 'time': 1, 'pitch': -15.07, 'roll': 0.72, 'pres': 159}
{'lipoC2': 7.87, 'lipoC3S1': 3.95, 'temp': 28.5, 'lipoC3S3': 11.94, 'lipoC3S2': 7.9, 'rot1': 0, 'rot0': 0, 'rot3': 0, 'rot2': 0, 'state': 'normal', 'yaw': 0.57, 'datetime': '2018-10-05 19:37:30.692908', 'mgs': 0, 'volt': 0.7764, 'depth': -0.369, 'time': 1, 'pitch': -14.86, 'roll': 0.75, 'pres': 159}
{'lipoC2': 7.87, 'lipoC3S1': 3.95, 'temp': 28.5, 'lipoC3S3': 11.94, 'lipoC3S2': 7.9, 'rot1': 0, 'rot0': 0, 'rot3': 0, 'rot2': 0, 'state': 'normal', 'yaw': 1.08, 'datetime': '2018-10-05 19:37:30.707045', 'mgs': 0, 'volt': 0.7764, 'depth': -0.369, 'time': 1, 'pitch': -14.76, 'roll': 0.82, 'pres': 159}
{'lipoC2': 7.87, 'lipoC3S1': 3.95, 'temp': 28.5, 'lipoC3S3': 11.96, 'lipoC3S2': 7.9, 'rot1': 0, 'rot0': 0, 'rot3': 0, 'rot2': 0, 'state': 'normal', 'yaw': 1.47, 'datetime': '2018-10-05 19:37:30.725210', 'mgs': 0, 'volt': 0.7764, 'depth': -0.369, 'time': 1, 'pitch': -14.74, 'roll': 1.14, 'pres': 159}
{'lipoC2': 7.87, 'lipoC3S1': 3.95, 'temp': 28.56, 'lipoC3S3': 11.94, 'lipoC3S2': 7.9, 'rot1': 0, 'rot0': 0, 'rot3': 0, 'rot2': 0, 'state': 'normal', 'yaw': 1.6, 'datetime': '2018-10-05 19:37:30.744292', 'mgs': 0, 'volt': 0.7764, 'depth': -0.369, 'time': 1, 'pitch': -14.72, 'roll': 1.69, 'pres': 159}
{'lipoC2': 7.87, 'lipoC3S1': 3.95, 'temp': 28.56, 'lipoC3S3': 11.96, 'lipoC3S2': 7.9, 'rot1': 0, 'rot0': 0, 'rot3': 0, 'rot2': 0, 'state': 'normal', 'yaw': 1.79, 'datetime': '2018-10-05 19:37:30.757312', 'mgs': 0, 'volt': 0.7764, 'depth': -0.369, 'time': 1, 'pitch': -14.63, 'roll': 2.21, 'pres': 159}
{'lipoC2': 7.87, 'lipoC3S1': 3.95, 'temp': 28.56, 'lipoC3S3': 11.94, 'lipoC3S2': 7.9, 'rot1': 0, 'rot0': 0, 'rot3': 0, 'rot2': 0, 'state': 'normal', 'yaw': 2.1, 'datetime': '2018-10-05 19:37:30.776462', 'mgs': 0, 'volt': 0.7764, 'depth': -0.369, 'time': 1, 'pitch': -14.62, 'roll': 2.6, 'pres': 159}
{'lipoC2': 7.87, 'lipoC3S1': 3.95, 'temp': 28.56, 'lipoC3S3': 11.94, 'lipoC3S2': 7.9, 'rot1': 0, 'rot0': 0, 'rot3': 0, 'rot2': 0, 'state': 'normal', 'yaw': 2.16, 'datetime': '2018-10-05 19:37:30.795624', 'mgs': 0, 'volt': 0.7764, 'depth': -0.369, 'time': 2, 'pitch': -14.58, 'roll': 2.91, 'pres': 159}
{'lipoC2': 7.87, 'lipoC3S1': 3.95, 'temp': 28.56, 'lipoC3S3': 11.94, 'lipoC3S2': 7.9, 'rot1': 0, 'rot0': 0, 'rot3': 0, 'rot2': 0, 'state': 'normal', 'yaw': 2.01, 'datetime': '2018-10-05 19:37:30.808360', 'mgs': 0, 'volt': 0.7764, 'depth': -0.369, 'time': 2, 'pitch': -14.53, 'roll': 3.18, 'pres': 159}
{'lipoC2': 7.87, 'lipoC3S1': 3.95, 'temp': 28.56, 'lipoC3S3': 11.94, 'lipoC3S2': 7.9, 'rot1': 0, 'rot0': 0, 'rot3': 0, 'rot2': 0, 'state': 'normal', 'yaw': 1.94, 'datetime': '2018-10-05 19:37:30.826725', 'mgs': 0, 'volt': 0.7764, 'depth': -0.369, 'time': 2, 'pitch': -14.49, 'roll': 3.12, 'pres': 159}
{'lipoC2': 7.87, 'lipoC3S1': 3.95, 'temp': 28.56, 'lipoC3S3': 11.94, 'lipoC3S2': 7.9, 'rot1': 0, 'rot0': 0, 'rot3': 0, 'rot2': 0, 'state': 'normal', 'yaw': 2.02, 'datetime': '2018-10-05 19:37:30.845793', 'mgs': 0, 'volt': 0.7764, 'depth': -0.369, 'time': 2, 'pitch': -14.44, 'roll': 2.72, 'pres': 159}
{'lipoC2': 7.87, 'lipoC3S1': 3.95, 'temp': 28.5, 'lipoC3S3': 11.94, 'lipoC3S2': 7.9, 'rot1': 0, 'rot0': 0, 'rot3': 0, 'rot2': 0, 'state': 'normal', 'yaw': 2.03, 'datetime': '2018-10-05 19:37:30.858809', 'mgs': 0, 'volt': 0.7764, 'depth': -0.369, 'time': 2, 'pitch': -14.38, 'roll': 2.17, 'pres': 159}
{'lipoC2': 7.87, 'lipoC3S1': 3.95, 'temp': 28.5, 'lipoC3S3': 11.94, 'lipoC3S2': 7.9, 'rot1': 0, 'rot0': 0, 'rot3': 0, 'rot2': 0, 'state': 'normal', 'yaw': 1.97, 'datetime': '2018-10-05 19:37:30.877902', 'mgs': 0, 'volt': 0.7764, 'depth': -0.369, 'time': 2, 'pitch': -14.26, 'roll': 1.52, 'pres': 159}
{'lipoC2': 7.87, 'lipoC3S1': 3.95, 'temp': 28.56, 'lipoC3S3': 11.94, 'lipoC3S2': 7.9, 'rot1': 0, 'rot0': 0, 'rot3': 0, 'rot2': 0, 'state': 'normal', 'yaw': 1.99, 'datetime': '2018-10-05 19:37:30.897048', 'mgs': 0, 'volt': 0.7764, 'depth': -0.369, 'time': 2, 'pitch': -14.17, 'roll': 0.92, 'pres': 159}
{'lipoC2': 7.87, 'lipoC3S1': 3.95, 'temp': 28.56, 'lipoC3S3': 11.94, 'lipoC3S2': 7.9, 'rot1': 0, 'rot0': 0, 'rot3': 0, 'rot2': 0, 'state': 'normal', 'yaw': 2.18, 'datetime': '2018-10-05 19:37:30.910484', 'mgs': 0, 'volt': 0.7764, 'depth': -0.369, 'time': 2, 'pitch': -14.16, 'roll': 0.26, 'pres': 159}
{'lipoC2': 7.87, 'lipoC3S1': 3.95, 'temp': 28.5, 'lipoC3S3': 11.94, 'lipoC3S2': 7.9, 'rot1': 0, 'rot0': 0, 'rot3': 0, 'rot2': 0, 'state': 'normal', 'yaw': 2.49, 'datetime': '2018-10-05 19:37:30.927071', 'mgs': 0, 'volt': 0.7764, 'depth': -0.369, 'time': 2, 'pitch': -14.09, 'roll': -0.27, 'pres': 159}
{'lipoC2': 7.87, 'lipoC3S1': 3.95, 'temp': 28.5, 'lipoC3S3': 11.94, 'lipoC3S2': 7.9, 'rot1': 0, 'rot0': 0, 'rot3': 0, 'rot2': 0, 'state': 'normal', 'yaw': 2.84, 'datetime': '2018-10-05 19:37:30.943285', 'mgs': 0, 'volt': 0.7715, 'depth': -0.446, 'time': 3, 'pitch': -13.84, 'roll': -0.61, 'pres': 158}
{'lipoC2': 7.87, 'lipoC3S1': 3.95, 'temp': 28.5, 'lipoC3S3': 11.94, 'lipoC3S2': 7.9, 'rot1': 0, 'rot0': 0, 'rot3': 0, 'rot2': 0, 'state': 'normal', 'yaw': 3.17, 'datetime': '2018-10-05 19:37:30.953234', 'mgs': 0, 'volt': 0.7715, 'depth': -0.446, 'time': 3, 'pitch': -13.74, 'roll': -0.7, 'pres': 158}
{'lipoC2': 7.87, 'lipoC3S1': 3.95, 'temp': 28.5, 'lipoC3S3': 11.94, 'lipoC3S2': 7.9, 'rot1': 0, 'rot0': 0, 'rot3': 0, 'rot2': 0, 'state': 'normal', 'yaw': 3.48, 'datetime': '2018-10-05 19:37:30.969138', 'mgs': 0, 'volt': 0.7764, 'depth': -0.369, 'time': 3, 'pitch': -13.78, 'roll': -0.58, 'pres': 159}
{'lipoC2': 7.87, 'lipoC3S1': 3.95, 'temp': 28.5, 'lipoC3S3': 11.94, 'lipoC3S2': 7.9, 'rot1': 0, 'rot0': 0, 'rot3': 0, 'rot2': 0, 'state': 'normal', 'yaw': 3.85, 'datetime': '2018-10-05 19:37:30.988255', 'mgs': 0, 'volt': 0.7764, 'depth': -0.369, 'time': 3, 'pitch': -13.71, 'roll': -0.32, 'pres': 159}
{'lipoC2': 7.87, 'lipoC3S1': 3.95, 'temp': 28.56, 'lipoC3S3': 11.96, 'lipoC3S2': 7.9, 'rot1': 0, 'rot0': 0, 'rot3': 0, 'rot2': 0, 'state': 'normal', 'yaw': 4.17, 'datetime': '2018-10-05 19:37:31.001255', 'mgs': 0, 'volt': 0.7764, 'depth': -0.369, 'time': 3, 'pitch': -13.48, 'roll': 0.06, 'pres': 159}
{'lipoC2': 7.87, 'lipoC3S1': 3.95, 'temp': 28.56, 'lipoC3S3': 11.94, 'lipoC3S2': 7.9, 'rot1': 0, 'rot0': 0, 'rot3': 0, 'rot2': 0, 'state': 'normal', 'yaw': 4.42, 'datetime': '2018-10-05 19:37:31.020519', 'mgs': 0, 'volt': 0.7764, 'depth': -0.369, 'time': 3, 'pitch': -13.27, 'roll': 0.54, 'pres': 159}
{'lipoC2': 7.87, 'lipoC3S1': 3.95, 'temp': 28.56, 'lipoC3S3': 11.94, 'lipoC3S2': 7.9, 'rot1': 0, 'rot0': 0, 'rot3': 0, 'rot2': 0, 'state': 'normal', 'yaw': 4.61, 'datetime': '2018-10-05 19:37:31.036833', 'mgs': 0, 'volt': 0.7764, 'depth': -0.369, 'time': 3, 'pitch': -13.22, 'roll': 0.99, 'pres': 159}
{'lipoC2': 7.87, 'lipoC3S1': 3.95, 'temp': 28.56, 'lipoC3S3': 11.96, 'lipoC3S2': 7.9, 'rot1': 0, 'rot0': 0, 'rot3': 0, 'rot2': 0, 'state': 'normal', 'yaw': 4.73, 'datetime': '2018-10-05 19:37:31.046793', 'mgs': 0, 'volt': 0.7764, 'depth': -0.369, 'time': 3, 'pitch': -13.18, 'roll': 1.44, 'pres': 159}
