{'lipoC2': 7.5, 'lipoC3S1': 3.95, 'temp': 29.94, 'lipoC3S3': 11.94, 'lipoC3S2': 7.91, 'rot1': 0, 'rot0': 0, 'rot3': 0, 'rot2': 0, 'state': 'normal', 'yaw': -0.02, 'datetime': '2018-10-10 00:54:36.066611', 'mgs': 0, 'volt': 0.8398, 'depth': 0.623, 'time': 1, 'pitch': 0.16, 'roll': -1.27, 'pres': 172}
{'lipoC2': 7.5, 'lipoC3S1': 3.95, 'temp': 29.88, 'lipoC3S3': 11.93, 'lipoC3S2': 7.91, 'rot1': 0, 'rot0': 0, 'rot3': 0, 'rot2': 0, 'state': 'normal', 'yaw': 0.03, 'datetime': '2018-10-10 00:54:36.088643', 'mgs': 0, 'volt': 0.8398, 'depth': 0.623, 'time': 1, 'pitch': 0.2, 'roll': -0.38, 'pres': 172}
{'lipoC2': 7.5, 'lipoC3S1': 3.95, 'temp': 29.88, 'lipoC3S3': 11.94, 'lipoC3S2': 7.91, 'rot1': 0, 'rot0': 0, 'rot3': 0, 'rot2': 0, 'state': 'normal', 'yaw': 0.28, 'datetime': '2018-10-10 00:54:36.110744', 'mgs': 0, 'volt': 0.8447, 'depth': 0.699, 'time': 1, 'pitch': -0.12, 'roll': 0.2, 'pres': 173}
{'lipoC2': 7.5, 'lipoC3S1': 3.95, 'temp': 29.88, 'lipoC3S3': 11.94, 'lipoC3S2': 7.91, 'rot1': 0, 'rot0': 0, 'rot3': 0, 'rot2': 0, 'state': 'normal', 'yaw': 0.67, 'datetime': '2018-10-10 00:54:36.132943', 'mgs': 0, 'volt': 0.8447, 'depth': 0.699, 'time': 1, 'pitch': -0.53, 'roll': 0.38, 'pres': 173}
{'lipoC2': 7.49, 'lipoC3S1': 3.95, 'temp': 29.94, 'lipoC3S3': 11.93, 'lipoC3S2': 7.91, 'rot1': 0, 'rot0': 0, 'rot3': 0, 'rot2': 0, 'state': 'normal', 'yaw': 1.32, 'datetime': '2018-10-10 00:54:36.154222', 'mgs': 0, 'volt': 0.8447, 'depth': 0.699, 'time': 1, 'pitch': -0.47, 'roll': 0.15, 'pres': 173}
{'lipoC2': 7.5, 'lipoC3S1': 3.95, 'temp': 29.94, 'lipoC3S3': 11.93, 'lipoC3S2': 7.91, 'rot1': 0, 'rot0': 0, 'rot3': 0, 'rot2': 0, 'state': 'normal', 'yaw': 1.91, 'datetime': '2018-10-10 00:54:36.165437', 'mgs': 0, 'volt': 0.8447, 'depth': 0.699, 'time': 1, 'pitch': -0.05, 'roll': -0.27, 'pres': 173}
{'lipoC2': 7.5, 'lipoC3S1': 3.95, 'temp': 29.88, 'lipoC3S3': 11.93, 'lipoC3S2': 7.91, 'rot1': 0, 'rot0': 0, 'rot3': 0, 'rot2': 0, 'state': 'normal', 'yaw': 2.32, 'datetime': '2018-10-10 00:54:36.176928', 'mgs': 0, 'volt': 0.8447, 'depth': 0.699, 'time': 1, 'pitch': 0.42, 'roll': -0.51, 'pres': 173}
{'lipoC2': 7.5, 'lipoC3S1': 3.95, 'temp': 29.88, 'lipoC3S3': 11.94, 'lipoC3S2': 7.91, 'rot1': 0, 'rot0': 0, 'rot3': 0, 'rot2': 0, 'state': 'normal', 'yaw': 2.51, 'datetime': '2018-10-10 00:54:36.186640', 'mgs': 0, 'volt': 0.8496, 'depth': 0.775, 'time': 2, 'pitch': 0.88, 'roll': -0.58, 'pres': 174}
{'lipoC2': 7.5, 'lipoC3S1': 3.95, 'temp': 29.88, 'lipoC3S3': 11.93, 'lipoC3S2': 7.91, 'rot1': 0, 'rot0': 0, 'rot3': 0, 'rot2': 0, 'state': 'normal', 'yaw': 2.37, 'datetime': '2018-10-10 00:54:36.196276', 'mgs': 0, 'volt': 0.8447, 'depth': 0.699, 'time': 2, 'pitch': 1.55, 'roll': -0.58, 'pres': 173}
{'lipoC2': 7.5, 'lipoC3S1': 3.95, 'temp': 29.88, 'lipoC3S3': 11.94, 'lipoC3S2': 7.91, 'rot1': 0, 'rot0': 0, 'rot3': 0, 'rot2': 0, 'state': 'normal', 'yaw': 2.19, 'datetime': '2018-10-10 00:54:36.205894', 'mgs': 0, 'volt': 0.8447, 'depth': 0.699, 'time': 2, 'pitch': 1.83, 'roll': -0.58, 'pres': 173}
{'lipoC2': 7.5, 'lipoC3S1': 3.95, 'temp': 29.88, 'lipoC3S3': 11.93, 'lipoC3S2': 7.91, 'rot1': 0, 'rot0': 0, 'rot3': 0, 'rot2': 0, 'state': 'normal', 'yaw': 2.47, 'datetime': '2018-10-10 00:54:36.215493', 'mgs': 0, 'volt': 0.8447, 'depth': 0.699, 'time': 2, 'pitch': 1.35, 'roll': -1.02, 'pres': 173}
{'lipoC2': 7.49, 'lipoC3S1': 3.95, 'temp': 29.88, 'lipoC3S3': 11.93, 'lipoC3S2': 7.91, 'rot1': 0, 'rot0': 0, 'rot3': 0, 'rot2': 0, 'state': 'normal', 'yaw': 3.27, 'datetime': '2018-10-10 00:54:36.282615', 'mgs': 0, 'volt': 0.8447, 'depth': 0.699, 'time': 2, 'pitch': 0.51, 'roll': -2.16, 'pres': 173}
{'lipoC2': 7.5, 'lipoC3S1': 3.95, 'temp': 29.88, 'lipoC3S3': 11.93, 'lipoC3S2': 7.91, 'rot1': 0, 'rot0': 0, 'rot3': 0, 'rot2': 0, 'state': 'normal', 'yaw': 3.86, 'datetime': '2018-10-10 00:54:36.386050', 'mgs': 0, 'volt': 0.8398, 'depth': 0.623, 'time': 2, 'pitch': 0.24, 'roll': -3.77, 'pres': 172}
{'lipoC2': 7.5, 'lipoC3S1': 3.95, 'temp': 29.81, 'lipoC3S3': 11.93, 'lipoC3S2': 7.91, 'rot1': 0, 'rot0': 0, 'rot3': 0, 'rot2': 0, 'state': 'normal', 'yaw': 3.33, 'datetime': '2018-10-10 00:54:36.489286', 'mgs': 0, 'volt': 0.8447, 'depth': 0.699, 'time': 2, 'pitch': 0.89, 'roll': -5.0, 'pres': 173}
{'lipoC2': 7.5, 'lipoC3S1': 3.95, 'temp': 29.81, 'lipoC3S3': 11.94, 'lipoC3S2': 7.91, 'rot1': 0, 'rot0': 0, 'rot3': 0, 'rot2': 0, 'state': 'normal', 'yaw': 1.99, 'datetime': '2018-10-10 00:54:36.592524', 'mgs': 0, 'volt': 0.8447, 'depth': 0.699, 'time': 2, 'pitch': 1.94, 'roll': -5.83, 'pres': 173}
{'lipoC2': 7.5, 'lipoC3S1': 3.95, 'temp': 29.88, 'lipoC3S3': 11.94, 'lipoC3S2': 7.91, 'rot1': 0, 'rot0': 0, 'rot3': 0, 'rot2': 0, 'state': 'normal', 'yaw': 0.84, 'datetime': '2018-10-10 00:54:36.695982', 'mgs': 0, 'volt': 0.8447, 'depth': 0.699, 'time': 2, 'pitch': 2.39, 'roll': -6.44, 'pres': 173}
{'lipoC2': 7.5, 'lipoC3S1': 3.95, 'temp': 29.88, 'lipoC3S3': 11.94, 'lipoC3S2': 7.91, 'rot1': 0, 'rot0': 0, 'rot3': 0, 'rot2': 0, 'state': 'normal', 'yaw': 0.39, 'datetime': '2018-10-10 00:54:36.799206', 'mgs': 0, 'volt': 0.8447, 'depth': 0.699, 'time': 3, 'pitch': 2.27, 'roll': -6.72, 'pres': 173}
{'lipoC2': 7.5, 'lipoC3S1': 3.95, 'temp': 29.88, 'lipoC3S3': 11.94, 'lipoC3S2': 7.91, 'rot1': 0, 'rot0': 0, 'rot3': 0, 'rot2': 0, 'state': 'normal', 'yaw': 0.27, 'datetime': '2018-10-10 00:54:36.908998', 'mgs': 0, 'volt': 0.8447, 'depth': 0.699, 'time': 3, 'pitch': 1.77, 'roll': -6.43, 'pres': 173}
{'lipoC2': 7.5, 'lipoC3S1': 3.95, 'temp': 29.88, 'lipoC3S3': 11.94, 'lipoC3S2': 7.91, 'rot1': 0, 'rot0': 0, 'rot3': 0, 'rot2': 0, 'state': 'normal', 'yaw': 0.08, 'datetime': '2018-10-10 00:54:37.012598', 'mgs': 0, 'volt': 0.8447, 'depth': 0.699, 'time': 3, 'pitch': 1.43, 'roll': -5.88, 'pres': 173}
{'lipoC2': 7.5, 'lipoC3S1': 3.95, 'temp': 29.88, 'lipoC3S3': 11.94, 'lipoC3S2': 7.91, 'rot1': 0, 'rot0': 0, 'rot3': 0, 'rot2': 0, 'state': 'normal', 'yaw': -0.09, 'datetime': '2018-10-10 00:54:37.115829', 'mgs': 0, 'volt': 0.8447, 'depth': 0.699, 'time': 3, 'pitch': 1.46, 'roll': -5.42, 'pres': 173}
{'lipoC2': 7.5, 'lipoC3S1': 3.95, 'temp': 29.94, 'lipoC3S3': 11.94, 'lipoC3S2': 7.91, 'rot1': 0, 'rot0': 0, 'rot3': 0, 'rot2': 0, 'state': 'normal', 'yaw': 0.01, 'datetime': '2018-10-10 00:54:37.219002', 'mgs': 0, 'volt': 0.8447, 'depth': 0.699, 'time': 3, 'pitch': 1.43, 'roll': -5.42, 'pres': 173}
{'lipoC2': 7.5, 'lipoC3S1': 3.95, 'temp': 29.94, 'lipoC3S3': 11.94, 'lipoC3S2': 7.91, 'rot1': 0, 'rot0': 0, 'rot3': 0, 'rot2': 0, 'state': 'normal', 'yaw': 0.24, 'datetime': '2018-10-10 00:54:37.323536', 'mgs': 0, 'volt': 0.8496, 'depth': 0.775, 'time': 3, 'pitch': 1.51, 'roll': -5.63, 'pres': 174}
{'lipoC2': 7.5, 'lipoC3S1': 3.95, 'temp': 29.88, 'lipoC3S3': 11.93, 'lipoC3S2': 7.91, 'rot1': 0, 'rot0': 0, 'rot3': 0, 'rot2': 0, 'state': 'normal', 'yaw': 0.19, 'datetime': '2018-10-10 00:54:37.426708', 'mgs': 0, 'volt': 0.8447, 'depth': 0.699, 'time': 3, 'pitch': 2.28, 'roll': -5.42, 'pres': 173}
{'lipoC2': 7.5, 'lipoC3S1': 3.95, 'temp': 29.88, 'lipoC3S3': 11.93, 'lipoC3S2': 7.91, 'rot1': 0, 'rot0': 0, 'rot3': 0, 'rot2': 0, 'state': 'normal', 'yaw': -0.28, 'datetime': '2018-10-10 00:54:37.530553', 'mgs': 0, 'volt': 0.8447, 'depth': 0.699, 'time': 3, 'pitch': 2.86, 'roll': -4.46, 'pres': 173}
{'lipoC2': 7.5, 'lipoC3S1': 3.95, 'temp': 29.88, 'lipoC3S3': 11.94, 'lipoC3S2': 7.91, 'rot1': 0, 'rot0': 0, 'rot3': 0, 'rot2': 0, 'state': 'normal', 'yaw': -0.7, 'datetime': '2018-10-10 00:54:37.635064', 'mgs': 0, 'volt': 0.8496, 'depth': 0.775, 'time': 3, 'pitch': 2.44, 'roll': -2.92, 'pres': 174}
{'lipoC2': 7.5, 'lipoC3S1': 3.95, 'temp': 29.94, 'lipoC3S3': 11.94, 'lipoC3S2': 7.91, 'rot1': 0, 'rot0': 0, 'rot3': 0, 'rot2': 0, 'state': 'normal', 'yaw': -0.35, 'datetime': '2018-10-10 00:54:37.738234', 'mgs': 0, 'volt': 0.8496, 'depth': 0.775, 'time': 3, 'pitch': 1.54, 'roll': -1.4, 'pres': 174}
{'lipoC2': 7.5, 'lipoC3S1': 3.95, 'temp': 29.94, 'lipoC3S3': 11.93, 'lipoC3S2': 7.91, 'rot1': 0, 'rot0': 0, 'rot3': 0, 'rot2': 0, 'state': 'normal', 'yaw': 0.56, 'datetime': '2018-10-10 00:54:37.842671', 'mgs': 0, 'volt': 0.8447, 'depth': 0.699, 'time': 4, 'pitch': 1.06, 'roll': -0.59, 'pres': 173}
{'lipoC2': 7.5, 'lipoC3S1': 3.95, 'temp': 29.94, 'lipoC3S3': 11.94, 'lipoC3S2': 7.91, 'rot1': 0, 'rot0': 0, 'rot3': 0, 'rot2': 0, 'state': 'normal', 'yaw': 1.31, 'datetime': '2018-10-10 00:54:37.946802', 'mgs': 0, 'volt': 0.8398, 'depth': 0.623, 'time': 4, 'pitch': 0.84, 'roll': -0.29, 'pres': 172}
{'lipoC2': 7.5, 'lipoC3S1': 3.95, 'temp': 29.94, 'lipoC3S3': 11.94, 'lipoC3S2': 7.91, 'rot1': 0, 'rot0': 0, 'rot3': 0, 'rot2': 0, 'state': 'normal', 'yaw': 1.53, 'datetime': '2018-10-10 00:54:38.045545', 'mgs': 0, 'volt': 0.8398, 'depth': 0.623, 'time': 4, 'pitch': 0.45, 'roll': -0.35, 'pres': 172}
{'lipoC2': 7.5, 'lipoC3S1': 3.95, 'temp': 29.88, 'lipoC3S3': 11.94, 'lipoC3S2': 7.91, 'rot1': 0, 'rot0': 0, 'rot3': 0, 'rot2': 0, 'state': 'normal', 'yaw': 1.23, 'datetime': '2018-10-10 00:54:38.153109', 'mgs': 0, 'volt': 0.8398, 'depth': 0.623, 'time': 4, 'pitch': -0.17, 'roll': -0.77, 'pres': 172}
{'lipoC2': 7.5, 'lipoC3S1': 3.95, 'temp': 29.88, 'lipoC3S3': 11.94, 'lipoC3S2': 7.91, 'rot1': 0, 'rot0': 0, 'rot3': 0, 'rot2': 0, 'state': 'normal', 'yaw': 0.87, 'datetime': '2018-10-10 00:54:38.257042', 'mgs': 0, 'volt': 0.8447, 'depth': 0.699, 'time': 4, 'pitch': -0.37, 'roll': -1.56, 'pres': 173}
{'lipoC2': 7.5, 'lipoC3S1': 3.95, 'temp': 29.88, 'lipoC3S3': 11.94, 'lipoC3S2': 7.91, 'rot1': 0, 'rot0': 0, 'rot3': 0, 'rot2': 0, 'state': 'normal', 'yaw': 0.49, 'datetime': '2018-10-10 00:54:38.359786', 'mgs': 0, 'volt': 0.8398, 'depth': 0.623, 'time': 4, 'pitch': 0.51, 'roll': -2.45, 'pres': 172}
{'lipoC2': 7.5, 'lipoC3S1': 3.95, 'temp': 29.94, 'lipoC3S3': 11.93, 'lipoC3S2': 7.91, 'rot1': 0, 'rot0': 0, 'rot3': 0, 'rot2': 0, 'state': 'normal', 'yaw': 0.08, 'datetime': '2018-10-10 00:54:38.462965', 'mgs': 0, 'volt': 0.8447, 'depth': 0.699, 'time': 4, 'pitch': 1.59, 'roll': -2.93, 'pres': 173}
{'lipoC2': 7.5, 'lipoC3S1': 3.95, 'temp': 29.94, 'lipoC3S3': 11.94, 'lipoC3S2': 7.91, 'rot1': 0, 'rot0': 0, 'rot3': 0, 'rot2': 0, 'state': 'normal', 'yaw': -0.4, 'datetime': '2018-10-10 00:54:38.566148', 'mgs': 0, 'volt': 0.8398, 'depth': 0.623, 'time': 4, 'pitch': 1.84, 'roll': -3.11, 'pres': 172}
{'lipoC2': 7.5, 'lipoC3S1': 3.95, 'temp': 29.88, 'lipoC3S3': 11.93, 'lipoC3S2': 7.91, 'rot1': 0, 'rot0': 0, 'rot3': 0, 'rot2': 0, 'state': 'normal', 'yaw': -0.93, 'datetime': '2018-10-10 00:54:38.669418', 'mgs': 0, 'volt': 0.8447, 'depth': 0.699, 'time': 4, 'pitch': 1.09, 'roll': -3.12, 'pres': 173}
{'lipoC2': 7.5, 'lipoC3S1': 3.95, 'temp': 29.88, 'lipoC3S3': 11.94, 'lipoC3S2': 7.91, 'rot1': 0, 'rot0': 0, 'rot3': 0, 'rot2': 0, 'state': 'normal', 'yaw': -1.39, 'datetime': '2018-10-10 00:54:38.772755', 'mgs': 0, 'volt': 0.8447, 'depth': 0.699, 'time': 4, 'pitch': 0.18, 'roll': -3.05, 'pres': 173}
{'lipoC2': 7.5, 'lipoC3S1': 3.95, 'temp': 29.94, 'lipoC3S3': 11.93, 'lipoC3S2': 7.91, 'rot1': 0, 'rot0': 0, 'rot3': 0, 'rot2': 0, 'state': 'normal', 'yaw': -1.81, 'datetime': '2018-10-10 00:54:38.876974', 'mgs': 0, 'volt': 0.8447, 'depth': 0.699, 'time': 5, 'pitch': -0.05, 'roll': -2.87, 'pres': 173}
{'lipoC2': 7.5, 'lipoC3S1': 3.95, 'temp': 29.94, 'lipoC3S3': 11.93, 'lipoC3S2': 7.91, 'rot1': 0, 'rot0': 0, 'rot3': 0, 'rot2': 0, 'state': 'normal', 'yaw': -2.26, 'datetime': '2018-10-10 00:54:38.980164', 'mgs': 0, 'volt': 0.8496, 'depth': 0.775, 'time': 5, 'pitch': 0.95, 'roll': -2.56, 'pres': 174}
{'lipoC2': 7.5, 'lipoC3S1': 3.95, 'temp': 29.94, 'lipoC3S3': 11.94, 'lipoC3S2': 7.91, 'rot1': 0, 'rot0': 0, 'rot3': 0, 'rot2': 0, 'state': 'normal', 'yaw': -2.65, 'datetime': '2018-10-10 00:54:39.083437', 'mgs': 0, 'volt': 0.8545, 'depth': 0.851, 'time': 5, 'pitch': 2.56, 'roll': -2.27, 'pres': 175}
{'lipoC2': 7.5, 'lipoC3S1': 3.95, 'temp': 29.94, 'lipoC3S3': 11.94, 'lipoC3S2': 7.91, 'rot1': 0, 'rot0': 0, 'rot3': 0, 'rot2': 0, 'state': 'normal', 'yaw': -3.11, 'datetime': '2018-10-10 00:54:39.188112', 'mgs': 0, 'volt': 0.8545, 'depth': 0.851, 'time': 5, 'pitch': 4.01, 'roll': -1.92, 'pres': 175}
{'lipoC2': 7.5, 'lipoC3S1': 3.95, 'temp': 29.94, 'lipoC3S3': 11.94, 'lipoC3S2': 7.91, 'rot1': 0, 'rot0': 0, 'rot3': 0, 'rot2': 0, 'state': 'normal', 'yaw': -3.75, 'datetime': '2018-10-10 00:54:39.291226', 'mgs': 0, 'volt': 0.8594, 'depth': 0.928, 'time': 5, 'pitch': 4.56, 'roll': -1.55, 'pres': 176}
{'lipoC2': 7.5, 'lipoC3S1': 3.95, 'temp': 29.88, 'lipoC3S3': 11.94, 'lipoC3S2': 7.91, 'rot1': 0, 'rot0': 0, 'rot3': 0, 'rot2': 0, 'state': 'normal', 'yaw': -4.26, 'datetime': '2018-10-10 00:54:39.394495', 'mgs': 0, 'volt': 0.8594, 'depth': 0.928, 'time': 5, 'pitch': 4.29, 'roll': -1.36, 'pres': 176}
{'lipoC2': 7.5, 'lipoC3S1': 3.95, 'temp': 29.88, 'lipoC3S3': 11.94, 'lipoC3S2': 7.91, 'rot1': 0, 'rot0': 0, 'rot3': 0, 'rot2': 0, 'state': 'normal', 'yaw': -4.56, 'datetime': '2018-10-10 00:54:39.499491', 'mgs': 0, 'volt': 0.8643, 'depth': 1.004, 'time': 5, 'pitch': 4.0, 'roll': -1.33, 'pres': 177}
{'lipoC2': 7.5, 'lipoC3S1': 3.95, 'temp': 29.88, 'lipoC3S3': 11.94, 'lipoC3S2': 7.91, 'rot1': 0, 'rot0': 0, 'rot3': 0, 'rot2': 0, 'state': 'normal', 'yaw': -4.48, 'datetime': '2018-10-10 00:54:39.602609', 'mgs': 0, 'volt': 0.8691, 'depth': 1.08, 'time': 5, 'pitch': 4.3, 'roll': -1.33, 'pres': 178}
{'lipoC2': 7.5, 'lipoC3S1': 3.95, 'temp': 29.88, 'lipoC3S3': 11.94, 'lipoC3S2': 7.91, 'rot1': 0, 'rot0': 0, 'rot3': 0, 'rot2': 0, 'state': 'normal', 'yaw': -4.13, 'datetime': '2018-10-10 00:54:39.704687', 'mgs': 0, 'volt': 0.8691, 'depth': 1.08, 'time': 5, 'pitch': 4.92, 'roll': -1.2, 'pres': 178}
{'lipoC2': 7.5, 'lipoC3S1': 3.95, 'temp': 29.88, 'lipoC3S3': 11.93, 'lipoC3S2': 7.91, 'rot1': 0, 'rot0': 0, 'rot3': 0, 'rot2': 0, 'state': 'normal', 'yaw': -3.7, 'datetime': '2018-10-10 00:54:39.802491', 'mgs': 0, 'volt': 0.874, 'depth': 1.157, 'time': 6, 'pitch': 5.67, 'roll': -0.98, 'pres': 179}
{'lipoC2': 7.5, 'lipoC3S1': 3.95, 'temp': 29.94, 'lipoC3S3': 11.93, 'lipoC3S2': 7.91, 'rot1': 0, 'rot0': 0, 'rot3': 0, 'rot2': 0, 'state': 'normal', 'yaw': -3.35, 'datetime': '2018-10-10 00:54:39.909131', 'mgs': 0, 'volt': 0.874, 'depth': 1.157, 'time': 6, 'pitch': 6.32, 'roll': -0.82, 'pres': 179}
{'lipoC2': 7.5, 'lipoC3S1': 3.95, 'temp': 29.94, 'lipoC3S3': 11.93, 'lipoC3S2': 7.91, 'rot1': 0, 'rot0': 0, 'rot3': 0, 'rot2': 0, 'state': 'normal', 'yaw': -3.36, 'datetime': '2018-10-10 00:54:40.015342', 'mgs': 0, 'volt': 0.874, 'depth': 1.157, 'time': 6, 'pitch': 6.49, 'roll': -0.76, 'pres': 179}
{'lipoC2': 7.5, 'lipoC3S1': 3.95, 'temp': 29.94, 'lipoC3S3': 11.93, 'lipoC3S2': 7.91, 'rot1': 0, 'rot0': 0, 'rot3': 0, 'rot2': 0, 'state': 'normal', 'yaw': -3.55, 'datetime': '2018-10-10 00:54:40.118616', 'mgs': 0, 'volt': 0.874, 'depth': 1.157, 'time': 6, 'pitch': 6.45, 'roll': -0.65, 'pres': 179}
{'lipoC2': 7.5, 'lipoC3S1': 3.95, 'temp': 29.94, 'lipoC3S3': 11.94, 'lipoC3S2': 7.91, 'rot1': 0, 'rot0': 0, 'rot3': 0, 'rot2': 0, 'state': 'normal', 'yaw': -3.76, 'datetime': '2018-10-10 00:54:40.221982', 'mgs': 0, 'volt': 0.874, 'depth': 1.157, 'time': 6, 'pitch': 6.53, 'roll': -0.59, 'pres': 179}
{'lipoC2': 7.5, 'lipoC3S1': 3.95, 'temp': 29.94, 'lipoC3S3': 11.94, 'lipoC3S2': 7.91, 'rot1': 0, 'rot0': 0, 'rot3': 0, 'rot2': 0, 'state': 'normal', 'yaw': -3.75, 'datetime': '2018-10-10 00:54:40.325008', 'mgs': 0, 'volt': 0.8789, 'depth': 1.233, 'time': 6, 'pitch': 7.08, 'roll': -0.71, 'pres': 180}
{'lipoC2': 7.5, 'lipoC3S1': 3.95, 'temp': 29.88, 'lipoC3S3': 11.94, 'lipoC3S2': 7.91, 'rot1': 0, 'rot0': 0, 'rot3': 0, 'rot2': 0, 'state': 'normal', 'yaw': -3.54, 'datetime': '2018-10-10 00:54:40.428279', 'mgs': 0, 'volt': 0.8789, 'depth': 1.233, 'time': 6, 'pitch': 7.75, 'roll': -1.04, 'pres': 180}
{'lipoC2': 7.5, 'lipoC3S1': 3.95, 'temp': 29.88, 'lipoC3S3': 11.93, 'lipoC3S2': 7.91, 'rot1': 0, 'rot0': 0, 'rot3': 0, 'rot2': 0, 'state': 'normal', 'yaw': -3.37, 'datetime': '2018-10-10 00:54:40.532556', 'mgs': 0, 'volt': 0.8789, 'depth': 1.233, 'time': 6, 'pitch': 8.48, 'roll': -1.47, 'pres': 180}
{'lipoC2': 7.5, 'lipoC3S1': 3.95, 'temp': 29.88, 'lipoC3S3': 11.94, 'lipoC3S2': 7.91, 'rot1': 0, 'rot0': 0, 'rot3': 0, 'rot2': 0, 'state': 'normal', 'yaw': -3.35, 'datetime': '2018-10-10 00:54:40.635932', 'mgs': 0, 'volt': 0.8789, 'depth': 1.233, 'time': 6, 'pitch': 9.22, 'roll': -1.9, 'pres': 180}
{'lipoC2': 7.5, 'lipoC3S1': 3.95, 'temp': 29.88, 'lipoC3S3': 11.94, 'lipoC3S2': 7.91, 'rot1': 0, 'rot0': 0, 'rot3': 0, 'rot2': 0, 'state': 'normal', 'yaw': -3.59, 'datetime': '2018-10-10 00:54:40.740519', 'mgs': 0, 'volt': 0.8789, 'depth': 1.233, 'time': 6, 'pitch': 9.67, 'roll': -2.13, 'pres': 180}
{'lipoC2': 7.5, 'lipoC3S1': 3.95, 'temp': 29.88, 'lipoC3S3': 11.93, 'lipoC3S2': 7.91, 'rot1': 0, 'rot0': 0, 'rot3': 0, 'rot2': 0, 'state': 'normal', 'yaw': -3.95, 'datetime': '2018-10-10 00:54:40.844039', 'mgs': 1, 'volt': 0.8789, 'depth': 1.233, 'time': 7, 'pitch': 9.84, 'roll': -2.19, 'pres': 180}
{'lipoC2': 7.5, 'lipoC3S1': 3.95, 'temp': 29.94, 'lipoC3S3': 11.94, 'lipoC3S2': 7.91, 'rot1': 0, 'rot0': 0, 'rot3': 0, 'rot2': 0, 'state': 'normal', 'yaw': 0.0, 'datetime': '2018-10-10 00:54:45.376038', 'mgs': 1, 'volt': 0.8984, 'depth': 1.538, 'time': 1, 'pitch': 9.86, 'roll': -4.05, 'pres': 184}
{'lipoC2': 7.5, 'lipoC3S1': 3.95, 'temp': 29.94, 'lipoC3S3': 11.94, 'lipoC3S2': 7.91, 'rot1': 0, 'rot0': 0, 'rot3': 0, 'rot2': 0, 'state': 'normal', 'yaw': -0.08, 'datetime': '2018-10-10 00:54:48.428634', 'mgs': 0, 'volt': 0.8936, 'depth': 1.462, 'time': 1, 'pitch': 10.61, 'roll': -3.39, 'pres': 183}
{'lipoC2': 7.5, 'lipoC3S1': 3.95, 'temp': 29.94, 'lipoC3S3': 11.94, 'lipoC3S2': 7.91, 'rot1': 0, 'rot0': 0, 'rot3': 0, 'rot2': 0, 'state': 'normal', 'yaw': 0.18, 'datetime': '2018-10-10 00:54:48.457519', 'mgs': 0, 'volt': 0.8936, 'depth': 1.462, 'time': 1, 'pitch': 10.99, 'roll': -2.92, 'pres': 183}
{'lipoC2': 7.5, 'lipoC3S1': 3.95, 'temp': 29.94, 'lipoC3S3': 11.94, 'lipoC3S2': 7.91, 'rot1': 0, 'rot0': 0, 'rot3': 0, 'rot2': 0, 'state': 'normal', 'yaw': 0.73, 'datetime': '2018-10-10 00:54:48.480546', 'mgs': 0, 'volt': 0.8936, 'depth': 1.462, 'time': 1, 'pitch': 10.76, 'roll': -2.73, 'pres': 183}
{'lipoC2': 7.5, 'lipoC3S1': 3.95, 'temp': 29.94, 'lipoC3S3': 11.93, 'lipoC3S2': 7.91, 'rot1': 0, 'rot0': 0, 'rot3': 0, 'rot2': 0, 'state': 'normal', 'yaw': 1.41, 'datetime': '2018-10-10 00:54:48.500491', 'mgs': 1, 'volt': 0.8936, 'depth': 1.462, 'time': 1, 'pitch': 10.09, 'roll': -2.64, 'pres': 183}
{'lipoC2': 7.5, 'lipoC3S1': 3.95, 'temp': 29.88, 'lipoC3S3': 11.94, 'lipoC3S2': 7.91, 'rot1': 0, 'rot0': 0, 'rot3': 0, 'rot2': 0, 'state': 'normal', 'yaw': 2.13, 'datetime': '2018-10-10 00:54:48.516384', 'mgs': 1, 'volt': 0.8936, 'depth': 1.462, 'time': 1, 'pitch': 9.19, 'roll': -2.48, 'pres': 183}
{'lipoC2': 7.5, 'lipoC3S1': 3.95, 'temp': 29.88, 'lipoC3S3': 11.93, 'lipoC3S2': 7.91, 'rot1': 0, 'rot0': 0, 'rot3': 0, 'rot2': 0, 'state': 'normal', 'yaw': 2.61, 'datetime': '2018-10-10 00:54:48.526349', 'mgs': 1, 'volt': 0.8936, 'depth': 1.462, 'time': 1, 'pitch': 8.59, 'roll': -2.21, 'pres': 183}
{'lipoC2': 7.5, 'lipoC3S1': 3.96, 'temp': 29.88, 'lipoC3S3': 11.94, 'lipoC3S2': 7.92, 'rot1': 0, 'rot0': 0, 'rot3': 0, 'rot2': 0, 'state': 'normal', 'yaw': 2.91, 'datetime': '2018-10-10 00:54:48.542146', 'mgs': 1, 'volt': 0.8936, 'depth': 1.462, 'time': 1, 'pitch': 8.41, 'roll': -1.97, 'pres': 183}
{'lipoC2': 7.5, 'lipoC3S1': 3.96, 'temp': 29.88, 'lipoC3S3': 11.94, 'lipoC3S2': 7.91, 'rot1': 0, 'rot0': 0, 'rot3': 0, 'rot2': 0, 'state': 'normal', 'yaw': 3.14, 'datetime': '2018-10-10 00:54:48.557880', 'mgs': 1, 'volt': 0.8936, 'depth': 1.462, 'time': 2, 'pitch': 8.64, 'roll': -2.0, 'pres': 183}
{'lipoC2': 7.5, 'lipoC3S1': 3.96, 'temp': 29.94, 'lipoC3S3': 11.94, 'lipoC3S2': 7.92, 'rot1': 0, 'rot0': 0, 'rot3': 0, 'rot2': 0, 'state': 'normal', 'yaw': 3.31, 'datetime': '2018-10-10 00:54:48.567800', 'mgs': 1, 'volt': 0.8936, 'depth': 1.462, 'time': 2, 'pitch': 8.9, 'roll': -2.34, 'pres': 183}
{'lipoC2': 7.5, 'lipoC3S1': 3.96, 'temp': 29.94, 'lipoC3S3': 11.94, 'lipoC3S2': 7.91, 'rot1': 0, 'rot0': 0, 'rot3': 0, 'rot2': 0, 'state': 'normal', 'yaw': 3.34, 'datetime': '2018-10-10 00:54:48.586635', 'mgs': 0, 'volt': 0.8936, 'depth': 1.462, 'time': 2, 'pitch': 8.8, 'roll': -2.7, 'pres': 183}
{'lipoC2': 7.5, 'lipoC3S1': 3.96, 'temp': 29.94, 'lipoC3S3': 11.94, 'lipoC3S2': 7.92, 'rot1': 0, 'rot0': 0, 'rot3': 0, 'rot2': 0, 'state': 'normal', 'yaw': 3.35, 'datetime': '2018-10-10 00:54:48.604154', 'mgs': 0, 'volt': 0.8936, 'depth': 1.462, 'time': 2, 'pitch': 8.48, 'roll': -3.02, 'pres': 183}
{'lipoC2': 7.5, 'lipoC3S1': 3.95, 'temp': 29.88, 'lipoC3S3': 11.94, 'lipoC3S2': 7.91, 'rot1': 0, 'rot0': 0, 'rot3': 0, 'rot2': 0, 'state': 'normal', 'yaw': 3.45, 'datetime': '2018-10-10 00:54:48.615088', 'mgs': 0, 'volt': 0.8936, 'depth': 1.462, 'time': 2, 'pitch': 8.02, 'roll': -3.21, 'pres': 183}
{'lipoC2': 7.5, 'lipoC3S1': 3.95, 'temp': 29.88, 'lipoC3S3': 11.94, 'lipoC3S2': 7.91, 'rot1': 0, 'rot0': 0, 'rot3': 0, 'rot2': 0, 'state': 'normal', 'yaw': 3.63, 'datetime': '2018-10-10 00:54:48.631030', 'mgs': 0, 'volt': 0.8936, 'depth': 1.462, 'time': 2, 'pitch': 7.79, 'roll': -3.27, 'pres': 183}
{'lipoC2': 7.5, 'lipoC3S1': 3.95, 'temp': 29.94, 'lipoC3S3': 11.93, 'lipoC3S2': 7.91, 'rot1': 0, 'rot0': 0, 'rot3': 0, 'rot2': 0, 'state': 'normal', 'yaw': 3.87, 'datetime': '2018-10-10 00:54:48.646846', 'mgs': 0, 'volt': 0.8936, 'depth': 1.462, 'time': 2, 'pitch': 7.95, 'roll': -3.45, 'pres': 183}
{'lipoC2': 7.5, 'lipoC3S1': 3.95, 'temp': 29.94, 'lipoC3S3': 11.93, 'lipoC3S2': 7.91, 'rot1': 0, 'rot0': 0, 'rot3': 0, 'rot2': 0, 'state': 'normal', 'yaw': 4.17, 'datetime': '2018-10-10 00:54:48.656876', 'mgs': 0, 'volt': 0.8887, 'depth': 1.385, 'time': 2, 'pitch': 8.1, 'roll': -3.9, 'pres': 182}
{'lipoC2': 7.5, 'lipoC3S1': 3.95, 'temp': 29.94, 'lipoC3S3': 11.93, 'lipoC3S2': 7.91, 'rot1': 0, 'rot0': 0, 'rot3': 0, 'rot2': 0, 'state': 'normal', 'yaw': 4.43, 'datetime': '2018-10-10 00:54:48.672781', 'mgs': 0, 'volt': 0.8887, 'depth': 1.385, 'time': 2, 'pitch': 8.05, 'roll': -4.38, 'pres': 182}
{'lipoC2': 7.5, 'lipoC3S1': 3.96, 'temp': 29.94, 'lipoC3S3': 11.94, 'lipoC3S2': 7.91, 'rot1': 0, 'rot0': 0, 'rot3': 0, 'rot2': 0, 'state': 'normal', 'yaw': 4.54, 'datetime': '2018-10-10 00:54:48.688588', 'mgs': 0, 'volt': 0.8936, 'depth': 1.462, 'time': 3, 'pitch': 7.82, 'roll': -4.67, 'pres': 183}
{'lipoC2': 7.5, 'lipoC3S1': 3.96, 'temp': 29.94, 'lipoC3S3': 11.94, 'lipoC3S2': 7.92, 'rot1': 0, 'rot0': 0, 'rot3': 0, 'rot2': 0, 'state': 'normal', 'yaw': 4.5, 'datetime': '2018-10-10 00:54:48.701629', 'mgs': 0, 'volt': 0.8887, 'depth': 1.385, 'time': 3, 'pitch': 7.43, 'roll': -4.59, 'pres': 182}
{'lipoC2': 7.5, 'lipoC3S1': 3.96, 'temp': 29.88, 'lipoC3S3': 11.94, 'lipoC3S2': 7.92, 'rot1': 0, 'rot0': 0, 'rot3': 0, 'rot2': 0, 'state': 'normal', 'yaw': 4.3, 'datetime': '2018-10-10 00:54:48.720697', 'mgs': 0, 'volt': 0.8887, 'depth': 1.385, 'time': 3, 'pitch': 7.32, 'roll': -4.27, 'pres': 182}
{'lipoC2': 7.5, 'lipoC3S1': 3.96, 'temp': 29.88, 'lipoC3S3': 11.94, 'lipoC3S2': 7.91, 'rot1': 0, 'rot0': 0, 'rot3': 0, 'rot2': 0, 'state': 'normal', 'yaw': 3.85, 'datetime': '2018-10-10 00:54:48.739729', 'mgs': 0, 'volt': 0.8887, 'depth': 1.385, 'time': 3, 'pitch': 7.29, 'roll': -3.81, 'pres': 182}
{'lipoC2': 7.5, 'lipoC3S1': 3.96, 'temp': 29.94, 'lipoC3S3': 11.94, 'lipoC3S2': 7.91, 'rot1': 0, 'rot0': 0, 'rot3': 0, 'rot2': 0, 'state': 'normal', 'yaw': 3.54, 'datetime': '2018-10-10 00:54:48.752897', 'mgs': 0, 'volt': 0.8838, 'depth': 1.309, 'time': 3, 'pitch': 7.08, 'roll': -3.51, 'pres': 181}
{'lipoC2': 7.5, 'lipoC3S1': 3.95, 'temp': 29.94, 'lipoC3S3': 11.94, 'lipoC3S2': 7.91, 'rot1': 0, 'rot0': 0, 'rot3': 0, 'rot2': 0, 'state': 'normal', 'yaw': 3.52, 'datetime': '2018-10-10 00:54:48.771999', 'mgs': 0, 'volt': 0.8838, 'depth': 1.309, 'time': 3, 'pitch': 6.72, 'roll': -3.51, 'pres': 181}
{'lipoC2': 7.49, 'lipoC3S1': 3.95, 'temp': 29.94, 'lipoC3S3': 11.94, 'lipoC3S2': 7.91, 'rot1': 0, 'rot0': 0, 'rot3': 0, 'rot2': 0, 'state': 'normal', 'yaw': 3.51, 'datetime': '2018-10-10 00:54:48.791055', 'mgs': 0, 'volt': 0.8789, 'depth': 1.233, 'time': 3, 'pitch': 6.58, 'roll': -3.69, 'pres': 180}
{'lipoC2': 7.5, 'lipoC3S1': 3.95, 'temp': 29.94, 'lipoC3S3': 11.94, 'lipoC3S2': 7.91, 'rot1': 0, 'rot0': 0, 'rot3': 0, 'rot2': 0, 'state': 'normal', 'yaw': 3.23, 'datetime': '2018-10-10 00:54:48.804758', 'mgs': 0, 'volt': 0.8789, 'depth': 1.233, 'time': 3, 'pitch': 6.68, 'roll': -3.78, 'pres': 180}
{'lipoC2': 7.5, 'lipoC3S1': 3.95, 'temp': 29.94, 'lipoC3S3': 11.93, 'lipoC3S2': 7.91, 'rot1': 0, 'rot0': 0, 'rot3': 0, 'rot2': 0, 'state': 'normal', 'yaw': 2.69, 'datetime': '2018-10-10 00:54:48.823630', 'mgs': 0, 'volt': 0.8789, 'depth': 1.233, 'time': 3, 'pitch': 7.02, 'roll': -3.66, 'pres': 180}
{'lipoC2': 7.5, 'lipoC3S1': 3.96, 'temp': 29.88, 'lipoC3S3': 11.94, 'lipoC3S2': 7.92, 'rot1': 0, 'rot0': 0, 'rot3': 0, 'rot2': 0, 'state': 'normal', 'yaw': 2.05, 'datetime': '2018-10-10 00:54:48.842819', 'mgs': 0, 'volt': 0.8789, 'depth': 1.233, 'time': 3, 'pitch': 7.41, 'roll': -3.34, 'pres': 180}
{'lipoC2': 7.5, 'lipoC3S1': 3.96, 'temp': 29.88, 'lipoC3S3': 11.94, 'lipoC3S2': 7.92, 'rot1': 0, 'rot0': 0, 'rot3': 0, 'rot2': 0, 'state': 'normal', 'yaw': 1.6, 'datetime': '2018-10-10 00:54:48.856013', 'mgs': 0, 'volt': 0.8789, 'depth': 1.233, 'time': 4, 'pitch': 7.68, 'roll': -3.0, 'pres': 180}
{'lipoC2': 7.5, 'lipoC3S1': 3.96, 'temp': 29.94, 'lipoC3S3': 11.94, 'lipoC3S2': 7.92, 'rot1': 0, 'rot0': 0, 'rot3': 0, 'rot2': 0, 'state': 'normal', 'yaw': 1.27, 'datetime': '2018-10-10 00:54:48.875080', 'mgs': 0, 'volt': 0.874, 'depth': 1.157, 'time': 4, 'pitch': 7.98, 'roll': -2.65, 'pres': 179}
{'lipoC2': 7.5, 'lipoC3S1': 3.96, 'temp': 29.94, 'lipoC3S3': 11.94, 'lipoC3S2': 7.92, 'rot1': 0, 'rot0': 0, 'rot3': 0, 'rot2': 0, 'state': 'normal', 'yaw': 1.04, 'datetime': '2018-10-10 00:54:48.894505', 'mgs': 0, 'volt': 0.874, 'depth': 1.157, 'time': 4, 'pitch': 8.17, 'roll': -2.25, 'pres': 179}
{'lipoC2': 7.5, 'lipoC3S1': 3.96, 'temp': 29.94, 'lipoC3S3': 11.94, 'lipoC3S2': 7.91, 'rot1': 0, 'rot0': 0, 'rot3': 0, 'rot2': 0, 'state': 'normal', 'yaw': 1.05, 'datetime': '2018-10-10 00:54:48.908166', 'mgs': 0, 'volt': 0.874, 'depth': 1.157, 'time': 4, 'pitch': 8.24, 'roll': -1.78, 'pres': 179}
{'lipoC2': 7.49, 'lipoC3S1': 3.95, 'temp': 29.94, 'lipoC3S3': 11.93, 'lipoC3S2': 7.91, 'rot1': 0, 'rot0': 0, 'rot3': 0, 'rot2': 0, 'state': 'normal', 'yaw': 1.35, 'datetime': '2018-10-10 00:54:48.924053', 'mgs': 0, 'volt': 0.874, 'depth': 1.157, 'time': 4, 'pitch': 8.12, 'roll': -1.27, 'pres': 179}
{'lipoC2': 7.49, 'lipoC3S1': 3.91, 'temp': 29.94, 'lipoC3S3': 11.79, 'lipoC3S2': 7.8, 'rot1': 0, 'rot0': 0, 'rot3': 1, 'rot2': 0, 'state': 'normal', 'yaw': 1.87, 'datetime': '2018-10-10 00:54:48.939810', 'mgs': 0, 'volt': 0.8789, 'depth': 1.233, 'time': 4, 'pitch': 8.02, 'roll': -0.82, 'pres': 180}
{'lipoC2': 7.49, 'lipoC3S1': 3.9, 'temp': 29.94, 'lipoC3S3': 11.85, 'lipoC3S2': 7.85, 'rot1': 0, 'rot0': 0, 'rot3': 2, 'rot2': 1, 'state': 'normal', 'yaw': 2.1, 'datetime': '2018-10-10 00:54:48.949728', 'mgs': 0, 'volt': 0.8984, 'depth': 1.538, 'time': 4, 'pitch': 8.02, 'roll': -0.59, 'pres': 184}
{'lipoC2': 7.49, 'lipoC3S1': 3.92, 'temp': 29.94, 'lipoC3S3': 11.81, 'lipoC3S2': 7.87, 'rot1': 0, 'rot0': 0, 'rot3': 3, 'rot2': 2, 'state': 'normal', 'yaw': 1.98, 'datetime': '2018-10-10 00:54:48.968586', 'mgs': 0, 'volt': 0.8789, 'depth': 1.233, 'time': 4, 'pitch': 7.95, 'roll': -0.76, 'pres': 180}
{'lipoC2': 7.5, 'lipoC3S1': 3.89, 'temp': 29.88, 'lipoC3S3': 11.85, 'lipoC3S2': 7.84, 'rot1': 0, 'rot0': 0, 'rot3': 4, 'rot2': 2, 'state': 'normal', 'yaw': 1.78, 'datetime': '2018-10-10 00:54:48.987497', 'mgs': 0, 'volt': 0.8643, 'depth': 1.004, 'time': 4, 'pitch': 8.05, 'roll': -1.29, 'pres': 177}
{'lipoC2': 7.49, 'lipoC3S1': 3.92, 'temp': 29.88, 'lipoC3S3': 11.88, 'lipoC3S2': 7.88, 'rot1': 0, 'rot0': 0, 'rot3': 5, 'rot2': 3, 'state': 'normal', 'yaw': 1.66, 'datetime': '2018-10-10 00:54:49.000572', 'mgs': 0, 'volt': 0.874, 'depth': 1.157, 'time': 4, 'pitch': 8.08, 'roll': -1.69, 'pres': 179}
{'lipoC2': 7.49, 'lipoC3S1': 3.91, 'temp': 29.88, 'lipoC3S3': 11.84, 'lipoC3S2': 7.84, 'rot1': 0, 'rot0': 0, 'rot3': 6, 'rot2': 4, 'state': 'normal', 'yaw': 1.76, 'datetime': '2018-10-10 00:54:49.020090', 'mgs': 0, 'volt': 0.8594, 'depth': 0.928, 'time': 5, 'pitch': 7.74, 'roll': -1.36, 'pres': 176}
{'lipoC2': 7.49, 'lipoC3S1': 3.91, 'temp': 29.94, 'lipoC3S3': 11.88, 'lipoC3S2': 7.87, 'rot1': 0, 'rot0': 0, 'rot3': 7, 'rot2': 5, 'state': 'normal', 'yaw': 2.29, 'datetime': '2018-10-10 00:54:49.035954', 'mgs': 0, 'volt': 0.8691, 'depth': 1.08, 'time': 5, 'pitch': 6.81, 'roll': -0.61, 'pres': 178}
{'lipoC2': 7.49, 'lipoC3S1': 3.93, 'temp': 29.94, 'lipoC3S3': 11.85, 'lipoC3S2': 7.86, 'rot1': 0, 'rot0': 0, 'rot3': 8, 'rot2': 6, 'state': 'normal', 'yaw': 3.1, 'datetime': '2018-10-10 00:54:49.045873', 'mgs': 0, 'volt': 0.8643, 'depth': 1.004, 'time': 5, 'pitch': 5.35, 'roll': -0.0, 'pres': 177}
{'lipoC2': 7.49, 'lipoC3S1': 3.92, 'temp': 29.94, 'lipoC3S3': 11.88, 'lipoC3S2': 7.87, 'rot1': 0, 'rot0': 0, 'rot3': 10, 'rot2': 7, 'state': 'normal', 'yaw': 3.74, 'datetime': '2018-10-10 00:54:49.061778', 'mgs': 0, 'volt': 0.8691, 'depth': 1.08, 'time': 5, 'pitch': 3.62, 'roll': 0.16, 'pres': 178}
{'lipoC2': 7.49, 'lipoC3S1': 3.91, 'temp': 29.94, 'lipoC3S3': 11.87, 'lipoC3S2': 7.88, 'rot1': 0, 'rot0': 0, 'rot3': 11, 'rot2': 7, 'state': 'normal', 'yaw': 3.95, 'datetime': '2018-10-10 00:54:49.080738', 'mgs': 0, 'volt': 0.8691, 'depth': 1.08, 'time': 5, 'pitch': 2.28, 'roll': -0.14, 'pres': 178}
{'lipoC2': 7.49, 'lipoC3S1': 3.91, 'temp': 29.94, 'lipoC3S3': 11.88, 'lipoC3S2': 7.86, 'rot1': 0, 'rot0': 0, 'rot3': 12, 'rot2': 8, 'state': 'normal', 'yaw': 3.95, 'datetime': '2018-10-10 00:54:49.093880', 'mgs': 0, 'volt': 0.8594, 'depth': 0.928, 'time': 5, 'pitch': 1.08, 'roll': -0.61, 'pres': 176}
{'lipoC2': 7.49, 'lipoC3S1': 3.9, 'temp': 29.94, 'lipoC3S3': 11.85, 'lipoC3S2': 7.84, 'rot1': 0, 'rot0': 0, 'rot3': 13, 'rot2': 9, 'state': 'normal', 'yaw': 3.98, 'datetime': '2018-10-10 00:54:49.112932', 'mgs': 0, 'volt': 0.8447, 'depth': 0.699, 'time': 5, 'pitch': 0.03, 'roll': -0.91, 'pres': 173}
{'lipoC2': 7.5, 'lipoC3S1': 3.91, 'temp': 29.94, 'lipoC3S3': 11.88, 'lipoC3S2': 7.86, 'rot1': 0, 'rot0': 0, 'rot3': 14, 'rot2': 10, 'state': 'normal', 'yaw': 4.07, 'datetime': '2018-10-10 00:54:49.130641', 'mgs': 0, 'volt': 0.8594, 'depth': 0.928, 'time': 5, 'pitch': -0.79, 'roll': -1.02, 'pres': 176}
{'lipoC2': 7.49, 'lipoC3S1': 3.9, 'temp': 29.94, 'lipoC3S3': 11.85, 'lipoC3S2': 7.84, 'rot1': 0, 'rot0': 0, 'rot3': 16, 'rot2': 11, 'state': 'normal', 'yaw': 4.29, 'datetime': '2018-10-10 00:54:49.140666', 'mgs': 0, 'volt': 0.835, 'depth': 0.546, 'time': 5, 'pitch': -1.0, 'roll': -1.22, 'pres': 171}
{'lipoC2': 7.49, 'lipoC3S1': 3.93, 'temp': 29.94, 'lipoC3S3': 11.83, 'lipoC3S2': 7.82, 'rot1': 0, 'rot0': 0, 'rot3': 17, 'rot2': 12, 'state': 'normal', 'yaw': 4.51, 'datetime': '2018-10-10 00:54:49.159642', 'mgs': 0, 'volt': 0.8496, 'depth': 0.775, 'time': 5, 'pitch': -0.85, 'roll': -1.73, 'pres': 174}
{'lipoC2': 7.49, 'lipoC3S1': 3.93, 'temp': 29.94, 'lipoC3S3': 11.84, 'lipoC3S2': 7.83, 'rot1': 0, 'rot0': 0, 'rot3': 18, 'rot2': 13, 'state': 'normal', 'yaw': 4.71, 'datetime': '2018-10-10 00:54:49.178687', 'mgs': 0, 'volt': 0.8447, 'depth': 0.699, 'time': 6, 'pitch': -1.01, 'roll': -2.43, 'pres': 173}
{'lipoC2': 7.49, 'lipoC3S1': 3.91, 'temp': 29.94, 'lipoC3S3': 11.87, 'lipoC3S2': 7.87, 'rot1': 0, 'rot0': 0, 'rot3': 19, 'rot2': 13, 'state': 'normal', 'yaw': 4.77, 'datetime': '2018-10-10 00:54:49.191907', 'mgs': 0, 'volt': 0.8594, 'depth': 0.928, 'time': 6, 'pitch': -1.64, 'roll': -3.04, 'pres': 176}
{'lipoC2': 7.49, 'lipoC3S1': 3.92, 'temp': 29.94, 'lipoC3S3': 11.87, 'lipoC3S2': 7.87, 'rot1': 0, 'rot0': 0, 'rot3': 20, 'rot2': 14, 'state': 'normal', 'yaw': 4.63, 'datetime': '2018-10-10 00:54:49.211385', 'mgs': 0, 'volt': 0.8594, 'depth': 0.928, 'time': 6, 'pitch': -2.28, 'roll': -3.21, 'pres': 176}
{'lipoC2': 7.49, 'lipoC3S1': 3.91, 'temp': 29.94, 'lipoC3S3': 11.88, 'lipoC3S2': 7.87, 'rot1': 0, 'rot0': 0, 'rot3': 22, 'rot2': 15, 'state': 'normal', 'yaw': 4.39, 'datetime': '2018-10-10 00:54:49.230433', 'mgs': 0, 'volt': 0.8594, 'depth': 0.928, 'time': 6, 'pitch': -2.37, 'roll': -2.63, 'pres': 176}
{'lipoC2': 7.49, 'lipoC3S1': 3.92, 'temp': 29.94, 'lipoC3S3': 11.88, 'lipoC3S2': 7.87, 'rot1': 0, 'rot0': 0, 'rot3': 23, 'rot2': 16, 'state': 'normal', 'yaw': 4.24, 'datetime': '2018-10-10 00:54:49.243601', 'mgs': 0, 'volt': 0.8594, 'depth': 0.928, 'time': 6, 'pitch': -2.13, 'roll': -1.54, 'pres': 176}
{'lipoC2': 7.5, 'lipoC3S1': 3.91, 'temp': 29.94, 'lipoC3S3': 11.87, 'lipoC3S2': 7.86, 'rot1': 0, 'rot0': 0, 'rot3': 24, 'rot2': 17, 'state': 'normal', 'yaw': 4.26, 'datetime': '2018-10-10 00:54:49.262730', 'mgs': 0, 'volt': 0.8594, 'depth': 0.928, 'time': 6, 'pitch': -1.53, 'roll': -0.38, 'pres': 176}
{'lipoC2': 7.49, 'lipoC3S1': 3.9, 'temp': 29.94, 'lipoC3S3': 11.88, 'lipoC3S2': 7.85, 'rot1': 0, 'rot0': 0, 'rot3': 25, 'rot2': 18, 'state': 'normal', 'yaw': 4.39, 'datetime': '2018-10-10 00:54:49.278398', 'mgs': 0, 'volt': 0.8594, 'depth': 0.928, 'time': 6, 'pitch': -0.98, 'roll': 0.24, 'pres': 176}
{'lipoC2': 7.5, 'lipoC3S1': 3.91, 'temp': 29.94, 'lipoC3S3': 11.88, 'lipoC3S2': 7.86, 'rot1': 0, 'rot0': 0, 'rot3': 26, 'rot2': 19, 'state': 'normal', 'yaw': 4.56, 'datetime': '2018-10-10 00:54:49.288072', 'mgs': 0, 'volt': 0.8594, 'depth': 0.928, 'time': 6, 'pitch': -0.81, 'roll': -0.08, 'pres': 176}
{'lipoC2': 7.5, 'lipoC3S1': 3.92, 'temp': 29.94, 'lipoC3S3': 11.88, 'lipoC3S2': 7.87, 'rot1': 0, 'rot0': 0, 'rot3': 27, 'rot2': 19, 'state': 'normal', 'yaw': 4.65, 'datetime': '2018-10-10 00:54:49.303591', 'mgs': 0, 'volt': 0.8545, 'depth': 0.851, 'time': 6, 'pitch': -0.88, 'roll': -1.07, 'pres': 175}
{'lipoC2': 7.49, 'lipoC3S1': 3.91, 'temp': 29.94, 'lipoC3S3': 11.87, 'lipoC3S2': 7.86, 'rot1': 0, 'rot0': 0, 'rot3': 29, 'rot2': 20, 'state': 'normal', 'yaw': 4.71, 'datetime': '2018-10-10 00:54:49.320599', 'mgs': 0, 'volt': 0.8545, 'depth': 0.851, 'time': 7, 'pitch': -0.96, 'roll': -2.29, 'pres': 175}
{'lipoC2': 7.49, 'lipoC3S1': 3.91, 'temp': 29.94, 'lipoC3S3': 11.87, 'lipoC3S2': 7.86, 'rot1': 0, 'rot0': 0, 'rot3': 30, 'rot2': 21, 'state': 'normal', 'yaw': 4.8, 'datetime': '2018-10-10 00:54:49.332051', 'mgs': 0, 'volt': 0.8594, 'depth': 0.928, 'time': 7, 'pitch': -0.76, 'roll': -2.68, 'pres': 176}
{'lipoC2': 7.49, 'lipoC3S1': 3.89, 'temp': 29.94, 'lipoC3S3': 11.85, 'lipoC3S2': 7.84, 'rot1': 0, 'rot0': 0, 'rot3': 31, 'rot2': 22, 'state': 'normal', 'yaw': 4.94, 'datetime': '2018-10-10 00:54:49.347610', 'mgs': 0, 'volt': 0.8398, 'depth': 0.623, 'time': 7, 'pitch': -0.28, 'roll': -2.25, 'pres': 172}
{'lipoC2': 7.5, 'lipoC3S1': 3.91, 'temp': 29.94, 'lipoC3S3': 11.87, 'lipoC3S2': 7.85, 'rot1': 0, 'rot0': 0, 'rot3': 32, 'rot2': 23, 'state': 'normal', 'yaw': 5.16, 'datetime': '2018-10-10 00:54:49.363018', 'mgs': 0, 'volt': 0.8447, 'depth': 0.699, 'time': 7, 'pitch': 0.15, 'roll': -1.34, 'pres': 173}
{'lipoC2': 7.49, 'lipoC3S1': 3.93, 'temp': 29.94, 'lipoC3S3': 11.81, 'lipoC3S2': 7.86, 'rot1': 0, 'rot0': 0, 'rot3': 33, 'rot2': 24, 'state': 'normal', 'yaw': 5.32, 'datetime': '2018-10-10 00:54:49.372564', 'mgs': 0, 'volt': 0.8545, 'depth': 0.851, 'time': 7, 'pitch': 0.4, 'roll': -0.89, 'pres': 175}
{'lipoC2': 7.49, 'lipoC3S1': 3.95, 'temp': 29.94, 'lipoC3S3': 11.92, 'lipoC3S2': 7.9, 'rot1': 0, 'rot0': 0, 'rot3': 34, 'rot2': 24, 'state': 'normal', 'yaw': 5.45, 'datetime': '2018-10-10 00:54:49.388012', 'mgs': 0, 'volt': 0.8447, 'depth': 0.699, 'time': 7, 'pitch': 0.47, 'roll': -1.2, 'pres': 173}
{'lipoC2': 7.49, 'lipoC3S1': 3.8, 'temp': 29.94, 'lipoC3S3': 11.83, 'lipoC3S2': 7.75, 'rot1': 0, 'rot0': 0, 'rot3': 35, 'rot2': 25, 'state': 'normal', 'yaw': 5.58, 'datetime': '2018-10-10 00:54:49.403474', 'mgs': 0, 'volt': 0.8496, 'depth': 0.775, 'time': 7, 'pitch': 0.29, 'roll': -2.17, 'pres': 174}
{'lipoC2': 7.49, 'lipoC3S1': 3.82, 'temp': 29.94, 'lipoC3S3': 11.83, 'lipoC3S2': 7.86, 'rot1': 1, 'rot0': 2, 'rot3': 35, 'rot2': 25, 'state': 'normal', 'yaw': 5.19, 'datetime': '2018-10-10 00:54:49.413069', 'mgs': 0, 'volt': 0.874, 'depth': 1.157, 'time': 7, 'pitch': 0.87, 'roll': -2.86, 'pres': 179}
{'lipoC2': 7.49, 'lipoC3S1': 3.87, 'temp': 29.94, 'lipoC3S3': 11.85, 'lipoC3S2': 7.83, 'rot1': 2, 'rot0': 3, 'rot3': 36, 'rot2': 26, 'state': 'normal', 'yaw': 4.04, 'datetime': '2018-10-10 00:54:49.430408', 'mgs': 0, 'volt': 0.8545, 'depth': 0.851, 'time': 7, 'pitch': 2.42, 'roll': -2.84, 'pres': 175}
{'lipoC2': 7.49, 'lipoC3S1': 3.87, 'temp': 29.94, 'lipoC3S3': 11.85, 'lipoC3S2': 7.85, 'rot1': 2, 'rot0': 5, 'rot3': 36, 'rot2': 26, 'state': 'normal', 'yaw': 2.12, 'datetime': '2018-10-10 00:54:49.446038', 'mgs': 0, 'volt': 0.8545, 'depth': 0.851, 'time': 7, 'pitch': 4.55, 'roll': -2.16, 'pres': 175}
{'lipoC2': 7.49, 'lipoC3S1': 3.85, 'temp': 29.94, 'lipoC3S3': 11.81, 'lipoC3S2': 7.86, 'rot1': 3, 'rot0': 6, 'rot3': 36, 'rot2': 26, 'state': 'normal', 'yaw': -0.07, 'datetime': '2018-10-10 00:54:49.455535', 'mgs': 0, 'volt': 0.8496, 'depth': 0.775, 'time': 8, 'pitch': 6.19, 'roll': -1.58, 'pres': 174}
{'lipoC2': 7.49, 'lipoC3S1': 3.85, 'temp': 29.94, 'lipoC3S3': 11.85, 'lipoC3S2': 7.87, 'rot1': 4, 'rot0': 7, 'rot3': 36, 'rot2': 26, 'state': 'normal', 'yaw': -2.58, 'datetime': '2018-10-10 00:54:49.471043', 'mgs': 0, 'volt': 0.8301, 'depth': 0.47, 'time': 8, 'pitch': 7.16, 'roll': -1.44, 'pres': 170}
{'lipoC2': 7.49, 'lipoC3S1': 3.85, 'temp': 29.88, 'lipoC3S3': 11.85, 'lipoC3S2': 7.87, 'rot1': 5, 'rot0': 9, 'rot3': 36, 'rot2': 26, 'state': 'normal', 'yaw': -5.61, 'datetime': '2018-10-10 00:54:49.486540', 'mgs': 0, 'volt': 0.9082, 'depth': 1.691, 'time': 8, 'pitch': 7.46, 'roll': -1.81, 'pres': 186}
{'lipoC2': 7.49, 'lipoC3S1': 3.87, 'temp': 29.88, 'lipoC3S3': 11.85, 'lipoC3S2': 7.86, 'rot1': 6, 'rot0': 10, 'rot3': 36, 'rot2': 26, 'state': 'normal', 'yaw': -8.57, 'datetime': '2018-10-10 00:54:49.496190', 'mgs': 0, 'volt': 0.918, 'depth': 1.843, 'time': 8, 'pitch': 7.45, 'roll': -2.27, 'pres': 188}
{'lipoC2': 7.49, 'lipoC3S1': 3.86, 'temp': 29.94, 'lipoC3S3': 11.85, 'lipoC3S2': 7.81, 'rot1': 6, 'rot0': 12, 'rot3': 36, 'rot2': 26, 'state': 'normal', 'yaw': -11.74, 'datetime': '2018-10-10 00:54:49.511794', 'mgs': 0, 'volt': 0.8643, 'depth': 1.004, 'time': 8, 'pitch': 7.69, 'roll': -2.58, 'pres': 177}
{'lipoC2': 7.5, 'lipoC3S1': 3.81, 'temp': 29.94, 'lipoC3S3': 11.72, 'lipoC3S2': 7.7, 'rot1': 7, 'rot0': 13, 'rot3': 36, 'rot2': 26, 'state': 'normal', 'yaw': -15.38, 'datetime': '2018-10-10 00:54:49.540444', 'mgs': 0, 'volt': 0.8643, 'depth': 1.004, 'time': 8, 'pitch': 8.47, 'roll': -2.55, 'pres': 177}
{'lipoC2': 7.5, 'lipoC3S1': 3.9, 'temp': 29.94, 'lipoC3S3': 11.68, 'lipoC3S2': 7.8, 'rot1': 9, 'rot0': 14, 'rot3': 36, 'rot2': 27, 'state': 'normal', 'yaw': -18.38, 'datetime': '2018-10-10 00:54:49.643839', 'mgs': 0, 'volt': 0.8643, 'depth': 1.004, 'time': 8, 'pitch': 9.49, 'roll': -2.26, 'pres': 177}
{'lipoC2': 7.49, 'lipoC3S1': 3.89, 'temp': 29.94, 'lipoC3S3': 11.87, 'lipoC3S2': 7.87, 'rot1': 10, 'rot0': 15, 'rot3': 37, 'rot2': 27, 'state': 'normal', 'yaw': -20.4, 'datetime': '2018-10-10 00:54:49.748722', 'mgs': 0, 'volt': 0.9082, 'depth': 1.691, 'time': 8, 'pitch': 10.41, 'roll': -2.05, 'pres': 186}
{'lipoC2': 7.5, 'lipoC3S1': 3.92, 'temp': 29.94, 'lipoC3S3': 11.83, 'lipoC3S2': 7.79, 'rot1': 11, 'rot0': 16, 'rot3': 37, 'rot2': 27, 'state': 'normal', 'yaw': -21.72, 'datetime': '2018-10-10 00:54:49.852278', 'mgs': 0, 'volt': 0.8691, 'depth': 1.08, 'time': 8, 'pitch': 10.6, 'roll': -2.1, 'pres': 178}
{'lipoC2': 7.48, 'lipoC3S1': 3.92, 'temp': 29.94, 'lipoC3S3': 11.75, 'lipoC3S2': 7.86, 'rot1': 13, 'rot0': 17, 'rot3': 37, 'rot2': 27, 'state': 'normal', 'yaw': -22.2, 'datetime': '2018-10-10 00:54:49.963478', 'mgs': 0, 'volt': 0.874, 'depth': 1.157, 'time': 8, 'pitch': 9.82, 'roll': -1.96, 'pres': 179}
{'lipoC2': 7.48, 'lipoC3S1': 3.92, 'temp': 29.94, 'lipoC3S3': 11.85, 'lipoC3S2': 7.86, 'rot1': 14, 'rot0': 18, 'rot3': 37, 'rot2': 27, 'state': 'normal', 'yaw': -22.14, 'datetime': '2018-10-10 00:54:50.067508', 'mgs': 0, 'volt': 0.8691, 'depth': 1.08, 'time': 9, 'pitch': 8.59, 'roll': -1.5, 'pres': 178}
{'lipoC2': 7.49, 'lipoC3S1': 3.9, 'temp': 29.94, 'lipoC3S3': 11.87, 'lipoC3S2': 7.87, 'rot1': 15, 'rot0': 18, 'rot3': 37, 'rot2': 27, 'state': 'normal', 'yaw': -21.62, 'datetime': '2018-10-10 00:54:50.171110', 'mgs': 0, 'volt': 0.9131, 'depth': 1.767, 'time': 9, 'pitch': 7.33, 'roll': -0.75, 'pres': 187}
{'lipoC2': 7.48, 'lipoC3S1': 3.92, 'temp': 29.94, 'lipoC3S3': 11.85, 'lipoC3S2': 7.86, 'rot1': 17, 'rot0': 19, 'rot3': 37, 'rot2': 27, 'state': 'normal', 'yaw': -20.8, 'datetime': '2018-10-10 00:54:50.275954', 'mgs': 0, 'volt': 0.8691, 'depth': 1.08, 'time': 9, 'pitch': 6.86, 'roll': -0.21, 'pres': 178}
{'lipoC2': 7.5, 'lipoC3S1': 3.91, 'temp': 29.94, 'lipoC3S3': 11.85, 'lipoC3S2': 7.87, 'rot1': 18, 'rot0': 20, 'rot3': 37, 'rot2': 27, 'state': 'normal', 'yaw': -19.54, 'datetime': '2018-10-10 00:54:50.379539', 'mgs': 0, 'volt': 0.9082, 'depth': 1.691, 'time': 9, 'pitch': 7.2, 'roll': -0.13, 'pres': 186}
{'lipoC2': 7.5, 'lipoC3S1': 3.93, 'temp': 30.0, 'lipoC3S3': 11.87, 'lipoC3S2': 7.76, 'rot1': 19, 'rot0': 21, 'rot3': 37, 'rot2': 27, 'state': 'normal', 'yaw': -18.15, 'datetime': '2018-10-10 00:54:50.483061', 'mgs': 0, 'volt': 0.874, 'depth': 1.157, 'time': 9, 'pitch': 7.67, 'roll': -0.46, 'pres': 179}
{'lipoC2': 7.49, 'lipoC3S1': 3.92, 'temp': 30.0, 'lipoC3S3': 11.76, 'lipoC3S2': 7.85, 'rot1': 21, 'rot0': 22, 'rot3': 37, 'rot2': 27, 'state': 'normal', 'yaw': -16.65, 'datetime': '2018-10-10 00:54:50.586807', 'mgs': 0, 'volt': 0.874, 'depth': 1.157, 'time': 9, 'pitch': 7.37, 'roll': -0.83, 'pres': 179}
{'lipoC2': 7.5, 'lipoC3S1': 3.93, 'temp': 30.0, 'lipoC3S3': 11.85, 'lipoC3S2': 7.87, 'rot1': 22, 'rot0': 23, 'rot3': 37, 'rot2': 27, 'state': 'normal', 'yaw': -14.88, 'datetime': '2018-10-10 00:54:50.690157', 'mgs': 0, 'volt': 0.9326, 'depth': 2.072, 'time': 9, 'pitch': 6.26, 'roll': -1.16, 'pres': 191}
{'lipoC2': 7.5, 'lipoC3S1': 3.86, 'temp': 30.0, 'lipoC3S3': 11.87, 'lipoC3S2': 7.83, 'rot1': 24, 'rot0': 23, 'rot3': 37, 'rot2': 27, 'state': 'normal', 'yaw': -13.15, 'datetime': '2018-10-10 00:54:50.793650', 'mgs': 0, 'volt': 0.8789, 'depth': 1.233, 'time': 9, 'pitch': 5.75, 'roll': -1.39, 'pres': 180}
{'lipoC2': 7.5, 'lipoC3S1': 3.92, 'temp': 30.0, 'lipoC3S3': 11.72, 'lipoC3S2': 7.77, 'rot1': 25, 'rot0': 24, 'rot3': 37, 'rot2': 27, 'state': 'normal', 'yaw': -11.3, 'datetime': '2018-10-10 00:54:50.897206', 'mgs': 0, 'volt': 0.8789, 'depth': 1.233, 'time': 9, 'pitch': 6.51, 'roll': -1.75, 'pres': 180}
{'lipoC2': 7.5, 'lipoC3S1': 3.92, 'temp': 30.0, 'lipoC3S3': 11.85, 'lipoC3S2': 7.86, 'rot1': 26, 'rot0': 25, 'rot3': 37, 'rot2': 27, 'state': 'normal', 'yaw': -9.21, 'datetime': '2018-10-10 00:54:51.000977', 'mgs': 0, 'volt': 0.918, 'depth': 1.843, 'time': 10, 'pitch': 8.36, 'roll': -2.35, 'pres': 188}
{'lipoC2': 7.49, 'lipoC3S1': 3.86, 'temp': 30.0, 'lipoC3S3': 11.87, 'lipoC3S2': 7.78, 'rot1': 27, 'rot0': 26, 'rot3': 37, 'rot2': 27, 'state': 'normal', 'yaw': -7.33, 'datetime': '2018-10-10 00:54:51.104664', 'mgs': 0, 'volt': 0.8789, 'depth': 1.233, 'time': 10, 'pitch': 9.55, 'roll': -3.05, 'pres': 180}
{'lipoC2': 7.5, 'lipoC3S1': 3.89, 'temp': 29.94, 'lipoC3S3': 11.87, 'lipoC3S2': 7.85, 'rot1': 29, 'rot0': 27, 'rot3': 37, 'rot2': 27, 'state': 'normal', 'yaw': -5.46, 'datetime': '2018-10-10 00:54:51.209685', 'mgs': 0, 'volt': 0.8838, 'depth': 1.309, 'time': 10, 'pitch': 9.54, 'roll': -3.61, 'pres': 181}
{'lipoC2': 7.49, 'lipoC3S1': 3.92, 'temp': 29.94, 'lipoC3S3': 11.75, 'lipoC3S2': 7.86, 'rot1': 30, 'rot0': 28, 'rot3': 37, 'rot2': 27, 'state': 'normal', 'yaw': -3.39, 'datetime': '2018-10-10 00:54:51.313460', 'mgs': 0, 'volt': 0.8789, 'depth': 1.233, 'time': 10, 'pitch': 8.96, 'roll': -3.93, 'pres': 180}
{'lipoC2': 7.5, 'lipoC3S1': 3.9, 'temp': 29.94, 'lipoC3S3': 11.69, 'lipoC3S2': 7.84, 'rot1': 31, 'rot0': 29, 'rot3': 37, 'rot2': 27, 'state': 'normal', 'yaw': -1.52, 'datetime': '2018-10-10 00:54:51.418593', 'mgs': 0, 'volt': 0.8789, 'depth': 1.233, 'time': 10, 'pitch': 8.88, 'roll': -3.93, 'pres': 180}
{'lipoC2': 7.5, 'lipoC3S1': 3.86, 'temp': 29.94, 'lipoC3S3': 11.83, 'lipoC3S2': 7.85, 'rot1': 33, 'rot0': 30, 'rot3': 37, 'rot2': 27, 'state': 'normal', 'yaw': 0.03, 'datetime': '2018-10-10 00:54:51.523289', 'mgs': 0, 'volt': 0.9668, 'depth': 2.606, 'time': 10, 'pitch': 9.83, 'roll': -3.81, 'pres': 198}
{'lipoC2': 7.49, 'lipoC3S1': 3.88, 'temp': 30.0, 'lipoC3S3': 11.55, 'lipoC3S2': 7.73, 'rot1': 34, 'rot0': 32, 'rot3': 37, 'rot2': 27, 'state': 'normal', 'yaw': 0.79, 'datetime': '2018-10-10 00:54:51.625901', 'mgs': 0, 'volt': 0.8789, 'depth': 1.233, 'time': 10, 'pitch': 11.1, 'roll': -3.92, 'pres': 180}
{'lipoC2': 7.5, 'lipoC3S1': 3.84, 'temp': 30.0, 'lipoC3S3': 11.73, 'lipoC3S2': 7.66, 'rot1': 35, 'rot0': 33, 'rot3': 38, 'rot2': 28, 'state': 'normal', 'yaw': 1.08, 'datetime': '2018-10-10 00:54:51.730857', 'mgs': 0, 'volt': 0.8789, 'depth': 1.233, 'time': 10, 'pitch': 12.15, 'roll': -4.34, 'pres': 180}
{'lipoC2': 7.5, 'lipoC3S1': 3.9, 'temp': 30.0, 'lipoC3S3': 11.76, 'lipoC3S2': 7.82, 'rot1': 36, 'rot0': 35, 'rot3': 38, 'rot2': 28, 'state': 'normal', 'yaw': 1.08, 'datetime': '2018-10-10 00:54:51.834753', 'mgs': 0, 'volt': 0.957, 'depth': 2.454, 'time': 10, 'pitch': 12.59, 'roll': -4.93, 'pres': 196}
{'lipoC2': 7.5, 'lipoC3S1': 3.84, 'temp': 30.0, 'lipoC3S3': 11.71, 'lipoC3S2': 7.64, 'rot1': 38, 'rot0': 36, 'rot3': 39, 'rot2': 29, 'state': 'normal', 'yaw': 0.95, 'datetime': '2018-10-10 00:54:51.938340', 'mgs': 0, 'volt': 0.874, 'depth': 1.157, 'time': 10, 'pitch': 12.69, 'roll': -5.25, 'pres': 179}
{'lipoC2': 7.5, 'lipoC3S1': 3.78, 'temp': 30.0, 'lipoC3S3': 11.79, 'lipoC3S2': 7.84, 'rot1': 39, 'rot0': 38, 'rot3': 40, 'rot2': 29, 'state': 'normal', 'yaw': 0.68, 'datetime': '2018-10-10 00:54:52.042329', 'mgs': 0, 'volt': 0.9082, 'depth': 1.691, 'time': 11, 'pitch': 13.01, 'roll': -5.14, 'pres': 186}
{'lipoC2': 7.48, 'lipoC3S1': 3.89, 'temp': 30.0, 'lipoC3S3': 11.5, 'lipoC3S2': 7.8, 'rot1': 40, 'rot0': 39, 'rot3': 40, 'rot2': 30, 'state': 'normal', 'yaw': 0.16, 'datetime': '2018-10-10 00:54:52.146038', 'mgs': 0, 'volt': 0.874, 'depth': 1.157, 'time': 11, 'pitch': 13.53, 'roll': -4.61, 'pres': 179}
{'lipoC2': 7.5, 'lipoC3S1': 3.83, 'temp': 30.0, 'lipoC3S3': 11.83, 'lipoC3S2': 7.85, 'rot1': 41, 'rot0': 41, 'rot3': 41, 'rot2': 31, 'state': 'normal', 'yaw': -0.52, 'datetime': '2018-10-10 00:54:52.249755', 'mgs': 0, 'volt': 0.874, 'depth': 1.157, 'time': 11, 'pitch': 13.69, 'roll': -4.37, 'pres': 179}
{'lipoC2': 7.47, 'lipoC3S1': 3.91, 'temp': 30.0, 'lipoC3S3': 11.8, 'lipoC3S2': 7.84, 'rot1': 43, 'rot0': 42, 'rot3': 41, 'rot2': 31, 'state': 'normal', 'yaw': -1.38, 'datetime': '2018-10-10 00:54:52.353700', 'mgs': 0, 'volt': 0.9229, 'depth': 1.92, 'time': 11, 'pitch': 12.79, 'roll': -4.7, 'pres': 189}
{'lipoC2': 7.5, 'lipoC3S1': 3.89, 'temp': 30.0, 'lipoC3S3': 11.77, 'lipoC3S2': 7.77, 'rot1': 44, 'rot0': 43, 'rot3': 41, 'rot2': 31, 'state': 'normal', 'yaw': -2.11, 'datetime': '2018-10-10 00:54:52.457417', 'mgs': 0, 'volt': 0.8643, 'depth': 1.004, 'time': 11, 'pitch': 10.87, 'roll': -4.88, 'pres': 177}
{'lipoC2': 7.5, 'lipoC3S1': 3.87, 'temp': 30.0, 'lipoC3S3': 11.81, 'lipoC3S2': 7.84, 'rot1': 45, 'rot0': 45, 'rot3': 41, 'rot2': 31, 'state': 'normal', 'yaw': -2.8, 'datetime': '2018-10-10 00:54:52.562448', 'mgs': 0, 'volt': 0.8301, 'depth': 0.47, 'time': 11, 'pitch': 8.73, 'roll': -4.59, 'pres': 170}
{'lipoC2': 7.49, 'lipoC3S1': 3.9, 'temp': 30.0, 'lipoC3S3': 11.64, 'lipoC3S2': 7.87, 'rot1': 46, 'rot0': 46, 'rot3': 41, 'rot2': 31, 'state': 'normal', 'yaw': -3.63, 'datetime': '2018-10-10 00:54:52.665981', 'mgs': 0, 'volt': 0.8643, 'depth': 1.004, 'time': 11, 'pitch': 7.24, 'roll': -3.92, 'pres': 177}
{'lipoC2': 7.49, 'lipoC3S1': 3.82, 'temp': 30.0, 'lipoC3S3': 11.81, 'lipoC3S2': 7.84, 'rot1': 47, 'rot0': 48, 'rot3': 41, 'rot2': 31, 'state': 'normal', 'yaw': -4.42, 'datetime': '2018-10-10 00:54:52.770623', 'mgs': 0, 'volt': 0.8691, 'depth': 1.08, 'time': 11, 'pitch': 7.01, 'roll': -3.58, 'pres': 178}
{'lipoC2': 7.5, 'lipoC3S1': 3.83, 'temp': 30.0, 'lipoC3S3': 11.83, 'lipoC3S2': 7.76, 'rot1': 49, 'rot0': 49, 'rot3': 41, 'rot2': 31, 'state': 'normal', 'yaw': -5.19, 'datetime': '2018-10-10 00:54:52.874950', 'mgs': 0, 'volt': 0.8643, 'depth': 1.004, 'time': 11, 'pitch': 6.92, 'roll': -3.39, 'pres': 177}
{'lipoC2': 7.49, 'lipoC3S1': 3.92, 'temp': 30.0, 'lipoC3S3': 11.85, 'lipoC3S2': 7.85, 'rot1': 50, 'rot0': 50, 'rot3': 41, 'rot2': 31, 'state': 'normal', 'yaw': -6.0, 'datetime': '2018-10-10 00:54:52.979409', 'mgs': 0, 'volt': 0.8838, 'depth': 1.309, 'time': 12, 'pitch': 6.43, 'roll': -3.25, 'pres': 181}
{'lipoC2': 7.49, 'lipoC3S1': 3.92, 'temp': 30.0, 'lipoC3S3': 11.76, 'lipoC3S2': 7.85, 'rot1': 51, 'rot0': 51, 'rot3': 41, 'rot2': 31, 'state': 'normal', 'yaw': -6.25, 'datetime': '2018-10-10 00:54:53.083718', 'mgs': 0, 'volt': 0.8691, 'depth': 1.08, 'time': 12, 'pitch': 5.84, 'roll': -3.23, 'pres': 178}
{'lipoC2': 7.5, 'lipoC3S1': 3.85, 'temp': 30.0, 'lipoC3S3': 11.85, 'lipoC3S2': 7.86, 'rot1': 52, 'rot0': 52, 'rot3': 41, 'rot2': 31, 'state': 'normal', 'yaw': -5.9, 'datetime': '2018-10-10 00:54:53.187424', 'mgs': 0, 'volt': 0.8643, 'depth': 1.004, 'time': 12, 'pitch': 5.9, 'roll': -3.43, 'pres': 177}
{'lipoC2': 7.49, 'lipoC3S1': 3.92, 'temp': 30.0, 'lipoC3S3': 11.77, 'lipoC3S2': 7.85, 'rot1': 54, 'rot0': 53, 'rot3': 41, 'rot2': 31, 'state': 'normal', 'yaw': -5.22, 'datetime': '2018-10-10 00:54:53.291012', 'mgs': 0, 'volt': 0.874, 'depth': 1.157, 'time': 12, 'pitch': 6.59, 'roll': -3.86, 'pres': 179}
{'lipoC2': 7.5, 'lipoC3S1': 3.87, 'temp': 29.94, 'lipoC3S3': 11.84, 'lipoC3S2': 7.86, 'rot1': 55, 'rot0': 53, 'rot3': 41, 'rot2': 31, 'state': 'normal', 'yaw': -4.31, 'datetime': '2018-10-10 00:54:53.394765', 'mgs': 0, 'volt': 0.9131, 'depth': 1.767, 'time': 12, 'pitch': 7.33, 'roll': -4.23, 'pres': 187}
{'lipoC2': 7.5, 'lipoC3S1': 3.9, 'temp': 29.94, 'lipoC3S3': 11.71, 'lipoC3S2': 7.75, 'rot1': 56, 'rot0': 54, 'rot3': 41, 'rot2': 31, 'state': 'normal', 'yaw': -3.07, 'datetime': '2018-10-10 00:54:53.498603', 'mgs': 0, 'volt': 0.8789, 'depth': 1.233, 'time': 12, 'pitch': 7.58, 'roll': -4.41, 'pres': 180}
{'lipoC2': 7.49, 'lipoC3S1': 3.83, 'temp': 30.0, 'lipoC3S3': 11.77, 'lipoC3S2': 7.82, 'rot1': 57, 'rot0': 55, 'rot3': 42, 'rot2': 31, 'state': 'normal', 'yaw': -1.76, 'datetime': '2018-10-10 00:54:53.603863', 'mgs': 0, 'volt': 1.0107, 'depth': 3.293, 'time': 12, 'pitch': 7.31, 'roll': -4.22, 'pres': 207}
{'lipoC2': 7.47, 'lipoC3S1': 3.89, 'temp': 30.0, 'lipoC3S3': 11.69, 'lipoC3S2': 7.81, 'rot1': 59, 'rot0': 57, 'rot3': 42, 'rot2': 32, 'state': 'normal', 'yaw': -0.78, 'datetime': '2018-10-10 00:54:53.706184', 'mgs': 0, 'volt': 0.9033, 'depth': 1.614, 'time': 12, 'pitch': 7.43, 'roll': -3.83, 'pres': 185}
{'lipoC2': 7.5, 'lipoC3S1': 3.81, 'temp': 30.0, 'lipoC3S3': 11.79, 'lipoC3S2': 7.74, 'rot1': 60, 'rot0': 58, 'rot3': 43, 'rot2': 32, 'state': 'normal', 'yaw': -0.26, 'datetime': '2018-10-10 00:54:53.809866', 'mgs': 0, 'volt': 0.8838, 'depth': 1.309, 'time': 12, 'pitch': 8.78, 'roll': -3.55, 'pres': 181}
{'lipoC2': 7.5, 'lipoC3S1': 3.89, 'temp': 30.0, 'lipoC3S3': 11.73, 'lipoC3S2': 7.65, 'rot1': 61, 'rot0': 60, 'rot3': 44, 'rot2': 33, 'state': 'normal', 'yaw': -0.19, 'datetime': '2018-10-10 00:54:53.914287', 'mgs': 0, 'volt': 0.8838, 'depth': 1.309, 'time': 12, 'pitch': 11.03, 'roll': -3.71, 'pres': 181}
{'lipoC2': 7.49, 'lipoC3S1': 3.89, 'temp': 30.0, 'lipoC3S3': 11.76, 'lipoC3S2': 7.82, 'rot1': 62, 'rot0': 61, 'rot3': 44, 'rot2': 34, 'state': 'normal', 'yaw': -0.33, 'datetime': '2018-10-10 00:54:54.018042', 'mgs': 0, 'volt': 0.9717, 'depth': 2.682, 'time': 13, 'pitch': 13.19, 'roll': -4.19, 'pres': 199}
{'lipoC2': 7.49, 'lipoC3S1': 3.84, 'temp': 29.94, 'lipoC3S3': 11.68, 'lipoC3S2': 7.61, 'rot1': 64, 'rot0': 62, 'rot3': 45, 'rot2': 34, 'state': 'normal', 'yaw': -0.53, 'datetime': '2018-10-10 00:54:54.121762', 'mgs': 0, 'volt': 0.8838, 'depth': 1.309, 'time': 13, 'pitch': 14.04, 'roll': -4.5, 'pres': 181}
{'lipoC2': 7.49, 'lipoC3S1': 3.84, 'temp': 29.94, 'lipoC3S3': 11.76, 'lipoC3S2': 7.65, 'rot1': 65, 'rot0': 64, 'rot3': 45, 'rot2': 35, 'state': 'normal', 'yaw': -0.75, 'datetime': '2018-10-10 00:54:54.226815', 'mgs': 0, 'volt': 0.8838, 'depth': 1.309, 'time': 13, 'pitch': 14.14, 'roll': -4.51, 'pres': 181}
{'lipoC2': 7.49, 'lipoC3S1': 3.89, 'temp': 29.94, 'lipoC3S3': 11.75, 'lipoC3S2': 7.81, 'rot1': 66, 'rot0': 65, 'rot3': 46, 'rot2': 35, 'state': 'normal', 'yaw': -1.02, 'datetime': '2018-10-10 00:54:54.330654', 'mgs': 0, 'volt': 0.9229, 'depth': 1.92, 'time': 13, 'pitch': 14.16, 'roll': -4.24, 'pres': 189}
{'lipoC2': 7.46, 'lipoC3S1': 3.89, 'temp': 29.94, 'lipoC3S3': 11.75, 'lipoC3S2': 7.81, 'rot1': 68, 'rot0': 67, 'rot3': 47, 'rot2': 36, 'state': 'normal', 'yaw': -1.39, 'datetime': '2018-10-10 00:54:54.436052', 'mgs': 0, 'volt': 0.9473, 'depth': 2.301, 'time': 13, 'pitch': 14.42, 'roll': -3.88, 'pres': 194}
{'lipoC2': 7.49, 'lipoC3S1': 3.88, 'temp': 30.0, 'lipoC3S3': 11.55, 'lipoC3S2': 7.74, 'rot1': 69, 'rot0': 68, 'rot3': 47, 'rot2': 37, 'state': 'normal', 'yaw': -2.07, 'datetime': '2018-10-10 00:54:54.539654', 'mgs': 0, 'volt': 0.8789, 'depth': 1.233, 'time': 13, 'pitch': 14.94, 'roll': -3.63, 'pres': 180}
{'lipoC2': 7.49, 'lipoC3S1': 3.78, 'temp': 30.0, 'lipoC3S3': 11.79, 'lipoC3S2': 7.82, 'rot1': 70, 'rot0': 70, 'rot3': 48, 'rot2': 37, 'state': 'normal', 'yaw': -2.8, 'datetime': '2018-10-10 00:54:54.643519', 'mgs': 0, 'volt': 0.9131, 'depth': 1.767, 'time': 13, 'pitch': 15.35, 'roll': -3.76, 'pres': 187}
{'lipoC2': 7.47, 'lipoC3S1': 3.89, 'temp': 30.0, 'lipoC3S3': 11.65, 'lipoC3S2': 7.81, 'rot1': 72, 'rot0': 71, 'rot3': 49, 'rot2': 38, 'state': 'normal', 'yaw': -3.45, 'datetime': '2018-10-10 00:54:54.747381', 'mgs': 0, 'volt': 0.8936, 'depth': 1.462, 'time': 13, 'pitch': 15.34, 'roll': -3.86, 'pres': 183}
{'lipoC2': 7.5, 'lipoC3S1': 3.69, 'temp': 30.0, 'lipoC3S3': 11.81, 'lipoC3S2': 7.68, 'rot1': 73, 'rot0': 72, 'rot3': 49, 'rot2': 38, 'state': 'normal', 'yaw': -4.1, 'datetime': '2018-10-10 00:54:54.851135', 'mgs': 0, 'volt': 0.874, 'depth': 1.157, 'time': 13, 'pitch': 14.56, 'roll': -3.41, 'pres': 179}
{'lipoC2': 7.47, 'lipoC3S1': 3.89, 'temp': 30.0, 'lipoC3S3': 11.73, 'lipoC3S2': 7.81, 'rot1': 74, 'rot0': 74, 'rot3': 50, 'rot2': 39, 'state': 'normal', 'yaw': -4.77, 'datetime': '2018-10-10 00:54:54.954839', 'mgs': 0, 'volt': 0.9229, 'depth': 1.92, 'time': 13, 'pitch': 13.1, 'roll': -2.79, 'pres': 189}
{'lipoC2': 7.49, 'lipoC3S1': 3.84, 'temp': 30.0, 'lipoC3S3': 11.77, 'lipoC3S2': 7.67, 'rot1': 75, 'rot0': 75, 'rot3': 51, 'rot2': 40, 'state': 'normal', 'yaw': -5.58, 'datetime': '2018-10-10 00:54:55.058550', 'mgs': 0, 'volt': 0.8643, 'depth': 1.004, 'time': 14, 'pitch': 11.27, 'roll': -2.49, 'pres': 177}
{'lipoC2': 7.48, 'lipoC3S1': 3.9, 'temp': 30.0, 'lipoC3S3': 11.79, 'lipoC3S2': 7.83, 'rot1': 77, 'rot0': 76, 'rot3': 51, 'rot2': 40, 'state': 'normal', 'yaw': -6.48, 'datetime': '2018-10-10 00:54:55.162292', 'mgs': 0, 'volt': 0.9277, 'depth': 1.996, 'time': 14, 'pitch': 9.16, 'roll': -2.89, 'pres': 190}
{'lipoC2': 7.5, 'lipoC3S1': 3.86, 'temp': 30.0, 'lipoC3S3': 11.77, 'lipoC3S2': 7.71, 'rot1': 78, 'rot0': 77, 'rot3': 52, 'rot2': 41, 'state': 'normal', 'yaw': -6.78, 'datetime': '2018-10-10 00:54:55.266004', 'mgs': 0, 'volt': 0.8643, 'depth': 1.004, 'time': 14, 'pitch': 7.38, 'roll': -3.7, 'pres': 177}
{'lipoC2': 7.5, 'lipoC3S1': 3.92, 'temp': 30.0, 'lipoC3S3': 11.83, 'lipoC3S2': 7.85, 'rot1': 79, 'rot0': 78, 'rot3': 52, 'rot2': 41, 'state': 'normal', 'yaw': -6.44, 'datetime': '2018-10-10 00:54:55.370724', 'mgs': 0, 'volt': 0.918, 'depth': 1.843, 'time': 14, 'pitch': 6.42, 'roll': -4.06, 'pres': 188}
{'lipoC2': 7.5, 'lipoC3S1': 3.91, 'temp': 30.0, 'lipoC3S3': 11.79, 'lipoC3S2': 7.76, 'rot1': 80, 'rot0': 79, 'rot3': 52, 'rot2': 41, 'state': 'normal', 'yaw': -5.48, 'datetime': '2018-10-10 00:54:55.474499', 'mgs': 0, 'volt': 0.8643, 'depth': 1.004, 'time': 14, 'pitch': 5.88, 'roll': -3.46, 'pres': 177}
{'lipoC2': 7.49, 'lipoC3S1': 3.87, 'temp': 30.0, 'lipoC3S3': 11.84, 'lipoC3S2': 7.81, 'rot1': 82, 'rot0': 80, 'rot3': 52, 'rot2': 41, 'state': 'normal', 'yaw': -4.3, 'datetime': '2018-10-10 00:54:55.579500', 'mgs': 0, 'volt': 0.8643, 'depth': 1.004, 'time': 14, 'pitch': 5.15, 'roll': -2.83, 'pres': 177}
{'lipoC2': 7.48, 'lipoC3S1': 3.91, 'temp': 30.0, 'lipoC3S3': 11.81, 'lipoC3S2': 7.84, 'rot1': 83, 'rot0': 80, 'rot3': 52, 'rot2': 41, 'state': 'normal', 'yaw': -2.78, 'datetime': '2018-10-10 00:54:55.683338', 'mgs': 0, 'volt': 0.8643, 'depth': 1.004, 'time': 14, 'pitch': 4.46, 'roll': -2.52, 'pres': 177}
{'lipoC2': 7.49, 'lipoC3S1': 3.9, 'temp': 30.0, 'lipoC3S3': 11.69, 'lipoC3S2': 7.81, 'rot1': 84, 'rot0': 81, 'rot3': 52, 'rot2': 41, 'state': 'normal', 'yaw': -1.29, 'datetime': '2018-10-10 00:54:55.787173', 'mgs': 0, 'volt': 0.8643, 'depth': 1.004, 'time': 14, 'pitch': 4.21, 'roll': -2.52, 'pres': 177}
{'lipoC2': 7.5, 'lipoC3S1': 3.89, 'temp': 30.0, 'lipoC3S3': 11.73, 'lipoC3S2': 7.67, 'rot1': 86, 'rot0': 83, 'rot3': 52, 'rot2': 41, 'state': 'normal', 'yaw': -0.23, 'datetime': '2018-10-10 00:54:55.892188', 'mgs': 0, 'volt': 0.8691, 'depth': 1.08, 'time': 14, 'pitch': 4.68, 'roll': -2.62, 'pres': 178}
{'lipoC2': 7.47, 'lipoC3S1': 3.9, 'temp': 30.0, 'lipoC3S3': 11.79, 'lipoC3S2': 7.83, 'rot1': 87, 'rot0': 84, 'rot3': 52, 'rot2': 41, 'state': 'normal', 'yaw': 0.38, 'datetime': '2018-10-10 00:54:55.996133', 'mgs': 0, 'volt': 0.9424, 'depth': 2.225, 'time': 15, 'pitch': 6.04, 'roll': -2.68, 'pres': 193}
{'lipoC2': 7.5, 'lipoC3S1': 3.89, 'temp': 30.0, 'lipoC3S3': 11.73, 'lipoC3S2': 7.67, 'rot1': 88, 'rot0': 86, 'rot3': 52, 'rot2': 41, 'state': 'normal', 'yaw': 0.69, 'datetime': '2018-10-10 00:54:56.099646', 'mgs': 0, 'volt': 0.874, 'depth': 1.157, 'time': 15, 'pitch': 7.44, 'roll': -2.82, 'pres': 179}
{'lipoC2': 7.5, 'lipoC3S1': 3.84, 'temp': 30.0, 'lipoC3S3': 11.8, 'lipoC3S2': 7.83, 'rot1': 89, 'rot0': 87, 'rot3': 52, 'rot2': 41, 'state': 'normal', 'yaw': 0.85, 'datetime': '2018-10-10 00:54:56.203506', 'mgs': 0, 'volt': 0.9082, 'depth': 1.691, 'time': 15, 'pitch': 8.46, 'roll': -3.3, 'pres': 186}
{'lipoC2': 7.49, 'lipoC3S1': 3.88, 'temp': 30.0, 'lipoC3S3': 11.54, 'lipoC3S2': 7.71, 'rot1': 91, 'rot0': 88, 'rot3': 53, 'rot2': 42, 'state': 'normal', 'yaw': 0.9, 'datetime': '2018-10-10 00:54:56.307262', 'mgs': 0, 'volt': 0.8838, 'depth': 1.309, 'time': 15, 'pitch': 8.75, 'roll': -3.9, 'pres': 181}
{'lipoC2': 7.5, 'lipoC3S1': 3.8, 'temp': 30.0, 'lipoC3S3': 11.76, 'lipoC3S2': 7.82, 'rot1': 92, 'rot0': 90, 'rot3': 53, 'rot2': 42, 'state': 'normal', 'yaw': 0.72, 'datetime': '2018-10-10 00:54:56.410967', 'mgs': 0, 'volt': 0.957, 'depth': 2.454, 'time': 15, 'pitch': 8.97, 'roll': -4.33, 'pres': 196}
{'lipoC2': 7.49, 'lipoC3S1': 3.88, 'temp': 30.06, 'lipoC3S3': 11.55, 'lipoC3S2': 7.81, 'rot1': 93, 'rot0': 91, 'rot3': 54, 'rot2': 43, 'state': 'normal', 'yaw': 0.25, 'datetime': '2018-10-10 00:54:56.514713', 'mgs': 0, 'volt': 0.8887, 'depth': 1.385, 'time': 15, 'pitch': 9.9, 'roll': -4.28, 'pres': 182}
{'lipoC2': 7.5, 'lipoC3S1': 3.82, 'temp': 30.06, 'lipoC3S3': 11.77, 'lipoC3S2': 7.82, 'rot1': 95, 'rot0': 93, 'rot3': 54, 'rot2': 43, 'state': 'normal', 'yaw': -0.29, 'datetime': '2018-10-10 00:54:56.618458', 'mgs': 0, 'volt': 0.9961, 'depth': 3.064, 'time': 15, 'pitch': 11.19, 'roll': -3.7, 'pres': 204}
{'lipoC2': 7.48, 'lipoC3S1': 3.89, 'temp': 30.0, 'lipoC3S3': 11.75, 'lipoC3S2': 7.81, 'rot1': 96, 'rot0': 94, 'rot3': 55, 'rot2': 44, 'state': 'normal', 'yaw': -0.88, 'datetime': '2018-10-10 00:54:56.723444', 'mgs': 0, 'volt': 0.9668, 'depth': 2.606, 'time': 15, 'pitch': 12.32, 'roll': -3.06, 'pres': 198}
{'lipoC2': 7.5, 'lipoC3S1': 3.87, 'temp': 30.0, 'lipoC3S3': 11.69, 'lipoC3S2': 7.6, 'rot1': 97, 'rot0': 96, 'rot3': 55, 'rot2': 44, 'state': 'normal', 'yaw': -1.65, 'datetime': '2018-10-10 00:54:56.827226', 'mgs': 0, 'volt': 0.8887, 'depth': 1.385, 'time': 15, 'pitch': 12.99, 'roll': -2.89, 'pres': 182}
