{'lipoC2': 7.62, 'lipoC3S1': 4.15, 'temp': 29.88, 'lipoC3S3': 12.54, 'lipoC3S2': 8.29, 'rot1': 4, 'rot0': 5, 'rot3': 0, 'rot2': 0, 'state': 'normal', 'yaw': 65.74, 'datetime': '2018-10-09 11:45:23.848646', 'mgs': 0, 'volt': 0.0, 'depth': -12.5, 'time': 416, 'pitch': 82.95, 'roll': 22.11, 'pres': 0}
{'lipoC2': 7.62, 'lipoC3S1': 4.15, 'temp': 29.88, 'lipoC3S3': 12.54, 'lipoC3S2': 8.29, 'rot1': 4, 'rot0': 5, 'rot3': 0, 'rot2': 0, 'state': 'normal', 'yaw': 66.69, 'datetime': '2018-10-09 11:45:23.870703', 'mgs': 0, 'volt': 0.0, 'depth': -12.5, 'time': 416, 'pitch': 83.26, 'roll': 23.05, 'pres': 0}
{'lipoC2': 7.62, 'lipoC3S1': 4.15, 'temp': 29.88, 'lipoC3S3': 12.54, 'lipoC3S2': 8.29, 'rot1': 4, 'rot0': 5, 'rot3': 0, 'rot2': 0, 'state': 'normal', 'yaw': 67.58, 'datetime': '2018-10-09 11:45:23.892806', 'mgs': 0, 'volt': 0.0, 'depth': -12.5, 'time': 416, 'pitch': 83.4, 'roll': 23.95, 'pres': 0}
{'lipoC2': 7.62, 'lipoC3S1': 4.15, 'temp': 29.88, 'lipoC3S3': 12.54, 'lipoC3S2': 8.29, 'rot1': 4, 'rot0': 5, 'rot3': 0, 'rot2': 0, 'state': 'normal', 'yaw': 67.85, 'datetime': '2018-10-09 11:45:23.914942', 'mgs': 0, 'volt': 0.0, 'depth': -12.5, 'time': 416, 'pitch': 83.48, 'roll': 24.22, 'pres': 0}
{'lipoC2': 7.62, 'lipoC3S1': 4.15, 'temp': 29.88, 'lipoC3S3': 12.54, 'lipoC3S2': 8.29, 'rot1': 4, 'rot0': 5, 'rot3': 0, 'rot2': 0, 'state': 'normal', 'yaw': 69.36, 'datetime': '2018-10-09 11:45:23.937018', 'mgs': 0, 'volt': 0.0, 'depth': -12.5, 'time': 417, 'pitch': 83.83, 'roll': 25.72, 'pres': 0}
{'lipoC2': 7.62, 'lipoC3S1': 4.15, 'temp': 29.88, 'lipoC3S3': 12.54, 'lipoC3S2': 8.29, 'rot1': 4, 'rot0': 5, 'rot3': 0, 'rot2': 0, 'state': 'normal', 'yaw': 69.52, 'datetime': '2018-10-09 11:45:23.959061', 'mgs': 0, 'volt': 0.0, 'depth': -12.5, 'time': 417, 'pitch': 83.85, 'roll': 25.89, 'pres': 0}
{'lipoC2': 7.62, 'lipoC3S1': 4.15, 'temp': 29.88, 'lipoC3S3': 12.54, 'lipoC3S2': 8.29, 'rot1': 4, 'rot0': 5, 'rot3': 0, 'rot2': 0, 'state': 'normal', 'yaw': 67.47, 'datetime': '2018-10-09 11:45:23.976419', 'mgs': 0, 'volt': 0.0, 'depth': -12.5, 'time': 417, 'pitch': 83.39, 'roll': 23.83, 'pres': 0}
{'lipoC2': 7.62, 'lipoC3S1': 4.15, 'temp': 29.88, 'lipoC3S3': 12.54, 'lipoC3S2': 8.29, 'rot1': 4, 'rot0': 5, 'rot3': 0, 'rot2': 0, 'state': 'normal', 'yaw': 67.48, 'datetime': '2018-10-09 11:45:23.986072', 'mgs': 0, 'volt': 0.0, 'depth': -12.5, 'time': 417, 'pitch': 83.38, 'roll': 23.86, 'pres': 0}
{'lipoC2': 7.62, 'lipoC3S1': 4.15, 'temp': 29.88, 'lipoC3S3': 12.54, 'lipoC3S2': 8.29, 'rot1': 4, 'rot0': 5, 'rot3': 0, 'rot2': 0, 'state': 'normal', 'yaw': 69.5, 'datetime': '2018-10-09 11:45:23.995696', 'mgs': 0, 'volt': 0.0, 'depth': -12.5, 'time': 417, 'pitch': 83.88, 'roll': 25.86, 'pres': 0}
{'lipoC2': 7.62, 'lipoC3S1': 4.15, 'temp': 29.94, 'lipoC3S3': 12.54, 'lipoC3S2': 8.29, 'rot1': 4, 'rot0': 5, 'rot3': 0, 'rot2': 0, 'state': 'normal', 'yaw': 70.09, 'datetime': '2018-10-09 11:45:24.005280', 'mgs': 0, 'volt': 0.0, 'depth': -12.5, 'time': 417, 'pitch': 84.03, 'roll': 26.45, 'pres': 0}
{'lipoC2': 7.62, 'lipoC3S1': 4.15, 'temp': 29.94, 'lipoC3S3': 12.54, 'lipoC3S2': 8.29, 'rot1': 4, 'rot0': 5, 'rot3': 0, 'rot2': 0, 'state': 'normal', 'yaw': 70.56, 'datetime': '2018-10-09 11:45:24.014846', 'mgs': 0, 'volt': 0.0, 'depth': -12.5, 'time': 417, 'pitch': 84.11, 'roll': 26.92, 'pres': 0}
{'lipoC2': 7.62, 'lipoC3S1': 4.15, 'temp': 29.94, 'lipoC3S3': 12.54, 'lipoC3S2': 8.29, 'rot1': 4, 'rot0': 5, 'rot3': 0, 'rot2': 0, 'state': 'normal', 'yaw': 70.63, 'datetime': '2018-10-09 11:45:24.024367', 'mgs': 0, 'volt': 0.0, 'depth': -12.5, 'time': 417, 'pitch': 84.16, 'roll': 26.97, 'pres': 0}
{'lipoC2': 7.62, 'lipoC3S1': 4.15, 'temp': 29.88, 'lipoC3S3': 12.54, 'lipoC3S2': 8.29, 'rot1': 4, 'rot0': 5, 'rot3': 0, 'rot2': 0, 'state': 'normal', 'yaw': 70.56, 'datetime': '2018-10-09 11:45:24.033931', 'mgs': 0, 'volt': 0.0, 'depth': -12.5, 'time': 417, 'pitch': 84.11, 'roll': 26.92, 'pres': 0}
{'lipoC2': 7.62, 'lipoC3S1': 4.15, 'temp': 29.88, 'lipoC3S3': 12.54, 'lipoC3S2': 8.29, 'rot1': 4, 'rot0': 5, 'rot3': 0, 'rot2': 0, 'state': 'normal', 'yaw': 70.66, 'datetime': '2018-10-09 11:45:24.043480', 'mgs': 0, 'volt': 0.0, 'depth': -12.5, 'time': 417, 'pitch': 84.15, 'roll': 27.03, 'pres': 0}
{'lipoC2': 7.62, 'lipoC3S1': 4.15, 'temp': 29.88, 'lipoC3S3': 12.54, 'lipoC3S2': 8.29, 'rot1': 4, 'rot0': 5, 'rot3': 0, 'rot2': 0, 'state': 'normal', 'yaw': 68.83, 'datetime': '2018-10-09 11:45:24.053431', 'mgs': 0, 'volt': 0.0, 'depth': -12.5, 'time': 418, 'pitch': 83.75, 'roll': 25.19, 'pres': 0}
{'lipoC2': 7.62, 'lipoC3S1': 4.15, 'temp': 29.88, 'lipoC3S3': 12.54, 'lipoC3S2': 8.29, 'rot1': 4, 'rot0': 5, 'rot3': 0, 'rot2': 0, 'state': 'normal', 'yaw': 68.11, 'datetime': '2018-10-09 11:45:24.063065', 'mgs': 0, 'volt': 0.0, 'depth': -12.5, 'time': 418, 'pitch': 83.55, 'roll': 24.49, 'pres': 0}
{'lipoC2': 7.62, 'lipoC3S1': 4.15, 'temp': 29.88, 'lipoC3S3': 12.54, 'lipoC3S2': 8.29, 'rot1': 4, 'rot0': 5, 'rot3': 0, 'rot2': 0, 'state': 'normal', 'yaw': 68.38, 'datetime': '2018-10-09 11:45:24.072655', 'mgs': 0, 'volt': 0.0, 'depth': -12.5, 'time': 418, 'pitch': 83.6, 'roll': 24.76, 'pres': 0}
{'lipoC2': 7.62, 'lipoC3S1': 4.15, 'temp': 29.88, 'lipoC3S3': 12.54, 'lipoC3S2': 8.29, 'rot1': 4, 'rot0': 5, 'rot3': 0, 'rot2': 0, 'state': 'normal', 'yaw': 68.67, 'datetime': '2018-10-09 11:45:24.082279', 'mgs': 0, 'volt': 0.0, 'depth': -12.5, 'time': 418, 'pitch': 83.72, 'roll': 25.04, 'pres': 0}
{'lipoC2': 7.61, 'lipoC3S1': 4.15, 'temp': 29.88, 'lipoC3S3': 12.54, 'lipoC3S2': 8.29, 'rot1': 4, 'rot0': 5, 'rot3': 0, 'rot2': 0, 'state': 'normal', 'yaw': 69.41, 'datetime': '2018-10-09 11:45:24.097383', 'mgs': 0, 'volt': 0.0, 'depth': -12.5, 'time': 418, 'pitch': 83.89, 'roll': 25.78, 'pres': 0}
{'lipoC2': 7.62, 'lipoC3S1': 4.15, 'temp': 29.88, 'lipoC3S3': 12.54, 'lipoC3S2': 8.29, 'rot1': 4, 'rot0': 5, 'rot3': 0, 'rot2': 0, 'state': 'normal', 'yaw': 70.43, 'datetime': '2018-10-09 11:45:24.200246', 'mgs': 0, 'volt': 0.0, 'depth': -12.5, 'time': 418, 'pitch': 84.07, 'roll': 26.81, 'pres': 0}
{'lipoC2': 7.61, 'lipoC3S1': 4.15, 'temp': 29.88, 'lipoC3S3': 12.54, 'lipoC3S2': 8.29, 'rot1': 4, 'rot0': 5, 'rot3': 0, 'rot2': 0, 'state': 'normal', 'yaw': 71.03, 'datetime': '2018-10-09 11:45:24.303150', 'mgs': 0, 'volt': 0.0, 'depth': -12.5, 'time': 418, 'pitch': 84.2, 'roll': 27.4, 'pres': 0}
{'lipoC2': 7.62, 'lipoC3S1': 4.15, 'temp': 29.81, 'lipoC3S3': 12.54, 'lipoC3S2': 8.29, 'rot1': 4, 'rot0': 5, 'rot3': 0, 'rot2': 0, 'state': 'normal', 'yaw': 70.63, 'datetime': '2018-10-09 11:45:24.407317', 'mgs': 0, 'volt': 0.0, 'depth': -12.5, 'time': 418, 'pitch': 84.11, 'roll': 27.02, 'pres': 0}
{'lipoC2': 7.62, 'lipoC3S1': 4.15, 'temp': 29.81, 'lipoC3S3': 12.54, 'lipoC3S2': 8.29, 'rot1': 4, 'rot0': 5, 'rot3': 0, 'rot2': 0, 'state': 'normal', 'yaw': 69.95, 'datetime': '2018-10-09 11:45:24.510239', 'mgs': 0, 'volt': 0.0, 'depth': -12.5, 'time': 418, 'pitch': 83.99, 'roll': 26.33, 'pres': 0}
{'lipoC2': 7.62, 'lipoC3S1': 4.15, 'temp': 29.88, 'lipoC3S3': 12.54, 'lipoC3S2': 8.29, 'rot1': 4, 'rot0': 5, 'rot3': 0, 'rot2': 0, 'state': 'normal', 'yaw': 68.56, 'datetime': '2018-10-09 11:45:24.613166', 'mgs': 0, 'volt': 0.0, 'depth': -12.5, 'time': 419, 'pitch': 83.7, 'roll': 24.94, 'pres': 0}
{'lipoC2': 7.62, 'lipoC3S1': 4.15, 'temp': 29.88, 'lipoC3S3': 12.54, 'lipoC3S2': 8.29, 'rot1': 4, 'rot0': 5, 'rot3': 0, 'rot2': 0, 'state': 'normal', 'yaw': 69.14, 'datetime': '2018-10-09 11:45:24.718079', 'mgs': 0, 'volt': 0.0, 'depth': -12.5, 'time': 419, 'pitch': 83.82, 'roll': 25.52, 'pres': 0}
{'lipoC2': 7.62, 'lipoC3S1': 4.15, 'temp': 29.88, 'lipoC3S3': 12.54, 'lipoC3S2': 8.29, 'rot1': 4, 'rot0': 5, 'rot3': 0, 'rot2': 0, 'state': 'normal', 'yaw': 70.63, 'datetime': '2018-10-09 11:45:24.820981', 'mgs': 0, 'volt': 0.0, 'depth': -12.5, 'time': 419, 'pitch': 84.16, 'roll': 27.01, 'pres': 0}
{'lipoC2': 7.62, 'lipoC3S1': 4.15, 'temp': 29.88, 'lipoC3S3': 12.54, 'lipoC3S2': 8.29, 'rot1': 4, 'rot0': 5, 'rot3': 0, 'rot2': 0, 'state': 'normal', 'yaw': 69.78, 'datetime': '2018-10-09 11:45:24.923890', 'mgs': 0, 'volt': 0.0, 'depth': -12.5, 'time': 419, 'pitch': 83.96, 'roll': 26.16, 'pres': 0}
{'lipoC2': 7.62, 'lipoC3S1': 4.15, 'temp': 29.88, 'lipoC3S3': 12.52, 'lipoC3S2': 8.29, 'rot1': 4, 'rot0': 5, 'rot3': 0, 'rot2': 0, 'state': 'normal', 'yaw': 69.78, 'datetime': '2018-10-09 11:45:25.028152', 'mgs': 0, 'volt': 0.0, 'depth': -12.5, 'time': 419, 'pitch': 83.96, 'roll': 26.16, 'pres': 0}
{'lipoC2': 7.62, 'lipoC3S1': 4.15, 'temp': 29.88, 'lipoC3S3': 12.54, 'lipoC3S2': 8.29, 'rot1': 4, 'rot0': 5, 'rot3': 0, 'rot2': 0, 'state': 'normal', 'yaw': 70.74, 'datetime': '2018-10-09 11:45:25.131298', 'mgs': 0, 'volt': 0.0, 'depth': -12.5, 'time': 419, 'pitch': 84.17, 'roll': 27.13, 'pres': 0}
{'lipoC2': 7.62, 'lipoC3S1': 4.15, 'temp': 29.88, 'lipoC3S3': 12.54, 'lipoC3S2': 8.29, 'rot1': 4, 'rot0': 5, 'rot3': 0, 'rot2': 0, 'state': 'normal', 'yaw': 70.56, 'datetime': '2018-10-09 11:45:25.234211', 'mgs': 0, 'volt': 0.0, 'depth': -12.5, 'time': 419, 'pitch': 84.12, 'roll': 26.94, 'pres': 0}
{'lipoC2': 7.62, 'lipoC3S1': 4.15, 'temp': 29.88, 'lipoC3S3': 12.54, 'lipoC3S2': 8.29, 'rot1': 4, 'rot0': 5, 'rot3': 0, 'rot2': 0, 'state': 'normal', 'yaw': 69.22, 'datetime': '2018-10-09 11:45:25.337088', 'mgs': 0, 'volt': 0.0, 'depth': -12.5, 'time': 419, 'pitch': 83.84, 'roll': 25.6, 'pres': 0}
{'lipoC2': 7.62, 'lipoC3S1': 4.15, 'temp': 29.88, 'lipoC3S3': 12.54, 'lipoC3S2': 8.29, 'rot1': 4, 'rot0': 5, 'rot3': 0, 'rot2': 0, 'state': 'normal', 'yaw': 68.26, 'datetime': '2018-10-09 11:45:25.439977', 'mgs': 0, 'volt': 0.0, 'depth': -12.5, 'time': 419, 'pitch': 83.56, 'roll': 24.67, 'pres': 0}
{'lipoC2': 7.62, 'lipoC3S1': 4.15, 'temp': 29.88, 'lipoC3S3': 12.54, 'lipoC3S2': 8.29, 'rot1': 4, 'rot0': 5, 'rot3': 0, 'rot2': 0, 'state': 'normal', 'yaw': 67.03, 'datetime': '2018-10-09 11:45:25.542855', 'mgs': 0, 'volt': 0.0, 'depth': -12.5, 'time': 419, 'pitch': 83.23, 'roll': 23.46, 'pres': 0}
{'lipoC2': 7.61, 'lipoC3S1': 4.15, 'temp': 29.88, 'lipoC3S3': 12.54, 'lipoC3S2': 8.29, 'rot1': 4, 'rot0': 5, 'rot3': 0, 'rot2': 0, 'state': 'normal', 'yaw': 66.21, 'datetime': '2018-10-09 11:45:25.645849', 'mgs': 0, 'volt': 0.0, 'depth': -12.5, 'time': 420, 'pitch': 83.02, 'roll': 22.63, 'pres': 0}
{'lipoC2': 7.62, 'lipoC3S1': 4.15, 'temp': 29.88, 'lipoC3S3': 12.52, 'lipoC3S2': 8.29, 'rot1': 4, 'rot0': 5, 'rot3': 0, 'rot2': 0, 'state': 'normal', 'yaw': 66.53, 'datetime': '2018-10-09 11:45:25.748679', 'mgs': 0, 'volt': 0.0, 'depth': -12.5, 'time': 420, 'pitch': 83.12, 'roll': 22.95, 'pres': 0}
{'lipoC2': 7.62, 'lipoC3S1': 4.15, 'temp': 29.88, 'lipoC3S3': 12.54, 'lipoC3S2': 8.29, 'rot1': 4, 'rot0': 5, 'rot3': 0, 'rot2': 0, 'state': 'normal', 'yaw': 67.46, 'datetime': '2018-10-09 11:45:25.851843', 'mgs': 0, 'volt': 0.0, 'depth': -12.5, 'time': 420, 'pitch': 83.41, 'roll': 23.87, 'pres': 0}
{'lipoC2': 7.62, 'lipoC3S1': 4.15, 'temp': 29.88, 'lipoC3S3': 12.52, 'lipoC3S2': 8.29, 'rot1': 4, 'rot0': 5, 'rot3': 0, 'rot2': 0, 'state': 'normal', 'yaw': 67.93, 'datetime': '2018-10-09 11:45:25.954709', 'mgs': 0, 'volt': 0.0, 'depth': -12.5, 'time': 420, 'pitch': 83.52, 'roll': 24.34, 'pres': 0}
{'lipoC2': 7.62, 'lipoC3S1': 4.15, 'temp': 29.81, 'lipoC3S3': 12.54, 'lipoC3S2': 8.29, 'rot1': 4, 'rot0': 5, 'rot3': 0, 'rot2': 0, 'state': 'normal', 'yaw': 68.16, 'datetime': '2018-10-09 11:45:26.057628', 'mgs': 0, 'volt': 0.0, 'depth': -12.5, 'time': 420, 'pitch': 83.58, 'roll': 24.56, 'pres': 0}
{'lipoC2': 7.62, 'lipoC3S1': 4.15, 'temp': 29.81, 'lipoC3S3': 12.54, 'lipoC3S2': 8.29, 'rot1': 4, 'rot0': 5, 'rot3': 0, 'rot2': 0, 'state': 'normal', 'yaw': 68.0, 'datetime': '2018-10-09 11:45:26.161815', 'mgs': 0, 'volt': 0.0, 'depth': -12.5, 'time': 420, 'pitch': 83.52, 'roll': 24.42, 'pres': 0}
{'lipoC2': 7.61, 'lipoC3S1': 4.15, 'temp': 29.81, 'lipoC3S3': 12.54, 'lipoC3S2': 8.29, 'rot1': 4, 'rot0': 5, 'rot3': 0, 'rot2': 0, 'state': 'normal', 'yaw': 68.53, 'datetime': '2018-10-09 11:45:26.264717', 'mgs': 0, 'volt': 0.0, 'depth': -12.5, 'time': 420, 'pitch': 83.65, 'roll': 24.94, 'pres': 0}
{'lipoC2': 7.61, 'lipoC3S1': 4.15, 'temp': 29.88, 'lipoC3S3': 12.54, 'lipoC3S2': 8.29, 'rot1': 4, 'rot0': 5, 'rot3': 0, 'rot2': 0, 'state': 'normal', 'yaw': 69.65, 'datetime': '2018-10-09 11:45:26.367642', 'mgs': 0, 'volt': 0.0, 'depth': -12.5, 'time': 420, 'pitch': 83.93, 'roll': 26.04, 'pres': 0}
{'lipoC2': 7.62, 'lipoC3S1': 4.15, 'temp': 29.88, 'lipoC3S3': 12.54, 'lipoC3S2': 8.29, 'rot1': 4, 'rot0': 5, 'rot3': 0, 'rot2': 0, 'state': 'normal', 'yaw': 70.08, 'datetime': '2018-10-09 11:45:26.471844', 'mgs': 0, 'volt': 0.0, 'depth': -12.5, 'time': 420, 'pitch': 83.99, 'roll': 26.5, 'pres': 0}
{'lipoC2': 7.61, 'lipoC3S1': 4.15, 'temp': 29.81, 'lipoC3S3': 12.54, 'lipoC3S2': 8.29, 'rot1': 4, 'rot0': 5, 'rot3': 0, 'rot2': 0, 'state': 'normal', 'yaw': 69.94, 'datetime': '2018-10-09 11:45:26.574685', 'mgs': 0, 'volt': 0.0, 'depth': -12.5, 'time': 420, 'pitch': 83.98, 'roll': 26.34, 'pres': 0}
{'lipoC2': 7.62, 'lipoC3S1': 4.15, 'temp': 29.81, 'lipoC3S3': 12.54, 'lipoC3S2': 8.29, 'rot1': 4, 'rot0': 5, 'rot3': 0, 'rot2': 0, 'state': 'normal', 'yaw': 68.64, 'datetime': '2018-10-09 11:45:26.677670', 'mgs': 0, 'volt': 0.0, 'depth': -12.5, 'time': 421, 'pitch': 83.67, 'roll': 25.06, 'pres': 0}
{'lipoC2': 7.62, 'lipoC3S1': 4.15, 'temp': 29.81, 'lipoC3S3': 12.54, 'lipoC3S2': 8.29, 'rot1': 4, 'rot0': 5, 'rot3': 0, 'rot2': 0, 'state': 'normal', 'yaw': 67.95, 'datetime': '2018-10-09 11:45:26.781860', 'mgs': 0, 'volt': 0.0, 'depth': -12.5, 'time': 421, 'pitch': 83.51, 'roll': 24.36, 'pres': 0}
{'lipoC2': 7.62, 'lipoC3S1': 4.15, 'temp': 29.81, 'lipoC3S3': 12.54, 'lipoC3S2': 8.29, 'rot1': 4, 'rot0': 5, 'rot3': 0, 'rot2': 0, 'state': 'normal', 'yaw': 68.0, 'datetime': '2018-10-09 11:45:26.885195', 'mgs': 0, 'volt': 0.0, 'depth': -12.5, 'time': 421, 'pitch': 83.56, 'roll': 24.41, 'pres': 0}
{'lipoC2': 7.62, 'lipoC3S1': 4.15, 'temp': 29.81, 'lipoC3S3': 12.52, 'lipoC3S2': 8.29, 'rot1': 4, 'rot0': 5, 'rot3': 0, 'rot2': 0, 'state': 'normal', 'yaw': 65.88, 'datetime': '2018-10-09 11:45:26.988072', 'mgs': 0, 'volt': 0.0, 'depth': -12.5, 'time': 421, 'pitch': 82.96, 'roll': 22.33, 'pres': 0}
{'lipoC2': 7.61, 'lipoC3S1': 4.15, 'temp': 29.81, 'lipoC3S3': 12.54, 'lipoC3S2': 8.29, 'rot1': 4, 'rot0': 5, 'rot3': 0, 'rot2': 0, 'state': 'normal', 'yaw': 60.03, 'datetime': '2018-10-09 11:45:27.090968', 'mgs': 0, 'volt': 0.0, 'depth': -12.5, 'time': 421, 'pitch': 80.66, 'roll': 16.52, 'pres': 0}
{'lipoC2': 7.61, 'lipoC3S1': 4.15, 'temp': 29.81, 'lipoC3S3': 12.54, 'lipoC3S2': 8.29, 'rot1': 4, 'rot0': 5, 'rot3': 0, 'rot2': 0, 'state': 'normal', 'yaw': 55.3, 'datetime': '2018-10-09 11:45:27.193940', 'mgs': 0, 'volt': 0.0, 'depth': -12.5, 'time': 421, 'pitch': 77.19, 'roll': 11.86, 'pres': 0}
{'lipoC2': 7.62, 'lipoC3S1': 4.15, 'temp': 29.81, 'lipoC3S3': 12.54, 'lipoC3S2': 8.29, 'rot1': 4, 'rot0': 5, 'rot3': 0, 'rot2': 0, 'state': 'normal', 'yaw': 51.56, 'datetime': '2018-10-09 11:45:27.296773', 'mgs': 0, 'volt': 0.0, 'depth': -12.5, 'time': 421, 'pitch': 72.06, 'roll': 8.24, 'pres': 0}
{'lipoC2': 7.62, 'lipoC3S1': 4.15, 'temp': 29.81, 'lipoC3S3': 12.54, 'lipoC3S2': 8.29, 'rot1': 4, 'rot0': 5, 'rot3': 0, 'rot2': 0, 'state': 'normal', 'yaw': 48.99, 'datetime': '2018-10-09 11:45:27.399671', 'mgs': 0, 'volt': 0.0, 'depth': -12.5, 'time': 421, 'pitch': 66.15, 'roll': 5.92, 'pres': 0}
{'lipoC2': 7.62, 'lipoC3S1': 4.15, 'temp': 29.81, 'lipoC3S3': 12.54, 'lipoC3S2': 8.29, 'rot1': 4, 'rot0': 5, 'rot3': 0, 'rot2': 0, 'state': 'normal', 'yaw': 47.64, 'datetime': '2018-10-09 11:45:27.502559', 'mgs': 0, 'volt': 0.0, 'depth': -12.5, 'time': 421, 'pitch': 61.58, 'roll': 4.73, 'pres': 0}
{'lipoC2': 7.62, 'lipoC3S1': 4.15, 'temp': 29.81, 'lipoC3S3': 12.54, 'lipoC3S2': 8.29, 'rot1': 4, 'rot0': 5, 'rot3': 0, 'rot2': 0, 'state': 'normal', 'yaw': 47.17, 'datetime': '2018-10-09 11:45:27.605657', 'mgs': 0, 'volt': 0.0, 'depth': -12.5, 'time': 421, 'pitch': 59.58, 'roll': 4.37, 'pres': 0}
{'lipoC2': 7.62, 'lipoC3S1': 4.15, 'temp': 29.81, 'lipoC3S3': 12.54, 'lipoC3S2': 8.29, 'rot1': 4, 'rot0': 5, 'rot3': 0, 'rot2': 0, 'state': 'normal', 'yaw': 47.61, 'datetime': '2018-10-09 11:45:27.708482', 'mgs': 0, 'volt': 0.0, 'depth': -12.5, 'time': 422, 'pitch': 57.07, 'roll': 3.82, 'pres': 0}
{'lipoC2': 7.62, 'lipoC3S1': 4.15, 'temp': 29.88, 'lipoC3S3': 12.54, 'lipoC3S2': 8.29, 'rot1': 4, 'rot0': 5, 'rot3': 0, 'rot2': 0, 'state': 'normal', 'yaw': 40.38, 'datetime': '2018-10-09 11:45:27.811389', 'mgs': 0, 'volt': 0.0, 'depth': -12.5, 'time': 422, 'pitch': 53.56, 'roll': -0.69, 'pres': 0}
{'lipoC2': 7.62, 'lipoC3S1': 4.15, 'temp': 29.88, 'lipoC3S3': 12.54, 'lipoC3S2': 8.29, 'rot1': 4, 'rot0': 5, 'rot3': 0, 'rot2': 0, 'state': 'normal', 'yaw': 37.21, 'datetime': '2018-10-09 11:45:27.915584', 'mgs': 0, 'volt': 0.0, 'depth': -12.5, 'time': 422, 'pitch': 52.72, 'roll': -0.59, 'pres': 0}
{'lipoC2': 7.62, 'lipoC3S1': 4.15, 'temp': 29.81, 'lipoC3S3': 12.54, 'lipoC3S2': 8.29, 'rot1': 4, 'rot0': 5, 'rot3': 0, 'rot2': 0, 'state': 'normal', 'yaw': 36.02, 'datetime': '2018-10-09 11:45:28.018411', 'mgs': 0, 'volt': 0.0, 'depth': -12.5, 'time': 422, 'pitch': 52.28, 'roll': -0.51, 'pres': 0}
{'lipoC2': 7.62, 'lipoC3S1': 4.15, 'temp': 29.81, 'lipoC3S3': 12.54, 'lipoC3S2': 8.29, 'rot1': 4, 'rot0': 5, 'rot3': 0, 'rot2': 0, 'state': 'normal', 'yaw': 35.46, 'datetime': '2018-10-09 11:45:28.121307', 'mgs': 0, 'volt': 0.0, 'depth': -12.5, 'time': 422, 'pitch': 51.76, 'roll': -0.62, 'pres': 0}
{'lipoC2': 7.62, 'lipoC3S1': 4.15, 'temp': 29.81, 'lipoC3S3': 12.52, 'lipoC3S2': 8.29, 'rot1': 4, 'rot0': 5, 'rot3': 0, 'rot2': 0, 'state': 'normal', 'yaw': 34.96, 'datetime': '2018-10-09 11:45:28.225495', 'mgs': 0, 'volt': 0.0, 'depth': -12.5, 'time': 422, 'pitch': 51.43, 'roll': -0.66, 'pres': 0}
{'lipoC2': 7.62, 'lipoC3S1': 4.15, 'temp': 29.88, 'lipoC3S3': 12.54, 'lipoC3S2': 8.29, 'rot1': 4, 'rot0': 5, 'rot3': 0, 'rot2': 0, 'state': 'normal', 'yaw': 34.97, 'datetime': '2018-10-09 11:45:28.328340', 'mgs': 0, 'volt': 0.0, 'depth': -12.5, 'time': 422, 'pitch': 51.33, 'roll': -0.62, 'pres': 0}
{'lipoC2': 7.62, 'lipoC3S1': 4.15, 'temp': 29.88, 'lipoC3S3': 12.52, 'lipoC3S2': 8.29, 'rot1': 4, 'rot0': 5, 'rot3': 0, 'rot2': 0, 'state': 'normal', 'yaw': 34.84, 'datetime': '2018-10-09 11:45:28.431225', 'mgs': 0, 'volt': 0.0, 'depth': -12.5, 'time': 422, 'pitch': 51.32, 'roll': -0.57, 'pres': 0}
{'lipoC2': 7.62, 'lipoC3S1': 4.15, 'temp': 29.81, 'lipoC3S3': 12.54, 'lipoC3S2': 8.29, 'rot1': 4, 'rot0': 5, 'rot3': 0, 'rot2': 0, 'state': 'normal', 'yaw': 34.66, 'datetime': '2018-10-09 11:45:28.534717', 'mgs': 0, 'volt': 0.0, 'depth': -12.5, 'time': 422, 'pitch': 50.63, 'roll': -0.63, 'pres': 0}
{'lipoC2': 7.62, 'lipoC3S1': 4.15, 'temp': 29.81, 'lipoC3S3': 12.54, 'lipoC3S2': 8.29, 'rot1': 4, 'rot0': 5, 'rot3': 0, 'rot2': 0, 'state': 'normal', 'yaw': 34.64, 'datetime': '2018-10-09 11:45:28.638517', 'mgs': 0, 'volt': 0.0, 'depth': -12.5, 'time': 423, 'pitch': 50.25, 'roll': -0.61, 'pres': 0}
{'lipoC2': 7.62, 'lipoC3S1': 4.15, 'temp': 29.81, 'lipoC3S3': 12.54, 'lipoC3S2': 8.29, 'rot1': 4, 'rot0': 5, 'rot3': 0, 'rot2': 0, 'state': 'normal', 'yaw': 34.65, 'datetime': '2018-10-09 11:45:28.741375', 'mgs': 0, 'volt': 0.0, 'depth': -12.5, 'time': 423, 'pitch': 49.96, 'roll': -0.61, 'pres': 0}
{'lipoC2': 7.62, 'lipoC3S1': 4.15, 'temp': 29.81, 'lipoC3S3': 12.54, 'lipoC3S2': 8.29, 'rot1': 4, 'rot0': 5, 'rot3': 0, 'rot2': 0, 'state': 'normal', 'yaw': 34.58, 'datetime': '2018-10-09 11:45:28.844321', 'mgs': 0, 'volt': 0.0, 'depth': -12.5, 'time': 423, 'pitch': 49.95, 'roll': -0.61, 'pres': 0}
{'lipoC2': 7.62, 'lipoC3S1': 4.15, 'temp': 29.81, 'lipoC3S3': 12.54, 'lipoC3S2': 8.29, 'rot1': 4, 'rot0': 5, 'rot3': 0, 'rot2': 0, 'state': 'normal', 'yaw': 34.51, 'datetime': '2018-10-09 11:45:28.947142', 'mgs': 0, 'volt': 0.0, 'depth': -12.5, 'time': 423, 'pitch': 50.17, 'roll': -0.59, 'pres': 0}
{'lipoC2': 7.62, 'lipoC3S1': 4.15, 'temp': 29.81, 'lipoC3S3': 12.54, 'lipoC3S2': 8.29, 'rot1': 4, 'rot0': 5, 'rot3': 0, 'rot2': 0, 'state': 'normal', 'yaw': 34.5, 'datetime': '2018-10-09 11:45:29.050183', 'mgs': 0, 'volt': 0.0, 'depth': -12.5, 'time': 423, 'pitch': 49.97, 'roll': -0.61, 'pres': 0}
{'lipoC2': 7.62, 'lipoC3S1': 4.15, 'temp': 29.81, 'lipoC3S3': 12.54, 'lipoC3S2': 8.29, 'rot1': 4, 'rot0': 5, 'rot3': 0, 'rot2': 0, 'state': 'normal', 'yaw': 34.51, 'datetime': '2018-10-09 11:45:29.152937', 'mgs': 0, 'volt': 0.0, 'depth': -12.5, 'time': 423, 'pitch': 50.04, 'roll': -0.6, 'pres': 0}
{'lipoC2': 7.62, 'lipoC3S1': 4.15, 'temp': 29.81, 'lipoC3S3': 12.54, 'lipoC3S2': 8.29, 'rot1': 4, 'rot0': 5, 'rot3': 0, 'rot2': 0, 'state': 'normal', 'yaw': 34.5, 'datetime': '2018-10-09 11:45:29.255850', 'mgs': 0, 'volt': 0.0, 'depth': -12.5, 'time': 423, 'pitch': 50.14, 'roll': -0.6, 'pres': 0}
{'lipoC2': 7.62, 'lipoC3S1': 4.14, 'temp': 29.81, 'lipoC3S3': 12.54, 'lipoC3S2': 8.29, 'rot1': 4, 'rot0': 5, 'rot3': 0, 'rot2': 0, 'state': 'normal', 'yaw': 34.5, 'datetime': '2018-10-09 11:45:29.358770', 'mgs': 0, 'volt': 0.0, 'depth': -12.5, 'time': 423, 'pitch': 50.75, 'roll': -0.61, 'pres': 0}
{'lipoC2': 7.62, 'lipoC3S1': 4.15, 'temp': 29.88, 'lipoC3S3': 12.54, 'lipoC3S2': 8.29, 'rot1': 4, 'rot0': 5, 'rot3': 0, 'rot2': 0, 'state': 'normal', 'yaw': 34.47, 'datetime': '2018-10-09 11:45:29.461588', 'mgs': 0, 'volt': 0.0, 'depth': -12.5, 'time': 423, 'pitch': 52.22, 'roll': -0.63, 'pres': 0}
{'lipoC2': 7.62, 'lipoC3S1': 4.15, 'temp': 29.88, 'lipoC3S3': 12.54, 'lipoC3S2': 8.29, 'rot1': 4, 'rot0': 5, 'rot3': 0, 'rot2': 0, 'state': 'normal', 'yaw': 34.47, 'datetime': '2018-10-09 11:45:29.564523', 'mgs': 0, 'volt': 0.0, 'depth': -12.5, 'time': 423, 'pitch': 54.89, 'roll': -0.64, 'pres': 0}
{'lipoC2': 7.62, 'lipoC3S1': 4.15, 'temp': 29.88, 'lipoC3S3': 12.54, 'lipoC3S2': 8.29, 'rot1': 4, 'rot0': 5, 'rot3': 0, 'rot2': 0, 'state': 'normal', 'yaw': 34.43, 'datetime': '2018-10-09 11:45:29.668473', 'mgs': 0, 'volt': 0.0, 'depth': -12.5, 'time': 424, 'pitch': 57.28, 'roll': -0.62, 'pres': 0}
{'lipoC2': 7.62, 'lipoC3S1': 4.15, 'temp': 29.88, 'lipoC3S3': 12.52, 'lipoC3S2': 8.29, 'rot1': 4, 'rot0': 5, 'rot3': 0, 'rot2': 0, 'state': 'normal', 'yaw': 34.46, 'datetime': '2018-10-09 11:45:29.771336', 'mgs': 0, 'volt': 0.0, 'depth': -12.5, 'time': 424, 'pitch': 56.83, 'roll': -0.58, 'pres': 0}
{'lipoC2': 7.62, 'lipoC3S1': 4.15, 'temp': 29.88, 'lipoC3S3': 12.54, 'lipoC3S2': 8.29, 'rot1': 4, 'rot0': 5, 'rot3': 0, 'rot2': 0, 'state': 'normal', 'yaw': 34.24, 'datetime': '2018-10-09 11:45:29.874272', 'mgs': 0, 'volt': 0.0, 'depth': -12.5, 'time': 424, 'pitch': 54.88, 'roll': -0.63, 'pres': 0}
{'lipoC2': 7.62, 'lipoC3S1': 4.15, 'temp': 29.88, 'lipoC3S3': 12.54, 'lipoC3S2': 8.29, 'rot1': 4, 'rot0': 5, 'rot3': 0, 'rot2': 0, 'state': 'normal', 'yaw': 34.01, 'datetime': '2018-10-09 11:45:29.978421', 'mgs': 0, 'volt': 0.0, 'depth': -12.5, 'time': 424, 'pitch': 53.7, 'roll': -0.65, 'pres': 0}
{'lipoC2': 7.62, 'lipoC3S1': 4.15, 'temp': 29.88, 'lipoC3S3': 12.54, 'lipoC3S2': 8.29, 'rot1': 4, 'rot0': 5, 'rot3': 0, 'rot2': 0, 'state': 'normal', 'yaw': 34.01, 'datetime': '2018-10-09 11:45:30.081902', 'mgs': 0, 'volt': 0.0, 'depth': -12.5, 'time': 424, 'pitch': 53.68, 'roll': -0.65, 'pres': 0}
{'lipoC2': 7.62, 'lipoC3S1': 4.15, 'temp': 29.81, 'lipoC3S3': 12.54, 'lipoC3S2': 8.29, 'rot1': 4, 'rot0': 5, 'rot3': 0, 'rot2': 0, 'state': 'normal', 'yaw': 34.02, 'datetime': '2018-10-09 11:45:30.184825', 'mgs': 0, 'volt': 0.0, 'depth': -12.5, 'time': 424, 'pitch': 53.62, 'roll': -0.65, 'pres': 0}
{'lipoC2': 7.62, 'lipoC3S1': 4.15, 'temp': 29.81, 'lipoC3S3': 12.54, 'lipoC3S2': 8.29, 'rot1': 4, 'rot0': 5, 'rot3': 0, 'rot2': 0, 'state': 'normal', 'yaw': 34.03, 'datetime': '2018-10-09 11:45:30.288315', 'mgs': 0, 'volt': 0.0, 'depth': -12.5, 'time': 424, 'pitch': 53.74, 'roll': -0.65, 'pres': 0}
{'lipoC2': 7.62, 'lipoC3S1': 4.15, 'temp': 29.81, 'lipoC3S3': 12.54, 'lipoC3S2': 8.29, 'rot1': 4, 'rot0': 5, 'rot3': 0, 'rot2': 0, 'state': 'normal', 'yaw': 34.01, 'datetime': '2018-10-09 11:45:30.392217', 'mgs': 0, 'volt': 0.0, 'depth': -12.5, 'time': 424, 'pitch': 56.23, 'roll': -0.61, 'pres': 0}
{'lipoC2': 7.61, 'lipoC3S1': 4.15, 'temp': 29.81, 'lipoC3S3': 12.54, 'lipoC3S2': 8.29, 'rot1': 4, 'rot0': 5, 'rot3': 0, 'rot2': 0, 'state': 'normal', 'yaw': 33.96, 'datetime': '2018-10-09 11:45:30.495166', 'mgs': 0, 'volt': 0.0, 'depth': -12.5, 'time': 424, 'pitch': 58.88, 'roll': -0.67, 'pres': 0}
{'lipoC2': 7.62, 'lipoC3S1': 4.15, 'temp': 29.81, 'lipoC3S3': 12.54, 'lipoC3S2': 8.29, 'rot1': 4, 'rot0': 5, 'rot3': 0, 'rot2': 0, 'state': 'normal', 'yaw': 33.96, 'datetime': '2018-10-09 11:45:30.597973', 'mgs': 0, 'volt': 0.0, 'depth': -12.5, 'time': 424, 'pitch': 59.74, 'roll': -0.66, 'pres': 0}
{'lipoC2': 7.62, 'lipoC3S1': 4.15, 'temp': 29.81, 'lipoC3S3': 12.54, 'lipoC3S2': 8.29, 'rot1': 4, 'rot0': 5, 'rot3': 0, 'rot2': 0, 'state': 'normal', 'yaw': 33.98, 'datetime': '2018-10-09 11:45:30.700932', 'mgs': 0, 'volt': 0.0, 'depth': -12.5, 'time': 425, 'pitch': 58.49, 'roll': -0.68, 'pres': 0}
{'lipoC2': 7.62, 'lipoC3S1': 4.15, 'temp': 29.81, 'lipoC3S3': 12.54, 'lipoC3S2': 8.29, 'rot1': 4, 'rot0': 5, 'rot3': 0, 'rot2': 0, 'state': 'normal', 'yaw': 34.03, 'datetime': '2018-10-09 11:45:30.803786', 'mgs': 0, 'volt': 0.0, 'depth': -12.5, 'time': 425, 'pitch': 57.76, 'roll': -0.62, 'pres': 0}
{'lipoC2': 7.62, 'lipoC3S1': 4.15, 'temp': 29.88, 'lipoC3S3': 12.54, 'lipoC3S2': 8.29, 'rot1': 4, 'rot0': 5, 'rot3': 0, 'rot2': 0, 'state': 'normal', 'yaw': 34.04, 'datetime': '2018-10-09 11:45:30.906711', 'mgs': 0, 'volt': 0.0, 'depth': -12.5, 'time': 425, 'pitch': 57.68, 'roll': -0.61, 'pres': 0}
{'lipoC2': 7.62, 'lipoC3S1': 4.15, 'temp': 29.88, 'lipoC3S3': 12.54, 'lipoC3S2': 8.29, 'rot1': 4, 'rot0': 5, 'rot3': 0, 'rot2': 0, 'state': 'normal', 'yaw': 34.02, 'datetime': '2018-10-09 11:45:31.009558', 'mgs': 0, 'volt': 0.0, 'depth': -12.5, 'time': 425, 'pitch': 57.2, 'roll': -0.65, 'pres': 0}
{'lipoC2': 7.62, 'lipoC3S1': 4.15, 'temp': 29.88, 'lipoC3S3': 12.52, 'lipoC3S2': 8.29, 'rot1': 4, 'rot0': 5, 'rot3': 0, 'rot2': 0, 'state': 'normal', 'yaw': 34.07, 'datetime': '2018-10-09 11:45:31.112494', 'mgs': 0, 'volt': 0.0, 'depth': -12.5, 'time': 425, 'pitch': 56.7, 'roll': -0.59, 'pres': 0}
{'lipoC2': 7.61, 'lipoC3S1': 4.15, 'temp': 29.81, 'lipoC3S3': 12.54, 'lipoC3S2': 8.29, 'rot1': 4, 'rot0': 5, 'rot3': 0, 'rot2': 0, 'state': 'normal', 'yaw': 34.05, 'datetime': '2018-10-09 11:45:31.219413', 'mgs': 0, 'volt': 0.0, 'depth': -12.5, 'time': 425, 'pitch': 55.36, 'roll': -0.66, 'pres': 0}
{'lipoC2': 7.62, 'lipoC3S1': 4.15, 'temp': 29.81, 'lipoC3S3': 12.54, 'lipoC3S2': 8.29, 'rot1': 4, 'rot0': 5, 'rot3': 0, 'rot2': 0, 'state': 'normal', 'yaw': 34.06, 'datetime': '2018-10-09 11:45:31.324383', 'mgs': 0, 'volt': 0.0, 'depth': -12.5, 'time': 425, 'pitch': 53.63, 'roll': -0.67, 'pres': 0}
{'lipoC2': 7.62, 'lipoC3S1': 4.15, 'temp': 29.88, 'lipoC3S3': 12.54, 'lipoC3S2': 8.29, 'rot1': 4, 'rot0': 5, 'rot3': 0, 'rot2': 0, 'state': 'normal', 'yaw': 34.07, 'datetime': '2018-10-09 11:45:31.427316', 'mgs': 0, 'volt': 0.0, 'depth': -12.5, 'time': 425, 'pitch': 52.6, 'roll': -0.66, 'pres': 0}
{'lipoC2': 7.62, 'lipoC3S1': 4.15, 'temp': 29.88, 'lipoC3S3': 12.54, 'lipoC3S2': 8.29, 'rot1': 4, 'rot0': 5, 'rot3': 0, 'rot2': 0, 'state': 'normal', 'yaw': 34.06, 'datetime': '2018-10-09 11:45:31.531570', 'mgs': 0, 'volt': 0.0, 'depth': -12.5, 'time': 425, 'pitch': 52.26, 'roll': -0.66, 'pres': 0}
{'lipoC2': 7.61, 'lipoC3S1': 4.15, 'temp': 29.88, 'lipoC3S3': 12.54, 'lipoC3S2': 8.29, 'rot1': 4, 'rot0': 5, 'rot3': 0, 'rot2': 0, 'state': 'normal', 'yaw': 34.08, 'datetime': '2018-10-09 11:45:31.633853', 'mgs': 0, 'volt': 0.0, 'depth': -12.5, 'time': 426, 'pitch': 51.57, 'roll': -0.65, 'pres': 0}
{'lipoC2': 7.62, 'lipoC3S1': 4.15, 'temp': 29.81, 'lipoC3S3': 12.54, 'lipoC3S2': 8.29, 'rot1': 4, 'rot0': 5, 'rot3': 0, 'rot2': 0, 'state': 'normal', 'yaw': 34.11, 'datetime': '2018-10-09 11:45:31.736506', 'mgs': 0, 'volt': 0.0, 'depth': -12.5, 'time': 426, 'pitch': 50.03, 'roll': -0.63, 'pres': 0}
{'lipoC2': 7.62, 'lipoC3S1': 4.15, 'temp': 29.81, 'lipoC3S3': 12.54, 'lipoC3S2': 8.29, 'rot1': 4, 'rot0': 5, 'rot3': 0, 'rot2': 0, 'state': 'normal', 'yaw': 34.14, 'datetime': '2018-10-09 11:45:31.840777', 'mgs': 0, 'volt': 0.0, 'depth': -12.5, 'time': 426, 'pitch': 48.95, 'roll': -0.62, 'pres': 0}
{'lipoC2': 7.62, 'lipoC3S1': 4.15, 'temp': 29.88, 'lipoC3S3': 12.54, 'lipoC3S2': 8.29, 'rot1': 4, 'rot0': 5, 'rot3': 0, 'rot2': 0, 'state': 'normal', 'yaw': 34.14, 'datetime': '2018-10-09 11:45:31.943566', 'mgs': 0, 'volt': 0.0, 'depth': -12.5, 'time': 426, 'pitch': 48.63, 'roll': -0.62, 'pres': 0}
{'lipoC2': 7.62, 'lipoC3S1': 4.15, 'temp': 29.88, 'lipoC3S3': 12.54, 'lipoC3S2': 8.29, 'rot1': 4, 'rot0': 5, 'rot3': 0, 'rot2': 0, 'state': 'normal', 'yaw': 34.15, 'datetime': '2018-10-09 11:45:32.045468', 'mgs': 0, 'volt': 0.0, 'depth': -12.5, 'time': 426, 'pitch': 48.31, 'roll': -0.62, 'pres': 0}
{'lipoC2': 7.62, 'lipoC3S1': 4.15, 'temp': 29.81, 'lipoC3S3': 12.54, 'lipoC3S2': 8.29, 'rot1': 4, 'rot0': 5, 'rot3': 0, 'rot2': 0, 'state': 'normal', 'yaw': 34.17, 'datetime': '2018-10-09 11:45:32.150674', 'mgs': 0, 'volt': 0.0, 'depth': -12.5, 'time': 426, 'pitch': 47.48, 'roll': -0.62, 'pres': 0}
{'lipoC2': 7.62, 'lipoC3S1': 4.15, 'temp': 29.81, 'lipoC3S3': 12.54, 'lipoC3S2': 8.29, 'rot1': 4, 'rot0': 5, 'rot3': 0, 'rot2': 0, 'state': 'normal', 'yaw': 34.18, 'datetime': '2018-10-09 11:45:32.253518', 'mgs': 0, 'volt': 0.0, 'depth': -12.5, 'time': 426, 'pitch': 47.07, 'roll': -0.61, 'pres': 0}
{'lipoC2': 7.62, 'lipoC3S1': 4.15, 'temp': 29.81, 'lipoC3S3': 12.54, 'lipoC3S2': 8.29, 'rot1': 4, 'rot0': 5, 'rot3': 0, 'rot2': 0, 'state': 'normal', 'yaw': 34.14, 'datetime': '2018-10-09 11:45:32.356440', 'mgs': 0, 'volt': 0.0, 'depth': -12.5, 'time': 426, 'pitch': 47.83, 'roll': -0.64, 'pres': 0}
{'lipoC2': 7.62, 'lipoC3S1': 4.15, 'temp': 29.81, 'lipoC3S3': 12.54, 'lipoC3S2': 8.29, 'rot1': 4, 'rot0': 5, 'rot3': 0, 'rot2': 0, 'state': 'normal', 'yaw': 34.14, 'datetime': '2018-10-09 11:45:32.459337', 'mgs': 0, 'volt': 0.0, 'depth': -12.5, 'time': 426, 'pitch': 48.36, 'roll': -0.64, 'pres': 0}
{'lipoC2': 7.62, 'lipoC3S1': 4.15, 'temp': 29.81, 'lipoC3S3': 12.54, 'lipoC3S2': 8.29, 'rot1': 4, 'rot0': 5, 'rot3': 0, 'rot2': 0, 'state': 'normal', 'yaw': 34.15, 'datetime': '2018-10-09 11:45:32.562184', 'mgs': 0, 'volt': 0.0, 'depth': -12.5, 'time': 426, 'pitch': 48.14, 'roll': -0.63, 'pres': 0}
{'lipoC2': 7.61, 'lipoC3S1': 4.15, 'temp': 29.81, 'lipoC3S3': 12.54, 'lipoC3S2': 8.29, 'rot1': 4, 'rot0': 5, 'rot3': 0, 'rot2': 0, 'state': 'normal', 'yaw': 34.17, 'datetime': '2018-10-09 11:45:32.665115', 'mgs': 0, 'volt': 0.0, 'depth': -12.5, 'time': 427, 'pitch': 47.0, 'roll': -0.62, 'pres': 0}
{'lipoC2': 7.62, 'lipoC3S1': 4.15, 'temp': 29.81, 'lipoC3S3': 12.54, 'lipoC3S2': 8.29, 'rot1': 4, 'rot0': 5, 'rot3': 0, 'rot2': 0, 'state': 'normal', 'yaw': 34.19, 'datetime': '2018-10-09 11:45:32.767901', 'mgs': 0, 'volt': 0.0, 'depth': -12.5, 'time': 427, 'pitch': 45.91, 'roll': -0.61, 'pres': 0}
{'lipoC2': 7.62, 'lipoC3S1': 4.15, 'temp': 29.88, 'lipoC3S3': 12.52, 'lipoC3S2': 8.29, 'rot1': 4, 'rot0': 5, 'rot3': 0, 'rot2': 0, 'state': 'normal', 'yaw': 34.2, 'datetime': '2018-10-09 11:45:32.870821', 'mgs': 0, 'volt': 0.0, 'depth': -12.5, 'time': 427, 'pitch': 45.17, 'roll': -0.6, 'pres': 0}
{'lipoC2': 7.61, 'lipoC3S1': 4.15, 'temp': 29.88, 'lipoC3S3': 12.54, 'lipoC3S2': 8.29, 'rot1': 4, 'rot0': 5, 'rot3': 0, 'rot2': 0, 'state': 'normal', 'yaw': 34.2, 'datetime': '2018-10-09 11:45:32.974061', 'mgs': 0, 'volt': 0.0, 'depth': -12.5, 'time': 427, 'pitch': 45.36, 'roll': -0.6, 'pres': 0}
{'lipoC2': 7.62, 'lipoC3S1': 4.15, 'temp': 29.88, 'lipoC3S3': 12.54, 'lipoC3S2': 8.29, 'rot1': 4, 'rot0': 5, 'rot3': 0, 'rot2': 0, 'state': 'normal', 'yaw': 34.19, 'datetime': '2018-10-09 11:45:33.076834', 'mgs': 0, 'volt': 0.0, 'depth': -12.5, 'time': 427, 'pitch': 45.09, 'roll': -0.61, 'pres': 0}
{'lipoC2': 7.62, 'lipoC3S1': 4.15, 'temp': 29.81, 'lipoC3S3': 12.52, 'lipoC3S2': 8.29, 'rot1': 4, 'rot0': 5, 'rot3': 0, 'rot2': 0, 'state': 'normal', 'yaw': 33.85, 'datetime': '2018-10-09 11:45:33.179876', 'mgs': 0, 'volt': 0.0, 'depth': -12.5, 'time': 427, 'pitch': 44.6, 'roll': -0.59, 'pres': 0}
{'lipoC2': 7.62, 'lipoC3S1': 4.15, 'temp': 29.81, 'lipoC3S3': 12.54, 'lipoC3S2': 8.29, 'rot1': 4, 'rot0': 5, 'rot3': 0, 'rot2': 0, 'state': 'normal', 'yaw': 33.64, 'datetime': '2018-10-09 11:45:33.282849', 'mgs': 0, 'volt': 0.0, 'depth': -12.5, 'time': 427, 'pitch': 44.13, 'roll': -0.6, 'pres': 0}
{'lipoC2': 7.62, 'lipoC3S1': 4.15, 'temp': 29.88, 'lipoC3S3': 12.54, 'lipoC3S2': 8.29, 'rot1': 4, 'rot0': 5, 'rot3': 0, 'rot2': 0, 'state': 'normal', 'yaw': 33.64, 'datetime': '2018-10-09 11:45:33.385761', 'mgs': 0, 'volt': 0.0, 'depth': -12.5, 'time': 427, 'pitch': 43.97, 'roll': -0.62, 'pres': 0}
{'lipoC2': 7.62, 'lipoC3S1': 4.15, 'temp': 29.88, 'lipoC3S3': 12.54, 'lipoC3S2': 8.29, 'rot1': 4, 'rot0': 5, 'rot3': 0, 'rot2': 0, 'state': 'normal', 'yaw': 33.58, 'datetime': '2018-10-09 11:45:33.488788', 'mgs': 0, 'volt': 0.0, 'depth': -12.5, 'time': 427, 'pitch': 43.5, 'roll': -0.64, 'pres': 0}
{'lipoC2': 7.62, 'lipoC3S1': 4.15, 'temp': 29.81, 'lipoC3S3': 12.52, 'lipoC3S2': 8.29, 'rot1': 4, 'rot0': 5, 'rot3': 0, 'rot2': 0, 'state': 'normal', 'yaw': 33.22, 'datetime': '2018-10-09 11:45:33.592813', 'mgs': 0, 'volt': 0.0, 'depth': -12.5, 'time': 427, 'pitch': 43.47, 'roll': -0.64, 'pres': 0}
{'lipoC2': 7.62, 'lipoC3S1': 4.15, 'temp': 29.81, 'lipoC3S3': 12.54, 'lipoC3S2': 8.29, 'rot1': 4, 'rot0': 5, 'rot3': 0, 'rot2': 0, 'state': 'normal', 'yaw': 32.96, 'datetime': '2018-10-09 11:45:33.696007', 'mgs': 0, 'volt': 0.0, 'depth': -12.5, 'time': 428, 'pitch': 43.77, 'roll': -0.67, 'pres': 0}
{'lipoC2': 7.62, 'lipoC3S1': 4.15, 'temp': 29.81, 'lipoC3S3': 12.54, 'lipoC3S2': 8.29, 'rot1': 4, 'rot0': 5, 'rot3': 0, 'rot2': 0, 'state': 'normal', 'yaw': 32.97, 'datetime': '2018-10-09 11:45:33.798863', 'mgs': 0, 'volt': 0.0, 'depth': -12.5, 'time': 428, 'pitch': 43.73, 'roll': -0.67, 'pres': 0}
{'lipoC2': 7.62, 'lipoC3S1': 4.15, 'temp': 29.81, 'lipoC3S3': 12.54, 'lipoC3S2': 8.29, 'rot1': 4, 'rot0': 5, 'rot3': 0, 'rot2': 0, 'state': 'normal', 'yaw': 32.98, 'datetime': '2018-10-09 11:45:33.901754', 'mgs': 0, 'volt': 0.0, 'depth': -12.5, 'time': 428, 'pitch': 43.1, 'roll': -0.66, 'pres': 0}
{'lipoC2': 7.61, 'lipoC3S1': 4.14, 'temp': 29.81, 'lipoC3S3': 12.54, 'lipoC3S2': 8.29, 'rot1': 4, 'rot0': 5, 'rot3': 0, 'rot2': 0, 'state': 'normal', 'yaw': 32.98, 'datetime': '2018-10-09 11:45:34.006006', 'mgs': 0, 'volt': 0.0, 'depth': -12.5, 'time': 428, 'pitch': 42.64, 'roll': -0.66, 'pres': 0}
{'lipoC2': 7.62, 'lipoC3S1': 4.15, 'temp': 29.88, 'lipoC3S3': 12.54, 'lipoC3S2': 8.29, 'rot1': 4, 'rot0': 5, 'rot3': 0, 'rot2': 0, 'state': 'normal', 'yaw': 32.89, 'datetime': '2018-10-09 11:45:34.106987', 'mgs': 0, 'volt': 0.0, 'depth': -12.5, 'time': 428, 'pitch': 42.23, 'roll': -0.7, 'pres': 0}
{'lipoC2': 7.62, 'lipoC3S1': 4.15, 'temp': 29.88, 'lipoC3S3': 12.52, 'lipoC3S2': 8.29, 'rot1': 4, 'rot0': 5, 'rot3': 0, 'rot2': 0, 'state': 'normal', 'yaw': 32.87, 'datetime': '2018-10-09 11:45:34.211795', 'mgs': 0, 'volt': 0.0, 'depth': -12.5, 'time': 428, 'pitch': 42.17, 'roll': -0.72, 'pres': 0}
{'lipoC2': 7.62, 'lipoC3S1': 4.15, 'temp': 29.81, 'lipoC3S3': 12.54, 'lipoC3S2': 8.29, 'rot1': 4, 'rot0': 5, 'rot3': 0, 'rot2': 0, 'state': 'normal', 'yaw': 32.87, 'datetime': '2018-10-09 11:45:34.314599', 'mgs': 0, 'volt': 0.0, 'depth': -12.5, 'time': 428, 'pitch': 42.37, 'roll': -0.71, 'pres': 0}
{'lipoC2': 7.61, 'lipoC3S1': 4.15, 'temp': 29.81, 'lipoC3S3': 12.54, 'lipoC3S2': 8.29, 'rot1': 4, 'rot0': 5, 'rot3': 0, 'rot2': 0, 'state': 'normal', 'yaw': 32.87, 'datetime': '2018-10-09 11:45:34.417606', 'mgs': 0, 'volt': 0.0, 'depth': -12.5, 'time': 428, 'pitch': 42.33, 'roll': -0.71, 'pres': 0}
{'lipoC2': 7.61, 'lipoC3S1': 4.15, 'temp': 29.81, 'lipoC3S3': 12.54, 'lipoC3S2': 8.29, 'rot1': 4, 'rot0': 5, 'rot3': 0, 'rot2': 0, 'state': 'normal', 'yaw': 32.88, 'datetime': '2018-10-09 11:45:34.514399', 'mgs': 0, 'volt': 0.0, 'depth': -12.5, 'time': 428, 'pitch': 42.07, 'roll': -0.7, 'pres': 0}
{'lipoC2': 7.62, 'lipoC3S1': 4.15, 'temp': 29.81, 'lipoC3S3': 12.54, 'lipoC3S2': 8.29, 'rot1': 4, 'rot0': 5, 'rot3': 0, 'rot2': 0, 'state': 'normal', 'yaw': 32.89, 'datetime': '2018-10-09 11:45:34.619825', 'mgs': 0, 'volt': 0.0, 'depth': -12.5, 'time': 428, 'pitch': 41.65, 'roll': -0.7, 'pres': 0}
{'lipoC2': 7.62, 'lipoC3S1': 4.15, 'temp': 29.81, 'lipoC3S3': 12.54, 'lipoC3S2': 8.29, 'rot1': 4, 'rot0': 5, 'rot3': 0, 'rot2': 0, 'state': 'normal', 'yaw': 32.89, 'datetime': '2018-10-09 11:45:34.726288', 'mgs': 0, 'volt': 0.0, 'depth': -12.5, 'time': 429, 'pitch': 41.3, 'roll': -0.7, 'pres': 0}
{'lipoC2': 7.62, 'lipoC3S1': 4.15, 'temp': 29.81, 'lipoC3S3': 12.54, 'lipoC3S2': 8.29, 'rot1': 4, 'rot0': 5, 'rot3': 0, 'rot2': 0, 'state': 'normal', 'yaw': 32.9, 'datetime': '2018-10-09 11:45:34.829169', 'mgs': 0, 'volt': 0.0, 'depth': -12.5, 'time': 429, 'pitch': 41.11, 'roll': -0.69, 'pres': 0}
{'lipoC2': 7.62, 'lipoC3S1': 4.15, 'temp': 29.81, 'lipoC3S3': 12.54, 'lipoC3S2': 8.29, 'rot1': 4, 'rot0': 5, 'rot3': 0, 'rot2': 0, 'state': 'normal', 'yaw': 32.89, 'datetime': '2018-10-09 11:45:34.932061', 'mgs': 0, 'volt': 0.0, 'depth': -12.5, 'time': 429, 'pitch': 40.96, 'roll': -0.7, 'pres': 0}
{'lipoC2': 7.62, 'lipoC3S1': 4.15, 'temp': 29.88, 'lipoC3S3': 12.54, 'lipoC3S2': 8.29, 'rot1': 4, 'rot0': 5, 'rot3': 0, 'rot2': 0, 'state': 'normal', 'yaw': 32.89, 'datetime': '2018-10-09 11:45:35.035042', 'mgs': 0, 'volt': 0.0, 'depth': -12.5, 'time': 429, 'pitch': 40.4, 'roll': -0.7, 'pres': 0}
{'lipoC2': 7.62, 'lipoC3S1': 4.15, 'temp': 29.88, 'lipoC3S3': 12.54, 'lipoC3S2': 8.29, 'rot1': 4, 'rot0': 5, 'rot3': 0, 'rot2': 0, 'state': 'normal', 'yaw': 32.88, 'datetime': '2018-10-09 11:45:35.136138', 'mgs': 0, 'volt': 0.0, 'depth': -12.5, 'time': 429, 'pitch': 40.24, 'roll': -0.71, 'pres': 0}
{'lipoC2': 7.62, 'lipoC3S1': 4.15, 'temp': 29.88, 'lipoC3S3': 12.54, 'lipoC3S2': 8.29, 'rot1': 4, 'rot0': 5, 'rot3': 0, 'rot2': 0, 'state': 'normal', 'yaw': 32.88, 'datetime': '2018-10-09 11:45:35.241604', 'mgs': 0, 'volt': 0.0, 'depth': -12.5, 'time': 429, 'pitch': 40.49, 'roll': -0.71, 'pres': 0}
{'lipoC2': 7.61, 'lipoC3S1': 4.15, 'temp': 29.81, 'lipoC3S3': 12.54, 'lipoC3S2': 8.29, 'rot1': 4, 'rot0': 5, 'rot3': 0, 'rot2': 0, 'state': 'normal', 'yaw': 32.89, 'datetime': '2018-10-09 11:45:35.345092', 'mgs': 0, 'volt': 0.0, 'depth': -12.5, 'time': 429, 'pitch': 40.47, 'roll': -0.7, 'pres': 0}
{'lipoC2': 7.62, 'lipoC3S1': 4.15, 'temp': 29.81, 'lipoC3S3': 12.54, 'lipoC3S2': 8.29, 'rot1': 4, 'rot0': 5, 'rot3': 0, 'rot2': 0, 'state': 'normal', 'yaw': 32.88, 'datetime': '2018-10-09 11:45:35.449188', 'mgs': 0, 'volt': 0.0, 'depth': -12.5, 'time': 429, 'pitch': 40.26, 'roll': -0.69, 'pres': 0}
{'lipoC2': 7.62, 'lipoC3S1': 4.15, 'temp': 29.88, 'lipoC3S3': 12.54, 'lipoC3S2': 8.29, 'rot1': 4, 'rot0': 5, 'rot3': 0, 'rot2': 0, 'state': 'normal', 'yaw': 32.57, 'datetime': '2018-10-09 11:45:35.552122', 'mgs': 0, 'volt': 0.0, 'depth': -12.5, 'time': 429, 'pitch': 40.61, 'roll': -0.7, 'pres': 0}
{'lipoC2': 7.62, 'lipoC3S1': 4.15, 'temp': 29.88, 'lipoC3S3': 12.54, 'lipoC3S2': 8.29, 'rot1': 4, 'rot0': 5, 'rot3': 0, 'rot2': 0, 'state': 'normal', 'yaw': 32.27, 'datetime': '2018-10-09 11:45:35.654892', 'mgs': 0, 'volt': 0.0, 'depth': -12.5, 'time': 430, 'pitch': 40.5, 'roll': -0.69, 'pres': 0}
{'lipoC2': 7.62, 'lipoC3S1': 4.15, 'temp': 29.81, 'lipoC3S3': 12.54, 'lipoC3S2': 8.29, 'rot1': 4, 'rot0': 5, 'rot3': 0, 'rot2': 0, 'state': 'normal', 'yaw': 32.11, 'datetime': '2018-10-09 11:45:35.759092', 'mgs': 0, 'volt': 0.0, 'depth': -12.5, 'time': 430, 'pitch': 40.15, 'roll': -0.74, 'pres': 0}
{'lipoC2': 7.62, 'lipoC3S1': 4.15, 'temp': 29.81, 'lipoC3S3': 12.52, 'lipoC3S2': 8.29, 'rot1': 4, 'rot0': 5, 'rot3': 0, 'rot2': 0, 'state': 'normal', 'yaw': 31.75, 'datetime': '2018-10-09 11:45:35.861929', 'mgs': 0, 'volt': 0.0, 'depth': -12.5, 'time': 430, 'pitch': 40.34, 'roll': -0.74, 'pres': 0}
{'lipoC2': 7.62, 'lipoC3S1': 4.15, 'temp': 29.81, 'lipoC3S3': 12.54, 'lipoC3S2': 8.29, 'rot1': 4, 'rot0': 5, 'rot3': 0, 'rot2': 0, 'state': 'normal', 'yaw': 31.51, 'datetime': '2018-10-09 11:45:35.964781', 'mgs': 0, 'volt': 0.0, 'depth': -12.5, 'time': 430, 'pitch': 40.69, 'roll': -0.75, 'pres': 0}
{'lipoC2': 7.62, 'lipoC3S1': 4.15, 'temp': 29.81, 'lipoC3S3': 12.54, 'lipoC3S2': 8.29, 'rot1': 4, 'rot0': 5, 'rot3': 0, 'rot2': 0, 'state': 'normal', 'yaw': 31.43, 'datetime': '2018-10-09 11:45:36.067745', 'mgs': 0, 'volt': 0.0, 'depth': -12.5, 'time': 430, 'pitch': 40.47, 'roll': -0.72, 'pres': 0}
{'lipoC2': 7.62, 'lipoC3S1': 4.15, 'temp': 29.81, 'lipoC3S3': 12.54, 'lipoC3S2': 8.29, 'rot1': 4, 'rot0': 5, 'rot3': 0, 'rot2': 0, 'state': 'normal', 'yaw': 31.22, 'datetime': '2018-10-09 11:45:36.168793', 'mgs': 0, 'volt': 0.0, 'depth': -12.5, 'time': 430, 'pitch': 40.25, 'roll': -0.74, 'pres': 0}
{'lipoC2': 7.62, 'lipoC3S1': 4.15, 'temp': 29.81, 'lipoC3S3': 12.54, 'lipoC3S2': 8.29, 'rot1': 4, 'rot0': 5, 'rot3': 0, 'rot2': 0, 'state': 'normal', 'yaw': 31.12, 'datetime': '2018-10-09 11:45:36.273693', 'mgs': 0, 'volt': 0.0, 'depth': -12.5, 'time': 430, 'pitch': 41.6, 'roll': -0.68, 'pres': 0}
{'lipoC2': 7.62, 'lipoC3S1': 4.15, 'temp': 29.81, 'lipoC3S3': 12.54, 'lipoC3S2': 8.29, 'rot1': 4, 'rot0': 5, 'rot3': 0, 'rot2': 0, 'state': 'normal', 'yaw': 31.41, 'datetime': '2018-10-09 11:45:36.376650', 'mgs': 0, 'volt': 0.0, 'depth': -12.5, 'time': 430, 'pitch': 41.69, 'roll': -0.62, 'pres': 0}
{'lipoC2': 7.62, 'lipoC3S1': 4.15, 'temp': 29.81, 'lipoC3S3': 12.54, 'lipoC3S2': 8.29, 'rot1': 4, 'rot0': 5, 'rot3': 0, 'rot2': 0, 'state': 'normal', 'yaw': 31.54, 'datetime': '2018-10-09 11:45:36.479462', 'mgs': 0, 'volt': 0.0, 'depth': -12.5, 'time': 430, 'pitch': 41.03, 'roll': -0.68, 'pres': 0}
{'lipoC2': 7.62, 'lipoC3S1': 4.15, 'temp': 29.81, 'lipoC3S3': 12.54, 'lipoC3S2': 8.29, 'rot1': 4, 'rot0': 5, 'rot3': 0, 'rot2': 0, 'state': 'normal', 'yaw': 31.52, 'datetime': '2018-10-09 11:45:36.582369', 'mgs': 0, 'volt': 0.0, 'depth': -12.5, 'time': 430, 'pitch': 39.8, 'roll': -0.71, 'pres': 0}
{'lipoC2': 7.62, 'lipoC3S1': 4.15, 'temp': 29.81, 'lipoC3S3': 12.54, 'lipoC3S2': 8.29, 'rot1': 4, 'rot0': 5, 'rot3': 0, 'rot2': 0, 'state': 'normal', 'yaw': 31.55, 'datetime': '2018-10-09 11:45:36.685386', 'mgs': 0, 'volt': 0.0, 'depth': -12.5, 'time': 431, 'pitch': 38.28, 'roll': -0.69, 'pres': 0}
{'lipoC2': 7.61, 'lipoC3S1': 4.15, 'temp': 29.81, 'lipoC3S3': 12.54, 'lipoC3S2': 8.29, 'rot1': 4, 'rot0': 5, 'rot3': 0, 'rot2': 0, 'state': 'normal', 'yaw': 31.57, 'datetime': '2018-10-09 11:45:36.788706', 'mgs': 0, 'volt': 0.0, 'depth': -12.5, 'time': 431, 'pitch': 35.64, 'roll': -0.72, 'pres': 0}
{'lipoC2': 7.62, 'lipoC3S1': 4.15, 'temp': 29.81, 'lipoC3S3': 12.54, 'lipoC3S2': 8.29, 'rot1': 4, 'rot0': 5, 'rot3': 0, 'rot2': 0, 'state': 'normal', 'yaw': 31.24, 'datetime': '2018-10-09 11:45:36.892330', 'mgs': 0, 'volt': 0.0, 'depth': -12.5, 'time': 431, 'pitch': 31.41, 'roll': -0.98, 'pres': 0}
{'lipoC2': 7.62, 'lipoC3S1': 4.15, 'temp': 29.81, 'lipoC3S3': 12.54, 'lipoC3S2': 8.29, 'rot1': 4, 'rot0': 5, 'rot3': 0, 'rot2': 0, 'state': 'normal', 'yaw': 31.23, 'datetime': '2018-10-09 11:45:36.995226', 'mgs': 0, 'volt': 0.0, 'depth': -12.5, 'time': 431, 'pitch': 30.62, 'roll': -0.98, 'pres': 0}
{'lipoC2': 7.62, 'lipoC3S1': 4.15, 'temp': 29.81, 'lipoC3S3': 12.52, 'lipoC3S2': 8.29, 'rot1': 4, 'rot0': 5, 'rot3': 0, 'rot2': 0, 'state': 'normal', 'yaw': 31.3, 'datetime': '2018-10-09 11:45:37.099241', 'mgs': 0, 'volt': 0.0, 'depth': -12.5, 'time': 431, 'pitch': 31.22, 'roll': -0.66, 'pres': 0}
{'lipoC2': 7.62, 'lipoC3S1': 4.15, 'temp': 29.81, 'lipoC3S3': 12.54, 'lipoC3S2': 8.29, 'rot1': 4, 'rot0': 5, 'rot3': 0, 'rot2': 0, 'state': 'normal', 'yaw': 31.48, 'datetime': '2018-10-09 11:45:37.202917', 'mgs': 0, 'volt': 0.0, 'depth': -12.5, 'time': 431, 'pitch': 31.19, 'roll': -0.68, 'pres': 0}
{'lipoC2': 7.62, 'lipoC3S1': 4.15, 'temp': 29.81, 'lipoC3S3': 12.54, 'lipoC3S2': 8.29, 'rot1': 4, 'rot0': 5, 'rot3': 0, 'rot2': 0, 'state': 'normal', 'yaw': 31.56, 'datetime': '2018-10-09 11:45:37.305896', 'mgs': 0, 'volt': 0.0, 'depth': -12.5, 'time': 431, 'pitch': 30.81, 'roll': -0.69, 'pres': 0}
{'lipoC2': 7.62, 'lipoC3S1': 4.15, 'temp': 29.81, 'lipoC3S3': 12.54, 'lipoC3S2': 8.29, 'rot1': 4, 'rot0': 5, 'rot3': 0, 'rot2': 0, 'state': 'normal', 'yaw': 31.52, 'datetime': '2018-10-09 11:45:37.409058', 'mgs': 0, 'volt': 0.0, 'depth': -12.5, 'time': 431, 'pitch': 31.25, 'roll': -0.72, 'pres': 0}
{'lipoC2': 7.62, 'lipoC3S1': 4.15, 'temp': 29.81, 'lipoC3S3': 12.54, 'lipoC3S2': 8.29, 'rot1': 4, 'rot0': 5, 'rot3': 0, 'rot2': 0, 'state': 'normal', 'yaw': 31.51, 'datetime': '2018-10-09 11:45:37.513441', 'mgs': 1, 'volt': 0.0, 'depth': -12.5, 'time': 431, 'pitch': 31.72, 'roll': -0.72, 'pres': 0}
{'lipoC2': 7.62, 'lipoC3S1': 4.15, 'temp': 29.81, 'lipoC3S3': 12.54, 'lipoC3S2': 8.29, 'rot1': 0, 'rot0': 0, 'rot3': 0, 'rot2': 0, 'state': 'normal', 'yaw': 0.0, 'datetime': '2018-10-09 11:45:40.541332', 'mgs': 1, 'volt': 0.0, 'depth': -12.5, 'time': 1, 'pitch': 42.39, 'roll': -0.49, 'pres': 0}
{'lipoC2': 7.62, 'lipoC3S1': 4.14, 'temp': 29.81, 'lipoC3S3': 12.52, 'lipoC3S2': 8.29, 'rot1': 0, 'rot0': 0, 'rot3': 0, 'rot2': 0, 'state': 'normal', 'yaw': 0.01, 'datetime': '2018-10-09 11:45:40.563397', 'mgs': 1, 'volt': 0.0, 'depth': -12.5, 'time': 1, 'pitch': 41.43, 'roll': -0.48, 'pres': 0}
{'lipoC2': 7.62, 'lipoC3S1': 4.15, 'temp': 29.81, 'lipoC3S3': 12.54, 'lipoC3S2': 8.29, 'rot1': 0, 'rot0': 0, 'rot3': 0, 'rot2': 0, 'state': 'normal', 'yaw': 0.02, 'datetime': '2018-10-09 11:45:40.585703', 'mgs': 1, 'volt': 0.0, 'depth': -12.5, 'time': 1, 'pitch': 39.87, 'roll': -0.48, 'pres': 0}
{'lipoC2': 7.62, 'lipoC3S1': 4.15, 'temp': 29.81, 'lipoC3S3': 12.54, 'lipoC3S2': 8.29, 'rot1': 0, 'rot0': 0, 'rot3': 0, 'rot2': 0, 'state': 'normal', 'yaw': 0.04, 'datetime': '2018-10-09 11:45:40.607939', 'mgs': 1, 'volt': 0.0, 'depth': -12.5, 'time': 1, 'pitch': 38.39, 'roll': -0.48, 'pres': 0}
{'lipoC2': 7.62, 'lipoC3S1': 4.15, 'temp': 29.81, 'lipoC3S3': 12.54, 'lipoC3S2': 8.29, 'rot1': 0, 'rot0': 0, 'rot3': 0, 'rot2': 0, 'state': 'normal', 'yaw': 0.04, 'datetime': '2018-10-09 11:45:40.622426', 'mgs': 1, 'volt': 0.0, 'depth': -12.5, 'time': 1, 'pitch': 38.28, 'roll': -0.48, 'pres': 0}
{'lipoC2': 7.62, 'lipoC3S1': 4.15, 'temp': 29.81, 'lipoC3S3': 12.54, 'lipoC3S2': 8.29, 'rot1': 0, 'rot0': 0, 'rot3': 0, 'rot2': 0, 'state': 'normal', 'yaw': 0.04, 'datetime': '2018-10-09 11:45:40.632008', 'mgs': 1, 'volt': 0.0, 'depth': -12.5, 'time': 1, 'pitch': 38.77, 'roll': -0.48, 'pres': 0}
{'lipoC2': 7.62, 'lipoC3S1': 4.15, 'temp': 29.81, 'lipoC3S3': 12.54, 'lipoC3S2': 8.29, 'rot1': 0, 'rot0': 0, 'rot3': 0, 'rot2': 0, 'state': 'normal', 'yaw': 0.04, 'datetime': '2018-10-09 11:45:40.641561', 'mgs': 1, 'volt': 0.0, 'depth': -12.5, 'time': 1, 'pitch': 38.71, 'roll': -0.48, 'pres': 0}
{'lipoC2': 7.62, 'lipoC3S1': 4.15, 'temp': 29.81, 'lipoC3S3': 12.54, 'lipoC3S2': 8.29, 'rot1': 0, 'rot0': 0, 'rot3': 0, 'rot2': 0, 'state': 'normal', 'yaw': 0.04, 'datetime': '2018-10-09 11:45:40.651050', 'mgs': 1, 'volt': 0.0, 'depth': -12.5, 'time': 1, 'pitch': 37.67, 'roll': -0.48, 'pres': 0}
{'lipoC2': 7.62, 'lipoC3S1': 4.15, 'temp': 29.81, 'lipoC3S3': 12.52, 'lipoC3S2': 8.29, 'rot1': 0, 'rot0': 0, 'rot3': 0, 'rot2': 0, 'state': 'normal', 'yaw': 0.07, 'datetime': '2018-10-09 11:45:40.660545', 'mgs': 1, 'volt': 0.0, 'depth': -12.5, 'time': 2, 'pitch': 36.49, 'roll': -0.47, 'pres': 0}
{'lipoC2': 7.61, 'lipoC3S1': 4.15, 'temp': 29.81, 'lipoC3S3': 12.54, 'lipoC3S2': 8.29, 'rot1': 0, 'rot0': 0, 'rot3': 0, 'rot2': 0, 'state': 'normal', 'yaw': 0.07, 'datetime': '2018-10-09 11:45:40.670028', 'mgs': 1, 'volt': 0.0, 'depth': -12.5, 'time': 2, 'pitch': 35.54, 'roll': -0.46, 'pres': 0}
{'lipoC2': 7.62, 'lipoC3S1': 4.15, 'temp': 29.81, 'lipoC3S3': 12.54, 'lipoC3S2': 8.29, 'rot1': 0, 'rot0': 0, 'rot3': 0, 'rot2': 0, 'state': 'normal', 'yaw': 0.07, 'datetime': '2018-10-09 11:45:40.679547', 'mgs': 1, 'volt': 0.0, 'depth': -12.5, 'time': 2, 'pitch': 35.36, 'roll': -0.46, 'pres': 0}
{'lipoC2': 7.62, 'lipoC3S1': 4.15, 'temp': 29.81, 'lipoC3S3': 12.54, 'lipoC3S2': 8.29, 'rot1': 0, 'rot0': 0, 'rot3': 0, 'rot2': 0, 'state': 'normal', 'yaw': -0.12, 'datetime': '2018-10-09 11:45:40.689021', 'mgs': 1, 'volt': 0.0, 'depth': -12.5, 'time': 2, 'pitch': 34.88, 'roll': -0.38, 'pres': 0}
{'lipoC2': 7.62, 'lipoC3S1': 4.15, 'temp': 29.81, 'lipoC3S3': 12.54, 'lipoC3S2': 8.29, 'rot1': 0, 'rot0': 0, 'rot3': 0, 'rot2': 0, 'state': 'normal', 'yaw': -0.35, 'datetime': '2018-10-09 11:45:40.698505', 'mgs': 1, 'volt': 0.0, 'depth': -12.5, 'time': 2, 'pitch': 33.91, 'roll': -0.36, 'pres': 0}
{'lipoC2': 7.62, 'lipoC3S1': 4.15, 'temp': 29.81, 'lipoC3S3': 12.54, 'lipoC3S2': 8.29, 'rot1': 0, 'rot0': 0, 'rot3': 0, 'rot2': 0, 'state': 'normal', 'yaw': -0.57, 'datetime': '2018-10-09 11:45:40.707989', 'mgs': 1, 'volt': 0.0, 'depth': -12.5, 'time': 2, 'pitch': 33.38, 'roll': -0.29, 'pres': 0}
{'lipoC2': 7.62, 'lipoC3S1': 4.15, 'temp': 29.81, 'lipoC3S3': 12.54, 'lipoC3S2': 8.29, 'rot1': 0, 'rot0': 0, 'rot3': 0, 'rot2': 0, 'state': 'normal', 'yaw': -1.12, 'datetime': '2018-10-09 11:45:40.717486', 'mgs': 1, 'volt': 0.0, 'depth': -12.5, 'time': 2, 'pitch': 33.43, 'roll': -0.1, 'pres': 0}
{'lipoC2': 7.62, 'lipoC3S1': 4.15, 'temp': 29.81, 'lipoC3S3': 12.54, 'lipoC3S2': 8.29, 'rot1': 0, 'rot0': 0, 'rot3': 0, 'rot2': 0, 'state': 'normal', 'yaw': -1.52, 'datetime': '2018-10-09 11:45:40.727074', 'mgs': 1, 'volt': 0.0, 'depth': -12.5, 'time': 2, 'pitch': 33.34, 'roll': 0.01, 'pres': 0}
{'lipoC2': 7.62, 'lipoC3S1': 4.15, 'temp': 29.81, 'lipoC3S3': 12.54, 'lipoC3S2': 8.29, 'rot1': 0, 'rot0': 0, 'rot3': 0, 'rot2': 0, 'state': 'normal', 'yaw': -1.55, 'datetime': '2018-10-09 11:45:40.736942', 'mgs': 1, 'volt': 0.0, 'depth': -12.5, 'time': 2, 'pitch': 33.54, 'roll': 0.02, 'pres': 0}
{'lipoC2': 7.61, 'lipoC3S1': 4.14, 'temp': 29.81, 'lipoC3S3': 12.52, 'lipoC3S2': 8.28, 'rot1': 0, 'rot0': 0, 'rot3': 0, 'rot2': 0, 'state': 'normal', 'yaw': -1.54, 'datetime': '2018-10-09 11:45:40.746690', 'mgs': 1, 'volt': 0.0, 'depth': -12.5, 'time': 3, 'pitch': 33.59, 'roll': 0.02, 'pres': 0}
{'lipoC2': 7.61, 'lipoC3S1': 4.14, 'temp': 29.81, 'lipoC3S3': 12.52, 'lipoC3S2': 8.28, 'rot1': 0, 'rot0': 0, 'rot3': 0, 'rot2': 0, 'state': 'normal', 'yaw': -1.55, 'datetime': '2018-10-09 11:45:40.756322', 'mgs': 1, 'volt': 0.0, 'depth': -12.5, 'time': 3, 'pitch': 33.18, 'roll': 0.02, 'pres': 0}
{'lipoC2': 7.61, 'lipoC3S1': 4.14, 'temp': 29.81, 'lipoC3S3': 12.52, 'lipoC3S2': 8.28, 'rot1': 0, 'rot0': 0, 'rot3': 0, 'rot2': 0, 'state': 'normal', 'yaw': -1.55, 'datetime': '2018-10-09 11:45:40.845567', 'mgs': 1, 'volt': 0.0, 'depth': -12.5, 'time': 3, 'pitch': 32.76, 'roll': 0.02, 'pres': 0}
{'lipoC2': 7.61, 'lipoC3S1': 4.14, 'temp': 29.81, 'lipoC3S3': 12.52, 'lipoC3S2': 8.28, 'rot1': 0, 'rot0': 0, 'rot3': 0, 'rot2': 0, 'state': 'normal', 'yaw': -1.55, 'datetime': '2018-10-09 11:45:40.949130', 'mgs': 1, 'volt': 0.0, 'depth': -12.5, 'time': 3, 'pitch': 32.83, 'roll': 0.02, 'pres': 0}
{'lipoC2': 7.61, 'lipoC3S1': 4.14, 'temp': 29.75, 'lipoC3S3': 12.52, 'lipoC3S2': 8.28, 'rot1': 0, 'rot0': 0, 'rot3': 0, 'rot2': 0, 'state': 'normal', 'yaw': -1.55, 'datetime': '2018-10-09 11:45:41.053651', 'mgs': 1, 'volt': 0.0, 'depth': -12.5, 'time': 3, 'pitch': 33.09, 'roll': 0.02, 'pres': 0}
{'lipoC2': 7.61, 'lipoC3S1': 4.14, 'temp': 29.75, 'lipoC3S3': 12.52, 'lipoC3S2': 8.28, 'rot1': 0, 'rot0': 0, 'rot3': 0, 'rot2': 0, 'state': 'normal', 'yaw': -1.54, 'datetime': '2018-10-09 11:45:41.156831', 'mgs': 1, 'volt': 0.0, 'depth': -12.5, 'time': 3, 'pitch': 33.04, 'roll': 0.02, 'pres': 0}
{'lipoC2': 7.61, 'lipoC3S1': 4.14, 'temp': 29.81, 'lipoC3S3': 12.52, 'lipoC3S2': 8.28, 'rot1': 0, 'rot0': 0, 'rot3': 0, 'rot2': 0, 'state': 'normal', 'yaw': -1.55, 'datetime': '2018-10-09 11:45:41.260413', 'mgs': 1, 'volt': 0.0, 'depth': -12.5, 'time': 3, 'pitch': 32.89, 'roll': 0.02, 'pres': 0}
{'lipoC2': 7.61, 'lipoC3S1': 4.14, 'temp': 29.81, 'lipoC3S3': 12.52, 'lipoC3S2': 8.28, 'rot1': 0, 'rot0': 0, 'rot3': 0, 'rot2': 0, 'state': 'normal', 'yaw': -1.55, 'datetime': '2018-10-09 11:45:41.370271', 'mgs': 1, 'volt': 0.0, 'depth': -12.5, 'time': 3, 'pitch': 32.9, 'roll': 0.02, 'pres': 0}
{'lipoC2': 7.62, 'lipoC3S1': 4.14, 'temp': 29.81, 'lipoC3S3': 12.52, 'lipoC3S2': 8.28, 'rot1': 0, 'rot0': 0, 'rot3': 0, 'rot2': 0, 'state': 'normal', 'yaw': -1.55, 'datetime': '2018-10-09 11:45:41.474596', 'mgs': 1, 'volt': 0.0, 'depth': -12.5, 'time': 3, 'pitch': 33.11, 'roll': 0.02, 'pres': 0}
{'lipoC2': 7.61, 'lipoC3S1': 4.14, 'temp': 29.81, 'lipoC3S3': 12.52, 'lipoC3S2': 8.28, 'rot1': 0, 'rot0': 0, 'rot3': 0, 'rot2': 0, 'state': 'normal', 'yaw': -1.55, 'datetime': '2018-10-09 11:45:41.578417', 'mgs': 1, 'volt': 0.0, 'depth': -12.5, 'time': 3, 'pitch': 33.44, 'roll': 0.02, 'pres': 0}
{'lipoC2': 7.62, 'lipoC3S1': 4.14, 'temp': 29.81, 'lipoC3S3': 12.52, 'lipoC3S2': 8.28, 'rot1': 0, 'rot0': 0, 'rot3': 0, 'rot2': 0, 'state': 'normal', 'yaw': -1.55, 'datetime': '2018-10-09 11:45:41.682587', 'mgs': 1, 'volt': 0.0, 'depth': -12.5, 'time': 4, 'pitch': 33.72, 'roll': 0.02, 'pres': 0}
{'lipoC2': 7.61, 'lipoC3S1': 4.14, 'temp': 29.81, 'lipoC3S3': 12.52, 'lipoC3S2': 8.28, 'rot1': 0, 'rot0': 0, 'rot3': 0, 'rot2': 0, 'state': 'normal', 'yaw': -1.58, 'datetime': '2018-10-09 11:45:41.786019', 'mgs': 1, 'volt': 0.0, 'depth': -12.5, 'time': 4, 'pitch': 34.0, 'roll': 0.01, 'pres': 0}
{'lipoC2': 7.61, 'lipoC3S1': 4.14, 'temp': 29.81, 'lipoC3S3': 12.52, 'lipoC3S2': 8.28, 'rot1': 0, 'rot0': 0, 'rot3': 0, 'rot2': 0, 'state': 'normal', 'yaw': -1.68, 'datetime': '2018-10-09 11:45:41.889266', 'mgs': 1, 'volt': 0.0, 'depth': -12.5, 'time': 4, 'pitch': 35.08, 'roll': 0.09, 'pres': 0}
{'lipoC2': 7.61, 'lipoC3S1': 4.14, 'temp': 29.81, 'lipoC3S3': 12.52, 'lipoC3S2': 8.28, 'rot1': 0, 'rot0': 0, 'rot3': 0, 'rot2': 0, 'state': 'normal', 'yaw': -1.86, 'datetime': '2018-10-09 11:45:41.992402', 'mgs': 1, 'volt': 0.0, 'depth': -12.5, 'time': 4, 'pitch': 36.64, 'roll': 0.2, 'pres': 0}
{'lipoC2': 7.61, 'lipoC3S1': 4.14, 'temp': 29.81, 'lipoC3S3': 12.52, 'lipoC3S2': 8.28, 'rot1': 0, 'rot0': 0, 'rot3': 0, 'rot2': 0, 'state': 'normal', 'yaw': -1.83, 'datetime': '2018-10-09 11:45:42.095588', 'mgs': 1, 'volt': 0.0, 'depth': -12.5, 'time': 4, 'pitch': 38.65, 'roll': 0.22, 'pres': 0}
{'lipoC2': 7.61, 'lipoC3S1': 4.14, 'temp': 29.81, 'lipoC3S3': 12.52, 'lipoC3S2': 8.28, 'rot1': 0, 'rot0': 0, 'rot3': 0, 'rot2': 0, 'state': 'normal', 'yaw': -1.82, 'datetime': '2018-10-09 11:45:42.198968', 'mgs': 1, 'volt': 0.0, 'depth': -12.5, 'time': 4, 'pitch': 39.71, 'roll': 0.19, 'pres': 0}
{'lipoC2': 7.61, 'lipoC3S1': 4.14, 'temp': 29.81, 'lipoC3S3': 12.52, 'lipoC3S2': 8.28, 'rot1': 0, 'rot0': 0, 'rot3': 0, 'rot2': 0, 'state': 'normal', 'yaw': -1.44, 'datetime': '2018-10-09 11:45:42.303236', 'mgs': 1, 'volt': 0.0, 'depth': -12.5, 'time': 4, 'pitch': 40.37, 'roll': 0.02, 'pres': 0}
{'lipoC2': 7.61, 'lipoC3S1': 4.14, 'temp': 29.81, 'lipoC3S3': 12.52, 'lipoC3S2': 8.28, 'rot1': 0, 'rot0': 0, 'rot3': 0, 'rot2': 0, 'state': 'normal', 'yaw': -0.57, 'datetime': '2018-10-09 11:45:42.406455', 'mgs': 1, 'volt': 0.0, 'depth': -12.5, 'time': 4, 'pitch': 41.22, 'roll': -0.31, 'pres': 0}
{'lipoC2': 7.61, 'lipoC3S1': 4.14, 'temp': 29.81, 'lipoC3S3': 12.52, 'lipoC3S2': 8.28, 'rot1': 0, 'rot0': 0, 'rot3': 0, 'rot2': 0, 'state': 'normal', 'yaw': -0.18, 'datetime': '2018-10-09 11:45:42.510878', 'mgs': 1, 'volt': 0.0, 'depth': -12.5, 'time': 4, 'pitch': 41.39, 'roll': -0.48, 'pres': 0}
{'lipoC2': 7.61, 'lipoC3S1': 4.14, 'temp': 29.81, 'lipoC3S3': 12.52, 'lipoC3S2': 8.28, 'rot1': 0, 'rot0': 0, 'rot3': 0, 'rot2': 0, 'state': 'normal', 'yaw': -0.18, 'datetime': '2018-10-09 11:45:42.614832', 'mgs': 1, 'volt': 0.0, 'depth': -12.5, 'time': 4, 'pitch': 40.94, 'roll': -0.48, 'pres': 0}
{'lipoC2': 7.61, 'lipoC3S1': 4.14, 'temp': 29.81, 'lipoC3S3': 12.52, 'lipoC3S2': 8.28, 'rot1': 0, 'rot0': 0, 'rot3': 0, 'rot2': 0, 'state': 'normal', 'yaw': -0.17, 'datetime': '2018-10-09 11:45:42.718136', 'mgs': 1, 'volt': 0.0, 'depth': -12.5, 'time': 5, 'pitch': 40.87, 'roll': -0.48, 'pres': 0}
{'lipoC2': 7.61, 'lipoC3S1': 4.14, 'temp': 29.81, 'lipoC3S3': 12.52, 'lipoC3S2': 8.28, 'rot1': 0, 'rot0': 0, 'rot3': 0, 'rot2': 0, 'state': 'normal', 'yaw': -0.17, 'datetime': '2018-10-09 11:45:42.822573', 'mgs': 1, 'volt': 0.0, 'depth': -12.5, 'time': 5, 'pitch': 40.98, 'roll': -0.47, 'pres': 0}
{'lipoC2': 7.62, 'lipoC3S1': 4.14, 'temp': 29.81, 'lipoC3S3': 12.52, 'lipoC3S2': 8.28, 'rot1': 0, 'rot0': 0, 'rot3': 0, 'rot2': 0, 'state': 'normal', 'yaw': -0.17, 'datetime': '2018-10-09 11:45:42.926156', 'mgs': 1, 'volt': 0.0, 'depth': -12.5, 'time': 5, 'pitch': 41.0, 'roll': -0.48, 'pres': 0}
{'lipoC2': 7.61, 'lipoC3S1': 4.14, 'temp': 29.75, 'lipoC3S3': 12.52, 'lipoC3S2': 8.28, 'rot1': 0, 'rot0': 0, 'rot3': 0, 'rot2': 0, 'state': 'normal', 'yaw': -0.17, 'datetime': '2018-10-09 11:45:43.029411', 'mgs': 1, 'volt': 0.0, 'depth': -12.5, 'time': 5, 'pitch': 40.95, 'roll': -0.47, 'pres': 0}
{'lipoC2': 7.61, 'lipoC3S1': 4.14, 'temp': 29.75, 'lipoC3S3': 12.52, 'lipoC3S2': 8.28, 'rot1': 0, 'rot0': 0, 'rot3': 0, 'rot2': 0, 'state': 'normal', 'yaw': -0.18, 'datetime': '2018-10-09 11:45:43.132643', 'mgs': 1, 'volt': 0.0, 'depth': -12.5, 'time': 5, 'pitch': 40.96, 'roll': -0.48, 'pres': 0}
{'lipoC2': 7.61, 'lipoC3S1': 4.14, 'temp': 29.81, 'lipoC3S3': 12.52, 'lipoC3S2': 8.28, 'rot1': 0, 'rot0': 0, 'rot3': 0, 'rot2': 0, 'state': 'normal', 'yaw': -0.17, 'datetime': '2018-10-09 11:45:43.236062', 'mgs': 1, 'volt': 0.0, 'depth': -12.5, 'time': 5, 'pitch': 41.0, 'roll': -0.48, 'pres': 0}
{'lipoC2': 7.61, 'lipoC3S1': 4.14, 'temp': 29.81, 'lipoC3S3': 12.52, 'lipoC3S2': 8.28, 'rot1': 0, 'rot0': 0, 'rot3': 0, 'rot2': 0, 'state': 'normal', 'yaw': -0.18, 'datetime': '2018-10-09 11:45:43.339351', 'mgs': 1, 'volt': 0.0, 'depth': -12.5, 'time': 5, 'pitch': 41.28, 'roll': -0.47, 'pres': 0}
{'lipoC2': 7.62, 'lipoC3S1': 4.14, 'temp': 29.81, 'lipoC3S3': 12.52, 'lipoC3S2': 8.28, 'rot1': 0, 'rot0': 0, 'rot3': 0, 'rot2': 0, 'state': 'normal', 'yaw': -0.18, 'datetime': '2018-10-09 11:45:43.443752', 'mgs': 1, 'volt': 0.0, 'depth': -12.5, 'time': 5, 'pitch': 41.34, 'roll': -0.48, 'pres': 0}
{'lipoC2': 7.61, 'lipoC3S1': 4.14, 'temp': 29.81, 'lipoC3S3': 12.52, 'lipoC3S2': 8.28, 'rot1': 0, 'rot0': 0, 'rot3': 0, 'rot2': 0, 'state': 'normal', 'yaw': -0.18, 'datetime': '2018-10-09 11:45:43.547171', 'mgs': 1, 'volt': 0.0, 'depth': -12.5, 'time': 5, 'pitch': 41.42, 'roll': -0.48, 'pres': 0}
{'lipoC2': 7.62, 'lipoC3S1': 4.14, 'temp': 29.81, 'lipoC3S3': 12.52, 'lipoC3S2': 8.28, 'rot1': 0, 'rot0': 0, 'rot3': 0, 'rot2': 0, 'state': 'normal', 'yaw': -0.18, 'datetime': '2018-10-09 11:45:43.647597', 'mgs': 1, 'volt': 0.0, 'depth': -12.5, 'time': 6, 'pitch': 41.39, 'roll': -0.48, 'pres': 0}
{'lipoC2': 7.61, 'lipoC3S1': 4.14, 'temp': 29.81, 'lipoC3S3': 12.52, 'lipoC3S2': 8.28, 'rot1': 0, 'rot0': 0, 'rot3': 0, 'rot2': 0, 'state': 'normal', 'yaw': -0.18, 'datetime': '2018-10-09 11:45:43.754695', 'mgs': 1, 'volt': 0.0, 'depth': -12.5, 'time': 6, 'pitch': 41.2, 'roll': -0.48, 'pres': 0}
{'lipoC2': 7.61, 'lipoC3S1': 4.14, 'temp': 29.81, 'lipoC3S3': 12.52, 'lipoC3S2': 8.28, 'rot1': 0, 'rot0': 0, 'rot3': 0, 'rot2': 0, 'state': 'normal', 'yaw': -0.17, 'datetime': '2018-10-09 11:45:43.858025', 'mgs': 1, 'volt': 0.0, 'depth': -12.5, 'time': 6, 'pitch': 41.07, 'roll': -0.48, 'pres': 0}
{'lipoC2': 7.61, 'lipoC3S1': 4.14, 'temp': 29.81, 'lipoC3S3': 12.52, 'lipoC3S2': 8.28, 'rot1': 0, 'rot0': 0, 'rot3': 0, 'rot2': 0, 'state': 'normal', 'yaw': -0.17, 'datetime': '2018-10-09 11:45:43.961265', 'mgs': 1, 'volt': 0.0, 'depth': -12.5, 'time': 6, 'pitch': 41.04, 'roll': -0.47, 'pres': 0}
{'lipoC2': 7.62, 'lipoC3S1': 4.14, 'temp': 29.81, 'lipoC3S3': 12.52, 'lipoC3S2': 8.28, 'rot1': 0, 'rot0': 0, 'rot3': 0, 'rot2': 0, 'state': 'normal', 'yaw': -0.17, 'datetime': '2018-10-09 11:45:44.066036', 'mgs': 1, 'volt': 0.0, 'depth': -12.5, 'time': 6, 'pitch': 41.04, 'roll': -0.47, 'pres': 0}
