{'lipoC2': 7.69, 'lipoC3S1': 3.83, 'temp': 28.63, 'lipoC3S3': 11.56, 'lipoC3S2': 7.65, 'rot1': 287, 'rot0': 284, 'rot3': 178, 'rot2': 142, 'state': 'normal', 'yaw': 16.26, 'datetime': '2018-10-05 20:20:00.430810', 'mgs': 0, 'volt': 0.8105, 'depth': 0.165, 'time': 88, 'pitch': -16.39, 'roll': -3.6, 'pres': 166}
{'lipoC2': 7.69, 'lipoC3S1': 3.83, 'temp': 28.63, 'lipoC3S3': 11.56, 'lipoC3S2': 7.65, 'rot1': 287, 'rot0': 284, 'rot3': 178, 'rot2': 142, 'state': 'normal', 'yaw': 16.04, 'datetime': '2018-10-05 20:20:00.453293', 'mgs': 0, 'volt': 0.8105, 'depth': 0.165, 'time': 88, 'pitch': -16.91, 'roll': -3.77, 'pres': 166}
{'lipoC2': 7.69, 'lipoC3S1': 3.83, 'temp': 28.63, 'lipoC3S3': 11.56, 'lipoC3S2': 7.66, 'rot1': 287, 'rot0': 284, 'rot3': 178, 'rot2': 142, 'state': 'normal', 'yaw': 15.68, 'datetime': '2018-10-05 20:20:00.475837', 'mgs': 0, 'volt': 0.8154, 'depth': 0.241, 'time': 88, 'pitch': -17.01, 'roll': -3.87, 'pres': 167}
{'lipoC2': 7.69, 'lipoC3S1': 3.83, 'temp': 28.56, 'lipoC3S3': 11.56, 'lipoC3S2': 7.65, 'rot1': 287, 'rot0': 284, 'rot3': 178, 'rot2': 142, 'state': 'normal', 'yaw': 15.56, 'datetime': '2018-10-05 20:20:00.491392', 'mgs': 0, 'volt': 0.8154, 'depth': 0.241, 'time': 89, 'pitch': -16.53, 'roll': -4.09, 'pres': 167}
{'lipoC2': 7.69, 'lipoC3S1': 3.83, 'temp': 28.56, 'lipoC3S3': 11.56, 'lipoC3S2': 7.66, 'rot1': 287, 'rot0': 284, 'rot3': 178, 'rot2': 142, 'state': 'normal', 'yaw': 15.77, 'datetime': '2018-10-05 20:20:00.501220', 'mgs': 0, 'volt': 0.8154, 'depth': 0.241, 'time': 89, 'pitch': -16.11, 'roll': -4.47, 'pres': 167}
{'lipoC2': 7.69, 'lipoC3S1': 3.83, 'temp': 28.56, 'lipoC3S3': 11.56, 'lipoC3S2': 7.65, 'rot1': 287, 'rot0': 284, 'rot3': 178, 'rot2': 142, 'state': 'normal', 'yaw': 15.91, 'datetime': '2018-10-05 20:20:00.511048', 'mgs': 0, 'volt': 0.8105, 'depth': 0.165, 'time': 89, 'pitch': -16.37, 'roll': -4.66, 'pres': 166}
{'lipoC2': 7.69, 'lipoC3S1': 3.82, 'temp': 28.63, 'lipoC3S3': 11.56, 'lipoC3S2': 7.65, 'rot1': 287, 'rot0': 284, 'rot3': 178, 'rot2': 142, 'state': 'normal', 'yaw': 15.95, 'datetime': '2018-10-05 20:20:00.520871', 'mgs': 0, 'volt': 0.8154, 'depth': 0.241, 'time': 89, 'pitch': -16.87, 'roll': -4.62, 'pres': 167}
{'lipoC2': 7.69, 'lipoC3S1': 3.83, 'temp': 28.63, 'lipoC3S3': 11.56, 'lipoC3S2': 7.65, 'rot1': 287, 'rot0': 284, 'rot3': 178, 'rot2': 142, 'state': 'normal', 'yaw': 15.93, 'datetime': '2018-10-05 20:20:00.530618', 'mgs': 0, 'volt': 0.8154, 'depth': 0.241, 'time': 89, 'pitch': -16.78, 'roll': -4.28, 'pres': 167}
{'lipoC2': 7.69, 'lipoC3S1': 3.82, 'temp': 28.63, 'lipoC3S3': 11.56, 'lipoC3S2': 7.65, 'rot1': 287, 'rot0': 284, 'rot3': 178, 'rot2': 142, 'state': 'normal', 'yaw': 15.61, 'datetime': '2018-10-05 20:20:00.540357', 'mgs': 0, 'volt': 0.8154, 'depth': 0.241, 'time': 89, 'pitch': -16.7, 'roll': -3.53, 'pres': 167}
{'lipoC2': 7.69, 'lipoC3S1': 3.82, 'temp': 28.63, 'lipoC3S3': 11.56, 'lipoC3S2': 7.65, 'rot1': 287, 'rot0': 284, 'rot3': 178, 'rot2': 142, 'state': 'normal', 'yaw': 15.3, 'datetime': '2018-10-05 20:20:00.550087', 'mgs': 0, 'volt': 0.8154, 'depth': 0.241, 'time': 89, 'pitch': -16.84, 'roll': -2.64, 'pres': 167}
{'lipoC2': 7.69, 'lipoC3S1': 3.82, 'temp': 28.56, 'lipoC3S3': 11.56, 'lipoC3S2': 7.65, 'rot1': 287, 'rot0': 284, 'rot3': 178, 'rot2': 142, 'state': 'normal', 'yaw': 15.83, 'datetime': '2018-10-05 20:20:00.559865', 'mgs': 0, 'volt': 0.8154, 'depth': 0.241, 'time': 89, 'pitch': -16.64, 'roll': -2.4, 'pres': 167}
{'lipoC2': 7.69, 'lipoC3S1': 3.82, 'temp': 28.56, 'lipoC3S3': 11.56, 'lipoC3S2': 7.65, 'rot1': 287, 'rot0': 284, 'rot3': 178, 'rot2': 142, 'state': 'normal', 'yaw': 16.28, 'datetime': '2018-10-05 20:20:00.569631', 'mgs': 0, 'volt': 0.8154, 'depth': 0.241, 'time': 89, 'pitch': -17.09, 'roll': -2.14, 'pres': 167}
{'lipoC2': 7.69, 'lipoC3S1': 3.82, 'temp': 28.56, 'lipoC3S3': 11.56, 'lipoC3S2': 7.65, 'rot1': 287, 'rot0': 284, 'rot3': 178, 'rot2': 142, 'state': 'normal', 'yaw': 16.55, 'datetime': '2018-10-05 20:20:00.579468', 'mgs': 0, 'volt': 0.8154, 'depth': 0.241, 'time': 89, 'pitch': -17.1, 'roll': -1.74, 'pres': 167}
{'lipoC2': 7.69, 'lipoC3S1': 3.82, 'temp': 28.56, 'lipoC3S3': 11.56, 'lipoC3S2': 7.65, 'rot1': 287, 'rot0': 284, 'rot3': 178, 'rot2': 142, 'state': 'normal', 'yaw': 16.41, 'datetime': '2018-10-05 20:20:00.589286', 'mgs': 0, 'volt': 0.8154, 'depth': 0.241, 'time': 90, 'pitch': -17.0, 'roll': -1.15, 'pres': 167}
{'lipoC2': 7.68, 'lipoC3S1': 3.82, 'temp': 28.56, 'lipoC3S3': 11.56, 'lipoC3S2': 7.65, 'rot1': 287, 'rot0': 284, 'rot3': 178, 'rot2': 142, 'state': 'normal', 'yaw': 16.3, 'datetime': '2018-10-05 20:20:00.611438', 'mgs': 0, 'volt': 0.8154, 'depth': 0.241, 'time': 90, 'pitch': -16.97, 'roll': -0.73, 'pres': 167}
{'lipoC2': 7.69, 'lipoC3S1': 3.82, 'temp': 28.56, 'lipoC3S3': 11.56, 'lipoC3S2': 7.65, 'rot1': 287, 'rot0': 284, 'rot3': 178, 'rot2': 142, 'state': 'normal', 'yaw': 16.31, 'datetime': '2018-10-05 20:20:00.715625', 'mgs': 0, 'volt': 0.8154, 'depth': 0.241, 'time': 90, 'pitch': -17.03, 'roll': -0.83, 'pres': 167}
{'lipoC2': 7.69, 'lipoC3S1': 3.82, 'temp': 28.56, 'lipoC3S3': 11.56, 'lipoC3S2': 7.65, 'rot1': 287, 'rot0': 284, 'rot3': 178, 'rot2': 142, 'state': 'normal', 'yaw': 16.25, 'datetime': '2018-10-05 20:20:00.819912', 'mgs': 0, 'volt': 0.8105, 'depth': 0.165, 'time': 90, 'pitch': -16.97, 'roll': -1.29, 'pres': 166}
{'lipoC2': 7.69, 'lipoC3S1': 3.82, 'temp': 28.63, 'lipoC3S3': 11.56, 'lipoC3S2': 7.65, 'rot1': 287, 'rot0': 284, 'rot3': 178, 'rot2': 142, 'state': 'normal', 'yaw': 16.06, 'datetime': '2018-10-05 20:20:00.924061', 'mgs': 0, 'volt': 0.8105, 'depth': 0.165, 'time': 90, 'pitch': -16.68, 'roll': -2.04, 'pres': 166}
{'lipoC2': 7.69, 'lipoC3S1': 3.82, 'temp': 28.63, 'lipoC3S3': 11.56, 'lipoC3S2': 7.65, 'rot1': 287, 'rot0': 284, 'rot3': 178, 'rot2': 142, 'state': 'normal', 'yaw': 15.92, 'datetime': '2018-10-05 20:20:01.028368', 'mgs': 0, 'volt': 0.8105, 'depth': 0.165, 'time': 90, 'pitch': -16.58, 'roll': -2.82, 'pres': 166}
{'lipoC2': 7.69, 'lipoC3S1': 3.82, 'temp': 28.63, 'lipoC3S3': 11.56, 'lipoC3S2': 7.65, 'rot1': 287, 'rot0': 284, 'rot3': 178, 'rot2': 142, 'state': 'normal', 'yaw': 15.8, 'datetime': '2018-10-05 20:20:01.132526', 'mgs': 0, 'volt': 0.8057, 'depth': 0.089, 'time': 90, 'pitch': -16.64, 'roll': -3.61, 'pres': 165}
{'lipoC2': 7.69, 'lipoC3S1': 3.82, 'temp': 28.56, 'lipoC3S3': 11.56, 'lipoC3S2': 7.65, 'rot1': 287, 'rot0': 284, 'rot3': 178, 'rot2': 142, 'state': 'normal', 'yaw': 15.64, 'datetime': '2018-10-05 20:20:01.238235', 'mgs': 0, 'volt': 0.8057, 'depth': 0.089, 'time': 90, 'pitch': -16.59, 'roll': -4.19, 'pres': 165}
{'lipoC2': 7.69, 'lipoC3S1': 3.82, 'temp': 28.56, 'lipoC3S3': 11.56, 'lipoC3S2': 7.65, 'rot1': 287, 'rot0': 284, 'rot3': 178, 'rot2': 142, 'state': 'normal', 'yaw': 15.46, 'datetime': '2018-10-05 20:20:01.342455', 'mgs': 0, 'volt': 0.8057, 'depth': 0.089, 'time': 90, 'pitch': -16.32, 'roll': -4.68, 'pres': 165}
{'lipoC2': 7.69, 'lipoC3S1': 3.82, 'temp': 28.63, 'lipoC3S3': 11.56, 'lipoC3S2': 7.65, 'rot1': 287, 'rot0': 284, 'rot3': 178, 'rot2': 142, 'state': 'normal', 'yaw': 15.44, 'datetime': '2018-10-05 20:20:01.447760', 'mgs': 0, 'volt': 0.8057, 'depth': 0.089, 'time': 91, 'pitch': -16.12, 'roll': -4.98, 'pres': 165}
{'lipoC2': 7.69, 'lipoC3S1': 3.82, 'temp': 28.63, 'lipoC3S3': 11.56, 'lipoC3S2': 7.65, 'rot1': 287, 'rot0': 284, 'rot3': 178, 'rot2': 142, 'state': 'normal', 'yaw': 15.66, 'datetime': '2018-10-05 20:20:01.558513', 'mgs': 0, 'volt': 0.8057, 'depth': 0.089, 'time': 91, 'pitch': -16.05, 'roll': -5.09, 'pres': 165}
{'lipoC2': 7.69, 'lipoC3S1': 3.82, 'temp': 28.63, 'lipoC3S3': 11.56, 'lipoC3S2': 7.65, 'rot1': 287, 'rot0': 284, 'rot3': 178, 'rot2': 142, 'state': 'normal', 'yaw': 15.89, 'datetime': '2018-10-05 20:20:01.656701', 'mgs': 0, 'volt': 0.8057, 'depth': 0.089, 'time': 91, 'pitch': -15.82, 'roll': -4.85, 'pres': 165}
{'lipoC2': 7.69, 'lipoC3S1': 3.82, 'temp': 28.63, 'lipoC3S3': 11.56, 'lipoC3S2': 7.65, 'rot1': 287, 'rot0': 284, 'rot3': 178, 'rot2': 142, 'state': 'normal', 'yaw': 16.06, 'datetime': '2018-10-05 20:20:01.762161', 'mgs': 0, 'volt': 0.8057, 'depth': 0.089, 'time': 91, 'pitch': -15.44, 'roll': -4.37, 'pres': 165}
{'lipoC2': 7.69, 'lipoC3S1': 3.82, 'temp': 28.63, 'lipoC3S3': 11.56, 'lipoC3S2': 7.65, 'rot1': 287, 'rot0': 284, 'rot3': 178, 'rot2': 142, 'state': 'normal', 'yaw': 16.2, 'datetime': '2018-10-05 20:20:01.870443', 'mgs': 0, 'volt': 0.8057, 'depth': 0.089, 'time': 91, 'pitch': -15.18, 'roll': -3.73, 'pres': 165}
{'lipoC2': 7.69, 'lipoC3S1': 3.82, 'temp': 28.63, 'lipoC3S3': 11.56, 'lipoC3S2': 7.65, 'rot1': 287, 'rot0': 284, 'rot3': 178, 'rot2': 142, 'state': 'normal', 'yaw': 16.26, 'datetime': '2018-10-05 20:20:01.976675', 'mgs': 0, 'volt': 0.8057, 'depth': 0.089, 'time': 91, 'pitch': -15.32, 'roll': -3.23, 'pres': 165}
{'lipoC2': 7.69, 'lipoC3S1': 3.82, 'temp': 28.63, 'lipoC3S3': 11.56, 'lipoC3S2': 7.65, 'rot1': 287, 'rot0': 284, 'rot3': 178, 'rot2': 142, 'state': 'normal', 'yaw': 16.27, 'datetime': '2018-10-05 20:20:02.080815', 'mgs': 0, 'volt': 0.8057, 'depth': 0.089, 'time': 91, 'pitch': -15.61, 'roll': -2.85, 'pres': 165}
{'lipoC2': 7.69, 'lipoC3S1': 3.82, 'temp': 28.63, 'lipoC3S3': 11.56, 'lipoC3S2': 7.65, 'rot1': 287, 'rot0': 284, 'rot3': 178, 'rot2': 142, 'state': 'normal', 'yaw': 16.18, 'datetime': '2018-10-05 20:20:02.185038', 'mgs': 0, 'volt': 0.8057, 'depth': 0.089, 'time': 91, 'pitch': -15.69, 'roll': -2.6, 'pres': 165}
{'lipoC2': 7.69, 'lipoC3S1': 3.82, 'temp': 28.63, 'lipoC3S3': 11.56, 'lipoC3S2': 7.65, 'rot1': 287, 'rot0': 284, 'rot3': 178, 'rot2': 142, 'state': 'normal', 'yaw': 16.06, 'datetime': '2018-10-05 20:20:02.289555', 'mgs': 0, 'volt': 0.8057, 'depth': 0.089, 'time': 91, 'pitch': -15.5, 'roll': -2.43, 'pres': 165}
{'lipoC2': 7.69, 'lipoC3S1': 3.82, 'temp': 28.56, 'lipoC3S3': 11.56, 'lipoC3S2': 7.65, 'rot1': 287, 'rot0': 284, 'rot3': 178, 'rot2': 142, 'state': 'normal', 'yaw': 16.02, 'datetime': '2018-10-05 20:20:02.393901', 'mgs': 0, 'volt': 0.8057, 'depth': 0.089, 'time': 91, 'pitch': -15.29, 'roll': -2.4, 'pres': 165}
{'lipoC2': 7.69, 'lipoC3S1': 3.82, 'temp': 28.56, 'lipoC3S3': 11.56, 'lipoC3S2': 7.65, 'rot1': 287, 'rot0': 284, 'rot3': 178, 'rot2': 142, 'state': 'normal', 'yaw': 16.02, 'datetime': '2018-10-05 20:20:02.499334', 'mgs': 0, 'volt': 0.8057, 'depth': 0.089, 'time': 92, 'pitch': -15.29, 'roll': -2.44, 'pres': 165}
{'lipoC2': 7.69, 'lipoC3S1': 3.82, 'temp': 28.56, 'lipoC3S3': 11.56, 'lipoC3S2': 7.65, 'rot1': 287, 'rot0': 284, 'rot3': 178, 'rot2': 142, 'state': 'normal', 'yaw': 16.02, 'datetime': '2018-10-05 20:20:02.603479', 'mgs': 0, 'volt': 0.8057, 'depth': 0.089, 'time': 92, 'pitch': -15.29, 'roll': -2.56, 'pres': 165}
{'lipoC2': 7.69, 'lipoC3S1': 3.82, 'temp': 28.63, 'lipoC3S3': 11.56, 'lipoC3S2': 7.65, 'rot1': 287, 'rot0': 284, 'rot3': 178, 'rot2': 142, 'state': 'normal', 'yaw': 15.94, 'datetime': '2018-10-05 20:20:02.709121', 'mgs': 1, 'volt': 0.8057, 'depth': 0.089, 'time': 92, 'pitch': -15.3, 'roll': -2.58, 'pres': 165}
{'lipoC2': 7.69, 'lipoC3S1': 3.82, 'temp': 28.56, 'lipoC3S3': 11.56, 'lipoC3S2': 7.65, 'rot1': 0, 'rot0': 0, 'rot3': 0, 'rot2': 0, 'state': 'normal', 'yaw': 0.0, 'datetime': '2018-10-05 20:20:08.742015', 'mgs': 0, 'volt': 0.8154, 'depth': 0.241, 'time': 1, 'pitch': -16.86, 'roll': -2.63, 'pres': 167}
{'lipoC2': 7.69, 'lipoC3S1': 3.82, 'temp': 28.56, 'lipoC3S3': 11.56, 'lipoC3S2': 7.65, 'rot1': 0, 'rot0': 0, 'rot3': 0, 'rot2': 0, 'state': 'normal', 'yaw': -0.2, 'datetime': '2018-10-05 20:20:11.783644', 'mgs': 0, 'volt': 0.8154, 'depth': 0.241, 'time': 1, 'pitch': -16.87, 'roll': -2.58, 'pres': 167}
{'lipoC2': 7.69, 'lipoC3S1': 3.83, 'temp': 28.56, 'lipoC3S3': 11.56, 'lipoC3S2': 7.66, 'rot1': 0, 'rot0': 0, 'rot3': 0, 'rot2': 0, 'state': 'normal', 'yaw': -0.45, 'datetime': '2018-10-05 20:20:11.819118', 'mgs': 0, 'volt': 0.8154, 'depth': 0.241, 'time': 1, 'pitch': -16.92, 'roll': -2.54, 'pres': 167}
{'lipoC2': 7.69, 'lipoC3S1': 3.83, 'temp': 28.56, 'lipoC3S3': 11.56, 'lipoC3S2': 7.65, 'rot1': 0, 'rot0': 0, 'rot3': 0, 'rot2': 0, 'state': 'normal', 'yaw': -0.67, 'datetime': '2018-10-05 20:20:11.835273', 'mgs': 0, 'volt': 0.8154, 'depth': 0.241, 'time': 1, 'pitch': -17.06, 'roll': -2.6, 'pres': 167}
{'lipoC2': 7.69, 'lipoC3S1': 3.83, 'temp': 28.56, 'lipoC3S3': 11.56, 'lipoC3S2': 7.65, 'rot1': 0, 'rot0': 0, 'rot3': 0, 'rot2': 0, 'state': 'normal', 'yaw': -0.79, 'datetime': '2018-10-05 20:20:11.851242', 'mgs': 0, 'volt': 0.8154, 'depth': 0.241, 'time': 1, 'pitch': -17.07, 'roll': -2.78, 'pres': 167}
{'lipoC2': 7.69, 'lipoC3S1': 3.83, 'temp': 28.63, 'lipoC3S3': 11.56, 'lipoC3S2': 7.65, 'rot1': 0, 'rot0': 0, 'rot3': 0, 'rot2': 0, 'state': 'normal', 'yaw': -0.93, 'datetime': '2018-10-05 20:20:11.867386', 'mgs': 0, 'volt': 0.8154, 'depth': 0.241, 'time': 1, 'pitch': -16.97, 'roll': -3.06, 'pres': 167}
{'lipoC2': 7.69, 'lipoC3S1': 3.83, 'temp': 28.63, 'lipoC3S3': 11.56, 'lipoC3S2': 7.65, 'rot1': 0, 'rot0': 0, 'rot3': 0, 'rot2': 0, 'state': 'normal', 'yaw': -1.18, 'datetime': '2018-10-05 20:20:11.877312', 'mgs': 0, 'volt': 0.8154, 'depth': 0.241, 'time': 1, 'pitch': -17.08, 'roll': -3.32, 'pres': 167}
{'lipoC2': 7.69, 'lipoC3S1': 3.82, 'temp': 28.63, 'lipoC3S3': 11.56, 'lipoC3S2': 7.65, 'rot1': 0, 'rot0': 0, 'rot3': 0, 'rot2': 0, 'state': 'normal', 'yaw': -1.41, 'datetime': '2018-10-05 20:20:11.893180', 'mgs': 0, 'volt': 0.8154, 'depth': 0.241, 'time': 1, 'pitch': -17.3, 'roll': -3.6, 'pres': 167}
{'lipoC2': 7.69, 'lipoC3S1': 3.82, 'temp': 28.63, 'lipoC3S3': 11.56, 'lipoC3S2': 7.65, 'rot1': 0, 'rot0': 0, 'rot3': 0, 'rot2': 0, 'state': 'normal', 'yaw': -1.5, 'datetime': '2018-10-05 20:20:11.909105', 'mgs': 0, 'volt': 0.8154, 'depth': 0.241, 'time': 2, 'pitch': -17.4, 'roll': -3.92, 'pres': 167}
{'lipoC2': 7.69, 'lipoC3S1': 3.82, 'temp': 28.56, 'lipoC3S3': 11.56, 'lipoC3S2': 7.65, 'rot1': 0, 'rot0': 0, 'rot3': 0, 'rot2': 0, 'state': 'normal', 'yaw': -1.57, 'datetime': '2018-10-05 20:20:11.919017', 'mgs': 0, 'volt': 0.8154, 'depth': 0.241, 'time': 2, 'pitch': -17.54, 'roll': -4.02, 'pres': 167}
{'lipoC2': 7.69, 'lipoC3S1': 3.82, 'temp': 28.56, 'lipoC3S3': 11.56, 'lipoC3S2': 7.65, 'rot1': 0, 'rot0': 0, 'rot3': 0, 'rot2': 0, 'state': 'normal', 'yaw': -1.66, 'datetime': '2018-10-05 20:20:11.934855', 'mgs': 0, 'volt': 0.8154, 'depth': 0.241, 'time': 2, 'pitch': -17.56, 'roll': -3.88, 'pres': 167}
{'lipoC2': 7.69, 'lipoC3S1': 3.82, 'temp': 28.56, 'lipoC3S3': 11.56, 'lipoC3S2': 7.65, 'rot1': 0, 'rot0': 0, 'rot3': 0, 'rot2': 0, 'state': 'normal', 'yaw': -1.75, 'datetime': '2018-10-05 20:20:11.950749', 'mgs': 0, 'volt': 0.8154, 'depth': 0.241, 'time': 2, 'pitch': -17.45, 'roll': -3.59, 'pres': 167}
{'lipoC2': 7.69, 'lipoC3S1': 3.83, 'temp': 28.56, 'lipoC3S3': 11.56, 'lipoC3S2': 7.65, 'rot1': 0, 'rot0': 0, 'rot3': 0, 'rot2': 0, 'state': 'normal', 'yaw': -1.82, 'datetime': '2018-10-05 20:20:11.960659', 'mgs': 0, 'volt': 0.8203, 'depth': 0.317, 'time': 2, 'pitch': -17.41, 'roll': -3.29, 'pres': 168}
{'lipoC2': 7.69, 'lipoC3S1': 3.83, 'temp': 28.56, 'lipoC3S3': 11.56, 'lipoC3S2': 7.66, 'rot1': 0, 'rot0': 0, 'rot3': 0, 'rot2': 0, 'state': 'normal', 'yaw': -1.82, 'datetime': '2018-10-05 20:20:11.976640', 'mgs': 0, 'volt': 0.8154, 'depth': 0.241, 'time': 2, 'pitch': -17.41, 'roll': -3.08, 'pres': 167}
{'lipoC2': 7.69, 'lipoC3S1': 3.83, 'temp': 28.63, 'lipoC3S3': 11.56, 'lipoC3S2': 7.65, 'rot1': 0, 'rot0': 0, 'rot3': 0, 'rot2': 0, 'state': 'normal', 'yaw': -1.76, 'datetime': '2018-10-05 20:20:11.992658', 'mgs': 0, 'volt': 0.8203, 'depth': 0.317, 'time': 2, 'pitch': -17.47, 'roll': -2.97, 'pres': 168}
{'lipoC2': 7.69, 'lipoC3S1': 3.83, 'temp': 28.63, 'lipoC3S3': 11.56, 'lipoC3S2': 7.65, 'rot1': 0, 'rot0': 0, 'rot3': 0, 'rot2': 0, 'state': 'normal', 'yaw': -1.65, 'datetime': '2018-10-05 20:20:12.002616', 'mgs': 0, 'volt': 0.8203, 'depth': 0.317, 'time': 2, 'pitch': -17.61, 'roll': -2.89, 'pres': 168}
{'lipoC2': 7.69, 'lipoC3S1': 3.83, 'temp': 28.63, 'lipoC3S3': 11.56, 'lipoC3S2': 7.65, 'rot1': 0, 'rot0': 0, 'rot3': 0, 'rot2': 0, 'state': 'normal', 'yaw': -1.6, 'datetime': '2018-10-05 20:20:12.018523', 'mgs': 0, 'volt': 0.8203, 'depth': 0.317, 'time': 2, 'pitch': -17.66, 'roll': -2.72, 'pres': 168}
{'lipoC2': 7.69, 'lipoC3S1': 3.82, 'temp': 28.63, 'lipoC3S3': 11.56, 'lipoC3S2': 7.65, 'rot1': 0, 'rot0': 0, 'rot3': 0, 'rot2': 0, 'state': 'normal', 'yaw': -1.66, 'datetime': '2018-10-05 20:20:12.034488', 'mgs': 0, 'volt': 0.8203, 'depth': 0.317, 'time': 3, 'pitch': -17.5, 'roll': -2.47, 'pres': 168}
{'lipoC2': 7.69, 'lipoC3S1': 3.82, 'temp': 28.63, 'lipoC3S3': 11.56, 'lipoC3S2': 7.65, 'rot1': 0, 'rot0': 0, 'rot3': 0, 'rot2': 0, 'state': 'normal', 'yaw': -1.86, 'datetime': '2018-10-05 20:20:12.046734', 'mgs': 0, 'volt': 0.8154, 'depth': 0.241, 'time': 3, 'pitch': -17.4, 'roll': -2.25, 'pres': 167}
{'lipoC2': 7.69, 'lipoC3S1': 3.82, 'temp': 28.56, 'lipoC3S3': 11.56, 'lipoC3S2': 7.65, 'rot1': 0, 'rot0': 0, 'rot3': 0, 'rot2': 0, 'state': 'normal', 'yaw': -2.08, 'datetime': '2018-10-05 20:20:12.062746', 'mgs': 0, 'volt': 0.8203, 'depth': 0.317, 'time': 3, 'pitch': -17.52, 'roll': -2.16, 'pres': 168}
{'lipoC2': 7.69, 'lipoC3S1': 3.82, 'temp': 28.56, 'lipoC3S3': 11.56, 'lipoC3S2': 7.65, 'rot1': 0, 'rot0': 0, 'rot3': 0, 'rot2': 0, 'state': 'normal', 'yaw': -2.23, 'datetime': '2018-10-05 20:20:12.078683', 'mgs': 0, 'volt': 0.8203, 'depth': 0.317, 'time': 3, 'pitch': -17.69, 'roll': -2.28, 'pres': 168}
{'lipoC2': 7.69, 'lipoC3S1': 3.83, 'temp': 28.63, 'lipoC3S3': 11.56, 'lipoC3S2': 7.66, 'rot1': 0, 'rot0': 0, 'rot3': 0, 'rot2': 0, 'state': 'normal', 'yaw': -2.26, 'datetime': '2018-10-05 20:20:12.088627', 'mgs': 0, 'volt': 0.8203, 'depth': 0.317, 'time': 3, 'pitch': -17.67, 'roll': -2.51, 'pres': 168}
{'lipoC2': 7.69, 'lipoC3S1': 3.83, 'temp': 28.63, 'lipoC3S3': 11.56, 'lipoC3S2': 7.65, 'rot1': 0, 'rot0': 0, 'rot3': 0, 'rot2': 0, 'state': 'normal', 'yaw': -2.34, 'datetime': '2018-10-05 20:20:12.104491', 'mgs': 0, 'volt': 0.8203, 'depth': 0.317, 'time': 3, 'pitch': -17.53, 'roll': -2.68, 'pres': 168}
{'lipoC2': 7.69, 'lipoC3S1': 3.83, 'temp': 28.63, 'lipoC3S3': 11.56, 'lipoC3S2': 7.66, 'rot1': 0, 'rot0': 0, 'rot3': 0, 'rot2': 0, 'state': 'normal', 'yaw': -2.5, 'datetime': '2018-10-05 20:20:12.120388', 'mgs': 0, 'volt': 0.8203, 'depth': 0.317, 'time': 3, 'pitch': -17.46, 'roll': -2.76, 'pres': 168}
{'lipoC2': 7.69, 'lipoC3S1': 3.83, 'temp': 28.63, 'lipoC3S3': 11.56, 'lipoC3S2': 7.65, 'rot1': 0, 'rot0': 0, 'rot3': 0, 'rot2': 0, 'state': 'normal', 'yaw': -2.59, 'datetime': '2018-10-05 20:20:12.130311', 'mgs': 0, 'volt': 0.8154, 'depth': 0.241, 'time': 3, 'pitch': -17.55, 'roll': -2.82, 'pres': 167}
{'lipoC2': 7.69, 'lipoC3S1': 3.83, 'temp': 28.63, 'lipoC3S3': 11.56, 'lipoC3S2': 7.65, 'rot1': 0, 'rot0': 0, 'rot3': 0, 'rot2': 0, 'state': 'normal', 'yaw': -2.52, 'datetime': '2018-10-05 20:20:12.146217', 'mgs': 0, 'volt': 0.8203, 'depth': 0.317, 'time': 3, 'pitch': -17.53, 'roll': -2.94, 'pres': 168}
{'lipoC2': 7.69, 'lipoC3S1': 3.82, 'temp': 28.63, 'lipoC3S3': 11.56, 'lipoC3S2': 7.65, 'rot1': 0, 'rot0': 0, 'rot3': 0, 'rot2': 0, 'state': 'normal', 'yaw': -2.34, 'datetime': '2018-10-05 20:20:12.162122', 'mgs': 0, 'volt': 0.8154, 'depth': 0.241, 'time': 3, 'pitch': -17.37, 'roll': -3.05, 'pres': 167}
{'lipoC2': 7.69, 'lipoC3S1': 3.82, 'temp': 28.63, 'lipoC3S3': 11.56, 'lipoC3S2': 7.65, 'rot1': 0, 'rot0': 0, 'rot3': 0, 'rot2': 0, 'state': 'normal', 'yaw': -2.25, 'datetime': '2018-10-05 20:20:12.172082', 'mgs': 0, 'volt': 0.8154, 'depth': 0.241, 'time': 4, 'pitch': -17.3, 'roll': -3.06, 'pres': 167}
{'lipoC2': 7.69, 'lipoC3S1': 3.82, 'temp': 28.63, 'lipoC3S3': 11.56, 'lipoC3S2': 7.65, 'rot1': 0, 'rot0': 0, 'rot3': 0, 'rot2': 0, 'state': 'normal', 'yaw': -2.25, 'datetime': '2018-10-05 20:20:12.187968', 'mgs': 0, 'volt': 0.8203, 'depth': 0.317, 'time': 4, 'pitch': -17.3, 'roll': -2.9, 'pres': 168}
{'lipoC2': 7.69, 'lipoC3S1': 3.82, 'temp': 28.63, 'lipoC3S3': 11.56, 'lipoC3S2': 7.65, 'rot1': 0, 'rot0': 0, 'rot3': 0, 'rot2': 0, 'state': 'normal', 'yaw': -2.14, 'datetime': '2018-10-05 20:20:12.203920', 'mgs': 0, 'volt': 0.8203, 'depth': 0.317, 'time': 4, 'pitch': -17.3, 'roll': -2.76, 'pres': 168}
{'lipoC2': 7.69, 'lipoC3S1': 3.82, 'temp': 28.63, 'lipoC3S3': 11.56, 'lipoC3S2': 7.65, 'rot1': 0, 'rot0': 0, 'rot3': 0, 'rot2': 0, 'state': 'normal', 'yaw': -1.86, 'datetime': '2018-10-05 20:20:12.213849', 'mgs': 0, 'volt': 0.8154, 'depth': 0.241, 'time': 4, 'pitch': -17.28, 'roll': -2.65, 'pres': 167}
{'lipoC2': 7.69, 'lipoC3S1': 3.83, 'temp': 28.63, 'lipoC3S3': 11.56, 'lipoC3S2': 7.66, 'rot1': 0, 'rot0': 0, 'rot3': 0, 'rot2': 0, 'state': 'normal', 'yaw': -1.54, 'datetime': '2018-10-05 20:20:12.229741', 'mgs': 0, 'volt': 0.8203, 'depth': 0.317, 'time': 4, 'pitch': -17.28, 'roll': -2.47, 'pres': 168}
{'lipoC2': 7.69, 'lipoC3S1': 3.83, 'temp': 28.63, 'lipoC3S3': 11.56, 'lipoC3S2': 7.65, 'rot1': 0, 'rot0': 0, 'rot3': 0, 'rot2': 0, 'state': 'normal', 'yaw': -1.34, 'datetime': '2018-10-05 20:20:12.245771', 'mgs': 0, 'volt': 0.8203, 'depth': 0.317, 'time': 4, 'pitch': -17.38, 'roll': -2.13, 'pres': 168}
{'lipoC2': 7.69, 'lipoC3S1': 3.83, 'temp': 28.63, 'lipoC3S3': 11.56, 'lipoC3S2': 7.66, 'rot1': 0, 'rot0': 0, 'rot3': 0, 'rot2': 0, 'state': 'normal', 'yaw': -1.34, 'datetime': '2018-10-05 20:20:12.255693', 'mgs': 0, 'volt': 0.8203, 'depth': 0.317, 'time': 4, 'pitch': -17.52, 'roll': -1.75, 'pres': 168}
{'lipoC2': 7.69, 'lipoC3S1': 3.83, 'temp': 28.63, 'lipoC3S3': 11.56, 'lipoC3S2': 7.66, 'rot1': 0, 'rot0': 0, 'rot3': 0, 'rot2': 0, 'state': 'normal', 'yaw': -1.29, 'datetime': '2018-10-05 20:20:12.271579', 'mgs': 0, 'volt': 0.8203, 'depth': 0.317, 'time': 4, 'pitch': -17.55, 'roll': -1.54, 'pres': 168}
{'lipoC2': 7.69, 'lipoC3S1': 3.83, 'temp': 28.63, 'lipoC3S3': 11.56, 'lipoC3S2': 7.65, 'rot1': 0, 'rot0': 0, 'rot3': 0, 'rot2': 0, 'state': 'normal', 'yaw': -1.07, 'datetime': '2018-10-05 20:20:12.287505', 'mgs': 0, 'volt': 0.8203, 'depth': 0.317, 'time': 4, 'pitch': -17.55, 'roll': -1.6, 'pres': 168}
{'lipoC2': 7.69, 'lipoC3S1': 3.82, 'temp': 28.63, 'lipoC3S3': 11.56, 'lipoC3S2': 7.65, 'rot1': 0, 'rot0': 0, 'rot3': 0, 'rot2': 0, 'state': 'normal', 'yaw': -0.87, 'datetime': '2018-10-05 20:20:12.297447', 'mgs': 0, 'volt': 0.8203, 'depth': 0.317, 'time': 4, 'pitch': -17.62, 'roll': -1.79, 'pres': 168}
{'lipoC2': 7.69, 'lipoC3S1': 3.82, 'temp': 28.63, 'lipoC3S3': 11.56, 'lipoC3S2': 7.65, 'rot1': 0, 'rot0': 0, 'rot3': 0, 'rot2': 0, 'state': 'normal', 'yaw': -0.8, 'datetime': '2018-10-05 20:20:12.313354', 'mgs': 0, 'volt': 0.8203, 'depth': 0.317, 'time': 5, 'pitch': -17.64, 'roll': -1.97, 'pres': 168}
{'lipoC2': 7.69, 'lipoC3S1': 3.82, 'temp': 28.63, 'lipoC3S3': 11.56, 'lipoC3S2': 7.65, 'rot1': 0, 'rot0': 0, 'rot3': 0, 'rot2': 0, 'state': 'normal', 'yaw': -0.8, 'datetime': '2018-10-05 20:20:12.329296', 'mgs': 0, 'volt': 0.8203, 'depth': 0.317, 'time': 5, 'pitch': -17.53, 'roll': -2.14, 'pres': 168}
{'lipoC2': 7.69, 'lipoC3S1': 3.82, 'temp': 28.63, 'lipoC3S3': 11.56, 'lipoC3S2': 7.65, 'rot1': 0, 'rot0': 0, 'rot3': 0, 'rot2': 0, 'state': 'normal', 'yaw': -0.81, 'datetime': '2018-10-05 20:20:12.339217', 'mgs': 0, 'volt': 0.8203, 'depth': 0.317, 'time': 5, 'pitch': -17.45, 'roll': -2.35, 'pres': 168}
{'lipoC2': 7.69, 'lipoC3S1': 3.82, 'temp': 28.56, 'lipoC3S3': 11.56, 'lipoC3S2': 7.65, 'rot1': 0, 'rot0': 0, 'rot3': 0, 'rot2': 0, 'state': 'normal', 'yaw': -0.8, 'datetime': '2018-10-05 20:20:12.355065', 'mgs': 0, 'volt': 0.8203, 'depth': 0.317, 'time': 5, 'pitch': -17.42, 'roll': -2.66, 'pres': 168}
{'lipoC2': 7.69, 'lipoC3S1': 3.83, 'temp': 28.56, 'lipoC3S3': 11.56, 'lipoC3S2': 7.65, 'rot1': 0, 'rot0': 0, 'rot3': 0, 'rot2': 0, 'state': 'normal', 'yaw': -0.8, 'datetime': '2018-10-05 20:20:12.370951', 'mgs': 0, 'volt': 0.8203, 'depth': 0.317, 'time': 5, 'pitch': -17.48, 'roll': -2.97, 'pres': 168}
{'lipoC2': 7.69, 'lipoC3S1': 3.82, 'temp': 28.63, 'lipoC3S3': 11.56, 'lipoC3S2': 7.65, 'rot1': 0, 'rot0': 0, 'rot3': 0, 'rot2': 0, 'state': 'normal', 'yaw': -0.79, 'datetime': '2018-10-05 20:20:12.380865', 'mgs': 0, 'volt': 0.8203, 'depth': 0.317, 'time': 5, 'pitch': -17.64, 'roll': -3.28, 'pres': 168}
{'lipoC2': 7.69, 'lipoC3S1': 3.83, 'temp': 28.63, 'lipoC3S3': 11.56, 'lipoC3S2': 7.65, 'rot1': 0, 'rot0': 0, 'rot3': 0, 'rot2': 0, 'state': 'normal', 'yaw': -0.7, 'datetime': '2018-10-05 20:20:12.396725', 'mgs': 0, 'volt': 0.8203, 'depth': 0.317, 'time': 5, 'pitch': -17.83, 'roll': -3.57, 'pres': 168}
{'lipoC2': 7.69, 'lipoC3S1': 3.83, 'temp': 28.56, 'lipoC3S3': 11.56, 'lipoC3S2': 7.65, 'rot1': 0, 'rot0': 0, 'rot3': 0, 'rot2': 0, 'state': 'normal', 'yaw': -0.54, 'datetime': '2018-10-05 20:20:12.412680', 'mgs': 0, 'volt': 0.8203, 'depth': 0.317, 'time': 5, 'pitch': -17.97, 'roll': -3.75, 'pres': 168}
{'lipoC2': 7.69, 'lipoC3S1': 3.83, 'temp': 28.56, 'lipoC3S3': 11.56, 'lipoC3S2': 7.65, 'rot1': 0, 'rot0': 0, 'rot3': 0, 'rot2': 0, 'state': 'normal', 'yaw': -0.37, 'datetime': '2018-10-05 20:20:12.422736', 'mgs': 0, 'volt': 0.8203, 'depth': 0.317, 'time': 5, 'pitch': -18.09, 'roll': -3.81, 'pres': 168}
{'lipoC2': 7.68, 'lipoC3S1': 3.78, 'temp': 28.56, 'lipoC3S3': 11.5, 'lipoC3S2': 7.58, 'rot1': 0, 'rot0': 0, 'rot3': 0, 'rot2': 1, 'state': 'normal', 'yaw': -0.23, 'datetime': '2018-10-05 20:20:12.438618', 'mgs': 0, 'volt': 0.8398, 'depth': 0.623, 'time': 6, 'pitch': -18.11, 'roll': -3.76, 'pres': 172}
{'lipoC2': 7.68, 'lipoC3S1': 3.79, 'temp': 28.63, 'lipoC3S3': 11.51, 'lipoC3S2': 7.59, 'rot1': 0, 'rot0': 0, 'rot3': 1, 'rot2': 1, 'state': 'normal', 'yaw': -0.14, 'datetime': '2018-10-05 20:20:12.454498', 'mgs': 0, 'volt': 0.835, 'depth': 0.546, 'time': 6, 'pitch': -17.86, 'roll': -3.49, 'pres': 171}
{'lipoC2': 7.68, 'lipoC3S1': 3.78, 'temp': 28.63, 'lipoC3S3': 11.51, 'lipoC3S2': 7.6, 'rot1': 0, 'rot0': 0, 'rot3': 2, 'rot2': 2, 'state': 'normal', 'yaw': -0.05, 'datetime': '2018-10-05 20:20:12.464395', 'mgs': 0, 'volt': 0.835, 'depth': 0.546, 'time': 6, 'pitch': -17.36, 'roll': -3.18, 'pres': 171}
{'lipoC2': 7.68, 'lipoC3S1': 3.78, 'temp': 28.63, 'lipoC3S3': 11.5, 'lipoC3S2': 7.59, 'rot1': 0, 'rot0': 0, 'rot3': 3, 'rot2': 3, 'state': 'normal', 'yaw': 0.12, 'datetime': '2018-10-05 20:20:12.480277', 'mgs': 0, 'volt': 0.835, 'depth': 0.546, 'time': 6, 'pitch': -16.73, 'roll': -2.85, 'pres': 171}
{'lipoC2': 7.69, 'lipoC3S1': 3.79, 'temp': 28.63, 'lipoC3S3': 11.5, 'lipoC3S2': 7.59, 'rot1': 0, 'rot0': 0, 'rot3': 4, 'rot2': 4, 'state': 'normal', 'yaw': 0.33, 'datetime': '2018-10-05 20:20:12.496111', 'mgs': 0, 'volt': 0.8301, 'depth': 0.47, 'time': 6, 'pitch': -16.02, 'roll': -2.56, 'pres': 170}
{'lipoC2': 7.69, 'lipoC3S1': 3.79, 'temp': 28.56, 'lipoC3S3': 11.51, 'lipoC3S2': 7.59, 'rot1': 0, 'rot0': 0, 'rot3': 5, 'rot2': 5, 'state': 'normal', 'yaw': 0.44, 'datetime': '2018-10-05 20:20:12.506066', 'mgs': 0, 'volt': 0.8301, 'depth': 0.47, 'time': 6, 'pitch': -15.49, 'roll': -2.52, 'pres': 170}
{'lipoC2': 7.69, 'lipoC3S1': 3.78, 'temp': 28.56, 'lipoC3S3': 11.5, 'lipoC3S2': 7.59, 'rot1': 0, 'rot0': 0, 'rot3': 6, 'rot2': 5, 'state': 'normal', 'yaw': 0.39, 'datetime': '2018-10-05 20:20:12.521911', 'mgs': 0, 'volt': 0.8105, 'depth': 0.165, 'time': 6, 'pitch': -15.16, 'roll': -2.56, 'pres': 166}
{'lipoC2': 7.69, 'lipoC3S1': 3.79, 'temp': 28.56, 'lipoC3S3': 11.5, 'lipoC3S2': 7.59, 'rot1': 0, 'rot0': 0, 'rot3': 8, 'rot2': 6, 'state': 'normal', 'yaw': 0.23, 'datetime': '2018-10-05 20:20:12.537829', 'mgs': 0, 'volt': 0.8105, 'depth': 0.165, 'time': 6, 'pitch': -15.1, 'roll': -2.71, 'pres': 166}
{'lipoC2': 7.68, 'lipoC3S1': 3.82, 'temp': 28.56, 'lipoC3S3': 11.5, 'lipoC3S2': 7.62, 'rot1': 0, 'rot0': 0, 'rot3': 9, 'rot2': 7, 'state': 'normal', 'yaw': 0.13, 'datetime': '2018-10-05 20:20:12.547737', 'mgs': 0, 'volt': 0.8105, 'depth': 0.165, 'time': 6, 'pitch': -15.11, 'roll': -2.84, 'pres': 166}
{'lipoC2': 7.68, 'lipoC3S1': 3.79, 'temp': 28.56, 'lipoC3S3': 11.51, 'lipoC3S2': 7.61, 'rot1': 0, 'rot0': 0, 'rot3': 10, 'rot2': 8, 'state': 'normal', 'yaw': 0.14, 'datetime': '2018-10-05 20:20:12.563640', 'mgs': 0, 'volt': 0.8154, 'depth': 0.241, 'time': 6, 'pitch': -15.27, 'roll': -3.02, 'pres': 167}
{'lipoC2': 7.69, 'lipoC3S1': 3.8, 'temp': 28.56, 'lipoC3S3': 11.51, 'lipoC3S2': 7.6, 'rot1': 0, 'rot0': 0, 'rot3': 11, 'rot2': 9, 'state': 'normal', 'yaw': 0.18, 'datetime': '2018-10-05 20:20:12.579567', 'mgs': 0, 'volt': 0.8105, 'depth': 0.165, 'time': 7, 'pitch': -15.59, 'roll': -3.25, 'pres': 166}
{'lipoC2': 7.68, 'lipoC3S1': 3.81, 'temp': 28.56, 'lipoC3S3': 11.48, 'lipoC3S2': 7.62, 'rot1': 0, 'rot0': 0, 'rot3': 12, 'rot2': 10, 'state': 'normal', 'yaw': 0.24, 'datetime': '2018-10-05 20:20:12.589572', 'mgs': 0, 'volt': 0.8057, 'depth': 0.089, 'time': 7, 'pitch': -15.85, 'roll': -3.54, 'pres': 165}
{'lipoC2': 7.69, 'lipoC3S1': 3.79, 'temp': 28.56, 'lipoC3S3': 11.52, 'lipoC3S2': 7.6, 'rot1': 0, 'rot0': 0, 'rot3': 14, 'rot2': 11, 'state': 'normal', 'yaw': 0.15, 'datetime': '2018-10-05 20:20:12.605487', 'mgs': 0, 'volt': 0.8105, 'depth': 0.165, 'time': 7, 'pitch': -15.93, 'roll': -3.82, 'pres': 166}
{'lipoC2': 7.68, 'lipoC3S1': 3.79, 'temp': 28.56, 'lipoC3S3': 11.5, 'lipoC3S2': 7.6, 'rot1': 0, 'rot0': 0, 'rot3': 15, 'rot2': 12, 'state': 'normal', 'yaw': -0.1, 'datetime': '2018-10-05 20:20:12.621580', 'mgs': 0, 'volt': 0.791, 'depth': -0.14, 'time': 7, 'pitch': -15.82, 'roll': -3.9, 'pres': 162}
{'lipoC2': 7.69, 'lipoC3S1': 3.79, 'temp': 28.56, 'lipoC3S3': 11.51, 'lipoC3S2': 7.6, 'rot1': 0, 'rot0': 0, 'rot3': 16, 'rot2': 13, 'state': 'normal', 'yaw': -0.41, 'datetime': '2018-10-05 20:20:12.631587', 'mgs': 0, 'volt': 0.8154, 'depth': 0.241, 'time': 7, 'pitch': -15.48, 'roll': -3.95, 'pres': 167}
{'lipoC2': 7.68, 'lipoC3S1': 3.81, 'temp': 28.63, 'lipoC3S3': 11.51, 'lipoC3S2': 7.59, 'rot1': 0, 'rot0': 0, 'rot3': 17, 'rot2': 14, 'state': 'normal', 'yaw': -0.78, 'datetime': '2018-10-05 20:20:12.647533', 'mgs': 0, 'volt': 0.8008, 'depth': 0.012, 'time': 7, 'pitch': -14.94, 'roll': -4.03, 'pres': 164}
{'lipoC2': 7.68, 'lipoC3S1': 3.8, 'temp': 28.63, 'lipoC3S3': 11.51, 'lipoC3S2': 7.63, 'rot1': 0, 'rot0': 0, 'rot3': 18, 'rot2': 14, 'state': 'normal', 'yaw': -1.11, 'datetime': '2018-10-05 20:20:12.663509', 'mgs': 0, 'volt': 0.8154, 'depth': 0.241, 'time': 7, 'pitch': -14.54, 'roll': -4.09, 'pres': 167}
{'lipoC2': 7.69, 'lipoC3S1': 3.81, 'temp': 28.63, 'lipoC3S3': 11.5, 'lipoC3S2': 7.59, 'rot1': 0, 'rot0': 0, 'rot3': 20, 'rot2': 15, 'state': 'normal', 'yaw': -1.44, 'datetime': '2018-10-05 20:20:12.673487', 'mgs': 0, 'volt': 0.8008, 'depth': 0.012, 'time': 7, 'pitch': -14.29, 'roll': -4.11, 'pres': 164}
{'lipoC2': 7.68, 'lipoC3S1': 3.8, 'temp': 28.63, 'lipoC3S3': 11.47, 'lipoC3S2': 7.62, 'rot1': 0, 'rot0': 0, 'rot3': 21, 'rot2': 16, 'state': 'normal', 'yaw': -1.82, 'datetime': '2018-10-05 20:20:12.689432', 'mgs': 0, 'volt': 0.8154, 'depth': 0.241, 'time': 7, 'pitch': -14.18, 'roll': -4.05, 'pres': 167}
{'lipoC2': 7.68, 'lipoC3S1': 3.81, 'temp': 28.56, 'lipoC3S3': 11.47, 'lipoC3S2': 7.58, 'rot1': 0, 'rot0': 0, 'rot3': 22, 'rot2': 17, 'state': 'normal', 'yaw': -2.09, 'datetime': '2018-10-05 20:20:12.705423', 'mgs': 0, 'volt': 0.8057, 'depth': 0.089, 'time': 7, 'pitch': -14.2, 'roll': -4.04, 'pres': 165}
{'lipoC2': 7.68, 'lipoC3S1': 3.8, 'temp': 28.56, 'lipoC3S3': 11.51, 'lipoC3S2': 7.62, 'rot1': 0, 'rot0': 0, 'rot3': 23, 'rot2': 18, 'state': 'normal', 'yaw': -2.3, 'datetime': '2018-10-05 20:20:12.715372', 'mgs': 0, 'volt': 0.8154, 'depth': 0.241, 'time': 8, 'pitch': -14.2, 'roll': -4.11, 'pres': 167}
{'lipoC2': 7.68, 'lipoC3S1': 3.8, 'temp': 28.56, 'lipoC3S3': 11.47, 'lipoC3S2': 7.62, 'rot1': 0, 'rot0': 0, 'rot3': 24, 'rot2': 19, 'state': 'normal', 'yaw': -2.45, 'datetime': '2018-10-05 20:20:12.731307', 'mgs': 0, 'volt': 0.8154, 'depth': 0.241, 'time': 8, 'pitch': -14.24, 'roll': -4.2, 'pres': 167}
{'lipoC2': 7.69, 'lipoC3S1': 3.8, 'temp': 28.63, 'lipoC3S3': 11.51, 'lipoC3S2': 7.6, 'rot1': 0, 'rot0': 0, 'rot3': 26, 'rot2': 20, 'state': 'normal', 'yaw': -2.57, 'datetime': '2018-10-05 20:20:12.746763', 'mgs': 0, 'volt': 0.8154, 'depth': 0.241, 'time': 8, 'pitch': -14.28, 'roll': -4.25, 'pres': 167}
{'lipoC2': 7.69, 'lipoC3S1': 3.81, 'temp': 28.63, 'lipoC3S3': 11.47, 'lipoC3S2': 7.58, 'rot1': 0, 'rot0': 0, 'rot3': 27, 'rot2': 21, 'state': 'normal', 'yaw': -2.62, 'datetime': '2018-10-05 20:20:12.756136', 'mgs': 0, 'volt': 0.8057, 'depth': 0.089, 'time': 8, 'pitch': -14.29, 'roll': -4.21, 'pres': 165}
{'lipoC2': 7.68, 'lipoC3S1': 3.79, 'temp': 28.63, 'lipoC3S3': 11.5, 'lipoC3S2': 7.6, 'rot1': 0, 'rot0': 0, 'rot3': 28, 'rot2': 22, 'state': 'normal', 'yaw': -2.62, 'datetime': '2018-10-05 20:20:12.771525', 'mgs': 0, 'volt': 0.8008, 'depth': 0.012, 'time': 8, 'pitch': -14.23, 'roll': -4.05, 'pres': 164}
{'lipoC2': 7.69, 'lipoC3S1': 3.81, 'temp': 28.63, 'lipoC3S3': 11.48, 'lipoC3S2': 7.58, 'rot1': 0, 'rot0': 0, 'rot3': 29, 'rot2': 23, 'state': 'normal', 'yaw': -2.63, 'datetime': '2018-10-05 20:20:12.786992', 'mgs': 0, 'volt': 0.8057, 'depth': 0.089, 'time': 8, 'pitch': -14.16, 'roll': -3.78, 'pres': 165}
{'lipoC2': 7.68, 'lipoC3S1': 3.8, 'temp': 28.63, 'lipoC3S3': 11.51, 'lipoC3S2': 7.61, 'rot1': 0, 'rot0': 0, 'rot3': 30, 'rot2': 24, 'state': 'normal', 'yaw': -2.54, 'datetime': '2018-10-05 20:20:12.796581', 'mgs': 0, 'volt': 0.8203, 'depth': 0.317, 'time': 8, 'pitch': -14.14, 'roll': -3.63, 'pres': 168}
{'lipoC2': 7.69, 'lipoC3S1': 3.79, 'temp': 28.63, 'lipoC3S3': 11.5, 'lipoC3S2': 7.59, 'rot1': 0, 'rot0': 0, 'rot3': 31, 'rot2': 25, 'state': 'normal', 'yaw': -2.42, 'datetime': '2018-10-05 20:20:12.812176', 'mgs': 0, 'volt': 0.8057, 'depth': 0.089, 'time': 8, 'pitch': -14.14, 'roll': -3.57, 'pres': 165}
{'lipoC2': 7.68, 'lipoC3S1': 3.81, 'temp': 28.63, 'lipoC3S3': 11.46, 'lipoC3S2': 7.63, 'rot1': 0, 'rot0': 0, 'rot3': 33, 'rot2': 25, 'state': 'normal', 'yaw': -2.3, 'datetime': '2018-10-05 20:20:12.827624', 'mgs': 0, 'volt': 0.8154, 'depth': 0.241, 'time': 8, 'pitch': -14.13, 'roll': -3.6, 'pres': 167}
{'lipoC2': 7.69, 'lipoC3S1': 3.78, 'temp': 28.56, 'lipoC3S3': 11.48, 'lipoC3S2': 7.59, 'rot1': 0, 'rot0': 0, 'rot3': 34, 'rot2': 26, 'state': 'normal', 'yaw': -2.18, 'datetime': '2018-10-05 20:20:12.837040', 'mgs': 0, 'volt': 0.8057, 'depth': 0.089, 'time': 9, 'pitch': -14.12, 'roll': -3.68, 'pres': 165}
{'lipoC2': 7.68, 'lipoC3S1': 3.75, 'temp': 28.56, 'lipoC3S3': 11.38, 'lipoC3S2': 7.52, 'rot1': 0, 'rot0': 0, 'rot3': 35, 'rot2': 28, 'state': 'normal', 'yaw': -2.06, 'datetime': '2018-10-05 20:20:12.852405', 'mgs': 0, 'volt': 0.8887, 'depth': 1.385, 'time': 9, 'pitch': -14.06, 'roll': -3.79, 'pres': 182}
{'lipoC2': 7.68, 'lipoC3S1': 3.78, 'temp': 28.56, 'lipoC3S3': 11.44, 'lipoC3S2': 7.5, 'rot1': 1, 'rot0': 1, 'rot3': 36, 'rot2': 29, 'state': 'normal', 'yaw': -1.98, 'datetime': '2018-10-05 20:20:12.867856', 'mgs': 0, 'volt': 0.8154, 'depth': 0.241, 'time': 9, 'pitch': -13.65, 'roll': -3.87, 'pres': 167}
{'lipoC2': 7.69, 'lipoC3S1': 3.78, 'temp': 28.56, 'lipoC3S3': 11.42, 'lipoC3S2': 7.55, 'rot1': 2, 'rot0': 2, 'rot3': 37, 'rot2': 30, 'state': 'normal', 'yaw': -1.99, 'datetime': '2018-10-05 20:20:12.877283', 'mgs': 0, 'volt': 0.8545, 'depth': 0.851, 'time': 9, 'pitch': -12.78, 'roll': -3.77, 'pres': 175}
{'lipoC2': 7.68, 'lipoC3S1': 3.73, 'temp': 28.5, 'lipoC3S3': 11.4, 'lipoC3S2': 7.54, 'rot1': 3, 'rot0': 4, 'rot3': 39, 'rot2': 30, 'state': 'normal', 'yaw': -2.05, 'datetime': '2018-10-05 20:20:12.892692', 'mgs': 0, 'volt': 0.8301, 'depth': 0.47, 'time': 9, 'pitch': -11.6, 'roll': -3.52, 'pres': 170}
{'lipoC2': 7.68, 'lipoC3S1': 3.69, 'temp': 28.5, 'lipoC3S3': 11.42, 'lipoC3S2': 7.52, 'rot1': 4, 'rot0': 5, 'rot3': 40, 'rot2': 31, 'state': 'normal', 'yaw': -2.11, 'datetime': '2018-10-05 20:20:12.908120', 'mgs': 0, 'volt': 0.8398, 'depth': 0.623, 'time': 9, 'pitch': -10.68, 'roll': -3.37, 'pres': 172}
{'lipoC2': 7.68, 'lipoC3S1': 3.76, 'temp': 28.5, 'lipoC3S3': 11.46, 'lipoC3S2': 7.46, 'rot1': 5, 'rot0': 6, 'rot3': 41, 'rot2': 32, 'state': 'normal', 'yaw': -2.16, 'datetime': '2018-10-05 20:20:12.917568', 'mgs': 0, 'volt': 0.8447, 'depth': 0.699, 'time': 9, 'pitch': -9.92, 'roll': -3.31, 'pres': 173}
{'lipoC2': 7.67, 'lipoC3S1': 3.77, 'temp': 28.56, 'lipoC3S3': 11.25, 'lipoC3S2': 7.53, 'rot1': 6, 'rot0': 7, 'rot3': 42, 'rot2': 33, 'state': 'normal', 'yaw': -2.2, 'datetime': '2018-10-05 20:20:12.932956', 'mgs': 0, 'volt': 0.8447, 'depth': 0.699, 'time': 9, 'pitch': -9.18, 'roll': -3.36, 'pres': 173}
{'lipoC2': 7.68, 'lipoC3S1': 3.68, 'temp': 28.56, 'lipoC3S3': 11.39, 'lipoC3S2': 7.49, 'rot1': 8, 'rot0': 9, 'rot3': 44, 'rot2': 34, 'state': 'normal', 'yaw': -2.24, 'datetime': '2018-10-05 20:20:12.948399', 'mgs': 0, 'volt': 0.8545, 'depth': 0.851, 'time': 9, 'pitch': -8.52, 'roll': -3.49, 'pres': 175}
{'lipoC2': 7.68, 'lipoC3S1': 3.76, 'temp': 28.56, 'lipoC3S3': 11.3, 'lipoC3S2': 7.51, 'rot1': 9, 'rot0': 10, 'rot3': 45, 'rot2': 35, 'state': 'normal', 'yaw': -2.28, 'datetime': '2018-10-05 20:20:12.957895', 'mgs': 0, 'volt': 0.8594, 'depth': 0.928, 'time': 9, 'pitch': -7.9, 'roll': -3.77, 'pres': 176}
{'lipoC2': 7.68, 'lipoC3S1': 3.81, 'temp': 28.56, 'lipoC3S3': 11.4, 'lipoC3S2': 7.53, 'rot1': 10, 'rot0': 11, 'rot3': 46, 'rot2': 36, 'state': 'normal', 'yaw': -2.31, 'datetime': '2018-10-05 20:20:12.973669', 'mgs': 0, 'volt': 0.9131, 'depth': 1.767, 'time': 10, 'pitch': -7.42, 'roll': -4.13, 'pres': 187}
{'lipoC2': 7.67, 'lipoC3S1': 3.76, 'temp': 28.5, 'lipoC3S3': 11.39, 'lipoC3S2': 7.51, 'rot1': 11, 'rot0': 12, 'rot3': 47, 'rot2': 37, 'state': 'normal', 'yaw': -2.35, 'datetime': '2018-10-05 20:20:12.999447', 'mgs': 0, 'volt': 0.8643, 'depth': 1.004, 'time': 10, 'pitch': -7.01, 'roll': -4.51, 'pres': 177}
{'lipoC2': 7.68, 'lipoC3S1': 3.76, 'temp': 28.5, 'lipoC3S3': 11.38, 'lipoC3S2': 7.42, 'rot1': 12, 'rot0': 13, 'rot3': 48, 'rot2': 38, 'state': 'normal', 'yaw': -2.44, 'datetime': '2018-10-05 20:20:13.103382', 'mgs': 0, 'volt': 0.874, 'depth': 1.157, 'time': 10, 'pitch': -6.71, 'roll': -4.86, 'pres': 179}
{'lipoC2': 7.68, 'lipoC3S1': 3.72, 'temp': 28.5, 'lipoC3S3': 11.39, 'lipoC3S2': 7.52, 'rot1': 13, 'rot0': 14, 'rot3': 50, 'rot2': 39, 'state': 'normal', 'yaw': -2.58, 'datetime': '2018-10-05 20:20:13.207503', 'mgs': 0, 'volt': 0.8789, 'depth': 1.233, 'time': 10, 'pitch': -6.68, 'roll': -5.1, 'pres': 180}
{'lipoC2': 7.68, 'lipoC3S1': 3.74, 'temp': 28.56, 'lipoC3S3': 11.38, 'lipoC3S2': 7.51, 'rot1': 14, 'rot0': 15, 'rot3': 51, 'rot2': 40, 'state': 'normal', 'yaw': -2.69, 'datetime': '2018-10-05 20:20:13.311708', 'mgs': 0, 'volt': 0.835, 'depth': 0.546, 'time': 10, 'pitch': -6.94, 'roll': -5.3, 'pres': 171}
{'lipoC2': 7.67, 'lipoC3S1': 3.76, 'temp': 28.56, 'lipoC3S3': 11.36, 'lipoC3S2': 7.51, 'rot1': 15, 'rot0': 16, 'rot3': 52, 'rot2': 40, 'state': 'normal', 'yaw': -2.86, 'datetime': '2018-10-05 20:20:13.415675', 'mgs': 0, 'volt': 0.8984, 'depth': 1.538, 'time': 10, 'pitch': -7.51, 'roll': -5.48, 'pres': 184}
{'lipoC2': 7.69, 'lipoC3S1': 3.79, 'temp': 28.5, 'lipoC3S3': 11.39, 'lipoC3S2': 7.52, 'rot1': 16, 'rot0': 17, 'rot3': 53, 'rot2': 41, 'state': 'normal', 'yaw': -3.02, 'datetime': '2018-10-05 20:20:13.521055', 'mgs': 0, 'volt': 0.9131, 'depth': 1.767, 'time': 10, 'pitch': -8.13, 'roll': -5.53, 'pres': 187}
{'lipoC2': 7.68, 'lipoC3S1': 3.76, 'temp': 28.5, 'lipoC3S3': 11.26, 'lipoC3S2': 7.51, 'rot1': 17, 'rot0': 18, 'rot3': 54, 'rot2': 42, 'state': 'normal', 'yaw': -3.23, 'datetime': '2018-10-05 20:20:13.625067', 'mgs': 0, 'volt': 0.8789, 'depth': 1.233, 'time': 10, 'pitch': -8.72, 'roll': -5.46, 'pres': 180}
{'lipoC2': 7.68, 'lipoC3S1': 3.77, 'temp': 28.56, 'lipoC3S3': 11.42, 'lipoC3S2': 7.53, 'rot1': 18, 'rot0': 20, 'rot3': 55, 'rot2': 43, 'state': 'normal', 'yaw': -3.44, 'datetime': '2018-10-05 20:20:13.730277', 'mgs': 0, 'volt': 0.8838, 'depth': 1.309, 'time': 10, 'pitch': -9.15, 'roll': -5.41, 'pres': 181}
{'lipoC2': 7.68, 'lipoC3S1': 3.75, 'temp': 28.56, 'lipoC3S3': 11.39, 'lipoC3S2': 7.42, 'rot1': 19, 'rot0': 21, 'rot3': 56, 'rot2': 44, 'state': 'normal', 'yaw': -3.73, 'datetime': '2018-10-05 20:20:13.834389', 'mgs': 0, 'volt': 0.9033, 'depth': 1.614, 'time': 11, 'pitch': -9.59, 'roll': -5.36, 'pres': 185}
{'lipoC2': 7.68, 'lipoC3S1': 3.76, 'temp': 28.56, 'lipoC3S3': 11.23, 'lipoC3S2': 7.51, 'rot1': 20, 'rot0': 22, 'rot3': 58, 'rot2': 45, 'state': 'normal', 'yaw': -4.0, 'datetime': '2018-10-05 20:20:13.938859', 'mgs': 0, 'volt': 0.9082, 'depth': 1.691, 'time': 11, 'pitch': -10.06, 'roll': -5.34, 'pres': 186}
{'lipoC2': 7.68, 'lipoC3S1': 3.68, 'temp': 28.56, 'lipoC3S3': 11.39, 'lipoC3S2': 7.48, 'rot1': 21, 'rot0': 23, 'rot3': 59, 'rot2': 46, 'state': 'normal', 'yaw': -4.19, 'datetime': '2018-10-05 20:20:14.047836', 'mgs': 0, 'volt': 0.9131, 'depth': 1.767, 'time': 11, 'pitch': -10.57, 'roll': -5.4, 'pres': 187}
{'lipoC2': 7.68, 'lipoC3S1': 3.79, 'temp': 28.56, 'lipoC3S3': 11.39, 'lipoC3S2': 7.57, 'rot1': 23, 'rot0': 24, 'rot3': 60, 'rot2': 46, 'state': 'normal', 'yaw': -4.42, 'datetime': '2018-10-05 20:20:14.154465', 'mgs': 0, 'volt': 0.9619, 'depth': 2.53, 'time': 11, 'pitch': -11.14, 'roll': -5.54, 'pres': 197}
{'lipoC2': 7.68, 'lipoC3S1': 3.79, 'temp': 28.56, 'lipoC3S3': 11.39, 'lipoC3S2': 7.52, 'rot1': 24, 'rot0': 25, 'rot3': 61, 'rot2': 47, 'state': 'normal', 'yaw': -4.67, 'datetime': '2018-10-05 20:20:14.258401', 'mgs': 0, 'volt': 0.9033, 'depth': 1.614, 'time': 11, 'pitch': -11.53, 'roll': -5.52, 'pres': 185}
{'lipoC2': 7.68, 'lipoC3S1': 3.77, 'temp': 28.56, 'lipoC3S3': 11.44, 'lipoC3S2': 7.45, 'rot1': 25, 'rot0': 26, 'rot3': 62, 'rot2': 48, 'state': 'normal', 'yaw': -5.02, 'datetime': '2018-10-05 20:20:14.362587', 'mgs': 0, 'volt': 0.9326, 'depth': 2.072, 'time': 11, 'pitch': -11.72, 'roll': -5.49, 'pres': 191}
{'lipoC2': 7.68, 'lipoC3S1': 3.74, 'temp': 28.63, 'lipoC3S3': 11.47, 'lipoC3S2': 7.58, 'rot1': 26, 'rot0': 27, 'rot3': 62, 'rot2': 49, 'state': 'normal', 'yaw': -5.4, 'datetime': '2018-10-05 20:20:14.466511', 'mgs': 0, 'volt': 0.9375, 'depth': 2.148, 'time': 11, 'pitch': -11.74, 'roll': -5.44, 'pres': 192}
{'lipoC2': 7.69, 'lipoC3S1': 3.8, 'temp': 28.63, 'lipoC3S3': 11.4, 'lipoC3S2': 7.58, 'rot1': 27, 'rot0': 29, 'rot3': 63, 'rot2': 49, 'state': 'normal', 'yaw': -5.83, 'datetime': '2018-10-05 20:20:14.570562', 'mgs': 0, 'volt': 0.9619, 'depth': 2.53, 'time': 11, 'pitch': -11.6, 'roll': -5.36, 'pres': 197}
{'lipoC2': 7.69, 'lipoC3S1': 3.79, 'temp': 28.63, 'lipoC3S3': 11.27, 'lipoC3S2': 7.53, 'rot1': 28, 'rot0': 30, 'rot3': 64, 'rot2': 50, 'state': 'normal', 'yaw': -6.14, 'datetime': '2018-10-05 20:20:14.673072', 'mgs': 0, 'volt': 0.9277, 'depth': 1.996, 'time': 11, 'pitch': -11.41, 'roll': -5.2, 'pres': 190}
{'lipoC2': 7.69, 'lipoC3S1': 3.79, 'temp': 28.63, 'lipoC3S3': 11.31, 'lipoC3S2': 7.53, 'rot1': 29, 'rot0': 30, 'rot3': 65, 'rot2': 51, 'state': 'normal', 'yaw': -6.21, 'datetime': '2018-10-05 20:20:14.779915', 'mgs': 0, 'volt': 0.9326, 'depth': 2.072, 'time': 11, 'pitch': -11.26, 'roll': -5.03, 'pres': 191}
{'lipoC2': 7.69, 'lipoC3S1': 3.74, 'temp': 28.63, 'lipoC3S3': 11.47, 'lipoC3S2': 7.53, 'rot1': 30, 'rot0': 31, 'rot3': 65, 'rot2': 51, 'state': 'normal', 'yaw': -6.12, 'datetime': '2018-10-05 20:20:14.883869', 'mgs': 0, 'volt': 0.9619, 'depth': 2.53, 'time': 12, 'pitch': -11.1, 'roll': -4.87, 'pres': 197}
{'lipoC2': 7.69, 'lipoC3S1': 3.78, 'temp': 28.63, 'lipoC3S3': 11.47, 'lipoC3S2': 7.51, 'rot1': 31, 'rot0': 32, 'rot3': 66, 'rot2': 52, 'state': 'normal', 'yaw': -5.92, 'datetime': '2018-10-05 20:20:14.989038', 'mgs': 0, 'volt': 0.9375, 'depth': 2.148, 'time': 12, 'pitch': -10.93, 'roll': -4.76, 'pres': 192}
{'lipoC2': 7.69, 'lipoC3S1': 3.79, 'temp': 28.63, 'lipoC3S3': 11.48, 'lipoC3S2': 7.54, 'rot1': 32, 'rot0': 33, 'rot3': 67, 'rot2': 53, 'state': 'normal', 'yaw': -5.53, 'datetime': '2018-10-05 20:20:15.093275', 'mgs': 0, 'volt': 0.9521, 'depth': 2.377, 'time': 12, 'pitch': -10.7, 'roll': -4.65, 'pres': 195}
{'lipoC2': 7.68, 'lipoC3S1': 3.8, 'temp': 28.56, 'lipoC3S3': 11.47, 'lipoC3S2': 7.59, 'rot1': 33, 'rot0': 34, 'rot3': 67, 'rot2': 53, 'state': 'normal', 'yaw': -5.11, 'datetime': '2018-10-05 20:20:15.197381', 'mgs': 0, 'volt': 1.0156, 'depth': 3.369, 'time': 12, 'pitch': -10.44, 'roll': -4.53, 'pres': 208}
{'lipoC2': 7.69, 'lipoC3S1': 3.77, 'temp': 28.56, 'lipoC3S3': 11.47, 'lipoC3S2': 7.59, 'rot1': 34, 'rot0': 35, 'rot3': 68, 'rot2': 54, 'state': 'normal', 'yaw': -4.65, 'datetime': '2018-10-05 20:20:15.302570', 'mgs': 0, 'volt': 0.9521, 'depth': 2.377, 'time': 12, 'pitch': -10.16, 'roll': -4.43, 'pres': 195}
{'lipoC2': 7.67, 'lipoC3S1': 3.8, 'temp': 28.56, 'lipoC3S3': 11.47, 'lipoC3S2': 7.59, 'rot1': 36, 'rot0': 36, 'rot3': 68, 'rot2': 54, 'state': 'normal', 'yaw': -4.08, 'datetime': '2018-10-05 20:20:15.406680', 'mgs': 0, 'volt': 0.9766, 'depth': 2.759, 'time': 12, 'pitch': -9.87, 'roll': -4.34, 'pres': 200}
{'lipoC2': 7.69, 'lipoC3S1': 3.79, 'temp': 28.56, 'lipoC3S3': 11.35, 'lipoC3S2': 7.57, 'rot1': 37, 'rot0': 37, 'rot3': 69, 'rot2': 55, 'state': 'normal', 'yaw': -3.52, 'datetime': '2018-10-05 20:20:15.510787', 'mgs': 0, 'volt': 0.9668, 'depth': 2.606, 'time': 12, 'pitch': -9.58, 'roll': -4.23, 'pres': 198}
{'lipoC2': 7.69, 'lipoC3S1': 3.68, 'temp': 28.56, 'lipoC3S3': 11.48, 'lipoC3S2': 7.55, 'rot1': 38, 'rot0': 38, 'rot3': 69, 'rot2': 55, 'state': 'normal', 'yaw': -2.99, 'datetime': '2018-10-05 20:20:15.614574', 'mgs': 0, 'volt': 0.9717, 'depth': 2.682, 'time': 12, 'pitch': -9.23, 'roll': -4.06, 'pres': 199}
{'lipoC2': 7.69, 'lipoC3S1': 3.8, 'temp': 28.63, 'lipoC3S3': 11.48, 'lipoC3S2': 7.6, 'rot1': 39, 'rot0': 40, 'rot3': 70, 'rot2': 56, 'state': 'normal', 'yaw': -2.62, 'datetime': '2018-10-05 20:20:15.718713', 'mgs': 0, 'volt': 1.0352, 'depth': 3.674, 'time': 12, 'pitch': -8.87, 'roll': -3.88, 'pres': 212}
{'lipoC2': 7.68, 'lipoC3S1': 3.8, 'temp': 28.63, 'lipoC3S3': 11.46, 'lipoC3S2': 7.59, 'rot1': 40, 'rot0': 41, 'rot3': 70, 'rot2': 56, 'state': 'normal', 'yaw': -2.34, 'datetime': '2018-10-05 20:20:15.823045', 'mgs': 0, 'volt': 0.9814, 'depth': 2.835, 'time': 12, 'pitch': -8.45, 'roll': -3.71, 'pres': 201}
{'lipoC2': 7.69, 'lipoC3S1': 3.8, 'temp': 28.63, 'lipoC3S3': 11.43, 'lipoC3S2': 7.48, 'rot1': 41, 'rot0': 42, 'rot3': 70, 'rot2': 56, 'state': 'normal', 'yaw': -2.11, 'datetime': '2018-10-05 20:20:15.926563', 'mgs': 0, 'volt': 0.9814, 'depth': 2.835, 'time': 13, 'pitch': -7.89, 'roll': -3.57, 'pres': 201}
{'lipoC2': 7.69, 'lipoC3S1': 3.74, 'temp': 28.63, 'lipoC3S3': 11.5, 'lipoC3S2': 7.6, 'rot1': 42, 'rot0': 43, 'rot3': 70, 'rot2': 56, 'state': 'normal', 'yaw': -1.95, 'datetime': '2018-10-05 20:20:16.030803', 'mgs': 0, 'volt': 0.9863, 'depth': 2.911, 'time': 13, 'pitch': -7.4, 'roll': -3.47, 'pres': 202}
{'lipoC2': 7.69, 'lipoC3S1': 3.8, 'temp': 28.63, 'lipoC3S3': 11.36, 'lipoC3S2': 7.58, 'rot1': 43, 'rot0': 44, 'rot3': 70, 'rot2': 56, 'state': 'normal', 'yaw': -1.85, 'datetime': '2018-10-05 20:20:16.135415', 'mgs': 0, 'volt': 0.9863, 'depth': 2.911, 'time': 13, 'pitch': -6.93, 'roll': -3.37, 'pres': 202}
{'lipoC2': 7.69, 'lipoC3S1': 3.77, 'temp': 28.63, 'lipoC3S3': 11.5, 'lipoC3S2': 7.55, 'rot1': 44, 'rot0': 45, 'rot3': 70, 'rot2': 56, 'state': 'normal', 'yaw': -1.78, 'datetime': '2018-10-05 20:20:16.239321', 'mgs': 0, 'volt': 0.9912, 'depth': 2.988, 'time': 13, 'pitch': -6.49, 'roll': -3.32, 'pres': 203}
{'lipoC2': 7.69, 'lipoC3S1': 3.79, 'temp': 28.63, 'lipoC3S3': 11.5, 'lipoC3S2': 7.52, 'rot1': 45, 'rot0': 46, 'rot3': 70, 'rot2': 56, 'state': 'normal', 'yaw': -1.8, 'datetime': '2018-10-05 20:20:16.344713', 'mgs': 0, 'volt': 0.9912, 'depth': 2.988, 'time': 13, 'pitch': -6.18, 'roll': -3.32, 'pres': 203}
{'lipoC2': 7.69, 'lipoC3S1': 3.78, 'temp': 28.63, 'lipoC3S3': 11.48, 'lipoC3S2': 7.6, 'rot1': 46, 'rot0': 47, 'rot3': 70, 'rot2': 56, 'state': 'normal', 'yaw': -1.82, 'datetime': '2018-10-05 20:20:16.448758', 'mgs': 0, 'volt': 0.9863, 'depth': 2.911, 'time': 13, 'pitch': -5.93, 'roll': -3.37, 'pres': 202}
{'lipoC2': 7.69, 'lipoC3S1': 3.76, 'temp': 28.63, 'lipoC3S3': 11.48, 'lipoC3S2': 7.6, 'rot1': 48, 'rot0': 49, 'rot3': 70, 'rot2': 56, 'state': 'normal', 'yaw': -1.82, 'datetime': '2018-10-05 20:20:16.553891', 'mgs': 0, 'volt': 0.9961, 'depth': 3.064, 'time': 13, 'pitch': -5.77, 'roll': -3.48, 'pres': 204}
{'lipoC2': 7.67, 'lipoC3S1': 3.8, 'temp': 28.56, 'lipoC3S3': 11.48, 'lipoC3S2': 7.6, 'rot1': 49, 'rot0': 50, 'rot3': 70, 'rot2': 56, 'state': 'normal', 'yaw': -1.84, 'datetime': '2018-10-05 20:20:16.658244', 'mgs': 0, 'volt': 1.0156, 'depth': 3.369, 'time': 13, 'pitch': -5.72, 'roll': -3.66, 'pres': 208}
{'lipoC2': 7.68, 'lipoC3S1': 3.8, 'temp': 28.56, 'lipoC3S3': 11.34, 'lipoC3S2': 7.59, 'rot1': 50, 'rot0': 51, 'rot3': 70, 'rot2': 56, 'state': 'normal', 'yaw': -1.86, 'datetime': '2018-10-05 20:20:16.763194', 'mgs': 0, 'volt': 0.9912, 'depth': 2.988, 'time': 13, 'pitch': -5.72, 'roll': -3.85, 'pres': 203}
{'lipoC2': 7.69, 'lipoC3S1': 3.79, 'temp': 28.56, 'lipoC3S3': 11.5, 'lipoC3S2': 7.52, 'rot1': 51, 'rot0': 52, 'rot3': 70, 'rot2': 56, 'state': 'normal', 'yaw': -1.92, 'datetime': '2018-10-05 20:20:16.866303', 'mgs': 0, 'volt': 0.9912, 'depth': 2.988, 'time': 14, 'pitch': -5.72, 'roll': -4.04, 'pres': 203}
{'lipoC2': 7.69, 'lipoC3S1': 3.77, 'temp': 28.63, 'lipoC3S3': 11.48, 'lipoC3S2': 7.6, 'rot1': 52, 'rot0': 53, 'rot3': 70, 'rot2': 56, 'state': 'normal', 'yaw': -2.01, 'datetime': '2018-10-05 20:20:16.970720', 'mgs': 0, 'volt': 0.9766, 'depth': 2.759, 'time': 14, 'pitch': -5.73, 'roll': -4.26, 'pres': 200}
{'lipoC2': 7.67, 'lipoC3S1': 3.8, 'temp': 28.63, 'lipoC3S3': 11.47, 'lipoC3S2': 7.59, 'rot1': 53, 'rot0': 54, 'rot3': 70, 'rot2': 56, 'state': 'normal', 'yaw': -2.11, 'datetime': '2018-10-05 20:20:17.074545', 'mgs': 0, 'volt': 1.0107, 'depth': 3.293, 'time': 14, 'pitch': -5.74, 'roll': -4.46, 'pres': 207}
{'lipoC2': 7.67, 'lipoC3S1': 3.8, 'temp': 28.63, 'lipoC3S3': 11.47, 'lipoC3S2': 7.6, 'rot1': 54, 'rot0': 55, 'rot3': 70, 'rot2': 56, 'state': 'normal', 'yaw': -2.22, 'datetime': '2018-10-05 20:20:17.178791', 'mgs': 0, 'volt': 1.0107, 'depth': 3.293, 'time': 14, 'pitch': -5.74, 'roll': -4.65, 'pres': 207}
{'lipoC2': 7.69, 'lipoC3S1': 3.8, 'temp': 28.63, 'lipoC3S3': 11.32, 'lipoC3S2': 7.57, 'rot1': 55, 'rot0': 56, 'rot3': 70, 'rot2': 56, 'state': 'normal', 'yaw': -2.35, 'datetime': '2018-10-05 20:20:17.282829', 'mgs': 0, 'volt': 0.9863, 'depth': 2.911, 'time': 14, 'pitch': -5.69, 'roll': -4.82, 'pres': 202}
{'lipoC2': 7.68, 'lipoC3S1': 3.8, 'temp': 28.63, 'lipoC3S3': 11.31, 'lipoC3S2': 7.58, 'rot1': 56, 'rot0': 58, 'rot3': 71, 'rot2': 57, 'state': 'normal', 'yaw': -2.49, 'datetime': '2018-10-05 20:20:17.388301', 'mgs': 0, 'volt': 0.9863, 'depth': 2.911, 'time': 14, 'pitch': -5.58, 'roll': -4.97, 'pres': 202}
{'lipoC2': 7.69, 'lipoC3S1': 3.79, 'temp': 28.63, 'lipoC3S3': 11.47, 'lipoC3S2': 7.48, 'rot1': 58, 'rot0': 59, 'rot3': 71, 'rot2': 57, 'state': 'normal', 'yaw': -2.62, 'datetime': '2018-10-05 20:20:17.492072', 'mgs': 0, 'volt': 0.9814, 'depth': 2.835, 'time': 14, 'pitch': -5.39, 'roll': -5.13, 'pres': 201}
{'lipoC2': 7.69, 'lipoC3S1': 3.8, 'temp': 28.63, 'lipoC3S3': 11.43, 'lipoC3S2': 7.65, 'rot1': 59, 'rot0': 60, 'rot3': 71, 'rot2': 57, 'state': 'normal', 'yaw': -2.75, 'datetime': '2018-10-05 20:20:17.597485', 'mgs': 0, 'volt': 0.9766, 'depth': 2.759, 'time': 14, 'pitch': -5.19, 'roll': -5.21, 'pres': 200}
{'lipoC2': 7.69, 'lipoC3S1': 3.72, 'temp': 28.63, 'lipoC3S3': 11.5, 'lipoC3S2': 7.57, 'rot1': 60, 'rot0': 61, 'rot3': 71, 'rot2': 57, 'state': 'normal', 'yaw': -2.89, 'datetime': '2018-10-05 20:20:17.701537', 'mgs': 0, 'volt': 0.9766, 'depth': 2.759, 'time': 14, 'pitch': -5.01, 'roll': -5.24, 'pres': 200}
{'lipoC2': 7.69, 'lipoC3S1': 3.82, 'temp': 28.63, 'lipoC3S3': 11.5, 'lipoC3S2': 7.53, 'rot1': 61, 'rot0': 62, 'rot3': 71, 'rot2': 57, 'state': 'normal', 'yaw': -3.02, 'datetime': '2018-10-05 20:20:17.806594', 'mgs': 0, 'volt': 0.9717, 'depth': 2.682, 'time': 14, 'pitch': -4.89, 'roll': -5.23, 'pres': 199}
{'lipoC2': 7.69, 'lipoC3S1': 3.77, 'temp': 28.63, 'lipoC3S3': 11.48, 'lipoC3S2': 7.6, 'rot1': 62, 'rot0': 63, 'rot3': 71, 'rot2': 57, 'state': 'normal', 'yaw': -3.12, 'datetime': '2018-10-05 20:20:17.910841', 'mgs': 0, 'volt': 1.0352, 'depth': 3.674, 'time': 15, 'pitch': -4.8, 'roll': -5.23, 'pres': 212}
{'lipoC2': 7.67, 'lipoC3S1': 3.8, 'temp': 28.63, 'lipoC3S3': 11.47, 'lipoC3S2': 7.59, 'rot1': 63, 'rot0': 64, 'rot3': 71, 'rot2': 57, 'state': 'normal', 'yaw': -3.19, 'datetime': '2018-10-05 20:20:18.014761', 'mgs': 0, 'volt': 0.9814, 'depth': 2.835, 'time': 15, 'pitch': -4.82, 'roll': -5.18, 'pres': 201}
{'lipoC2': 7.69, 'lipoC3S1': 3.8, 'temp': 28.63, 'lipoC3S3': 11.36, 'lipoC3S2': 7.58, 'rot1': 64, 'rot0': 66, 'rot3': 71, 'rot2': 57, 'state': 'normal', 'yaw': -3.27, 'datetime': '2018-10-05 20:20:18.118676', 'mgs': 0, 'volt': 0.9668, 'depth': 2.606, 'time': 15, 'pitch': -4.95, 'roll': -5.06, 'pres': 198}
{'lipoC2': 7.69, 'lipoC3S1': 3.72, 'temp': 28.63, 'lipoC3S3': 11.48, 'lipoC3S2': 7.53, 'rot1': 65, 'rot0': 67, 'rot3': 72, 'rot2': 57, 'state': 'normal', 'yaw': -3.37, 'datetime': '2018-10-05 20:20:18.222955', 'mgs': 0, 'volt': 0.9668, 'depth': 2.606, 'time': 15, 'pitch': -5.19, 'roll': -4.89, 'pres': 198}
{'lipoC2': 7.69, 'lipoC3S1': 3.8, 'temp': 28.63, 'lipoC3S3': 11.48, 'lipoC3S2': 7.6, 'rot1': 66, 'rot0': 68, 'rot3': 72, 'rot2': 58, 'state': 'normal', 'yaw': -3.45, 'datetime': '2018-10-05 20:20:18.326915', 'mgs': 0, 'volt': 1.0205, 'depth': 3.445, 'time': 15, 'pitch': -5.51, 'roll': -4.7, 'pres': 209}
{'lipoC2': 7.69, 'lipoC3S1': 3.8, 'temp': 28.63, 'lipoC3S3': 11.48, 'lipoC3S2': 7.6, 'rot1': 67, 'rot0': 69, 'rot3': 72, 'rot2': 58, 'state': 'normal', 'yaw': -3.54, 'datetime': '2018-10-05 20:20:18.430974', 'mgs': 0, 'volt': 1.0107, 'depth': 3.293, 'time': 15, 'pitch': -5.87, 'roll': -4.47, 'pres': 207}
{'lipoC2': 7.68, 'lipoC3S1': 3.8, 'temp': 28.63, 'lipoC3S3': 11.26, 'lipoC3S2': 7.58, 'rot1': 69, 'rot0': 70, 'rot3': 72, 'rot2': 58, 'state': 'normal', 'yaw': -3.66, 'datetime': '2018-10-05 20:20:18.535156', 'mgs': 0, 'volt': 0.957, 'depth': 2.454, 'time': 15, 'pitch': -6.3, 'roll': -4.2, 'pres': 196}
{'lipoC2': 7.68, 'lipoC3S1': 3.8, 'temp': 28.69, 'lipoC3S3': 11.47, 'lipoC3S2': 7.59, 'rot1': 70, 'rot0': 71, 'rot3': 72, 'rot2': 58, 'state': 'normal', 'yaw': -3.77, 'datetime': '2018-10-05 20:20:18.640475', 'mgs': 0, 'volt': 0.9717, 'depth': 2.682, 'time': 15, 'pitch': -6.65, 'roll': -3.92, 'pres': 199}
{'lipoC2': 7.69, 'lipoC3S1': 3.8, 'temp': 28.69, 'lipoC3S3': 11.34, 'lipoC3S2': 7.57, 'rot1': 71, 'rot0': 72, 'rot3': 72, 'rot2': 58, 'state': 'normal', 'yaw': -3.88, 'datetime': '2018-10-05 20:20:18.744362', 'mgs': 0, 'volt': 0.9521, 'depth': 2.377, 'time': 15, 'pitch': -6.93, 'roll': -3.64, 'pres': 195}
{'lipoC2': 7.68, 'lipoC3S1': 3.79, 'temp': 28.63, 'lipoC3S3': 11.19, 'lipoC3S2': 7.57, 'rot1': 72, 'rot0': 73, 'rot3': 72, 'rot2': 60, 'state': 'normal', 'yaw': -3.94, 'datetime': '2018-10-05 20:20:18.850106', 'mgs': 0, 'volt': 0.9473, 'depth': 2.301, 'time': 16, 'pitch': -7.09, 'roll': -3.45, 'pres': 194}
{'lipoC2': 7.69, 'lipoC3S1': 3.79, 'temp': 28.63, 'lipoC3S3': 11.46, 'lipoC3S2': 7.44, 'rot1': 73, 'rot0': 75, 'rot3': 72, 'rot2': 60, 'state': 'normal', 'yaw': -3.95, 'datetime': '2018-10-05 20:20:18.953890', 'mgs': 0, 'volt': 0.9473, 'depth': 2.301, 'time': 16, 'pitch': -7.31, 'roll': -3.33, 'pres': 194}
{'lipoC2': 7.69, 'lipoC3S1': 3.79, 'temp': 28.69, 'lipoC3S3': 11.48, 'lipoC3S2': 7.45, 'rot1': 74, 'rot0': 76, 'rot3': 72, 'rot2': 60, 'state': 'normal', 'yaw': -3.94, 'datetime': '2018-10-05 20:20:19.058919', 'mgs': 0, 'volt': 0.9424, 'depth': 2.225, 'time': 16, 'pitch': -7.55, 'roll': -3.33, 'pres': 193}
{'lipoC2': 7.67, 'lipoC3S1': 3.8, 'temp': 28.69, 'lipoC3S3': 11.39, 'lipoC3S2': 7.57, 'rot1': 75, 'rot0': 77, 'rot3': 73, 'rot2': 61, 'state': 'normal', 'yaw': -3.93, 'datetime': '2018-10-05 20:20:19.163687', 'mgs': 0, 'volt': 0.9424, 'depth': 2.225, 'time': 16, 'pitch': -7.81, 'roll': -3.33, 'pres': 193}
{'lipoC2': 7.69, 'lipoC3S1': 3.79, 'temp': 28.69, 'lipoC3S3': 11.38, 'lipoC3S2': 7.56, 'rot1': 76, 'rot0': 78, 'rot3': 73, 'rot2': 61, 'state': 'normal', 'yaw': -3.95, 'datetime': '2018-10-05 20:20:19.267682', 'mgs': 0, 'volt': 0.9424, 'depth': 2.225, 'time': 16, 'pitch': -8.13, 'roll': -3.42, 'pres': 193}
{'lipoC2': 7.69, 'lipoC3S1': 3.7, 'temp': 28.63, 'lipoC3S3': 11.47, 'lipoC3S2': 7.56, 'rot1': 77, 'rot0': 79, 'rot3': 74, 'rot2': 62, 'state': 'normal', 'yaw': -4.01, 'datetime': '2018-10-05 20:20:19.371592', 'mgs': 0, 'volt': 0.9424, 'depth': 2.225, 'time': 16, 'pitch': -8.44, 'roll': -3.53, 'pres': 193}
{'lipoC2': 7.68, 'lipoC3S1': 3.8, 'temp': 28.63, 'lipoC3S3': 11.46, 'lipoC3S2': 7.58, 'rot1': 78, 'rot0': 80, 'rot3': 75, 'rot2': 62, 'state': 'normal', 'yaw': -4.09, 'datetime': '2018-10-05 20:20:19.475725', 'mgs': 0, 'volt': 0.9961, 'depth': 3.064, 'time': 16, 'pitch': -8.82, 'roll': -3.65, 'pres': 204}
{'lipoC2': 7.68, 'lipoC3S1': 3.79, 'temp': 28.63, 'lipoC3S3': 11.39, 'lipoC3S2': 7.57, 'rot1': 79, 'rot0': 81, 'rot3': 75, 'rot2': 63, 'state': 'normal', 'yaw': -4.21, 'datetime': '2018-10-05 20:20:19.579774', 'mgs': 0, 'volt': 0.9375, 'depth': 2.148, 'time': 16, 'pitch': -9.15, 'roll': -3.75, 'pres': 192}
{'lipoC2': 7.67, 'lipoC3S1': 3.79, 'temp': 28.63, 'lipoC3S3': 11.39, 'lipoC3S2': 7.57, 'rot1': 80, 'rot0': 82, 'rot3': 76, 'rot2': 63, 'state': 'normal', 'yaw': -4.34, 'datetime': '2018-10-05 20:20:19.684078', 'mgs': 0, 'volt': 0.9375, 'depth': 2.148, 'time': 16, 'pitch': -9.48, 'roll': -3.82, 'pres': 192}
{'lipoC2': 7.69, 'lipoC3S1': 3.81, 'temp': 28.69, 'lipoC3S3': 11.4, 'lipoC3S2': 7.5, 'rot1': 82, 'rot0': 83, 'rot3': 76, 'rot2': 64, 'state': 'normal', 'yaw': -4.48, 'datetime': '2018-10-05 20:20:19.788015', 'mgs': 0, 'volt': 0.9375, 'depth': 2.148, 'time': 16, 'pitch': -9.83, 'roll': -3.87, 'pres': 192}
{'lipoC2': 7.69, 'lipoC3S1': 3.79, 'temp': 28.69, 'lipoC3S3': 11.3, 'lipoC3S2': 7.52, 'rot1': 83, 'rot0': 85, 'rot3': 77, 'rot2': 64, 'state': 'normal', 'yaw': -4.61, 'datetime': '2018-10-05 20:20:19.893342', 'mgs': 0, 'volt': 0.9375, 'depth': 2.148, 'time': 17, 'pitch': -10.15, 'roll': -3.94, 'pres': 192}
{'lipoC2': 7.69, 'lipoC3S1': 3.76, 'temp': 28.69, 'lipoC3S3': 11.47, 'lipoC3S2': 7.5, 'rot1': 84, 'rot0': 86, 'rot3': 78, 'rot2': 65, 'state': 'normal', 'yaw': -4.81, 'datetime': '2018-10-05 20:20:19.997271', 'mgs': 0, 'volt': 0.9375, 'depth': 2.148, 'time': 17, 'pitch': -10.48, 'roll': -4.06, 'pres': 192}
{'lipoC2': 7.68, 'lipoC3S1': 3.76, 'temp': 28.63, 'lipoC3S3': 11.46, 'lipoC3S2': 7.44, 'rot1': 85, 'rot0': 87, 'rot3': 78, 'rot2': 65, 'state': 'normal', 'yaw': -5.09, 'datetime': '2018-10-05 20:20:20.102659', 'mgs': 0, 'volt': 0.9375, 'depth': 2.148, 'time': 17, 'pitch': -10.77, 'roll': -4.17, 'pres': 192}
{'lipoC2': 7.69, 'lipoC3S1': 3.73, 'temp': 28.63, 'lipoC3S3': 11.47, 'lipoC3S2': 7.59, 'rot1': 86, 'rot0': 88, 'rot3': 79, 'rot2': 66, 'state': 'normal', 'yaw': -5.46, 'datetime': '2018-10-05 20:20:20.206719', 'mgs': 0, 'volt': 0.957, 'depth': 2.454, 'time': 17, 'pitch': -11.08, 'roll': -4.22, 'pres': 196}
{'lipoC2': 7.68, 'lipoC3S1': 3.76, 'temp': 28.63, 'lipoC3S3': 11.46, 'lipoC3S2': 7.43, 'rot1': 87, 'rot0': 89, 'rot3': 79, 'rot2': 67, 'state': 'normal', 'yaw': -5.72, 'datetime': '2018-10-05 20:20:20.311381', 'mgs': 0, 'volt': 0.9424, 'depth': 2.225, 'time': 17, 'pitch': -11.39, 'roll': -4.22, 'pres': 193}
{'lipoC2': 7.69, 'lipoC3S1': 3.76, 'temp': 28.63, 'lipoC3S3': 11.48, 'lipoC3S2': 7.49, 'rot1': 88, 'rot0': 90, 'rot3': 80, 'rot2': 67, 'state': 'normal', 'yaw': -5.84, 'datetime': '2018-10-05 20:20:20.416460', 'mgs': 0, 'volt': 0.9424, 'depth': 2.225, 'time': 17, 'pitch': -11.71, 'roll': -4.2, 'pres': 193}
{'lipoC2': 7.69, 'lipoC3S1': 3.76, 'temp': 28.69, 'lipoC3S3': 11.47, 'lipoC3S2': 7.59, 'rot1': 89, 'rot0': 91, 'rot3': 81, 'rot2': 68, 'state': 'normal', 'yaw': -5.83, 'datetime': '2018-10-05 20:20:20.520375', 'mgs': 0, 'volt': 0.9619, 'depth': 2.53, 'time': 17, 'pitch': -12.02, 'roll': -4.2, 'pres': 197}
{'lipoC2': 7.69, 'lipoC3S1': 3.81, 'temp': 28.69, 'lipoC3S3': 11.52, 'lipoC3S2': 7.63, 'rot1': 90, 'rot0': 91, 'rot3': 81, 'rot2': 68, 'state': 'normal', 'yaw': -5.81, 'datetime': '2018-10-05 20:20:24.097505', 'mgs': 0, 'volt': 0.9473, 'depth': 2.301, 'time': 17, 'pitch': -12.25, 'roll': -4.21, 'pres': 194}
