{'lipoC2': 7.83, 'lipoC3S1': 3.92, 'temp': 28.5, 'lipoC3S3': 11.85, 'lipoC3S2': 7.83, 'rot1': 289, 'rot0': 273, 'rot3': 227, 'rot2': 183, 'state': 'normal', 'yaw': 20.64, 'datetime': '2018-10-05 19:47:10.144581', 'mgs': 0, 'volt': 1.001, 'depth': 3.14, 'time': 80, 'pitch': -29.39, 'roll': 19.96, 'pres': 205}
{'lipoC2': 7.83, 'lipoC3S1': 3.92, 'temp': 28.5, 'lipoC3S3': 11.85, 'lipoC3S2': 7.84, 'rot1': 289, 'rot0': 273, 'rot3': 227, 'rot2': 183, 'state': 'normal', 'yaw': 20.64, 'datetime': '2018-10-05 19:47:10.170024', 'mgs': 0, 'volt': 1.001, 'depth': 3.14, 'time': 80, 'pitch': -29.39, 'roll': 19.96, 'pres': 205}
{'lipoC2': 7.83, 'lipoC3S1': 3.92, 'temp': 28.5, 'lipoC3S3': 11.85, 'lipoC3S2': 7.83, 'rot1': 289, 'rot0': 273, 'rot3': 227, 'rot2': 183, 'state': 'normal', 'yaw': 20.64, 'datetime': '2018-10-05 19:47:10.196899', 'mgs': 0, 'volt': 1.001, 'depth': 3.14, 'time': 80, 'pitch': -29.39, 'roll': 19.96, 'pres': 205}
{'lipoC2': 7.83, 'lipoC3S1': 3.92, 'temp': 28.5, 'lipoC3S3': 11.85, 'lipoC3S2': 7.83, 'rot1': 289, 'rot0': 273, 'rot3': 227, 'rot2': 183, 'state': 'normal', 'yaw': 20.64, 'datetime': '2018-10-05 19:47:10.220751', 'mgs': 0, 'volt': 1.001, 'depth': 3.14, 'time': 80, 'pitch': -29.39, 'roll': 19.96, 'pres': 205}
{'lipoC2': 7.83, 'lipoC3S1': 3.92, 'temp': 28.5, 'lipoC3S3': 11.84, 'lipoC3S2': 7.84, 'rot1': 289, 'rot0': 273, 'rot3': 227, 'rot2': 183, 'state': 'normal', 'yaw': 20.64, 'datetime': '2018-10-05 19:47:10.244648', 'mgs': 0, 'volt': 1.001, 'depth': 3.14, 'time': 81, 'pitch': -29.37, 'roll': 19.99, 'pres': 205}
{'lipoC2': 7.83, 'lipoC3S1': 3.92, 'temp': 28.5, 'lipoC3S3': 11.84, 'lipoC3S2': 7.84, 'rot1': 289, 'rot0': 273, 'rot3': 227, 'rot2': 183, 'state': 'normal', 'yaw': 20.66, 'datetime': '2018-10-05 19:47:10.262502', 'mgs': 0, 'volt': 1.001, 'depth': 3.14, 'time': 81, 'pitch': -29.32, 'roll': 19.99, 'pres': 205}
{'lipoC2': 7.82, 'lipoC3S1': 3.92, 'temp': 28.5, 'lipoC3S3': 11.85, 'lipoC3S2': 7.84, 'rot1': 289, 'rot0': 273, 'rot3': 227, 'rot2': 183, 'state': 'normal', 'yaw': 20.67, 'datetime': '2018-10-05 19:47:10.273038', 'mgs': 0, 'volt': 1.001, 'depth': 3.14, 'time': 81, 'pitch': -29.3, 'roll': 20.0, 'pres': 205}
{'lipoC2': 7.83, 'lipoC3S1': 3.92, 'temp': 28.5, 'lipoC3S3': 11.85, 'lipoC3S2': 7.84, 'rot1': 289, 'rot0': 273, 'rot3': 227, 'rot2': 183, 'state': 'normal', 'yaw': 20.67, 'datetime': '2018-10-05 19:47:10.284167', 'mgs': 0, 'volt': 1.001, 'depth': 3.14, 'time': 81, 'pitch': -29.3, 'roll': 20.0, 'pres': 205}
{'lipoC2': 7.83, 'lipoC3S1': 3.92, 'temp': 28.5, 'lipoC3S3': 11.84, 'lipoC3S2': 7.83, 'rot1': 289, 'rot0': 273, 'rot3': 227, 'rot2': 183, 'state': 'normal', 'yaw': 20.67, 'datetime': '2018-10-05 19:47:10.294909', 'mgs': 0, 'volt': 1.001, 'depth': 3.14, 'time': 81, 'pitch': -29.3, 'roll': 20.0, 'pres': 205}
{'lipoC2': 7.82, 'lipoC3S1': 3.92, 'temp': 28.5, 'lipoC3S3': 11.84, 'lipoC3S2': 7.83, 'rot1': 289, 'rot0': 273, 'rot3': 227, 'rot2': 183, 'state': 'normal', 'yaw': 20.67, 'datetime': '2018-10-05 19:47:10.305179', 'mgs': 0, 'volt': 1.001, 'depth': 3.14, 'time': 81, 'pitch': -29.31, 'roll': 20.0, 'pres': 205}
{'lipoC2': 7.83, 'lipoC3S1': 3.92, 'temp': 28.56, 'lipoC3S3': 11.84, 'lipoC3S2': 7.83, 'rot1': 289, 'rot0': 273, 'rot3': 227, 'rot2': 183, 'state': 'normal', 'yaw': 20.63, 'datetime': '2018-10-05 19:47:10.315312', 'mgs': 0, 'volt': 1.001, 'depth': 3.14, 'time': 81, 'pitch': -29.4, 'roll': 20.01, 'pres': 205}
{'lipoC2': 7.83, 'lipoC3S1': 3.92, 'temp': 28.56, 'lipoC3S3': 11.84, 'lipoC3S2': 7.83, 'rot1': 289, 'rot0': 273, 'rot3': 227, 'rot2': 183, 'state': 'normal', 'yaw': 20.59, 'datetime': '2018-10-05 19:47:10.325487', 'mgs': 0, 'volt': 1.001, 'depth': 3.14, 'time': 81, 'pitch': -29.49, 'roll': 20.04, 'pres': 205}
{'lipoC2': 7.83, 'lipoC3S1': 3.92, 'temp': 28.5, 'lipoC3S3': 11.84, 'lipoC3S2': 7.83, 'rot1': 289, 'rot0': 273, 'rot3': 227, 'rot2': 183, 'state': 'normal', 'yaw': 20.55, 'datetime': '2018-10-05 19:47:10.335493', 'mgs': 0, 'volt': 1.001, 'depth': 3.14, 'time': 81, 'pitch': -29.59, 'roll': 20.05, 'pres': 205}
{'lipoC2': 7.83, 'lipoC3S1': 3.92, 'temp': 28.5, 'lipoC3S3': 11.84, 'lipoC3S2': 7.83, 'rot1': 289, 'rot0': 273, 'rot3': 227, 'rot2': 183, 'state': 'normal', 'yaw': 20.54, 'datetime': '2018-10-05 19:47:10.345652', 'mgs': 0, 'volt': 1.001, 'depth': 3.14, 'time': 81, 'pitch': -29.67, 'roll': 20.06, 'pres': 205}
{'lipoC2': 7.83, 'lipoC3S1': 3.92, 'temp': 28.5, 'lipoC3S3': 11.84, 'lipoC3S2': 7.83, 'rot1': 289, 'rot0': 273, 'rot3': 227, 'rot2': 183, 'state': 'normal', 'yaw': 20.51, 'datetime': '2018-10-05 19:47:10.355945', 'mgs': 0, 'volt': 0.9961, 'depth': 3.064, 'time': 82, 'pitch': -29.72, 'roll': 20.07, 'pres': 204}
{'lipoC2': 7.83, 'lipoC3S1': 3.92, 'temp': 28.5, 'lipoC3S3': 11.84, 'lipoC3S2': 7.83, 'rot1': 289, 'rot0': 273, 'rot3': 227, 'rot2': 183, 'state': 'normal', 'yaw': 20.52, 'datetime': '2018-10-05 19:47:10.366228', 'mgs': 0, 'volt': 1.001, 'depth': 3.14, 'time': 82, 'pitch': -29.73, 'roll': 20.07, 'pres': 205}
{'lipoC2': 7.83, 'lipoC3S1': 3.92, 'temp': 28.5, 'lipoC3S3': 11.84, 'lipoC3S2': 7.83, 'rot1': 289, 'rot0': 273, 'rot3': 227, 'rot2': 183, 'state': 'normal', 'yaw': 20.52, 'datetime': '2018-10-05 19:47:10.376574', 'mgs': 0, 'volt': 1.001, 'depth': 3.14, 'time': 82, 'pitch': -29.73, 'roll': 20.07, 'pres': 205}
{'lipoC2': 7.82, 'lipoC3S1': 3.92, 'temp': 28.5, 'lipoC3S3': 11.84, 'lipoC3S2': 7.83, 'rot1': 289, 'rot0': 273, 'rot3': 227, 'rot2': 183, 'state': 'normal', 'yaw': 20.52, 'datetime': '2018-10-05 19:47:10.387707', 'mgs': 0, 'volt': 0.9961, 'depth': 3.064, 'time': 82, 'pitch': -29.73, 'roll': 20.07, 'pres': 204}
{'lipoC2': 7.82, 'lipoC3S1': 3.92, 'temp': 28.5, 'lipoC3S3': 11.84, 'lipoC3S2': 7.83, 'rot1': 289, 'rot0': 273, 'rot3': 227, 'rot2': 183, 'state': 'normal', 'yaw': 20.52, 'datetime': '2018-10-05 19:47:10.398490', 'mgs': 0, 'volt': 0.9961, 'depth': 3.064, 'time': 82, 'pitch': -29.71, 'roll': 20.07, 'pres': 204}
{'lipoC2': 7.82, 'lipoC3S1': 3.92, 'temp': 28.56, 'lipoC3S3': 11.84, 'lipoC3S2': 7.83, 'rot1': 289, 'rot0': 273, 'rot3': 227, 'rot2': 183, 'state': 'normal', 'yaw': 20.54, 'datetime': '2018-10-05 19:47:10.408685', 'mgs': 0, 'volt': 0.9961, 'depth': 3.064, 'time': 82, 'pitch': -29.66, 'roll': 20.11, 'pres': 204}
{'lipoC2': 7.82, 'lipoC3S1': 3.92, 'temp': 28.56, 'lipoC3S3': 11.84, 'lipoC3S2': 7.83, 'rot1': 289, 'rot0': 273, 'rot3': 227, 'rot2': 183, 'state': 'normal', 'yaw': 20.58, 'datetime': '2018-10-05 19:47:10.501548', 'mgs': 0, 'volt': 1.001, 'depth': 3.14, 'time': 82, 'pitch': -29.58, 'roll': 20.14, 'pres': 205}
{'lipoC2': 7.82, 'lipoC3S1': 3.92, 'temp': 28.38, 'lipoC3S3': 11.84, 'lipoC3S2': 7.83, 'rot1': 289, 'rot0': 273, 'rot3': 227, 'rot2': 183, 'state': 'normal', 'yaw': 20.62, 'datetime': '2018-10-05 19:47:10.605751', 'mgs': 0, 'volt': 1.001, 'depth': 3.14, 'time': 82, 'pitch': -29.49, 'roll': 20.16, 'pres': 205}
{'lipoC2': 7.82, 'lipoC3S1': 3.92, 'temp': 28.38, 'lipoC3S3': 11.84, 'lipoC3S2': 7.83, 'rot1': 289, 'rot0': 273, 'rot3': 227, 'rot2': 183, 'state': 'normal', 'yaw': 20.63, 'datetime': '2018-10-05 19:47:10.709981', 'mgs': 0, 'volt': 1.001, 'depth': 3.14, 'time': 82, 'pitch': -29.44, 'roll': 20.18, 'pres': 205}
{'lipoC2': 7.83, 'lipoC3S1': 3.92, 'temp': 28.5, 'lipoC3S3': 11.84, 'lipoC3S2': 7.83, 'rot1': 289, 'rot0': 273, 'rot3': 227, 'rot2': 183, 'state': 'normal', 'yaw': 20.63, 'datetime': '2018-10-05 19:47:10.815024', 'mgs': 0, 'volt': 0.9961, 'depth': 3.064, 'time': 83, 'pitch': -29.44, 'roll': 20.18, 'pres': 204}
{'lipoC2': 7.82, 'lipoC3S1': 3.92, 'temp': 28.5, 'lipoC3S3': 11.84, 'lipoC3S2': 7.83, 'rot1': 289, 'rot0': 273, 'rot3': 227, 'rot2': 183, 'state': 'normal', 'yaw': 20.63, 'datetime': '2018-10-05 19:47:10.919285', 'mgs': 0, 'volt': 0.9961, 'depth': 3.064, 'time': 83, 'pitch': -29.44, 'roll': 20.18, 'pres': 204}
{'lipoC2': 7.83, 'lipoC3S1': 3.92, 'temp': 28.5, 'lipoC3S3': 11.84, 'lipoC3S2': 7.83, 'rot1': 289, 'rot0': 273, 'rot3': 227, 'rot2': 183, 'state': 'normal', 'yaw': 20.63, 'datetime': '2018-10-05 19:47:11.028814', 'mgs': 0, 'volt': 0.9961, 'depth': 3.064, 'time': 83, 'pitch': -29.44, 'roll': 20.18, 'pres': 204}
{'lipoC2': 7.82, 'lipoC3S1': 3.92, 'temp': 28.44, 'lipoC3S3': 11.84, 'lipoC3S2': 7.83, 'rot1': 289, 'rot0': 273, 'rot3': 227, 'rot2': 183, 'state': 'normal', 'yaw': 20.63, 'datetime': '2018-10-05 19:47:11.133258', 'mgs': 0, 'volt': 0.9961, 'depth': 3.064, 'time': 83, 'pitch': -29.44, 'roll': 20.18, 'pres': 204}
{'lipoC2': 7.82, 'lipoC3S1': 3.92, 'temp': 28.44, 'lipoC3S3': 11.84, 'lipoC3S2': 7.83, 'rot1': 289, 'rot0': 273, 'rot3': 227, 'rot2': 183, 'state': 'normal', 'yaw': 20.63, 'datetime': '2018-10-05 19:47:11.238424', 'mgs': 0, 'volt': 1.001, 'depth': 3.14, 'time': 83, 'pitch': -29.46, 'roll': 20.18, 'pres': 205}
{'lipoC2': 7.82, 'lipoC3S1': 3.92, 'temp': 28.5, 'lipoC3S3': 11.84, 'lipoC3S2': 7.83, 'rot1': 289, 'rot0': 273, 'rot3': 227, 'rot2': 183, 'state': 'normal', 'yaw': 20.6, 'datetime': '2018-10-05 19:47:11.345129', 'mgs': 0, 'volt': 0.9961, 'depth': 3.064, 'time': 83, 'pitch': -29.52, 'roll': 20.19, 'pres': 204}
{'lipoC2': 7.83, 'lipoC3S1': 3.92, 'temp': 28.5, 'lipoC3S3': 11.84, 'lipoC3S2': 7.83, 'rot1': 289, 'rot0': 273, 'rot3': 227, 'rot2': 183, 'state': 'normal', 'yaw': 20.58, 'datetime': '2018-10-05 19:47:11.448206', 'mgs': 0, 'volt': 0.9961, 'depth': 3.064, 'time': 83, 'pitch': -29.56, 'roll': 20.2, 'pres': 204}
{'lipoC2': 7.83, 'lipoC3S1': 3.92, 'temp': 28.5, 'lipoC3S3': 11.84, 'lipoC3S2': 7.83, 'rot1': 289, 'rot0': 273, 'rot3': 227, 'rot2': 183, 'state': 'normal', 'yaw': 20.58, 'datetime': '2018-10-05 19:47:11.552357', 'mgs': 0, 'volt': 1.001, 'depth': 3.14, 'time': 83, 'pitch': -29.56, 'roll': 20.2, 'pres': 205}
{'lipoC2': 7.82, 'lipoC3S1': 3.92, 'temp': 28.5, 'lipoC3S3': 11.84, 'lipoC3S2': 7.83, 'rot1': 289, 'rot0': 273, 'rot3': 227, 'rot2': 183, 'state': 'normal', 'yaw': 20.59, 'datetime': '2018-10-05 19:47:11.657775', 'mgs': 0, 'volt': 1.001, 'depth': 3.14, 'time': 83, 'pitch': -29.56, 'roll': 20.21, 'pres': 205}
{'lipoC2': 7.82, 'lipoC3S1': 3.92, 'temp': 28.5, 'lipoC3S3': 11.84, 'lipoC3S2': 7.83, 'rot1': 289, 'rot0': 273, 'rot3': 227, 'rot2': 183, 'state': 'normal', 'yaw': 20.59, 'datetime': '2018-10-05 19:47:11.762233', 'mgs': 0, 'volt': 1.001, 'depth': 3.14, 'time': 83, 'pitch': -29.56, 'roll': 20.21, 'pres': 205}
{'lipoC2': 7.82, 'lipoC3S1': 3.92, 'temp': 28.5, 'lipoC3S3': 11.84, 'lipoC3S2': 7.83, 'rot1': 289, 'rot0': 273, 'rot3': 227, 'rot2': 183, 'state': 'normal', 'yaw': 20.59, 'datetime': '2018-10-05 19:47:11.866258', 'mgs': 0, 'volt': 1.001, 'depth': 3.14, 'time': 84, 'pitch': -29.56, 'roll': 20.22, 'pres': 205}
{'lipoC2': 7.82, 'lipoC3S1': 3.92, 'temp': 28.5, 'lipoC3S3': 11.84, 'lipoC3S2': 7.83, 'rot1': 289, 'rot0': 273, 'rot3': 227, 'rot2': 183, 'state': 'normal', 'yaw': 20.59, 'datetime': '2018-10-05 19:47:11.971635', 'mgs': 0, 'volt': 1.001, 'depth': 3.14, 'time': 84, 'pitch': -29.56, 'roll': 20.23, 'pres': 205}
{'lipoC2': 7.82, 'lipoC3S1': 3.92, 'temp': 28.5, 'lipoC3S3': 11.84, 'lipoC3S2': 7.83, 'rot1': 289, 'rot0': 273, 'rot3': 227, 'rot2': 183, 'state': 'normal', 'yaw': 20.59, 'datetime': '2018-10-05 19:47:12.075712', 'mgs': 0, 'volt': 1.001, 'depth': 3.14, 'time': 84, 'pitch': -29.56, 'roll': 20.23, 'pres': 205}
{'lipoC2': 7.83, 'lipoC3S1': 3.92, 'temp': 28.5, 'lipoC3S3': 11.84, 'lipoC3S2': 7.83, 'rot1': 289, 'rot0': 273, 'rot3': 227, 'rot2': 183, 'state': 'normal', 'yaw': 20.59, 'datetime': '2018-10-05 19:47:12.181253', 'mgs': 0, 'volt': 1.001, 'depth': 3.14, 'time': 84, 'pitch': -29.56, 'roll': 20.23, 'pres': 205}
{'lipoC2': 7.82, 'lipoC3S1': 3.92, 'temp': 28.5, 'lipoC3S3': 11.84, 'lipoC3S2': 7.83, 'rot1': 289, 'rot0': 273, 'rot3': 227, 'rot2': 183, 'state': 'normal', 'yaw': 20.6, 'datetime': '2018-10-05 19:47:12.285390', 'mgs': 0, 'volt': 1.001, 'depth': 3.14, 'time': 84, 'pitch': -29.56, 'roll': 20.23, 'pres': 205}
{'lipoC2': 7.82, 'lipoC3S1': 3.92, 'temp': 28.5, 'lipoC3S3': 11.84, 'lipoC3S2': 7.83, 'rot1': 289, 'rot0': 273, 'rot3': 227, 'rot2': 183, 'state': 'normal', 'yaw': 20.59, 'datetime': '2018-10-05 19:47:12.391250', 'mgs': 0, 'volt': 1.001, 'depth': 3.14, 'time': 84, 'pitch': -29.57, 'roll': 20.24, 'pres': 205}
{'lipoC2': 7.83, 'lipoC3S1': 3.92, 'temp': 28.5, 'lipoC3S3': 11.84, 'lipoC3S2': 7.83, 'rot1': 289, 'rot0': 273, 'rot3': 227, 'rot2': 183, 'state': 'normal', 'yaw': 20.65, 'datetime': '2018-10-05 19:47:12.495099', 'mgs': 0, 'volt': 1.001, 'depth': 3.14, 'time': 84, 'pitch': -29.58, 'roll': 20.21, 'pres': 205}
{'lipoC2': 7.82, 'lipoC3S1': 3.92, 'temp': 28.56, 'lipoC3S3': 11.84, 'lipoC3S2': 7.83, 'rot1': 289, 'rot0': 273, 'rot3': 227, 'rot2': 183, 'state': 'normal', 'yaw': 20.72, 'datetime': '2018-10-05 19:47:12.600803', 'mgs': 0, 'volt': 1.001, 'depth': 3.14, 'time': 84, 'pitch': -29.6, 'roll': 20.18, 'pres': 205}
{'lipoC2': 7.83, 'lipoC3S1': 3.92, 'temp': 28.56, 'lipoC3S3': 11.84, 'lipoC3S2': 7.83, 'rot1': 289, 'rot0': 273, 'rot3': 227, 'rot2': 183, 'state': 'normal', 'yaw': 20.76, 'datetime': '2018-10-05 19:47:12.704968', 'mgs': 0, 'volt': 1.001, 'depth': 3.14, 'time': 84, 'pitch': -29.62, 'roll': 20.16, 'pres': 205}
{'lipoC2': 7.83, 'lipoC3S1': 3.92, 'temp': 28.5, 'lipoC3S3': 11.84, 'lipoC3S2': 7.83, 'rot1': 289, 'rot0': 273, 'rot3': 227, 'rot2': 183, 'state': 'normal', 'yaw': 20.8, 'datetime': '2018-10-05 19:47:12.810261', 'mgs': 0, 'volt': 1.001, 'depth': 3.14, 'time': 84, 'pitch': -29.62, 'roll': 20.13, 'pres': 205}
{'lipoC2': 7.83, 'lipoC3S1': 3.92, 'temp': 28.5, 'lipoC3S3': 11.84, 'lipoC3S2': 7.83, 'rot1': 289, 'rot0': 273, 'rot3': 227, 'rot2': 183, 'state': 'normal', 'yaw': 20.81, 'datetime': '2018-10-05 19:47:12.914837', 'mgs': 0, 'volt': 1.001, 'depth': 3.14, 'time': 85, 'pitch': -29.63, 'roll': 20.15, 'pres': 205}
{'lipoC2': 7.82, 'lipoC3S1': 3.92, 'temp': 28.56, 'lipoC3S3': 11.84, 'lipoC3S2': 7.83, 'rot1': 289, 'rot0': 273, 'rot3': 227, 'rot2': 183, 'state': 'normal', 'yaw': 20.81, 'datetime': '2018-10-05 19:47:13.019179', 'mgs': 0, 'volt': 1.001, 'depth': 3.14, 'time': 85, 'pitch': -29.63, 'roll': 20.15, 'pres': 205}
{'lipoC2': 7.82, 'lipoC3S1': 3.92, 'temp': 28.56, 'lipoC3S3': 11.84, 'lipoC3S2': 7.83, 'rot1': 289, 'rot0': 273, 'rot3': 227, 'rot2': 183, 'state': 'normal', 'yaw': 20.81, 'datetime': '2018-10-05 19:47:13.124516', 'mgs': 0, 'volt': 1.001, 'depth': 3.14, 'time': 85, 'pitch': -29.63, 'roll': 20.15, 'pres': 205}
{'lipoC2': 7.82, 'lipoC3S1': 3.92, 'temp': 28.56, 'lipoC3S3': 11.84, 'lipoC3S2': 7.83, 'rot1': 289, 'rot0': 273, 'rot3': 227, 'rot2': 183, 'state': 'normal', 'yaw': 20.8, 'datetime': '2018-10-05 19:47:13.228741', 'mgs': 0, 'volt': 1.001, 'depth': 3.14, 'time': 85, 'pitch': -29.63, 'roll': 20.16, 'pres': 205}
{'lipoC2': 7.83, 'lipoC3S1': 3.92, 'temp': 28.5, 'lipoC3S3': 11.84, 'lipoC3S2': 7.83, 'rot1': 289, 'rot0': 273, 'rot3': 227, 'rot2': 183, 'state': 'normal', 'yaw': 20.8, 'datetime': '2018-10-05 19:47:13.334187', 'mgs': 0, 'volt': 1.001, 'depth': 3.14, 'time': 85, 'pitch': -29.63, 'roll': 20.16, 'pres': 205}
{'lipoC2': 7.83, 'lipoC3S1': 3.92, 'temp': 28.5, 'lipoC3S3': 11.84, 'lipoC3S2': 7.83, 'rot1': 289, 'rot0': 273, 'rot3': 227, 'rot2': 183, 'state': 'normal', 'yaw': 20.8, 'datetime': '2018-10-05 19:47:13.440345', 'mgs': 0, 'volt': 0.9961, 'depth': 3.064, 'time': 85, 'pitch': -29.63, 'roll': 20.18, 'pres': 204}
{'lipoC2': 7.82, 'lipoC3S1': 3.92, 'temp': 28.5, 'lipoC3S3': 11.84, 'lipoC3S2': 7.83, 'rot1': 289, 'rot0': 273, 'rot3': 227, 'rot2': 183, 'state': 'normal', 'yaw': 20.8, 'datetime': '2018-10-05 19:47:13.543973', 'mgs': 0, 'volt': 1.001, 'depth': 3.14, 'time': 85, 'pitch': -29.63, 'roll': 20.18, 'pres': 205}
{'lipoC2': 7.82, 'lipoC3S1': 3.92, 'temp': 28.5, 'lipoC3S3': 11.84, 'lipoC3S2': 7.83, 'rot1': 289, 'rot0': 273, 'rot3': 227, 'rot2': 183, 'state': 'normal', 'yaw': 20.8, 'datetime': '2018-10-05 19:47:13.648175', 'mgs': 0, 'volt': 0.9961, 'depth': 3.064, 'time': 85, 'pitch': -29.63, 'roll': 20.19, 'pres': 204}
{'lipoC2': 7.82, 'lipoC3S1': 3.92, 'temp': 28.5, 'lipoC3S3': 11.84, 'lipoC3S2': 7.83, 'rot1': 289, 'rot0': 273, 'rot3': 227, 'rot2': 183, 'state': 'normal', 'yaw': 20.8, 'datetime': '2018-10-05 19:47:13.753719', 'mgs': 0, 'volt': 1.001, 'depth': 3.14, 'time': 85, 'pitch': -29.63, 'roll': 20.19, 'pres': 205}
{'lipoC2': 7.82, 'lipoC3S1': 3.92, 'temp': 28.5, 'lipoC3S3': 11.84, 'lipoC3S2': 7.83, 'rot1': 289, 'rot0': 273, 'rot3': 227, 'rot2': 183, 'state': 'normal', 'yaw': 20.8, 'datetime': '2018-10-05 19:47:13.858363', 'mgs': 0, 'volt': 1.001, 'depth': 3.14, 'time': 86, 'pitch': -29.63, 'roll': 20.19, 'pres': 205}
{'lipoC2': 7.82, 'lipoC3S1': 3.92, 'temp': 28.5, 'lipoC3S3': 11.84, 'lipoC3S2': 7.83, 'rot1': 289, 'rot0': 273, 'rot3': 227, 'rot2': 183, 'state': 'normal', 'yaw': 20.8, 'datetime': '2018-10-05 19:47:13.962859', 'mgs': 0, 'volt': 0.9961, 'depth': 3.064, 'time': 86, 'pitch': -29.63, 'roll': 20.19, 'pres': 204}
{'lipoC2': 7.82, 'lipoC3S1': 3.92, 'temp': 28.5, 'lipoC3S3': 11.84, 'lipoC3S2': 7.83, 'rot1': 289, 'rot0': 273, 'rot3': 227, 'rot2': 183, 'state': 'normal', 'yaw': 20.8, 'datetime': '2018-10-05 19:47:14.067961', 'mgs': 0, 'volt': 1.001, 'depth': 3.14, 'time': 86, 'pitch': -29.63, 'roll': 20.19, 'pres': 205}
{'lipoC2': 7.82, 'lipoC3S1': 3.92, 'temp': 28.5, 'lipoC3S3': 11.84, 'lipoC3S2': 7.83, 'rot1': 289, 'rot0': 273, 'rot3': 227, 'rot2': 183, 'state': 'normal', 'yaw': 20.8, 'datetime': '2018-10-05 19:47:14.172093', 'mgs': 0, 'volt': 0.9961, 'depth': 3.064, 'time': 86, 'pitch': -29.63, 'roll': 20.19, 'pres': 204}
{'lipoC2': 7.82, 'lipoC3S1': 3.92, 'temp': 28.56, 'lipoC3S3': 11.84, 'lipoC3S2': 7.83, 'rot1': 289, 'rot0': 273, 'rot3': 227, 'rot2': 183, 'state': 'normal', 'yaw': 20.8, 'datetime': '2018-10-05 19:47:14.277327', 'mgs': 0, 'volt': 0.9961, 'depth': 3.064, 'time': 86, 'pitch': -29.63, 'roll': 20.2, 'pres': 204}
{'lipoC2': 7.82, 'lipoC3S1': 3.92, 'temp': 28.56, 'lipoC3S3': 11.85, 'lipoC3S2': 7.83, 'rot1': 289, 'rot0': 273, 'rot3': 227, 'rot2': 183, 'state': 'normal', 'yaw': 20.8, 'datetime': '2018-10-05 19:47:14.381438', 'mgs': 0, 'volt': 0.9961, 'depth': 3.064, 'time': 86, 'pitch': -29.63, 'roll': 20.2, 'pres': 204}
{'lipoC2': 7.82, 'lipoC3S1': 3.92, 'temp': 28.5, 'lipoC3S3': 11.84, 'lipoC3S2': 7.83, 'rot1': 289, 'rot0': 273, 'rot3': 227, 'rot2': 183, 'state': 'normal', 'yaw': 20.8, 'datetime': '2018-10-05 19:47:14.486978', 'mgs': 0, 'volt': 0.9961, 'depth': 3.064, 'time': 86, 'pitch': -29.63, 'roll': 20.2, 'pres': 204}
{'lipoC2': 7.82, 'lipoC3S1': 3.92, 'temp': 28.5, 'lipoC3S3': 11.85, 'lipoC3S2': 7.83, 'rot1': 289, 'rot0': 273, 'rot3': 227, 'rot2': 183, 'state': 'normal', 'yaw': 20.8, 'datetime': '2018-10-05 19:47:14.591310', 'mgs': 0, 'volt': 0.9961, 'depth': 3.064, 'time': 86, 'pitch': -29.63, 'roll': 20.2, 'pres': 204}
{'lipoC2': 7.82, 'lipoC3S1': 3.92, 'temp': 28.5, 'lipoC3S3': 11.84, 'lipoC3S2': 7.83, 'rot1': 289, 'rot0': 273, 'rot3': 227, 'rot2': 183, 'state': 'normal', 'yaw': 20.8, 'datetime': '2018-10-05 19:47:14.696802', 'mgs': 0, 'volt': 1.001, 'depth': 3.14, 'time': 86, 'pitch': -29.63, 'roll': 20.2, 'pres': 205}
{'lipoC2': 7.82, 'lipoC3S1': 3.92, 'temp': 28.5, 'lipoC3S3': 11.84, 'lipoC3S2': 7.83, 'rot1': 289, 'rot0': 273, 'rot3': 227, 'rot2': 183, 'state': 'normal', 'yaw': 20.8, 'datetime': '2018-10-05 19:47:14.800888', 'mgs': 0, 'volt': 0.9961, 'depth': 3.064, 'time': 86, 'pitch': -29.63, 'roll': 20.2, 'pres': 204}
{'lipoC2': 7.82, 'lipoC3S1': 3.92, 'temp': 28.5, 'lipoC3S3': 11.84, 'lipoC3S2': 7.83, 'rot1': 289, 'rot0': 273, 'rot3': 227, 'rot2': 183, 'state': 'normal', 'yaw': 20.8, 'datetime': '2018-10-05 19:47:14.906428', 'mgs': 0, 'volt': 1.001, 'depth': 3.14, 'time': 87, 'pitch': -29.63, 'roll': 20.2, 'pres': 205}
{'lipoC2': 7.82, 'lipoC3S1': 3.92, 'temp': 28.5, 'lipoC3S3': 11.85, 'lipoC3S2': 7.83, 'rot1': 289, 'rot0': 273, 'rot3': 227, 'rot2': 183, 'state': 'normal', 'yaw': 20.8, 'datetime': '2018-10-05 19:47:15.010803', 'mgs': 0, 'volt': 1.001, 'depth': 3.14, 'time': 87, 'pitch': -29.63, 'roll': 20.2, 'pres': 205}
{'lipoC2': 7.82, 'lipoC3S1': 3.92, 'temp': 28.5, 'lipoC3S3': 11.84, 'lipoC3S2': 7.84, 'rot1': 289, 'rot0': 273, 'rot3': 227, 'rot2': 183, 'state': 'normal', 'yaw': 20.79, 'datetime': '2018-10-05 19:47:15.115281', 'mgs': 0, 'volt': 0.9961, 'depth': 3.064, 'time': 87, 'pitch': -29.5, 'roll': 20.25, 'pres': 204}
{'lipoC2': 7.82, 'lipoC3S1': 3.92, 'temp': 28.5, 'lipoC3S3': 11.84, 'lipoC3S2': 7.83, 'rot1': 289, 'rot0': 273, 'rot3': 227, 'rot2': 183, 'state': 'normal', 'yaw': 20.95, 'datetime': '2018-10-05 19:47:15.220765', 'mgs': 0, 'volt': 1.001, 'depth': 3.14, 'time': 87, 'pitch': -29.19, 'roll': 20.19, 'pres': 205}
{'lipoC2': 7.82, 'lipoC3S1': 3.92, 'temp': 28.5, 'lipoC3S3': 11.84, 'lipoC3S2': 7.83, 'rot1': 289, 'rot0': 273, 'rot3': 227, 'rot2': 183, 'state': 'normal', 'yaw': 21.32, 'datetime': '2018-10-05 19:47:15.324748', 'mgs': 0, 'volt': 1.001, 'depth': 3.14, 'time': 87, 'pitch': -28.78, 'roll': 20.01, 'pres': 205}
{'lipoC2': 7.82, 'lipoC3S1': 3.92, 'temp': 28.5, 'lipoC3S3': 11.84, 'lipoC3S2': 7.83, 'rot1': 289, 'rot0': 273, 'rot3': 227, 'rot2': 183, 'state': 'normal', 'yaw': 21.69, 'datetime': '2018-10-05 19:47:15.429235', 'mgs': 0, 'volt': 1.001, 'depth': 3.14, 'time': 87, 'pitch': -28.41, 'roll': 19.92, 'pres': 205}
{'lipoC2': 7.82, 'lipoC3S1': 3.92, 'temp': 28.5, 'lipoC3S3': 11.84, 'lipoC3S2': 7.83, 'rot1': 289, 'rot0': 273, 'rot3': 227, 'rot2': 183, 'state': 'normal', 'yaw': 21.86, 'datetime': '2018-10-05 19:47:15.533222', 'mgs': 0, 'volt': 1.001, 'depth': 3.14, 'time': 87, 'pitch': -28.08, 'roll': 19.88, 'pres': 205}
{'lipoC2': 7.82, 'lipoC3S1': 3.92, 'temp': 28.5, 'lipoC3S3': 11.84, 'lipoC3S2': 7.83, 'rot1': 289, 'rot0': 273, 'rot3': 227, 'rot2': 183, 'state': 'normal', 'yaw': 22.32, 'datetime': '2018-10-05 19:47:15.637653', 'mgs': 0, 'volt': 1.001, 'depth': 3.14, 'time': 87, 'pitch': -28.0, 'roll': 19.63, 'pres': 205}
{'lipoC2': 7.82, 'lipoC3S1': 3.92, 'temp': 28.5, 'lipoC3S3': 11.85, 'lipoC3S2': 7.83, 'rot1': 289, 'rot0': 273, 'rot3': 227, 'rot2': 183, 'state': 'normal', 'yaw': 23.13, 'datetime': '2018-10-05 19:47:15.741989', 'mgs': 0, 'volt': 1.001, 'depth': 3.14, 'time': 87, 'pitch': -28.28, 'roll': 19.16, 'pres': 205}
{'lipoC2': 7.82, 'lipoC3S1': 3.92, 'temp': 28.5, 'lipoC3S3': 11.84, 'lipoC3S2': 7.83, 'rot1': 289, 'rot0': 273, 'rot3': 227, 'rot2': 183, 'state': 'normal', 'yaw': 24.44, 'datetime': '2018-10-05 19:47:15.846140', 'mgs': 0, 'volt': 1.001, 'depth': 3.14, 'time': 88, 'pitch': -28.69, 'roll': 18.56, 'pres': 205}
{'lipoC2': 7.82, 'lipoC3S1': 3.92, 'temp': 28.5, 'lipoC3S3': 11.84, 'lipoC3S2': 7.83, 'rot1': 289, 'rot0': 273, 'rot3': 227, 'rot2': 183, 'state': 'normal', 'yaw': 25.56, 'datetime': '2018-10-05 19:47:15.951623', 'mgs': 0, 'volt': 1.001, 'depth': 3.14, 'time': 88, 'pitch': -28.92, 'roll': 18.19, 'pres': 205}
{'lipoC2': 7.82, 'lipoC3S1': 3.92, 'temp': 28.5, 'lipoC3S3': 11.85, 'lipoC3S2': 7.83, 'rot1': 289, 'rot0': 273, 'rot3': 227, 'rot2': 183, 'state': 'normal', 'yaw': 26.41, 'datetime': '2018-10-05 19:47:16.055834', 'mgs': 0, 'volt': 1.001, 'depth': 3.14, 'time': 88, 'pitch': -29.13, 'roll': 17.99, 'pres': 205}
{'lipoC2': 7.82, 'lipoC3S1': 3.92, 'temp': 28.5, 'lipoC3S3': 11.84, 'lipoC3S2': 7.83, 'rot1': 289, 'rot0': 273, 'rot3': 227, 'rot2': 183, 'state': 'normal', 'yaw': 26.78, 'datetime': '2018-10-05 19:47:16.161360', 'mgs': 0, 'volt': 1.001, 'depth': 3.14, 'time': 88, 'pitch': -29.36, 'roll': 18.15, 'pres': 205}
{'lipoC2': 7.82, 'lipoC3S1': 3.92, 'temp': 28.5, 'lipoC3S3': 11.85, 'lipoC3S2': 7.83, 'rot1': 289, 'rot0': 273, 'rot3': 227, 'rot2': 183, 'state': 'normal', 'yaw': 26.01, 'datetime': '2018-10-05 19:47:16.265597', 'mgs': 0, 'volt': 1.001, 'depth': 3.14, 'time': 88, 'pitch': -29.68, 'roll': 19.08, 'pres': 205}
{'lipoC2': 7.82, 'lipoC3S1': 3.92, 'temp': 28.5, 'lipoC3S3': 11.85, 'lipoC3S2': 7.83, 'rot1': 289, 'rot0': 273, 'rot3': 227, 'rot2': 183, 'state': 'normal', 'yaw': 25.35, 'datetime': '2018-10-05 19:47:16.371389', 'mgs': 0, 'volt': 1.0059, 'depth': 3.217, 'time': 88, 'pitch': -29.51, 'roll': 19.75, 'pres': 206}
{'lipoC2': 7.82, 'lipoC3S1': 3.92, 'temp': 28.5, 'lipoC3S3': 11.85, 'lipoC3S2': 7.83, 'rot1': 289, 'rot0': 273, 'rot3': 227, 'rot2': 183, 'state': 'normal', 'yaw': 25.62, 'datetime': '2018-10-05 19:47:16.475448', 'mgs': 0, 'volt': 1.001, 'depth': 3.14, 'time': 88, 'pitch': -29.49, 'roll': 19.59, 'pres': 205}
{'lipoC2': 7.82, 'lipoC3S1': 3.92, 'temp': 28.5, 'lipoC3S3': 11.84, 'lipoC3S2': 7.83, 'rot1': 289, 'rot0': 273, 'rot3': 227, 'rot2': 183, 'state': 'normal', 'yaw': 25.07, 'datetime': '2018-10-05 19:47:16.579503', 'mgs': 0, 'volt': 1.001, 'depth': 3.14, 'time': 88, 'pitch': -29.81, 'roll': 19.86, 'pres': 205}
{'lipoC2': 7.82, 'lipoC3S1': 3.92, 'temp': 28.5, 'lipoC3S3': 11.84, 'lipoC3S2': 7.83, 'rot1': 289, 'rot0': 273, 'rot3': 227, 'rot2': 183, 'state': 'normal', 'yaw': 24.65, 'datetime': '2018-10-05 19:47:16.683986', 'mgs': 0, 'volt': 1.001, 'depth': 3.14, 'time': 88, 'pitch': -30.14, 'roll': 19.85, 'pres': 205}
{'lipoC2': 7.83, 'lipoC3S1': 3.92, 'temp': 28.5, 'lipoC3S3': 11.84, 'lipoC3S2': 7.83, 'rot1': 289, 'rot0': 273, 'rot3': 227, 'rot2': 183, 'state': 'normal', 'yaw': 25.12, 'datetime': '2018-10-05 19:47:16.788527', 'mgs': 0, 'volt': 0.9912, 'depth': 2.988, 'time': 88, 'pitch': -30.44, 'roll': 18.9, 'pres': 203}
{'lipoC2': 7.82, 'lipoC3S1': 3.92, 'temp': 28.5, 'lipoC3S3': 11.84, 'lipoC3S2': 7.83, 'rot1': 289, 'rot0': 273, 'rot3': 227, 'rot2': 183, 'state': 'normal', 'yaw': 25.12, 'datetime': '2018-10-05 19:47:16.893307', 'mgs': 0, 'volt': 1.001, 'depth': 3.14, 'time': 89, 'pitch': -30.89, 'roll': 19.0, 'pres': 205}
{'lipoC2': 7.82, 'lipoC3S1': 3.92, 'temp': 28.5, 'lipoC3S3': 11.85, 'lipoC3S2': 7.83, 'rot1': 289, 'rot0': 273, 'rot3': 227, 'rot2': 183, 'state': 'normal', 'yaw': 25.48, 'datetime': '2018-10-05 19:47:16.996698', 'mgs': 0, 'volt': 1.001, 'depth': 3.14, 'time': 89, 'pitch': -31.02, 'roll': 18.87, 'pres': 205}
{'lipoC2': 7.82, 'lipoC3S1': 3.92, 'temp': 28.5, 'lipoC3S3': 11.84, 'lipoC3S2': 7.83, 'rot1': 289, 'rot0': 273, 'rot3': 227, 'rot2': 183, 'state': 'normal', 'yaw': 25.73, 'datetime': '2018-10-05 19:47:17.101131', 'mgs': 0, 'volt': 1.001, 'depth': 3.14, 'time': 89, 'pitch': -30.94, 'roll': 18.8, 'pres': 205}
{'lipoC2': 7.82, 'lipoC3S1': 3.92, 'temp': 28.44, 'lipoC3S3': 11.84, 'lipoC3S2': 7.83, 'rot1': 289, 'rot0': 273, 'rot3': 227, 'rot2': 183, 'state': 'normal', 'yaw': 25.86, 'datetime': '2018-10-05 19:47:17.205711', 'mgs': 0, 'volt': 1.001, 'depth': 3.14, 'time': 89, 'pitch': -30.78, 'roll': 18.74, 'pres': 205}
{'lipoC2': 7.82, 'lipoC3S1': 3.92, 'temp': 28.44, 'lipoC3S3': 11.84, 'lipoC3S2': 7.83, 'rot1': 289, 'rot0': 273, 'rot3': 227, 'rot2': 183, 'state': 'normal', 'yaw': 26.11, 'datetime': '2018-10-05 19:47:17.310027', 'mgs': 0, 'volt': 1.001, 'depth': 3.14, 'time': 89, 'pitch': -30.56, 'roll': 18.61, 'pres': 205}
{'lipoC2': 7.82, 'lipoC3S1': 3.92, 'temp': 28.56, 'lipoC3S3': 11.84, 'lipoC3S2': 7.83, 'rot1': 289, 'rot0': 273, 'rot3': 227, 'rot2': 183, 'state': 'normal', 'yaw': 26.56, 'datetime': '2018-10-05 19:47:17.415531', 'mgs': 0, 'volt': 1.001, 'depth': 3.14, 'time': 89, 'pitch': -30.42, 'roll': 18.42, 'pres': 205}
{'lipoC2': 7.82, 'lipoC3S1': 3.92, 'temp': 28.56, 'lipoC3S3': 11.84, 'lipoC3S2': 7.83, 'rot1': 289, 'rot0': 273, 'rot3': 227, 'rot2': 183, 'state': 'normal', 'yaw': 27.14, 'datetime': '2018-10-05 19:47:17.519791', 'mgs': 0, 'volt': 1.001, 'depth': 3.14, 'time': 89, 'pitch': -30.34, 'roll': 18.27, 'pres': 205}
{'lipoC2': 7.82, 'lipoC3S1': 3.92, 'temp': 28.5, 'lipoC3S3': 11.85, 'lipoC3S2': 7.83, 'rot1': 289, 'rot0': 273, 'rot3': 227, 'rot2': 183, 'state': 'normal', 'yaw': 27.72, 'datetime': '2018-10-05 19:47:17.625684', 'mgs': 0, 'volt': 1.001, 'depth': 3.14, 'time': 89, 'pitch': -30.51, 'roll': 17.99, 'pres': 205}
{'lipoC2': 7.82, 'lipoC3S1': 3.92, 'temp': 28.5, 'lipoC3S3': 11.84, 'lipoC3S2': 7.83, 'rot1': 289, 'rot0': 273, 'rot3': 227, 'rot2': 183, 'state': 'normal', 'yaw': 28.0, 'datetime': '2018-10-05 19:47:17.729458', 'mgs': 0, 'volt': 1.001, 'depth': 3.14, 'time': 89, 'pitch': -31.03, 'roll': 18.01, 'pres': 205}
{'lipoC2': 7.82, 'lipoC3S1': 3.92, 'temp': 28.5, 'lipoC3S3': 11.85, 'lipoC3S2': 7.83, 'rot1': 289, 'rot0': 273, 'rot3': 227, 'rot2': 183, 'state': 'normal', 'yaw': 27.72, 'datetime': '2018-10-05 19:47:17.833772', 'mgs': 0, 'volt': 1.001, 'depth': 3.14, 'time': 90, 'pitch': -31.51, 'roll': 18.26, 'pres': 205}
{'lipoC2': 7.82, 'lipoC3S1': 3.92, 'temp': 28.5, 'lipoC3S3': 11.84, 'lipoC3S2': 7.83, 'rot1': 289, 'rot0': 273, 'rot3': 227, 'rot2': 183, 'state': 'normal', 'yaw': 27.42, 'datetime': '2018-10-05 19:47:17.938226', 'mgs': 0, 'volt': 1.001, 'depth': 3.14, 'time': 90, 'pitch': -31.84, 'roll': 18.42, 'pres': 205}
{'lipoC2': 7.82, 'lipoC3S1': 3.92, 'temp': 28.5, 'lipoC3S3': 11.85, 'lipoC3S2': 7.83, 'rot1': 289, 'rot0': 273, 'rot3': 227, 'rot2': 183, 'state': 'normal', 'yaw': 27.2, 'datetime': '2018-10-05 19:47:18.042720', 'mgs': 0, 'volt': 1.001, 'depth': 3.14, 'time': 90, 'pitch': -31.98, 'roll': 18.4, 'pres': 205}
{'lipoC2': 7.82, 'lipoC3S1': 3.92, 'temp': 28.5, 'lipoC3S3': 11.84, 'lipoC3S2': 7.83, 'rot1': 289, 'rot0': 273, 'rot3': 227, 'rot2': 183, 'state': 'normal', 'yaw': 26.95, 'datetime': '2018-10-05 19:47:18.146667', 'mgs': 0, 'volt': 1.001, 'depth': 3.14, 'time': 90, 'pitch': -31.85, 'roll': 18.46, 'pres': 205}
{'lipoC2': 7.82, 'lipoC3S1': 3.92, 'temp': 28.5, 'lipoC3S3': 11.84, 'lipoC3S2': 7.83, 'rot1': 289, 'rot0': 273, 'rot3': 227, 'rot2': 183, 'state': 'normal', 'yaw': 26.84, 'datetime': '2018-10-05 19:47:18.250886', 'mgs': 0, 'volt': 1.001, 'depth': 3.14, 'time': 90, 'pitch': -31.73, 'roll': 18.5, 'pres': 205}
{'lipoC2': 7.82, 'lipoC3S1': 3.92, 'temp': 28.5, 'lipoC3S3': 11.85, 'lipoC3S2': 7.83, 'rot1': 289, 'rot0': 273, 'rot3': 227, 'rot2': 183, 'state': 'normal', 'yaw': 26.75, 'datetime': '2018-10-05 19:47:18.356737', 'mgs': 0, 'volt': 0.9961, 'depth': 3.064, 'time': 90, 'pitch': -31.84, 'roll': 18.58, 'pres': 204}
{'lipoC2': 7.82, 'lipoC3S1': 3.92, 'temp': 28.5, 'lipoC3S3': 11.84, 'lipoC3S2': 7.83, 'rot1': 289, 'rot0': 273, 'rot3': 227, 'rot2': 183, 'state': 'normal', 'yaw': 26.8, 'datetime': '2018-10-05 19:47:18.460733', 'mgs': 0, 'volt': 0.9961, 'depth': 3.064, 'time': 90, 'pitch': -32.14, 'roll': 18.56, 'pres': 204}
{'lipoC2': 7.82, 'lipoC3S1': 3.92, 'temp': 28.5, 'lipoC3S3': 11.84, 'lipoC3S2': 7.83, 'rot1': 289, 'rot0': 273, 'rot3': 227, 'rot2': 183, 'state': 'normal', 'yaw': 26.93, 'datetime': '2018-10-05 19:47:18.566136', 'mgs': 0, 'volt': 0.9961, 'depth': 3.064, 'time': 90, 'pitch': -32.38, 'roll': 18.53, 'pres': 204}
{'lipoC2': 7.82, 'lipoC3S1': 3.92, 'temp': 28.5, 'lipoC3S3': 11.85, 'lipoC3S2': 7.83, 'rot1': 289, 'rot0': 273, 'rot3': 227, 'rot2': 183, 'state': 'normal', 'yaw': 27.09, 'datetime': '2018-10-05 19:47:18.670469', 'mgs': 0, 'volt': 0.9961, 'depth': 3.064, 'time': 90, 'pitch': -32.45, 'roll': 18.54, 'pres': 204}
{'lipoC2': 7.82, 'lipoC3S1': 3.92, 'temp': 28.5, 'lipoC3S3': 11.84, 'lipoC3S2': 7.83, 'rot1': 289, 'rot0': 273, 'rot3': 227, 'rot2': 183, 'state': 'normal', 'yaw': 27.14, 'datetime': '2018-10-05 19:47:18.774909', 'mgs': 0, 'volt': 0.9961, 'depth': 3.064, 'time': 90, 'pitch': -32.47, 'roll': 18.6, 'pres': 204}
{'lipoC2': 7.82, 'lipoC3S1': 3.92, 'temp': 28.5, 'lipoC3S3': 11.84, 'lipoC3S2': 7.83, 'rot1': 289, 'rot0': 273, 'rot3': 227, 'rot2': 183, 'state': 'normal', 'yaw': 27.21, 'datetime': '2018-10-05 19:47:18.880253', 'mgs': 0, 'volt': 0.9961, 'depth': 3.064, 'time': 91, 'pitch': -32.48, 'roll': 18.58, 'pres': 204}
{'lipoC2': 7.82, 'lipoC3S1': 3.92, 'temp': 28.5, 'lipoC3S3': 11.84, 'lipoC3S2': 7.83, 'rot1': 289, 'rot0': 273, 'rot3': 227, 'rot2': 183, 'state': 'normal', 'yaw': 27.3, 'datetime': '2018-10-05 19:47:18.984510', 'mgs': 0, 'volt': 0.9961, 'depth': 3.064, 'time': 91, 'pitch': -32.51, 'roll': 18.54, 'pres': 204}
{'lipoC2': 7.82, 'lipoC3S1': 3.92, 'temp': 28.5, 'lipoC3S3': 11.84, 'lipoC3S2': 7.83, 'rot1': 289, 'rot0': 273, 'rot3': 227, 'rot2': 183, 'state': 'normal', 'yaw': 27.31, 'datetime': '2018-10-05 19:47:19.088843', 'mgs': 0, 'volt': 1.001, 'depth': 3.14, 'time': 91, 'pitch': -32.59, 'roll': 18.5, 'pres': 205}
{'lipoC2': 7.82, 'lipoC3S1': 3.92, 'temp': 28.5, 'lipoC3S3': 11.84, 'lipoC3S2': 7.84, 'rot1': 289, 'rot0': 273, 'rot3': 227, 'rot2': 183, 'state': 'normal', 'yaw': 27.09, 'datetime': '2018-10-05 19:47:19.193034', 'mgs': 0, 'volt': 0.9961, 'depth': 3.064, 'time': 91, 'pitch': -32.81, 'roll': 18.47, 'pres': 204}
{'lipoC2': 7.82, 'lipoC3S1': 3.92, 'temp': 28.56, 'lipoC3S3': 11.84, 'lipoC3S2': 7.83, 'rot1': 289, 'rot0': 273, 'rot3': 227, 'rot2': 183, 'state': 'normal', 'yaw': 26.73, 'datetime': '2018-10-05 19:47:19.297201', 'mgs': 0, 'volt': 1.001, 'depth': 3.14, 'time': 91, 'pitch': -32.83, 'roll': 18.63, 'pres': 205}
{'lipoC2': 7.82, 'lipoC3S1': 3.92, 'temp': 28.56, 'lipoC3S3': 11.85, 'lipoC3S2': 7.83, 'rot1': 289, 'rot0': 273, 'rot3': 227, 'rot2': 183, 'state': 'normal', 'yaw': 26.44, 'datetime': '2018-10-05 19:47:19.401574', 'mgs': 0, 'volt': 0.9961, 'depth': 3.064, 'time': 91, 'pitch': -32.75, 'roll': 18.8, 'pres': 204}
{'lipoC2': 7.82, 'lipoC3S1': 3.92, 'temp': 28.56, 'lipoC3S3': 11.85, 'lipoC3S2': 7.83, 'rot1': 289, 'rot0': 273, 'rot3': 227, 'rot2': 183, 'state': 'normal', 'yaw': 26.18, 'datetime': '2018-10-05 19:47:19.506009', 'mgs': 0, 'volt': 1.001, 'depth': 3.14, 'time': 91, 'pitch': -32.68, 'roll': 18.94, 'pres': 205}
{'lipoC2': 7.83, 'lipoC3S1': 3.92, 'temp': 28.5, 'lipoC3S3': 11.85, 'lipoC3S2': 7.83, 'rot1': 289, 'rot0': 273, 'rot3': 227, 'rot2': 183, 'state': 'normal', 'yaw': 25.99, 'datetime': '2018-10-05 19:47:19.611577', 'mgs': 0, 'volt': 1.001, 'depth': 3.14, 'time': 91, 'pitch': -32.62, 'roll': 19.04, 'pres': 205}
{'lipoC2': 7.82, 'lipoC3S1': 3.92, 'temp': 28.5, 'lipoC3S3': 11.84, 'lipoC3S2': 7.83, 'rot1': 289, 'rot0': 273, 'rot3': 227, 'rot2': 183, 'state': 'normal', 'yaw': 25.92, 'datetime': '2018-10-05 19:47:19.715793', 'mgs': 0, 'volt': 0.9961, 'depth': 3.064, 'time': 91, 'pitch': -32.5, 'roll': 19.08, 'pres': 204}
{'lipoC2': 7.82, 'lipoC3S1': 3.92, 'temp': 28.5, 'lipoC3S3': 11.85, 'lipoC3S2': 7.83, 'rot1': 289, 'rot0': 273, 'rot3': 227, 'rot2': 183, 'state': 'normal', 'yaw': 25.99, 'datetime': '2018-10-05 19:47:19.821178', 'mgs': 0, 'volt': 0.9961, 'depth': 3.064, 'time': 91, 'pitch': -32.5, 'roll': 19.0, 'pres': 204}
{'lipoC2': 7.83, 'lipoC3S1': 3.92, 'temp': 28.5, 'lipoC3S3': 11.84, 'lipoC3S2': 7.83, 'rot1': 289, 'rot0': 273, 'rot3': 227, 'rot2': 183, 'state': 'normal', 'yaw': 26.18, 'datetime': '2018-10-05 19:47:19.925575', 'mgs': 0, 'volt': 1.001, 'depth': 3.14, 'time': 92, 'pitch': -32.63, 'roll': 18.8, 'pres': 205}
{'lipoC2': 7.82, 'lipoC3S1': 3.92, 'temp': 28.5, 'lipoC3S3': 11.85, 'lipoC3S2': 7.83, 'rot1': 289, 'rot0': 273, 'rot3': 227, 'rot2': 183, 'state': 'normal', 'yaw': 26.32, 'datetime': '2018-10-05 19:47:20.030810', 'mgs': 0, 'volt': 1.001, 'depth': 3.14, 'time': 92, 'pitch': -32.66, 'roll': 18.86, 'pres': 205}
{'lipoC2': 7.83, 'lipoC3S1': 3.92, 'temp': 28.5, 'lipoC3S3': 11.84, 'lipoC3S2': 7.83, 'rot1': 289, 'rot0': 273, 'rot3': 227, 'rot2': 183, 'state': 'normal', 'yaw': 26.58, 'datetime': '2018-10-05 19:47:20.134621', 'mgs': 0, 'volt': 0.9961, 'depth': 3.064, 'time': 92, 'pitch': -32.74, 'roll': 18.87, 'pres': 204}
{'lipoC2': 7.82, 'lipoC3S1': 3.92, 'temp': 28.5, 'lipoC3S3': 11.84, 'lipoC3S2': 7.83, 'rot1': 289, 'rot0': 273, 'rot3': 227, 'rot2': 183, 'state': 'normal', 'yaw': 26.75, 'datetime': '2018-10-05 19:47:20.241802', 'mgs': 0, 'volt': 0.9961, 'depth': 3.064, 'time': 92, 'pitch': -32.79, 'roll': 18.95, 'pres': 204}
{'lipoC2': 7.82, 'lipoC3S1': 3.92, 'temp': 28.44, 'lipoC3S3': 11.85, 'lipoC3S2': 7.84, 'rot1': 289, 'rot0': 273, 'rot3': 227, 'rot2': 183, 'state': 'normal', 'yaw': 26.88, 'datetime': '2018-10-05 19:47:20.346735', 'mgs': 0, 'volt': 0.9961, 'depth': 3.064, 'time': 92, 'pitch': -32.8, 'roll': 18.94, 'pres': 204}
{'lipoC2': 7.82, 'lipoC3S1': 3.92, 'temp': 28.44, 'lipoC3S3': 11.84, 'lipoC3S2': 7.83, 'rot1': 289, 'rot0': 273, 'rot3': 227, 'rot2': 183, 'state': 'normal', 'yaw': 26.94, 'datetime': '2018-10-05 19:47:20.451006', 'mgs': 0, 'volt': 0.9961, 'depth': 3.064, 'time': 92, 'pitch': -32.82, 'roll': 18.93, 'pres': 204}
{'lipoC2': 7.82, 'lipoC3S1': 3.92, 'temp': 28.5, 'lipoC3S3': 11.84, 'lipoC3S2': 7.83, 'rot1': 289, 'rot0': 273, 'rot3': 227, 'rot2': 183, 'state': 'normal', 'yaw': 26.91, 'datetime': '2018-10-05 19:47:20.556512', 'mgs': 0, 'volt': 0.9961, 'depth': 3.064, 'time': 92, 'pitch': -32.84, 'roll': 18.95, 'pres': 204}
{'lipoC2': 7.82, 'lipoC3S1': 3.92, 'temp': 28.5, 'lipoC3S3': 11.84, 'lipoC3S2': 7.83, 'rot1': 289, 'rot0': 273, 'rot3': 227, 'rot2': 183, 'state': 'normal', 'yaw': 26.81, 'datetime': '2018-10-05 19:47:20.660732', 'mgs': 0, 'volt': 0.9961, 'depth': 3.064, 'time': 92, 'pitch': -32.81, 'roll': 19.0, 'pres': 204}
{'lipoC2': 7.82, 'lipoC3S1': 3.92, 'temp': 28.5, 'lipoC3S3': 11.85, 'lipoC3S2': 7.83, 'rot1': 289, 'rot0': 273, 'rot3': 227, 'rot2': 183, 'state': 'normal', 'yaw': 26.79, 'datetime': '2018-10-05 19:47:20.766209', 'mgs': 0, 'volt': 0.9961, 'depth': 3.064, 'time': 92, 'pitch': -32.81, 'roll': 19.01, 'pres': 204}
{'lipoC2': 7.82, 'lipoC3S1': 3.92, 'temp': 28.5, 'lipoC3S3': 11.85, 'lipoC3S2': 7.83, 'rot1': 289, 'rot0': 273, 'rot3': 227, 'rot2': 183, 'state': 'normal', 'yaw': 26.79, 'datetime': '2018-10-05 19:47:20.870514', 'mgs': 0, 'volt': 0.9961, 'depth': 3.064, 'time': 93, 'pitch': -32.8, 'roll': 19.01, 'pres': 204}
{'lipoC2': 7.82, 'lipoC3S1': 3.92, 'temp': 28.5, 'lipoC3S3': 11.84, 'lipoC3S2': 7.83, 'rot1': 289, 'rot0': 273, 'rot3': 227, 'rot2': 183, 'state': 'normal', 'yaw': 26.79, 'datetime': '2018-10-05 19:47:20.975951', 'mgs': 0, 'volt': 0.9961, 'depth': 3.064, 'time': 93, 'pitch': -32.8, 'roll': 19.01, 'pres': 204}
{'lipoC2': 7.82, 'lipoC3S1': 3.92, 'temp': 28.5, 'lipoC3S3': 11.85, 'lipoC3S2': 7.83, 'rot1': 289, 'rot0': 273, 'rot3': 227, 'rot2': 183, 'state': 'normal', 'yaw': 26.78, 'datetime': '2018-10-05 19:47:21.080139', 'mgs': 0, 'volt': 0.9961, 'depth': 3.064, 'time': 93, 'pitch': -32.83, 'roll': 19.01, 'pres': 204}
{'lipoC2': 7.82, 'lipoC3S1': 3.92, 'temp': 28.5, 'lipoC3S3': 11.85, 'lipoC3S2': 7.83, 'rot1': 289, 'rot0': 273, 'rot3': 227, 'rot2': 183, 'state': 'normal', 'yaw': 26.77, 'datetime': '2018-10-05 19:47:21.185673', 'mgs': 0, 'volt': 0.9961, 'depth': 3.064, 'time': 93, 'pitch': -32.85, 'roll': 19.04, 'pres': 204}
{'lipoC2': 7.82, 'lipoC3S1': 3.92, 'temp': 28.5, 'lipoC3S3': 11.84, 'lipoC3S2': 7.83, 'rot1': 289, 'rot0': 273, 'rot3': 227, 'rot2': 183, 'state': 'normal', 'yaw': 26.77, 'datetime': '2018-10-05 19:47:21.289951', 'mgs': 0, 'volt': 0.9961, 'depth': 3.064, 'time': 93, 'pitch': -32.85, 'roll': 19.04, 'pres': 204}
{'lipoC2': 7.82, 'lipoC3S1': 3.92, 'temp': 28.5, 'lipoC3S3': 11.84, 'lipoC3S2': 7.83, 'rot1': 289, 'rot0': 273, 'rot3': 227, 'rot2': 183, 'state': 'normal', 'yaw': 26.77, 'datetime': '2018-10-05 19:47:21.395250', 'mgs': 0, 'volt': 0.9961, 'depth': 3.064, 'time': 93, 'pitch': -32.85, 'roll': 19.04, 'pres': 204}
{'lipoC2': 7.82, 'lipoC3S1': 3.92, 'temp': 28.5, 'lipoC3S3': 11.84, 'lipoC3S2': 7.84, 'rot1': 289, 'rot0': 273, 'rot3': 227, 'rot2': 183, 'state': 'normal', 'yaw': 26.76, 'datetime': '2018-10-05 19:47:21.499563', 'mgs': 0, 'volt': 0.9961, 'depth': 3.064, 'time': 93, 'pitch': -32.85, 'roll': 19.04, 'pres': 204}
{'lipoC2': 7.82, 'lipoC3S1': 3.92, 'temp': 28.5, 'lipoC3S3': 11.85, 'lipoC3S2': 7.83, 'rot1': 289, 'rot0': 273, 'rot3': 227, 'rot2': 183, 'state': 'normal', 'yaw': 26.76, 'datetime': '2018-10-05 19:47:21.603972', 'mgs': 0, 'volt': 0.9961, 'depth': 3.064, 'time': 93, 'pitch': -32.85, 'roll': 19.04, 'pres': 204}
{'lipoC2': 7.82, 'lipoC3S1': 3.92, 'temp': 28.5, 'lipoC3S3': 11.84, 'lipoC3S2': 7.84, 'rot1': 289, 'rot0': 273, 'rot3': 227, 'rot2': 183, 'state': 'normal', 'yaw': 26.76, 'datetime': '2018-10-05 19:47:21.709129', 'mgs': 0, 'volt': 0.9961, 'depth': 3.064, 'time': 93, 'pitch': -32.85, 'roll': 19.04, 'pres': 204}
{'lipoC2': 7.82, 'lipoC3S1': 3.92, 'temp': 28.5, 'lipoC3S3': 11.85, 'lipoC3S2': 7.83, 'rot1': 289, 'rot0': 273, 'rot3': 227, 'rot2': 183, 'state': 'normal', 'yaw': 26.76, 'datetime': '2018-10-05 19:47:21.813286', 'mgs': 0, 'volt': 0.9961, 'depth': 3.064, 'time': 93, 'pitch': -32.85, 'roll': 19.04, 'pres': 204}
{'lipoC2': 7.82, 'lipoC3S1': 3.92, 'temp': 28.5, 'lipoC3S3': 11.84, 'lipoC3S2': 7.84, 'rot1': 289, 'rot0': 273, 'rot3': 227, 'rot2': 183, 'state': 'normal', 'yaw': 26.76, 'datetime': '2018-10-05 19:47:21.913662', 'mgs': 0, 'volt': 0.9961, 'depth': 3.064, 'time': 94, 'pitch': -32.85, 'roll': 19.04, 'pres': 204}
{'lipoC2': 7.82, 'lipoC3S1': 3.92, 'temp': 28.5, 'lipoC3S3': 11.85, 'lipoC3S2': 7.83, 'rot1': 289, 'rot0': 273, 'rot3': 227, 'rot2': 183, 'state': 'normal', 'yaw': 26.78, 'datetime': '2018-10-05 19:47:22.021745', 'mgs': 0, 'volt': 0.9961, 'depth': 3.064, 'time': 94, 'pitch': -32.85, 'roll': 19.04, 'pres': 204}
{'lipoC2': 7.82, 'lipoC3S1': 3.92, 'temp': 28.5, 'lipoC3S3': 11.84, 'lipoC3S2': 7.83, 'rot1': 289, 'rot0': 273, 'rot3': 227, 'rot2': 183, 'state': 'normal', 'yaw': 26.82, 'datetime': '2018-10-05 19:47:22.128569', 'mgs': 0, 'volt': 0.9961, 'depth': 3.064, 'time': 94, 'pitch': -32.84, 'roll': 19.02, 'pres': 204}
{'lipoC2': 7.82, 'lipoC3S1': 3.92, 'temp': 28.5, 'lipoC3S3': 11.84, 'lipoC3S2': 7.83, 'rot1': 289, 'rot0': 273, 'rot3': 227, 'rot2': 183, 'state': 'normal', 'yaw': 26.89, 'datetime': '2018-10-05 19:47:22.232825', 'mgs': 0, 'volt': 0.9961, 'depth': 3.064, 'time': 94, 'pitch': -32.74, 'roll': 19.0, 'pres': 204}
{'lipoC2': 7.82, 'lipoC3S1': 3.92, 'temp': 28.5, 'lipoC3S3': 11.85, 'lipoC3S2': 7.83, 'rot1': 289, 'rot0': 273, 'rot3': 227, 'rot2': 183, 'state': 'normal', 'yaw': 26.96, 'datetime': '2018-10-05 19:47:22.337659', 'mgs': 0, 'volt': 0.9961, 'depth': 3.064, 'time': 94, 'pitch': -32.62, 'roll': 19.0, 'pres': 204}
{'lipoC2': 7.82, 'lipoC3S1': 3.92, 'temp': 28.5, 'lipoC3S3': 11.85, 'lipoC3S2': 7.84, 'rot1': 289, 'rot0': 273, 'rot3': 227, 'rot2': 183, 'state': 'normal', 'yaw': 27.03, 'datetime': '2018-10-05 19:47:22.442657', 'mgs': 0, 'volt': 1.001, 'depth': 3.14, 'time': 94, 'pitch': -32.46, 'roll': 19.06, 'pres': 205}
{'lipoC2': 7.82, 'lipoC3S1': 3.92, 'temp': 28.5, 'lipoC3S3': 11.84, 'lipoC3S2': 7.83, 'rot1': 289, 'rot0': 273, 'rot3': 227, 'rot2': 183, 'state': 'normal', 'yaw': 27.12, 'datetime': '2018-10-05 19:47:22.546798', 'mgs': 0, 'volt': 1.001, 'depth': 3.14, 'time': 94, 'pitch': -32.26, 'roll': 19.13, 'pres': 205}
{'lipoC2': 7.82, 'lipoC3S1': 3.92, 'temp': 28.5, 'lipoC3S3': 11.84, 'lipoC3S2': 7.84, 'rot1': 289, 'rot0': 273, 'rot3': 227, 'rot2': 183, 'state': 'normal', 'yaw': 27.29, 'datetime': '2018-10-05 19:47:22.651178', 'mgs': 0, 'volt': 0.9961, 'depth': 3.064, 'time': 94, 'pitch': -32.1, 'roll': 19.04, 'pres': 204}
{'lipoC2': 7.82, 'lipoC3S1': 3.92, 'temp': 28.5, 'lipoC3S3': 11.85, 'lipoC3S2': 7.83, 'rot1': 289, 'rot0': 273, 'rot3': 227, 'rot2': 183, 'state': 'normal', 'yaw': 27.48, 'datetime': '2018-10-05 19:47:22.755336', 'mgs': 0, 'volt': 1.001, 'depth': 3.14, 'time': 94, 'pitch': -31.95, 'roll': 18.99, 'pres': 205}
{'lipoC2': 7.82, 'lipoC3S1': 3.92, 'temp': 28.5, 'lipoC3S3': 11.85, 'lipoC3S2': 7.84, 'rot1': 289, 'rot0': 273, 'rot3': 227, 'rot2': 183, 'state': 'normal', 'yaw': 27.59, 'datetime': '2018-10-05 19:47:22.861024', 'mgs': 0, 'volt': 1.001, 'depth': 3.14, 'time': 95, 'pitch': -31.84, 'roll': 18.93, 'pres': 205}
{'lipoC2': 7.82, 'lipoC3S1': 3.92, 'temp': 28.5, 'lipoC3S3': 11.85, 'lipoC3S2': 7.83, 'rot1': 289, 'rot0': 273, 'rot3': 227, 'rot2': 183, 'state': 'normal', 'yaw': 27.68, 'datetime': '2018-10-05 19:47:22.965131', 'mgs': 0, 'volt': 1.001, 'depth': 3.14, 'time': 95, 'pitch': -31.87, 'roll': 18.89, 'pres': 205}
{'lipoC2': 7.82, 'lipoC3S1': 3.92, 'temp': 28.5, 'lipoC3S3': 11.84, 'lipoC3S2': 7.84, 'rot1': 289, 'rot0': 273, 'rot3': 227, 'rot2': 183, 'state': 'normal', 'yaw': 27.76, 'datetime': '2018-10-05 19:47:23.070609', 'mgs': 0, 'volt': 1.001, 'depth': 3.14, 'time': 95, 'pitch': -31.89, 'roll': 18.84, 'pres': 205}
{'lipoC2': 7.82, 'lipoC3S1': 3.92, 'temp': 28.56, 'lipoC3S3': 11.85, 'lipoC3S2': 7.83, 'rot1': 289, 'rot0': 273, 'rot3': 227, 'rot2': 183, 'state': 'normal', 'yaw': 27.85, 'datetime': '2018-10-05 19:47:23.174825', 'mgs': 0, 'volt': 1.001, 'depth': 3.14, 'time': 95, 'pitch': -31.92, 'roll': 18.81, 'pres': 205}
{'lipoC2': 7.82, 'lipoC3S1': 3.92, 'temp': 28.56, 'lipoC3S3': 11.85, 'lipoC3S2': 7.83, 'rot1': 289, 'rot0': 273, 'rot3': 227, 'rot2': 183, 'state': 'normal', 'yaw': 27.94, 'datetime': '2018-10-05 19:47:23.279620', 'mgs': 0, 'volt': 1.001, 'depth': 3.14, 'time': 95, 'pitch': -31.96, 'roll': 18.83, 'pres': 205}
{'lipoC2': 7.82, 'lipoC3S1': 3.92, 'temp': 28.56, 'lipoC3S3': 11.85, 'lipoC3S2': 7.83, 'rot1': 289, 'rot0': 273, 'rot3': 227, 'rot2': 183, 'state': 'normal', 'yaw': 27.94, 'datetime': '2018-10-05 19:47:23.384719', 'mgs': 0, 'volt': 1.001, 'depth': 3.14, 'time': 95, 'pitch': -31.98, 'roll': 18.82, 'pres': 205}
{'lipoC2': 7.82, 'lipoC3S1': 3.92, 'temp': 28.44, 'lipoC3S3': 11.85, 'lipoC3S2': 7.83, 'rot1': 289, 'rot0': 273, 'rot3': 227, 'rot2': 183, 'state': 'normal', 'yaw': 27.91, 'datetime': '2018-10-05 19:47:23.488939', 'mgs': 0, 'volt': 1.001, 'depth': 3.14, 'time': 95, 'pitch': -32.04, 'roll': 18.84, 'pres': 205}
{'lipoC2': 7.82, 'lipoC3S1': 3.92, 'temp': 28.44, 'lipoC3S3': 11.84, 'lipoC3S2': 7.84, 'rot1': 289, 'rot0': 273, 'rot3': 227, 'rot2': 183, 'state': 'normal', 'yaw': 27.88, 'datetime': '2018-10-05 19:47:23.590660', 'mgs': 0, 'volt': 1.001, 'depth': 3.14, 'time': 95, 'pitch': -32.11, 'roll': 18.85, 'pres': 205}
{'lipoC2': 7.82, 'lipoC3S1': 3.92, 'temp': 28.44, 'lipoC3S3': 11.85, 'lipoC3S2': 7.83, 'rot1': 289, 'rot0': 273, 'rot3': 227, 'rot2': 183, 'state': 'normal', 'yaw': 27.87, 'datetime': '2018-10-05 19:47:23.697436', 'mgs': 0, 'volt': 1.001, 'depth': 3.14, 'time': 95, 'pitch': -32.16, 'roll': 18.86, 'pres': 205}
{'lipoC2': 7.82, 'lipoC3S1': 3.92, 'temp': 28.44, 'lipoC3S3': 11.84, 'lipoC3S2': 7.84, 'rot1': 289, 'rot0': 273, 'rot3': 227, 'rot2': 183, 'state': 'normal', 'yaw': 27.9, 'datetime': '2018-10-05 19:47:23.802837', 'mgs': 0, 'volt': 1.001, 'depth': 3.14, 'time': 95, 'pitch': -32.19, 'roll': 18.85, 'pres': 205}
{'lipoC2': 7.82, 'lipoC3S1': 3.92, 'temp': 28.44, 'lipoC3S3': 11.84, 'lipoC3S2': 7.83, 'rot1': 289, 'rot0': 273, 'rot3': 227, 'rot2': 183, 'state': 'normal', 'yaw': 27.97, 'datetime': '2018-10-05 19:47:23.907142', 'mgs': 0, 'volt': 1.001, 'depth': 3.14, 'time': 96, 'pitch': -32.22, 'roll': 18.81, 'pres': 205}
{'lipoC2': 7.82, 'lipoC3S1': 3.92, 'temp': 28.44, 'lipoC3S3': 11.85, 'lipoC3S2': 7.83, 'rot1': 289, 'rot0': 273, 'rot3': 227, 'rot2': 183, 'state': 'normal', 'yaw': 28.06, 'datetime': '2018-10-05 19:47:24.013001', 'mgs': 0, 'volt': 1.001, 'depth': 3.14, 'time': 96, 'pitch': -32.24, 'roll': 18.76, 'pres': 205}
{'lipoC2': 7.82, 'lipoC3S1': 3.92, 'temp': 28.44, 'lipoC3S3': 11.85, 'lipoC3S2': 7.83, 'rot1': 289, 'rot0': 273, 'rot3': 227, 'rot2': 183, 'state': 'normal', 'yaw': 28.16, 'datetime': '2018-10-05 19:47:24.116986', 'mgs': 0, 'volt': 1.001, 'depth': 3.14, 'time': 96, 'pitch': -32.27, 'roll': 18.71, 'pres': 205}
{'lipoC2': 7.82, 'lipoC3S1': 3.92, 'temp': 28.5, 'lipoC3S3': 11.85, 'lipoC3S2': 7.83, 'rot1': 289, 'rot0': 273, 'rot3': 227, 'rot2': 183, 'state': 'normal', 'yaw': 28.27, 'datetime': '2018-10-05 19:47:24.221135', 'mgs': 0, 'volt': 1.001, 'depth': 3.14, 'time': 96, 'pitch': -32.3, 'roll': 18.66, 'pres': 205}
{'lipoC2': 7.82, 'lipoC3S1': 3.92, 'temp': 28.5, 'lipoC3S3': 11.85, 'lipoC3S2': 7.83, 'rot1': 289, 'rot0': 273, 'rot3': 227, 'rot2': 183, 'state': 'normal', 'yaw': 28.38, 'datetime': '2018-10-05 19:47:24.320094', 'mgs': 0, 'volt': 1.001, 'depth': 3.14, 'time': 96, 'pitch': -32.33, 'roll': 18.61, 'pres': 205}
{'lipoC2': 7.82, 'lipoC3S1': 3.92, 'temp': 28.5, 'lipoC3S3': 11.85, 'lipoC3S2': 7.83, 'rot1': 289, 'rot0': 273, 'rot3': 227, 'rot2': 183, 'state': 'normal', 'yaw': 28.5, 'datetime': '2018-10-05 19:47:24.424313', 'mgs': 0, 'volt': 1.001, 'depth': 3.14, 'time': 96, 'pitch': -32.34, 'roll': 18.55, 'pres': 205}
{'lipoC2': 7.82, 'lipoC3S1': 3.92, 'temp': 28.5, 'lipoC3S3': 11.84, 'lipoC3S2': 7.83, 'rot1': 289, 'rot0': 273, 'rot3': 227, 'rot2': 183, 'state': 'normal', 'yaw': 28.63, 'datetime': '2018-10-05 19:47:24.529837', 'mgs': 0, 'volt': 1.001, 'depth': 3.14, 'time': 96, 'pitch': -32.32, 'roll': 18.49, 'pres': 205}
{'lipoC2': 7.82, 'lipoC3S1': 3.92, 'temp': 28.5, 'lipoC3S3': 11.84, 'lipoC3S2': 7.83, 'rot1': 289, 'rot0': 273, 'rot3': 227, 'rot2': 183, 'state': 'normal', 'yaw': 28.76, 'datetime': '2018-10-05 19:47:24.634085', 'mgs': 0, 'volt': 1.001, 'depth': 3.14, 'time': 96, 'pitch': -32.28, 'roll': 18.4, 'pres': 205}
{'lipoC2': 7.82, 'lipoC3S1': 3.92, 'temp': 28.5, 'lipoC3S3': 11.84, 'lipoC3S2': 7.84, 'rot1': 289, 'rot0': 273, 'rot3': 227, 'rot2': 183, 'state': 'normal', 'yaw': 28.89, 'datetime': '2018-10-05 19:47:24.739595', 'mgs': 0, 'volt': 1.001, 'depth': 3.14, 'time': 96, 'pitch': -32.23, 'roll': 18.34, 'pres': 205}
{'lipoC2': 7.82, 'lipoC3S1': 3.92, 'temp': 28.5, 'lipoC3S3': 11.85, 'lipoC3S2': 7.83, 'rot1': 289, 'rot0': 273, 'rot3': 227, 'rot2': 183, 'state': 'normal', 'yaw': 29.02, 'datetime': '2018-10-05 19:47:24.843826', 'mgs': 1, 'volt': 0.9961, 'depth': 3.064, 'time': 97, 'pitch': -32.17, 'roll': 18.27, 'pres': 204}
{'lipoC2': 7.82, 'lipoC3S1': 3.92, 'temp': 28.5, 'lipoC3S3': 11.84, 'lipoC3S2': 7.83, 'rot1': 0, 'rot0': 0, 'rot3': 0, 'rot2': 0, 'state': 'normal', 'yaw': 0.05, 'datetime': '2018-10-05 19:47:30.880467', 'mgs': 0, 'volt': 1.001, 'depth': 3.14, 'time': 1, 'pitch': -15.84, 'roll': 3.67, 'pres': 205}
{'lipoC2': 7.82, 'lipoC3S1': 3.92, 'temp': 28.5, 'lipoC3S3': 11.85, 'lipoC3S2': 7.83, 'rot1': 0, 'rot0': 0, 'rot3': 0, 'rot2': 0, 'state': 'normal', 'yaw': 0.49, 'datetime': '2018-10-05 19:47:33.922840', 'mgs': 0, 'volt': 0.9961, 'depth': 3.064, 'time': 1, 'pitch': -14.22, 'roll': 2.61, 'pres': 204}
{'lipoC2': 7.82, 'lipoC3S1': 3.92, 'temp': 28.5, 'lipoC3S3': 11.85, 'lipoC3S2': 7.84, 'rot1': 0, 'rot0': 0, 'rot3': 0, 'rot2': 0, 'state': 'normal', 'yaw': 0.81, 'datetime': '2018-10-05 19:47:33.963812', 'mgs': 0, 'volt': 1.001, 'depth': 3.14, 'time': 1, 'pitch': -13.08, 'roll': 1.92, 'pres': 205}
{'lipoC2': 7.82, 'lipoC3S1': 3.92, 'temp': 28.5, 'lipoC3S3': 11.85, 'lipoC3S2': 7.84, 'rot1': 0, 'rot0': 0, 'rot3': 0, 'rot2': 0, 'state': 'normal', 'yaw': 1.09, 'datetime': '2018-10-05 19:47:33.977185', 'mgs': 0, 'volt': 1.001, 'depth': 3.14, 'time': 1, 'pitch': -12.21, 'roll': 1.43, 'pres': 205}
{'lipoC2': 7.82, 'lipoC3S1': 3.92, 'temp': 28.5, 'lipoC3S3': 11.85, 'lipoC3S2': 7.84, 'rot1': 0, 'rot0': 0, 'rot3': 0, 'rot2': 0, 'state': 'normal', 'yaw': 1.35, 'datetime': '2018-10-05 19:47:33.993235', 'mgs': 0, 'volt': 1.001, 'depth': 3.14, 'time': 1, 'pitch': -11.7, 'roll': 1.06, 'pres': 205}
{'lipoC2': 7.83, 'lipoC3S1': 3.92, 'temp': 28.5, 'lipoC3S3': 11.85, 'lipoC3S2': 7.84, 'rot1': 0, 'rot0': 0, 'rot3': 0, 'rot2': 0, 'state': 'normal', 'yaw': 1.52, 'datetime': '2018-10-05 19:47:34.009015', 'mgs': 0, 'volt': 1.001, 'depth': 3.14, 'time': 1, 'pitch': -11.4, 'roll': 0.88, 'pres': 205}
{'lipoC2': 7.82, 'lipoC3S1': 3.92, 'temp': 28.5, 'lipoC3S3': 11.85, 'lipoC3S2': 7.84, 'rot1': 0, 'rot0': 0, 'rot3': 0, 'rot2': 0, 'state': 'normal', 'yaw': 1.7, 'datetime': '2018-10-05 19:47:34.018874', 'mgs': 0, 'volt': 1.001, 'depth': 3.14, 'time': 1, 'pitch': -11.15, 'roll': 0.77, 'pres': 205}
{'lipoC2': 7.82, 'lipoC3S1': 3.92, 'temp': 28.5, 'lipoC3S3': 11.85, 'lipoC3S2': 7.84, 'rot1': 0, 'rot0': 0, 'rot3': 0, 'rot2': 0, 'state': 'normal', 'yaw': 1.85, 'datetime': '2018-10-05 19:47:34.034675', 'mgs': 0, 'volt': 1.001, 'depth': 3.14, 'time': 1, 'pitch': -10.95, 'roll': 0.7, 'pres': 205}
{'lipoC2': 7.82, 'lipoC3S1': 3.92, 'temp': 28.5, 'lipoC3S3': 11.85, 'lipoC3S2': 7.83, 'rot1': 0, 'rot0': 0, 'rot3': 0, 'rot2': 0, 'state': 'normal', 'yaw': 2.0, 'datetime': '2018-10-05 19:47:34.050586', 'mgs': 0, 'volt': 1.001, 'depth': 3.14, 'time': 2, 'pitch': -10.77, 'roll': 0.61, 'pres': 205}
{'lipoC2': 7.82, 'lipoC3S1': 3.92, 'temp': 28.5, 'lipoC3S3': 11.84, 'lipoC3S2': 7.84, 'rot1': 0, 'rot0': 0, 'rot3': 0, 'rot2': 0, 'state': 'normal', 'yaw': 2.18, 'datetime': '2018-10-05 19:47:34.060447', 'mgs': 0, 'volt': 1.001, 'depth': 3.14, 'time': 2, 'pitch': -10.59, 'roll': 0.51, 'pres': 205}
{'lipoC2': 7.82, 'lipoC3S1': 3.92, 'temp': 28.5, 'lipoC3S3': 11.85, 'lipoC3S2': 7.84, 'rot1': 0, 'rot0': 0, 'rot3': 0, 'rot2': 0, 'state': 'normal', 'yaw': 2.33, 'datetime': '2018-10-05 19:47:34.077760', 'mgs': 0, 'volt': 1.001, 'depth': 3.14, 'time': 2, 'pitch': -10.45, 'roll': 0.4, 'pres': 205}
{'lipoC2': 7.82, 'lipoC3S1': 3.92, 'temp': 28.5, 'lipoC3S3': 11.85, 'lipoC3S2': 7.83, 'rot1': 0, 'rot0': 0, 'rot3': 0, 'rot2': 0, 'state': 'normal', 'yaw': 2.49, 'datetime': '2018-10-05 19:47:34.096969', 'mgs': 0, 'volt': 1.001, 'depth': 3.14, 'time': 2, 'pitch': -10.35, 'roll': 0.3, 'pres': 205}
{'lipoC2': 7.83, 'lipoC3S1': 3.92, 'temp': 28.5, 'lipoC3S3': 11.85, 'lipoC3S2': 7.84, 'rot1': 0, 'rot0': 0, 'rot3': 0, 'rot2': 0, 'state': 'normal', 'yaw': 2.63, 'datetime': '2018-10-05 19:47:34.109899', 'mgs': 0, 'volt': 1.001, 'depth': 3.14, 'time': 2, 'pitch': -10.28, 'roll': 0.2, 'pres': 205}
{'lipoC2': 7.82, 'lipoC3S1': 3.92, 'temp': 28.5, 'lipoC3S3': 11.85, 'lipoC3S2': 7.84, 'rot1': 0, 'rot0': 0, 'rot3': 0, 'rot2': 0, 'state': 'normal', 'yaw': 2.76, 'datetime': '2018-10-05 19:47:34.128907', 'mgs': 0, 'volt': 1.001, 'depth': 3.14, 'time': 2, 'pitch': -10.2, 'roll': 0.01, 'pres': 205}
{'lipoC2': 7.83, 'lipoC3S1': 3.92, 'temp': 28.5, 'lipoC3S3': 11.85, 'lipoC3S2': 7.84, 'rot1': 0, 'rot0': 0, 'rot3': 0, 'rot2': 0, 'state': 'normal', 'yaw': 2.78, 'datetime': '2018-10-05 19:47:34.147928', 'mgs': 0, 'volt': 1.001, 'depth': 3.14, 'time': 2, 'pitch': -10.14, 'roll': 0.0, 'pres': 205}
{'lipoC2': 7.83, 'lipoC3S1': 3.92, 'temp': 28.5, 'lipoC3S3': 11.85, 'lipoC3S2': 7.84, 'rot1': 0, 'rot0': 0, 'rot3': 0, 'rot2': 0, 'state': 'normal', 'yaw': 2.81, 'datetime': '2018-10-05 19:47:34.160987', 'mgs': 0, 'volt': 1.001, 'depth': 3.14, 'time': 2, 'pitch': -10.09, 'roll': 0.02, 'pres': 205}
{'lipoC2': 7.82, 'lipoC3S1': 3.92, 'temp': 28.5, 'lipoC3S3': 11.85, 'lipoC3S2': 7.84, 'rot1': 0, 'rot0': 0, 'rot3': 0, 'rot2': 0, 'state': 'normal', 'yaw': 2.87, 'datetime': '2018-10-05 19:47:34.179554', 'mgs': 0, 'volt': 1.001, 'depth': 3.14, 'time': 2, 'pitch': -10.05, 'roll': -0.04, 'pres': 205}
{'lipoC2': 7.82, 'lipoC3S1': 3.92, 'temp': 28.5, 'lipoC3S3': 11.85, 'lipoC3S2': 7.84, 'rot1': 0, 'rot0': 0, 'rot3': 0, 'rot2': 0, 'state': 'normal', 'yaw': 2.9, 'datetime': '2018-10-05 19:47:34.198375', 'mgs': 0, 'volt': 1.001, 'depth': 3.14, 'time': 3, 'pitch': -10.02, 'roll': -0.08, 'pres': 205}
{'lipoC2': 7.82, 'lipoC3S1': 3.92, 'temp': 28.5, 'lipoC3S3': 11.84, 'lipoC3S2': 7.84, 'rot1': 0, 'rot0': 0, 'rot3': 0, 'rot2': 0, 'state': 'normal', 'yaw': 2.9, 'datetime': '2018-10-05 19:47:34.211309', 'mgs': 0, 'volt': 0.9961, 'depth': 3.064, 'time': 3, 'pitch': -9.99, 'roll': -0.11, 'pres': 204}
{'lipoC2': 7.82, 'lipoC3S1': 3.92, 'temp': 28.5, 'lipoC3S3': 11.85, 'lipoC3S2': 7.84, 'rot1': 0, 'rot0': 0, 'rot3': 0, 'rot2': 0, 'state': 'normal', 'yaw': 2.9, 'datetime': '2018-10-05 19:47:34.230279', 'mgs': 0, 'volt': 1.001, 'depth': 3.14, 'time': 3, 'pitch': -9.96, 'roll': -0.13, 'pres': 205}
{'lipoC2': 7.82, 'lipoC3S1': 3.92, 'temp': 28.5, 'lipoC3S3': 11.85, 'lipoC3S2': 7.83, 'rot1': 0, 'rot0': 0, 'rot3': 0, 'rot2': 0, 'state': 'normal', 'yaw': 2.9, 'datetime': '2018-10-05 19:47:34.249306', 'mgs': 0, 'volt': 1.001, 'depth': 3.14, 'time': 3, 'pitch': -9.93, 'roll': -0.15, 'pres': 205}
{'lipoC2': 7.82, 'lipoC3S1': 3.92, 'temp': 28.5, 'lipoC3S3': 11.85, 'lipoC3S2': 7.84, 'rot1': 0, 'rot0': 0, 'rot3': 0, 'rot2': 0, 'state': 'normal', 'yaw': 2.91, 'datetime': '2018-10-05 19:47:34.262217', 'mgs': 0, 'volt': 1.001, 'depth': 3.14, 'time': 3, 'pitch': -9.91, 'roll': -0.17, 'pres': 205}
{'lipoC2': 7.83, 'lipoC3S1': 3.92, 'temp': 28.5, 'lipoC3S3': 11.85, 'lipoC3S2': 7.84, 'rot1': 0, 'rot0': 0, 'rot3': 0, 'rot2': 0, 'state': 'normal', 'yaw': 2.95, 'datetime': '2018-10-05 19:47:34.281788', 'mgs': 0, 'volt': 0.9961, 'depth': 3.064, 'time': 3, 'pitch': -9.89, 'roll': -0.2, 'pres': 204}
{'lipoC2': 7.82, 'lipoC3S1': 3.92, 'temp': 28.5, 'lipoC3S3': 11.85, 'lipoC3S2': 7.84, 'rot1': 0, 'rot0': 0, 'rot3': 0, 'rot2': 0, 'state': 'normal', 'yaw': 2.95, 'datetime': '2018-10-05 19:47:34.301059', 'mgs': 0, 'volt': 1.001, 'depth': 3.14, 'time': 3, 'pitch': -9.87, 'roll': -0.22, 'pres': 205}
{'lipoC2': 7.82, 'lipoC3S1': 3.92, 'temp': 28.5, 'lipoC3S3': 11.85, 'lipoC3S2': 7.84, 'rot1': 0, 'rot0': 0, 'rot3': 0, 'rot2': 0, 'state': 'normal', 'yaw': 2.95, 'datetime': '2018-10-05 19:47:34.313991', 'mgs': 0, 'volt': 1.001, 'depth': 3.14, 'time': 3, 'pitch': -9.87, 'roll': -0.22, 'pres': 205}
{'lipoC2': 7.82, 'lipoC3S1': 3.92, 'temp': 28.5, 'lipoC3S3': 11.85, 'lipoC3S2': 7.84, 'rot1': 0, 'rot0': 0, 'rot3': 0, 'rot2': 0, 'state': 'normal', 'yaw': 2.96, 'datetime': '2018-10-05 19:47:34.332980', 'mgs': 0, 'volt': 1.001, 'depth': 3.14, 'time': 3, 'pitch': -9.8, 'roll': -0.22, 'pres': 205}
{'lipoC2': 7.82, 'lipoC3S1': 3.92, 'temp': 28.5, 'lipoC3S3': 11.85, 'lipoC3S2': 7.84, 'rot1': 0, 'rot0': 0, 'rot3': 0, 'rot2': 0, 'state': 'normal', 'yaw': 2.96, 'datetime': '2018-10-05 19:47:34.352000', 'mgs': 0, 'volt': 1.001, 'depth': 3.14, 'time': 3, 'pitch': -9.72, 'roll': -0.22, 'pres': 205}
{'lipoC2': 7.82, 'lipoC3S1': 3.92, 'temp': 28.5, 'lipoC3S3': 11.85, 'lipoC3S2': 7.83, 'rot1': 0, 'rot0': 0, 'rot3': 0, 'rot2': 0, 'state': 'normal', 'yaw': 2.95, 'datetime': '2018-10-05 19:47:34.364949', 'mgs': 0, 'volt': 1.001, 'depth': 3.14, 'time': 4, 'pitch': -9.64, 'roll': -0.21, 'pres': 205}
{'lipoC2': 7.82, 'lipoC3S1': 3.92, 'temp': 28.5, 'lipoC3S3': 11.85, 'lipoC3S2': 7.84, 'rot1': 0, 'rot0': 0, 'rot3': 0, 'rot2': 0, 'state': 'normal', 'yaw': 2.96, 'datetime': '2018-10-05 19:47:34.384256', 'mgs': 0, 'volt': 1.001, 'depth': 3.14, 'time': 4, 'pitch': -9.6, 'roll': -0.22, 'pres': 205}
{'lipoC2': 7.82, 'lipoC3S1': 3.92, 'temp': 28.5, 'lipoC3S3': 11.85, 'lipoC3S2': 7.84, 'rot1': 0, 'rot0': 0, 'rot3': 0, 'rot2': 0, 'state': 'normal', 'yaw': 2.96, 'datetime': '2018-10-05 19:47:34.403632', 'mgs': 0, 'volt': 1.001, 'depth': 3.14, 'time': 4, 'pitch': -9.6, 'roll': -0.22, 'pres': 205}
{'lipoC2': 7.82, 'lipoC3S1': 3.92, 'temp': 28.5, 'lipoC3S3': 11.85, 'lipoC3S2': 7.83, 'rot1': 0, 'rot0': 0, 'rot3': 0, 'rot2': 0, 'state': 'normal', 'yaw': 2.96, 'datetime': '2018-10-05 19:47:34.416588', 'mgs': 0, 'volt': 1.001, 'depth': 3.14, 'time': 4, 'pitch': -9.6, 'roll': -0.22, 'pres': 205}
{'lipoC2': 7.82, 'lipoC3S1': 3.92, 'temp': 28.5, 'lipoC3S3': 11.85, 'lipoC3S2': 7.84, 'rot1': 0, 'rot0': 0, 'rot3': 0, 'rot2': 0, 'state': 'normal', 'yaw': 2.95, 'datetime': '2018-10-05 19:47:34.435589', 'mgs': 0, 'volt': 1.001, 'depth': 3.14, 'time': 4, 'pitch': -9.65, 'roll': -0.22, 'pres': 205}
{'lipoC2': 7.82, 'lipoC3S1': 3.92, 'temp': 28.5, 'lipoC3S3': 11.85, 'lipoC3S2': 7.84, 'rot1': 0, 'rot0': 0, 'rot3': 0, 'rot2': 0, 'state': 'normal', 'yaw': 2.96, 'datetime': '2018-10-05 19:47:34.454610', 'mgs': 0, 'volt': 1.001, 'depth': 3.14, 'time': 4, 'pitch': -9.73, 'roll': -0.23, 'pres': 205}
{'lipoC2': 7.82, 'lipoC3S1': 3.92, 'temp': 28.5, 'lipoC3S3': 11.85, 'lipoC3S2': 7.84, 'rot1': 0, 'rot0': 0, 'rot3': 0, 'rot2': 0, 'state': 'normal', 'yaw': 2.96, 'datetime': '2018-10-05 19:47:34.467504', 'mgs': 0, 'volt': 1.001, 'depth': 3.14, 'time': 4, 'pitch': -9.8, 'roll': -0.26, 'pres': 205}
{'lipoC2': 7.82, 'lipoC3S1': 3.92, 'temp': 28.5, 'lipoC3S3': 11.85, 'lipoC3S2': 7.84, 'rot1': 0, 'rot0': 0, 'rot3': 0, 'rot2': 0, 'state': 'normal', 'yaw': 2.97, 'datetime': '2018-10-05 19:47:34.486850', 'mgs': 0, 'volt': 1.001, 'depth': 3.14, 'time': 4, 'pitch': -9.9, 'roll': -0.28, 'pres': 205}
{'lipoC2': 7.82, 'lipoC3S1': 3.92, 'temp': 28.5, 'lipoC3S3': 11.85, 'lipoC3S2': 7.84, 'rot1': 0, 'rot0': 0, 'rot3': 0, 'rot2': 0, 'state': 'normal', 'yaw': 2.97, 'datetime': '2018-10-05 19:47:34.503870', 'mgs': 0, 'volt': 1.001, 'depth': 3.14, 'time': 4, 'pitch': -10.0, 'roll': -0.3, 'pres': 205}
