{'lipoC2': 0.0, 'lipoC3S1': 3.96, 'temp': 25.81, 'lipoC3S3': 12.0, 'lipoC3S2': 7.92, 'rot1': 0, 'rot0': 0, 'rot3': 0, 'rot2': 0, 'state': 'normal', 'yaw': -15.19, 'datetime': '2018-10-03 17:15:52.521350', 'mgs': 1, 'volt': 0.835, 'depth': 0.546, 'time': 26, 'pitch': -15.09, 'roll': -1.42, 'pres': 171}
{'lipoC2': 0.0, 'lipoC3S1': 3.96, 'temp': 25.75, 'lipoC3S3': 11.98, 'lipoC3S2': 7.92, 'rot1': 0, 'rot0': 0, 'rot3': 0, 'rot2': 0, 'state': 'normal', 'yaw': 0.0, 'datetime': '2018-10-03 17:15:58.553943', 'mgs': 1, 'volt': 0.8447, 'depth': 0.699, 'time': 1, 'pitch': -13.55, 'roll': -0.72, 'pres': 173}
{'lipoC2': 0.0, 'lipoC3S1': 3.96, 'temp': 25.75, 'lipoC3S3': 11.98, 'lipoC3S2': 7.92, 'rot1': 0, 'rot0': 0, 'rot3': 0, 'rot2': 0, 'state': 'normal', 'yaw': -0.01, 'datetime': '2018-10-03 17:15:58.583738', 'mgs': 1, 'volt': 0.8447, 'depth': 0.699, 'time': 1, 'pitch': -13.28, 'roll': -0.54, 'pres': 173}
{'lipoC2': 0.0, 'lipoC3S1': 3.96, 'temp': 25.81, 'lipoC3S3': 11.98, 'lipoC3S2': 7.92, 'rot1': 0, 'rot0': 0, 'rot3': 0, 'rot2': 0, 'state': 'normal', 'yaw': -0.38, 'datetime': '2018-10-03 17:15:58.613849', 'mgs': 1, 'volt': 0.8496, 'depth': 0.775, 'time': 1, 'pitch': -13.15, 'roll': -0.14, 'pres': 174}
{'lipoC2': 0.0, 'lipoC3S1': 3.96, 'temp': 25.81, 'lipoC3S3': 11.98, 'lipoC3S2': 7.92, 'rot1': 0, 'rot0': 0, 'rot3': 0, 'rot2': 0, 'state': 'normal', 'yaw': -1.01, 'datetime': '2018-10-03 17:15:58.643446', 'mgs': 1, 'volt': 0.8496, 'depth': 0.775, 'time': 1, 'pitch': -13.26, 'roll': 0.43, 'pres': 174}
{'lipoC2': 0.0, 'lipoC3S1': 3.96, 'temp': 25.81, 'lipoC3S3': 11.98, 'lipoC3S2': 7.92, 'rot1': 0, 'rot0': 0, 'rot3': 0, 'rot2': 0, 'state': 'normal', 'yaw': -1.82, 'datetime': '2018-10-03 17:15:58.665137', 'mgs': 1, 'volt': 0.8496, 'depth': 0.775, 'time': 1, 'pitch': -13.78, 'roll': 1.07, 'pres': 174}
{'lipoC2': 0.0, 'lipoC3S1': 3.96, 'temp': 25.81, 'lipoC3S3': 11.98, 'lipoC3S2': 7.92, 'rot1': 0, 'rot0': 0, 'rot3': 0, 'rot2': 0, 'state': 'normal', 'yaw': -2.27, 'datetime': '2018-10-03 17:15:58.680554', 'mgs': 1, 'volt': 0.8496, 'depth': 0.775, 'time': 1, 'pitch': -14.46, 'roll': 1.35, 'pres': 174}
{'lipoC2': 0.0, 'lipoC3S1': 3.96, 'temp': 25.81, 'lipoC3S3': 11.98, 'lipoC3S2': 7.92, 'rot1': 0, 'rot0': 0, 'rot3': 0, 'rot2': 0, 'state': 'normal', 'yaw': 0.04, 'datetime': '2018-10-03 17:15:58.696387', 'mgs': 1, 'volt': 0.8447, 'depth': 0.699, 'time': 1, 'pitch': -15.07, 'roll': -1.06, 'pres': 173}
{'lipoC2': 0.0, 'lipoC3S1': 3.96, 'temp': 25.81, 'lipoC3S3': 11.98, 'lipoC3S2': 7.92, 'rot1': 0, 'rot0': 0, 'rot3': 0, 'rot2': 0, 'state': 'normal', 'yaw': 0.48, 'datetime': '2018-10-03 17:15:58.711480', 'mgs': 1, 'volt': 0.8447, 'depth': 0.699, 'time': 1, 'pitch': -15.34, 'roll': -1.2, 'pres': 173}
{'lipoC2': 0.0, 'lipoC3S1': 3.96, 'temp': 25.81, 'lipoC3S3': 11.98, 'lipoC3S2': 7.92, 'rot1': 0, 'rot0': 0, 'rot3': 0, 'rot2': 0, 'state': 'normal', 'yaw': 0.96, 'datetime': '2018-10-03 17:15:58.727197', 'mgs': 1, 'volt': 0.8447, 'depth': 0.699, 'time': 1, 'pitch': -15.39, 'roll': -1.34, 'pres': 173}
{'lipoC2': 0.0, 'lipoC3S1': 3.96, 'temp': 25.81, 'lipoC3S3': 11.98, 'lipoC3S2': 7.92, 'rot1': 0, 'rot0': 0, 'rot3': 0, 'rot2': 0, 'state': 'normal', 'yaw': 1.41, 'datetime': '2018-10-03 17:15:58.742742', 'mgs': 1, 'volt': 0.8447, 'depth': 0.699, 'time': 1, 'pitch': -15.15, 'roll': -1.3, 'pres': 173}
{'lipoC2': 0.0, 'lipoC3S1': 3.96, 'temp': 25.81, 'lipoC3S3': 12.0, 'lipoC3S2': 7.92, 'rot1': 0, 'rot0': 0, 'rot3': 0, 'rot2': 0, 'state': 'normal', 'yaw': 1.68, 'datetime': '2018-10-03 17:15:58.758211', 'mgs': 1, 'volt': 0.8447, 'depth': 0.699, 'time': 1, 'pitch': -14.83, 'roll': -1.06, 'pres': 173}
{'lipoC2': 0.0, 'lipoC3S1': 3.96, 'temp': 25.81, 'lipoC3S3': 12.0, 'lipoC3S2': 7.92, 'rot1': 0, 'rot0': 0, 'rot3': 0, 'rot2': 0, 'state': 'normal', 'yaw': 1.83, 'datetime': '2018-10-03 17:15:58.773826', 'mgs': 1, 'volt': 0.8447, 'depth': 0.699, 'time': 1, 'pitch': -14.61, 'roll': -0.66, 'pres': 173}
{'lipoC2': 0.0, 'lipoC3S1': 3.96, 'temp': 25.81, 'lipoC3S3': 12.0, 'lipoC3S2': 7.92, 'rot1': 0, 'rot0': 0, 'rot3': 0, 'rot2': 0, 'state': 'normal', 'yaw': 1.89, 'datetime': '2018-10-03 17:15:58.789255', 'mgs': 1, 'volt': 0.8447, 'depth': 0.699, 'time': 1, 'pitch': -14.61, 'roll': -0.17, 'pres': 173}
{'lipoC2': 0.0, 'lipoC3S1': 3.96, 'temp': 25.81, 'lipoC3S3': 12.0, 'lipoC3S2': 7.92, 'rot1': 0, 'rot0': 0, 'rot3': 0, 'rot2': 0, 'state': 'normal', 'yaw': 1.89, 'datetime': '2018-10-03 17:15:58.805959', 'mgs': 1, 'volt': 0.8447, 'depth': 0.699, 'time': 1, 'pitch': -14.72, 'roll': 0.26, 'pres': 173}
{'lipoC2': 0.0, 'lipoC3S1': 3.96, 'temp': 25.81, 'lipoC3S3': 11.98, 'lipoC3S2': 7.92, 'rot1': 0, 'rot0': 0, 'rot3': 0, 'rot2': 0, 'state': 'normal', 'yaw': 1.89, 'datetime': '2018-10-03 17:15:58.823364', 'mgs': 1, 'volt': 0.8447, 'depth': 0.699, 'time': 2, 'pitch': -14.77, 'roll': 0.66, 'pres': 173}
{'lipoC2': 0.0, 'lipoC3S1': 3.96, 'temp': 25.81, 'lipoC3S3': 11.98, 'lipoC3S2': 7.92, 'rot1': 0, 'rot0': 0, 'rot3': 0, 'rot2': 0, 'state': 'normal', 'yaw': 1.74, 'datetime': '2018-10-03 17:15:58.839582', 'mgs': 1, 'volt': 0.8447, 'depth': 0.699, 'time': 2, 'pitch': -14.75, 'roll': 1.12, 'pres': 173}
{'lipoC2': 0.0, 'lipoC3S1': 3.96, 'temp': 25.81, 'lipoC3S3': 11.98, 'lipoC3S2': 7.92, 'rot1': 0, 'rot0': 0, 'rot3': 0, 'rot2': 0, 'state': 'normal', 'yaw': 1.5, 'datetime': '2018-10-03 17:15:58.855424', 'mgs': 1, 'volt': 0.8496, 'depth': 0.775, 'time': 2, 'pitch': -14.66, 'roll': 1.54, 'pres': 174}
{'lipoC2': 0.0, 'lipoC3S1': 3.96, 'temp': 25.81, 'lipoC3S3': 11.98, 'lipoC3S2': 7.92, 'rot1': 0, 'rot0': 0, 'rot3': 0, 'rot2': 0, 'state': 'normal', 'yaw': 1.25, 'datetime': '2018-10-03 17:15:58.871005', 'mgs': 1, 'volt': 0.8496, 'depth': 0.775, 'time': 2, 'pitch': -14.6, 'roll': 1.82, 'pres': 174}
{'lipoC2': 0.0, 'lipoC3S1': 3.96, 'temp': 25.88, 'lipoC3S3': 12.0, 'lipoC3S2': 7.92, 'rot1': 0, 'rot0': 0, 'rot3': 0, 'rot2': 0, 'state': 'normal', 'yaw': 0.98, 'datetime': '2018-10-03 17:15:58.886525', 'mgs': 1, 'volt': 0.8496, 'depth': 0.775, 'time': 2, 'pitch': -14.63, 'roll': 1.91, 'pres': 174}
{'lipoC2': 0.0, 'lipoC3S1': 3.96, 'temp': 25.88, 'lipoC3S3': 12.0, 'lipoC3S2': 7.92, 'rot1': 0, 'rot0': 0, 'rot3': 0, 'rot2': 0, 'state': 'normal', 'yaw': 0.73, 'datetime': '2018-10-03 17:15:58.902140', 'mgs': 1, 'volt': 0.8496, 'depth': 0.775, 'time': 2, 'pitch': -14.75, 'roll': 1.79, 'pres': 174}
{'lipoC2': 0.0, 'lipoC3S1': 3.96, 'temp': 25.81, 'lipoC3S3': 12.0, 'lipoC3S2': 7.92, 'rot1': 0, 'rot0': 0, 'rot3': 0, 'rot2': 0, 'state': 'normal', 'yaw': 0.57, 'datetime': '2018-10-03 17:15:58.917637', 'mgs': 1, 'volt': 0.8496, 'depth': 0.775, 'time': 2, 'pitch': -14.87, 'roll': 1.52, 'pres': 174}
{'lipoC2': 0.0, 'lipoC3S1': 3.96, 'temp': 25.81, 'lipoC3S3': 12.0, 'lipoC3S2': 7.92, 'rot1': 0, 'rot0': 0, 'rot3': 0, 'rot2': 0, 'state': 'normal', 'yaw': 0.4, 'datetime': '2018-10-03 17:15:58.933444', 'mgs': 1, 'volt': 0.8496, 'depth': 0.775, 'time': 2, 'pitch': -14.88, 'roll': 1.17, 'pres': 174}
{'lipoC2': 0.0, 'lipoC3S1': 3.96, 'temp': 25.88, 'lipoC3S3': 12.0, 'lipoC3S2': 7.92, 'rot1': 0, 'rot0': 0, 'rot3': 0, 'rot2': 0, 'state': 'normal', 'yaw': 0.2, 'datetime': '2018-10-03 17:15:58.949597', 'mgs': 1, 'volt': 0.8496, 'depth': 0.775, 'time': 2, 'pitch': -14.77, 'roll': 0.76, 'pres': 174}
{'lipoC2': 0.0, 'lipoC3S1': 3.96, 'temp': 25.88, 'lipoC3S3': 11.98, 'lipoC3S2': 7.92, 'rot1': 0, 'rot0': 0, 'rot3': 0, 'rot2': 0, 'state': 'normal', 'yaw': -0.02, 'datetime': '2018-10-03 17:15:58.965176', 'mgs': 1, 'volt': 0.8496, 'depth': 0.775, 'time': 3, 'pitch': -14.58, 'roll': 0.39, 'pres': 174}
{'lipoC2': 0.0, 'lipoC3S1': 3.96, 'temp': 25.88, 'lipoC3S3': 11.98, 'lipoC3S2': 7.92, 'rot1': 0, 'rot0': 0, 'rot3': 0, 'rot2': 0, 'state': 'normal', 'yaw': -0.24, 'datetime': '2018-10-03 17:15:58.980948', 'mgs': 1, 'volt': 0.8496, 'depth': 0.775, 'time': 3, 'pitch': -14.37, 'roll': 0.01, 'pres': 174}
{'lipoC2': 0.0, 'lipoC3S1': 3.96, 'temp': 25.81, 'lipoC3S3': 11.98, 'lipoC3S2': 7.92, 'rot1': 0, 'rot0': 0, 'rot3': 0, 'rot2': 0, 'state': 'normal', 'yaw': -0.47, 'datetime': '2018-10-03 17:15:58.996496', 'mgs': 1, 'volt': 0.8496, 'depth': 0.775, 'time': 3, 'pitch': -14.06, 'roll': -0.3, 'pres': 174}
{'lipoC2': 0.0, 'lipoC3S1': 3.96, 'temp': 25.81, 'lipoC3S3': 11.98, 'lipoC3S2': 7.92, 'rot1': 0, 'rot0': 0, 'rot3': 0, 'rot2': 0, 'state': 'normal', 'yaw': -0.69, 'datetime': '2018-10-03 17:15:59.012242', 'mgs': 1, 'volt': 0.8545, 'depth': 0.851, 'time': 3, 'pitch': -13.7, 'roll': -0.58, 'pres': 175}
{'lipoC2': 0.0, 'lipoC3S1': 3.96, 'temp': 25.81, 'lipoC3S3': 11.98, 'lipoC3S2': 7.92, 'rot1': 0, 'rot0': 0, 'rot3': 0, 'rot2': 0, 'state': 'normal', 'yaw': -0.84, 'datetime': '2018-10-03 17:15:59.028064', 'mgs': 1, 'volt': 0.8545, 'depth': 0.851, 'time': 3, 'pitch': -13.29, 'roll': -0.84, 'pres': 175}
{'lipoC2': 0.0, 'lipoC3S1': 3.96, 'temp': 25.81, 'lipoC3S3': 12.0, 'lipoC3S2': 7.92, 'rot1': 0, 'rot0': 0, 'rot3': 0, 'rot2': 0, 'state': 'normal', 'yaw': -0.95, 'datetime': '2018-10-03 17:15:59.043580', 'mgs': 1, 'volt': 0.8594, 'depth': 0.928, 'time': 3, 'pitch': -12.82, 'roll': -1.05, 'pres': 176}
{'lipoC2': 0.0, 'lipoC3S1': 3.96, 'temp': 25.81, 'lipoC3S3': 12.0, 'lipoC3S2': 7.92, 'rot1': 0, 'rot0': 0, 'rot3': 0, 'rot2': 0, 'state': 'normal', 'yaw': -0.99, 'datetime': '2018-10-03 17:15:59.059107', 'mgs': 1, 'volt': 0.8594, 'depth': 0.928, 'time': 3, 'pitch': -12.41, 'roll': -1.11, 'pres': 176}
{'lipoC2': 0.0, 'lipoC3S1': 3.96, 'temp': 25.81, 'lipoC3S3': 12.0, 'lipoC3S2': 7.92, 'rot1': 0, 'rot0': 0, 'rot3': 0, 'rot2': 0, 'state': 'normal', 'yaw': -1.0, 'datetime': '2018-10-03 17:15:59.074834', 'mgs': 1, 'volt': 0.8643, 'depth': 1.004, 'time': 3, 'pitch': -12.04, 'roll': -1.07, 'pres': 177}
{'lipoC2': 0.0, 'lipoC3S1': 3.96, 'temp': 25.81, 'lipoC3S3': 12.0, 'lipoC3S2': 7.92, 'rot1': 0, 'rot0': 0, 'rot3': 0, 'rot2': 0, 'state': 'normal', 'yaw': -1.12, 'datetime': '2018-10-03 17:15:59.090280', 'mgs': 1, 'volt': 0.8643, 'depth': 1.004, 'time': 3, 'pitch': -11.59, 'roll': -0.83, 'pres': 177}
{'lipoC2': 0.0, 'lipoC3S1': 3.96, 'temp': 25.88, 'lipoC3S3': 12.0, 'lipoC3S2': 7.92, 'rot1': 0, 'rot0': 0, 'rot3': 0, 'rot2': 0, 'state': 'normal', 'yaw': -1.21, 'datetime': '2018-10-03 17:15:59.106062', 'mgs': 1, 'volt': 0.8643, 'depth': 1.004, 'time': 3, 'pitch': -11.26, 'roll': -0.54, 'pres': 177}
{'lipoC2': 0.0, 'lipoC3S1': 3.96, 'temp': 25.88, 'lipoC3S3': 11.98, 'lipoC3S2': 7.92, 'rot1': 0, 'rot0': 0, 'rot3': 0, 'rot2': 0, 'state': 'normal', 'yaw': -1.29, 'datetime': '2018-10-03 17:15:59.121629', 'mgs': 1, 'volt': 0.8643, 'depth': 1.004, 'time': 4, 'pitch': -11.08, 'roll': -0.24, 'pres': 177}
{'lipoC2': 0.0, 'lipoC3S1': 3.96, 'temp': 25.88, 'lipoC3S3': 11.98, 'lipoC3S2': 7.92, 'rot1': 0, 'rot0': 0, 'rot3': 0, 'rot2': 0, 'state': 'normal', 'yaw': -1.38, 'datetime': '2018-10-03 17:15:59.137350', 'mgs': 1, 'volt': 0.8691, 'depth': 1.08, 'time': 4, 'pitch': -11.12, 'roll': 0.09, 'pres': 178}
{'lipoC2': 0.0, 'lipoC3S1': 3.96, 'temp': 25.88, 'lipoC3S3': 11.98, 'lipoC3S2': 7.92, 'rot1': 0, 'rot0': 0, 'rot3': 0, 'rot2': 0, 'state': 'normal', 'yaw': -1.47, 'datetime': '2018-10-03 17:15:59.152875', 'mgs': 1, 'volt': 0.8691, 'depth': 1.08, 'time': 4, 'pitch': -11.47, 'roll': 0.44, 'pres': 178}
{'lipoC2': 0.0, 'lipoC3S1': 3.96, 'temp': 25.88, 'lipoC3S3': 11.98, 'lipoC3S2': 7.92, 'rot1': 0, 'rot0': 0, 'rot3': 0, 'rot2': 0, 'state': 'normal', 'yaw': -1.48, 'datetime': '2018-10-03 17:15:59.168283', 'mgs': 1, 'volt': 0.8691, 'depth': 1.08, 'time': 4, 'pitch': -12.01, 'roll': 0.73, 'pres': 178}
{'lipoC2': 0.0, 'lipoC3S1': 3.96, 'temp': 25.88, 'lipoC3S3': 11.98, 'lipoC3S2': 7.92, 'rot1': 0, 'rot0': 0, 'rot3': 0, 'rot2': 0, 'state': 'normal', 'yaw': -1.5, 'datetime': '2018-10-03 17:15:59.183871', 'mgs': 1, 'volt': 0.8691, 'depth': 1.08, 'time': 4, 'pitch': -12.66, 'roll': 1.0, 'pres': 178}
{'lipoC2': 0.0, 'lipoC3S1': 3.96, 'temp': 25.88, 'lipoC3S3': 12.0, 'lipoC3S2': 7.92, 'rot1': 0, 'rot0': 0, 'rot3': 0, 'rot2': 0, 'state': 'normal', 'yaw': -1.5, 'datetime': '2018-10-03 17:15:59.199383', 'mgs': 1, 'volt': 0.8691, 'depth': 1.08, 'time': 4, 'pitch': -13.34, 'roll': 1.28, 'pres': 178}
{'lipoC2': 0.0, 'lipoC3S1': 3.96, 'temp': 25.81, 'lipoC3S3': 12.0, 'lipoC3S2': 7.92, 'rot1': 0, 'rot0': 0, 'rot3': 0, 'rot2': 0, 'state': 'normal', 'yaw': -1.42, 'datetime': '2018-10-03 17:15:59.214859', 'mgs': 1, 'volt': 0.8691, 'depth': 1.08, 'time': 4, 'pitch': -13.81, 'roll': 1.45, 'pres': 178}
{'lipoC2': 0.0, 'lipoC3S1': 3.96, 'temp': 25.81, 'lipoC3S3': 11.98, 'lipoC3S2': 7.92, 'rot1': 0, 'rot0': 0, 'rot3': 0, 'rot2': 0, 'state': 'normal', 'yaw': -1.27, 'datetime': '2018-10-03 17:15:59.230712', 'mgs': 1, 'volt': 0.8691, 'depth': 1.08, 'time': 4, 'pitch': -14.02, 'roll': 1.51, 'pres': 178}
{'lipoC2': 0.0, 'lipoC3S1': 3.96, 'temp': 25.88, 'lipoC3S3': 12.0, 'lipoC3S2': 7.92, 'rot1': 0, 'rot0': 0, 'rot3': 0, 'rot2': 0, 'state': 'normal', 'yaw': -1.07, 'datetime': '2018-10-03 17:15:59.246272', 'mgs': 1, 'volt': 0.874, 'depth': 1.157, 'time': 4, 'pitch': -13.92, 'roll': 1.46, 'pres': 179}
{'lipoC2': 0.0, 'lipoC3S1': 3.96, 'temp': 25.88, 'lipoC3S3': 12.0, 'lipoC3S2': 7.92, 'rot1': 0, 'rot0': 0, 'rot3': 0, 'rot2': 0, 'state': 'normal', 'yaw': -0.9, 'datetime': '2018-10-03 17:15:59.261895', 'mgs': 1, 'volt': 0.874, 'depth': 1.157, 'time': 4, 'pitch': -13.49, 'roll': 1.42, 'pres': 179}
{'lipoC2': 0.0, 'lipoC3S1': 3.96, 'temp': 25.88, 'lipoC3S3': 11.98, 'lipoC3S2': 7.92, 'rot1': 0, 'rot0': 0, 'rot3': 0, 'rot2': 0, 'state': 'normal', 'yaw': -0.77, 'datetime': '2018-10-03 17:15:59.276950', 'mgs': 1, 'volt': 0.874, 'depth': 1.157, 'time': 5, 'pitch': -12.84, 'roll': 1.39, 'pres': 179}
{'lipoC2': 0.0, 'lipoC3S1': 3.96, 'temp': 25.88, 'lipoC3S3': 11.98, 'lipoC3S2': 7.92, 'rot1': 0, 'rot0': 0, 'rot3': 0, 'rot2': 0, 'state': 'normal', 'yaw': -0.67, 'datetime': '2018-10-03 17:15:59.292244', 'mgs': 1, 'volt': 0.874, 'depth': 1.157, 'time': 5, 'pitch': -12.06, 'roll': 1.36, 'pres': 179}
{'lipoC2': 0.0, 'lipoC3S1': 3.96, 'temp': 25.88, 'lipoC3S3': 11.98, 'lipoC3S2': 7.92, 'rot1': 0, 'rot0': 0, 'rot3': 0, 'rot2': 0, 'state': 'normal', 'yaw': -0.66, 'datetime': '2018-10-03 17:15:59.307290', 'mgs': 1, 'volt': 0.8789, 'depth': 1.233, 'time': 5, 'pitch': -11.5, 'roll': 1.27, 'pres': 180}
{'lipoC2': 0.0, 'lipoC3S1': 3.96, 'temp': 25.81, 'lipoC3S3': 11.98, 'lipoC3S2': 7.92, 'rot1': 0, 'rot0': 0, 'rot3': 0, 'rot2': 0, 'state': 'normal', 'yaw': -0.65, 'datetime': '2018-10-03 17:15:59.322522', 'mgs': 1, 'volt': 0.8789, 'depth': 1.233, 'time': 5, 'pitch': -11.13, 'roll': 1.14, 'pres': 180}
{'lipoC2': 0.0, 'lipoC3S1': 3.96, 'temp': 25.81, 'lipoC3S3': 12.0, 'lipoC3S2': 7.92, 'rot1': 0, 'rot0': 0, 'rot3': 0, 'rot2': 0, 'state': 'normal', 'yaw': -0.65, 'datetime': '2018-10-03 17:15:59.337611', 'mgs': 1, 'volt': 0.8789, 'depth': 1.233, 'time': 5, 'pitch': -10.98, 'roll': 0.98, 'pres': 180}
{'lipoC2': 0.0, 'lipoC3S1': 3.96, 'temp': 25.81, 'lipoC3S3': 12.0, 'lipoC3S2': 7.92, 'rot1': 0, 'rot0': 0, 'rot3': 0, 'rot2': 0, 'state': 'normal', 'yaw': -0.75, 'datetime': '2018-10-03 17:15:59.352732', 'mgs': 1, 'volt': 0.8838, 'depth': 1.309, 'time': 5, 'pitch': -10.99, 'roll': 0.83, 'pres': 181}
{'lipoC2': 0.0, 'lipoC3S1': 3.96, 'temp': 25.81, 'lipoC3S3': 12.0, 'lipoC3S2': 7.92, 'rot1': 0, 'rot0': 0, 'rot3': 0, 'rot2': 0, 'state': 'normal', 'yaw': -0.94, 'datetime': '2018-10-03 17:15:59.367686', 'mgs': 1, 'volt': 0.8838, 'depth': 1.309, 'time': 5, 'pitch': -11.07, 'roll': 0.73, 'pres': 181}
{'lipoC2': 0.0, 'lipoC3S1': 3.96, 'temp': 25.88, 'lipoC3S3': 12.0, 'lipoC3S2': 7.92, 'rot1': 0, 'rot0': 0, 'rot3': 0, 'rot2': 0, 'state': 'normal', 'yaw': -1.21, 'datetime': '2018-10-03 17:15:59.382849', 'mgs': 1, 'volt': 0.8887, 'depth': 1.385, 'time': 5, 'pitch': -11.15, 'roll': 0.69, 'pres': 182}
{'lipoC2': 0.0, 'lipoC3S1': 3.96, 'temp': 25.88, 'lipoC3S3': 11.98, 'lipoC3S2': 7.92, 'rot1': 0, 'rot0': 0, 'rot3': 0, 'rot2': 0, 'state': 'normal', 'yaw': -1.54, 'datetime': '2018-10-03 17:15:59.397894', 'mgs': 1, 'volt': 0.8887, 'depth': 1.385, 'time': 5, 'pitch': -11.21, 'roll': 0.64, 'pres': 182}
{'lipoC2': 0.0, 'lipoC3S1': 3.96, 'temp': 25.88, 'lipoC3S3': 11.98, 'lipoC3S2': 7.92, 'rot1': 0, 'rot0': 0, 'rot3': 0, 'rot2': 0, 'state': 'normal', 'yaw': -1.87, 'datetime': '2018-10-03 17:15:59.413029', 'mgs': 1, 'volt': 0.8887, 'depth': 1.385, 'time': 6, 'pitch': -11.27, 'roll': 0.63, 'pres': 182}
{'lipoC2': 0.0, 'lipoC3S1': 3.88, 'temp': 25.88, 'lipoC3S3': 11.76, 'lipoC3S2': 7.71, 'rot1': 0, 'rot0': 0, 'rot3': 1, 'rot2': 1, 'state': 'normal', 'yaw': -2.22, 'datetime': '2018-10-03 17:15:59.428002', 'mgs': 1, 'volt': 0.918, 'depth': 1.843, 'time': 6, 'pitch': -11.22, 'roll': 0.63, 'pres': 188}
{'lipoC2': 0.0, 'lipoC3S1': 3.89, 'temp': 25.88, 'lipoC3S3': 11.79, 'lipoC3S2': 7.67, 'rot1': 1, 'rot0': 1, 'rot3': 2, 'rot2': 2, 'state': 'normal', 'yaw': -2.63, 'datetime': '2018-10-03 17:15:59.443302', 'mgs': 1, 'volt': 0.9033, 'depth': 1.614, 'time': 6, 'pitch': -10.85, 'roll': 0.4, 'pres': 185}
{'lipoC2': 0.0, 'lipoC3S1': 3.9, 'temp': 25.88, 'lipoC3S3': 11.68, 'lipoC3S2': 7.78, 'rot1': 3, 'rot0': 3, 'rot3': 3, 'rot2': 3, 'state': 'normal', 'yaw': -3.01, 'datetime': '2018-10-03 17:15:59.458265', 'mgs': 1, 'volt': 0.9082, 'depth': 1.691, 'time': 6, 'pitch': -10.27, 'roll': 0.01, 'pres': 186}
{'lipoC2': 0.0, 'lipoC3S1': 3.89, 'temp': 25.88, 'lipoC3S3': 11.76, 'lipoC3S2': 7.63, 'rot1': 4, 'rot0': 4, 'rot3': 4, 'rot2': 3, 'state': 'normal', 'yaw': -3.39, 'datetime': '2018-10-03 17:15:59.473362', 'mgs': 1, 'volt': 0.918, 'depth': 1.843, 'time': 6, 'pitch': -9.35, 'roll': -0.48, 'pres': 188}
{'lipoC2': 0.0, 'lipoC3S1': 3.89, 'temp': 25.88, 'lipoC3S3': 11.61, 'lipoC3S2': 7.76, 'rot1': 5, 'rot0': 5, 'rot3': 5, 'rot2': 4, 'state': 'normal', 'yaw': -3.79, 'datetime': '2018-10-03 17:15:59.488374', 'mgs': 1, 'volt': 0.9326, 'depth': 2.072, 'time': 6, 'pitch': -7.76, 'roll': -1.09, 'pres': 191}
{'lipoC2': 0.0, 'lipoC3S1': 3.89, 'temp': 25.69, 'lipoC3S3': 11.77, 'lipoC3S2': 7.75, 'rot1': 6, 'rot0': 6, 'rot3': 6, 'rot2': 5, 'state': 'normal', 'yaw': -4.22, 'datetime': '2018-10-03 17:15:59.503633', 'mgs': 1, 'volt': 0.9668, 'depth': 2.606, 'time': 6, 'pitch': -6.01, 'roll': -1.64, 'pres': 198}
{'lipoC2': 0.0, 'lipoC3S1': 3.83, 'temp': 25.69, 'lipoC3S3': 11.8, 'lipoC3S2': 7.78, 'rot1': 7, 'rot0': 7, 'rot3': 8, 'rot2': 6, 'state': 'normal', 'yaw': -4.72, 'datetime': '2018-10-03 17:15:59.518669', 'mgs': 1, 'volt': 0.9326, 'depth': 2.072, 'time': 6, 'pitch': -4.15, 'roll': -2.16, 'pres': 191}
{'lipoC2': 0.0, 'lipoC3S1': 3.88, 'temp': 25.75, 'lipoC3S3': 11.76, 'lipoC3S2': 7.64, 'rot1': 8, 'rot0': 8, 'rot3': 9, 'rot2': 7, 'state': 'normal', 'yaw': -5.25, 'datetime': '2018-10-03 17:15:59.533819', 'mgs': 1, 'volt': 0.957, 'depth': 2.454, 'time': 6, 'pitch': -2.27, 'roll': -2.63, 'pres': 196}
{'lipoC2': 0.0, 'lipoC3S1': 3.89, 'temp': 25.75, 'lipoC3S3': 11.68, 'lipoC3S2': 7.78, 'rot1': 9, 'rot0': 10, 'rot3': 10, 'rot2': 8, 'state': 'normal', 'yaw': -5.82, 'datetime': '2018-10-03 17:15:59.548893', 'mgs': 1, 'volt': 0.9521, 'depth': 2.377, 'time': 6, 'pitch': -0.24, 'roll': -3.11, 'pres': 195}
{'lipoC2': 0.0, 'lipoC3S1': 3.91, 'temp': 25.81, 'lipoC3S3': 11.9, 'lipoC3S2': 7.8, 'rot1': 11, 'rot0': 11, 'rot3': 11, 'rot2': 9, 'state': 'normal', 'yaw': -6.38, 'datetime': '2018-10-03 17:15:59.616252', 'mgs': 1, 'volt': 0.9521, 'depth': 2.377, 'time': 7, 'pitch': 1.56, 'roll': -3.37, 'pres': 195}
{'lipoC2': 0.0, 'lipoC3S1': 3.93, 'temp': 25.81, 'lipoC3S3': 11.92, 'lipoC3S2': 7.72, 'rot1': 12, 'rot0': 12, 'rot3': 11, 'rot2': 9, 'state': 'normal', 'yaw': -7.0, 'datetime': '2018-10-03 17:15:59.720100', 'mgs': 1, 'volt': 0.957, 'depth': 2.454, 'time': 7, 'pitch': 3.36, 'roll': -3.33, 'pres': 196}
{'lipoC2': 0.0, 'lipoC3S1': 3.97, 'temp': 25.81, 'lipoC3S3': 11.9, 'lipoC3S2': 7.81, 'rot1': 13, 'rot0': 13, 'rot3': 12, 'rot2': 10, 'state': 'normal', 'yaw': -7.68, 'datetime': '2018-10-03 17:15:59.823913', 'mgs': 1, 'volt': 0.9668, 'depth': 2.606, 'time': 7, 'pitch': 5.24, 'roll': -3.04, 'pres': 198}
{'lipoC2': 0.0, 'lipoC3S1': 3.94, 'temp': 25.88, 'lipoC3S3': 11.9, 'lipoC3S2': 7.78, 'rot1': 14, 'rot0': 14, 'rot3': 12, 'rot2': 10, 'state': 'normal', 'yaw': -8.27, 'datetime': '2018-10-03 17:15:59.927694', 'mgs': 1, 'volt': 0.9717, 'depth': 2.682, 'time': 7, 'pitch': 6.75, 'roll': -2.59, 'pres': 199}
{'lipoC2': 0.0, 'lipoC3S1': 3.94, 'temp': 25.88, 'lipoC3S3': 11.75, 'lipoC3S2': 7.85, 'rot1': 15, 'rot0': 15, 'rot3': 13, 'rot2': 10, 'state': 'normal', 'yaw': -8.88, 'datetime': '2018-10-03 17:16:00.031799', 'mgs': 1, 'volt': 0.9717, 'depth': 2.682, 'time': 7, 'pitch': 8.12, 'roll': -2.01, 'pres': 199}
{'lipoC2': 0.0, 'lipoC3S1': 3.94, 'temp': 25.88, 'lipoC3S3': 11.89, 'lipoC3S2': 7.85, 'rot1': 16, 'rot0': 17, 'rot3': 13, 'rot2': 11, 'state': 'normal', 'yaw': -9.42, 'datetime': '2018-10-03 17:16:00.136332', 'mgs': 1, 'volt': 0.9766, 'depth': 2.759, 'time': 7, 'pitch': 9.11, 'roll': -1.44, 'pres': 200}
{'lipoC2': 0.0, 'lipoC3S1': 3.93, 'temp': 25.88, 'lipoC3S3': 11.9, 'lipoC3S2': 7.74, 'rot1': 17, 'rot0': 18, 'rot3': 13, 'rot2': 11, 'state': 'normal', 'yaw': -9.91, 'datetime': '2018-10-03 17:16:00.241437', 'mgs': 1, 'volt': 0.9766, 'depth': 2.759, 'time': 7, 'pitch': 9.84, 'roll': -0.89, 'pres': 200}
{'lipoC2': 0.0, 'lipoC3S1': 3.93, 'temp': 25.88, 'lipoC3S3': 11.84, 'lipoC3S2': 7.81, 'rot1': 18, 'rot0': 19, 'rot3': 13, 'rot2': 11, 'state': 'normal', 'yaw': -10.41, 'datetime': '2018-10-03 17:16:00.345222', 'mgs': 1, 'volt': 0.9766, 'depth': 2.759, 'time': 7, 'pitch': 10.37, 'roll': -0.31, 'pres': 200}
{'lipoC2': 0.0, 'lipoC3S1': 3.88, 'temp': 25.88, 'lipoC3S3': 11.9, 'lipoC3S2': 7.86, 'rot1': 20, 'rot0': 20, 'rot3': 15, 'rot2': 11, 'state': 'normal', 'yaw': -10.79, 'datetime': '2018-10-03 17:16:00.449572', 'mgs': 1, 'volt': 0.9619, 'depth': 2.53, 'time': 7, 'pitch': 10.62, 'roll': 0.15, 'pres': 197}
{'lipoC2': 0.0, 'lipoC3S1': 3.86, 'temp': 25.88, 'lipoC3S3': 11.9, 'lipoC3S2': 7.86, 'rot1': 21, 'rot0': 21, 'rot3': 15, 'rot2': 11, 'state': 'normal', 'yaw': -11.16, 'datetime': '2018-10-03 17:16:00.554110', 'mgs': 1, 'volt': 0.9766, 'depth': 2.759, 'time': 7, 'pitch': 10.67, 'roll': 0.49, 'pres': 200}
{'lipoC2': 0.0, 'lipoC3S1': 3.85, 'temp': 25.88, 'lipoC3S3': 11.9, 'lipoC3S2': 7.84, 'rot1': 22, 'rot0': 22, 'rot3': 15, 'rot2': 12, 'state': 'normal', 'yaw': -11.6, 'datetime': '2018-10-03 17:16:00.657974', 'mgs': 1, 'volt': 0.9766, 'depth': 2.759, 'time': 8, 'pitch': 10.56, 'roll': 0.75, 'pres': 200}
{'lipoC2': 0.0, 'lipoC3S1': 3.95, 'temp': 25.88, 'lipoC3S3': 11.92, 'lipoC3S2': 7.79, 'rot1': 23, 'rot0': 24, 'rot3': 15, 'rot2': 12, 'state': 'normal', 'yaw': -11.99, 'datetime': '2018-10-03 17:16:00.761760', 'mgs': 1, 'volt': 0.9766, 'depth': 2.759, 'time': 8, 'pitch': 10.33, 'roll': 0.92, 'pres': 200}
{'lipoC2': 0.0, 'lipoC3S1': 3.93, 'temp': 25.88, 'lipoC3S3': 11.92, 'lipoC3S2': 7.78, 'rot1': 24, 'rot0': 25, 'rot3': 15, 'rot2': 12, 'state': 'normal', 'yaw': -12.41, 'datetime': '2018-10-03 17:16:00.865608', 'mgs': 1, 'volt': 0.9717, 'depth': 2.682, 'time': 8, 'pitch': 9.98, 'roll': 1.02, 'pres': 199}
{'lipoC2': 0.0, 'lipoC3S1': 3.93, 'temp': 25.88, 'lipoC3S3': 11.9, 'lipoC3S2': 7.76, 'rot1': 26, 'rot0': 26, 'rot3': 15, 'rot2': 12, 'state': 'normal', 'yaw': -12.78, 'datetime': '2018-10-03 17:16:00.969382', 'mgs': 1, 'volt': 0.9668, 'depth': 2.606, 'time': 8, 'pitch': 9.63, 'roll': 1.04, 'pres': 198}
{'lipoC2': 0.0, 'lipoC3S1': 3.93, 'temp': 25.88, 'lipoC3S3': 11.92, 'lipoC3S2': 7.76, 'rot1': 27, 'rot0': 27, 'rot3': 16, 'rot2': 12, 'state': 'normal', 'yaw': -13.1, 'datetime': '2018-10-03 17:16:01.073297', 'mgs': 1, 'volt': 0.9668, 'depth': 2.606, 'time': 8, 'pitch': 9.3, 'roll': 1.02, 'pres': 198}
{'lipoC2': 0.0, 'lipoC3S1': 3.93, 'temp': 25.88, 'lipoC3S3': 11.87, 'lipoC3S2': 7.72, 'rot1': 28, 'rot0': 28, 'rot3': 16, 'rot2': 12, 'state': 'normal', 'yaw': -13.38, 'datetime': '2018-10-03 17:16:01.177033', 'mgs': 1, 'volt': 0.9619, 'depth': 2.53, 'time': 8, 'pitch': 8.96, 'roll': 1.02, 'pres': 197}
{'lipoC2': 0.0, 'lipoC3S1': 3.93, 'temp': 25.88, 'lipoC3S3': 11.8, 'lipoC3S2': 7.83, 'rot1': 29, 'rot0': 30, 'rot3': 16, 'rot2': 13, 'state': 'normal', 'yaw': -13.61, 'datetime': '2018-10-03 17:16:01.280890', 'mgs': 1, 'volt': 0.9619, 'depth': 2.53, 'time': 8, 'pitch': 8.73, 'roll': 1.01, 'pres': 197}
{'lipoC2': 0.0, 'lipoC3S1': 3.93, 'temp': 25.94, 'lipoC3S3': 11.88, 'lipoC3S2': 7.84, 'rot1': 30, 'rot0': 31, 'rot3': 17, 'rot2': 13, 'state': 'normal', 'yaw': -13.79, 'datetime': '2018-10-03 17:16:01.384826', 'mgs': 1, 'volt': 0.9619, 'depth': 2.53, 'time': 8, 'pitch': 8.53, 'roll': 0.98, 'pres': 197}
{'lipoC2': 0.0, 'lipoC3S1': 3.93, 'temp': 25.94, 'lipoC3S3': 11.88, 'lipoC3S2': 7.84, 'rot1': 31, 'rot0': 32, 'rot3': 17, 'rot2': 14, 'state': 'normal', 'yaw': -13.94, 'datetime': '2018-10-03 17:16:01.488692', 'mgs': 1, 'volt': 0.9766, 'depth': 2.759, 'time': 8, 'pitch': 8.33, 'roll': 0.92, 'pres': 200}
{'lipoC2': 0.0, 'lipoC3S1': 3.88, 'temp': 25.88, 'lipoC3S3': 11.89, 'lipoC3S2': 7.85, 'rot1': 32, 'rot0': 33, 'rot3': 17, 'rot2': 14, 'state': 'normal', 'yaw': -14.1, 'datetime': '2018-10-03 17:16:01.593434', 'mgs': 1, 'volt': 1.0303, 'depth': 3.598, 'time': 9, 'pitch': 8.11, 'roll': 0.8, 'pres': 211}
{'lipoC2': 0.0, 'lipoC3S1': 3.89, 'temp': 25.88, 'lipoC3S3': 11.89, 'lipoC3S2': 7.73, 'rot1': 34, 'rot0': 34, 'rot3': 19, 'rot2': 14, 'state': 'normal', 'yaw': -14.28, 'datetime': '2018-10-03 17:16:01.697463', 'mgs': 1, 'volt': 0.9521, 'depth': 2.377, 'time': 9, 'pitch': 7.76, 'roll': 0.6, 'pres': 195}
{'lipoC2': 0.0, 'lipoC3S1': 3.92, 'temp': 25.81, 'lipoC3S3': 11.89, 'lipoC3S2': 7.71, 'rot1': 35, 'rot0': 35, 'rot3': 19, 'rot2': 14, 'state': 'normal', 'yaw': -14.46, 'datetime': '2018-10-03 17:16:01.801213', 'mgs': 1, 'volt': 0.9473, 'depth': 2.301, 'time': 9, 'pitch': 7.48, 'roll': 0.42, 'pres': 194}
{'lipoC2': 0.0, 'lipoC3S1': 3.87, 'temp': 25.81, 'lipoC3S3': 11.87, 'lipoC3S2': 7.83, 'rot1': 36, 'rot0': 37, 'rot3': 19, 'rot2': 16, 'state': 'normal', 'yaw': -14.59, 'datetime': '2018-10-03 17:16:01.906315', 'mgs': 1, 'volt': 1.0205, 'depth': 3.445, 'time': 9, 'pitch': 7.21, 'roll': 0.21, 'pres': 209}
{'lipoC2': 0.0, 'lipoC3S1': 3.85, 'temp': 25.94, 'lipoC3S3': 11.88, 'lipoC3S2': 7.84, 'rot1': 37, 'rot0': 38, 'rot3': 19, 'rot2': 16, 'state': 'normal', 'yaw': -14.74, 'datetime': '2018-10-03 17:16:02.010175', 'mgs': 1, 'volt': 0.9375, 'depth': 2.148, 'time': 9, 'pitch': 6.77, 'roll': -0.07, 'pres': 192}
{'lipoC2': 0.0, 'lipoC3S1': 3.84, 'temp': 25.94, 'lipoC3S3': 11.87, 'lipoC3S2': 7.83, 'rot1': 38, 'rot0': 39, 'rot3': 20, 'rot2': 17, 'state': 'normal', 'yaw': -14.85, 'datetime': '2018-10-03 17:16:02.113932', 'mgs': 1, 'volt': 0.957, 'depth': 2.454, 'time': 9, 'pitch': 6.29, 'roll': -0.31, 'pres': 196}
{'lipoC2': 0.0, 'lipoC3S1': 3.88, 'temp': 25.94, 'lipoC3S3': 11.84, 'lipoC3S2': 7.67, 'rot1': 39, 'rot0': 40, 'rot3': 22, 'rot2': 17, 'state': 'normal', 'yaw': -14.96, 'datetime': '2018-10-03 17:16:02.217908', 'mgs': 1, 'volt': 0.9375, 'depth': 2.148, 'time': 9, 'pitch': 5.78, 'roll': -0.45, 'pres': 192}
{'lipoC2': 0.0, 'lipoC3S1': 3.92, 'temp': 25.88, 'lipoC3S3': 11.79, 'lipoC3S2': 7.77, 'rot1': 41, 'rot0': 42, 'rot3': 22, 'rot2': 19, 'state': 'normal', 'yaw': -15.05, 'datetime': '2018-10-03 17:16:02.321782', 'mgs': 1, 'volt': 0.9326, 'depth': 2.072, 'time': 9, 'pitch': 5.25, 'roll': -0.55, 'pres': 191}
{'lipoC2': 0.0, 'lipoC3S1': 3.92, 'temp': 25.88, 'lipoC3S3': 11.75, 'lipoC3S2': 7.77, 'rot1': 42, 'rot0': 43, 'rot3': 23, 'rot2': 19, 'state': 'normal', 'yaw': -15.16, 'datetime': '2018-10-03 17:16:02.425539', 'mgs': 1, 'volt': 0.9326, 'depth': 2.072, 'time': 9, 'pitch': 4.79, 'roll': -0.62, 'pres': 191}
{'lipoC2': 0.0, 'lipoC3S1': 3.92, 'temp': 25.88, 'lipoC3S3': 11.8, 'lipoC3S2': 7.81, 'rot1': 43, 'rot0': 44, 'rot3': 24, 'rot2': 20, 'state': 'normal', 'yaw': -15.32, 'datetime': '2018-10-03 17:16:02.529578', 'mgs': 1, 'volt': 0.9619, 'depth': 2.53, 'time': 9, 'pitch': 4.32, 'roll': -0.67, 'pres': 197}
{'lipoC2': 0.0, 'lipoC3S1': 3.92, 'temp': 25.88, 'lipoC3S3': 11.79, 'lipoC3S2': 7.82, 'rot1': 44, 'rot0': 45, 'rot3': 25, 'rot2': 21, 'state': 'normal', 'yaw': -15.57, 'datetime': '2018-10-03 17:16:02.633522', 'mgs': 1, 'volt': 0.9717, 'depth': 2.682, 'time': 10, 'pitch': 3.78, 'roll': -0.76, 'pres': 199}
{'lipoC2': 0.0, 'lipoC3S1': 3.86, 'temp': 25.88, 'lipoC3S3': 11.89, 'lipoC3S2': 7.85, 'rot1': 45, 'rot0': 46, 'rot3': 25, 'rot2': 21, 'state': 'normal', 'yaw': -15.84, 'datetime': '2018-10-03 17:16:02.737471', 'mgs': 1, 'volt': 0.9326, 'depth': 2.072, 'time': 10, 'pitch': 3.28, 'roll': -0.86, 'pres': 191}
{'lipoC2': 0.0, 'lipoC3S1': 3.93, 'temp': 25.88, 'lipoC3S3': 11.9, 'lipoC3S2': 7.76, 'rot1': 46, 'rot0': 47, 'rot3': 25, 'rot2': 22, 'state': 'normal', 'yaw': -16.17, 'datetime': '2018-10-03 17:16:02.841375', 'mgs': 1, 'volt': 0.9277, 'depth': 1.996, 'time': 10, 'pitch': 2.91, 'roll': -0.82, 'pres': 190}
{'lipoC2': 0.0, 'lipoC3S1': 3.94, 'temp': 25.88, 'lipoC3S3': 11.72, 'lipoC3S2': 7.78, 'rot1': 48, 'rot0': 49, 'rot3': 26, 'rot2': 22, 'state': 'normal', 'yaw': -16.41, 'datetime': '2018-10-03 17:16:02.945374', 'mgs': 1, 'volt': 0.9326, 'depth': 2.072, 'time': 10, 'pitch': 2.66, 'roll': -0.69, 'pres': 191}
{'lipoC2': 0.0, 'lipoC3S1': 3.89, 'temp': 25.88, 'lipoC3S3': 11.87, 'lipoC3S2': 7.7, 'rot1': 49, 'rot0': 50, 'rot3': 27, 'rot2': 23, 'state': 'normal', 'yaw': -16.64, 'datetime': '2018-10-03 17:16:03.050525', 'mgs': 1, 'volt': 0.957, 'depth': 2.454, 'time': 10, 'pitch': 2.33, 'roll': -0.61, 'pres': 196}
{'lipoC2': 0.0, 'lipoC3S1': 3.93, 'temp': 25.88, 'lipoC3S3': 11.71, 'lipoC3S2': 7.83, 'rot1': 50, 'rot0': 51, 'rot3': 27, 'rot2': 23, 'state': 'normal', 'yaw': -16.84, 'datetime': '2018-10-03 17:16:03.154491', 'mgs': 1, 'volt': 0.9326, 'depth': 2.072, 'time': 10, 'pitch': 1.98, 'roll': -0.61, 'pres': 191}
{'lipoC2': 0.0, 'lipoC3S1': 3.92, 'temp': 25.94, 'lipoC3S3': 11.87, 'lipoC3S2': 7.7, 'rot1': 51, 'rot0': 52, 'rot3': 28, 'rot2': 24, 'state': 'normal', 'yaw': -17.01, 'datetime': '2018-10-03 17:16:03.259636', 'mgs': 1, 'volt': 0.9326, 'depth': 2.072, 'time': 10, 'pitch': 1.89, 'roll': -0.6, 'pres': 191}
{'lipoC2': 0.0, 'lipoC3S1': 3.92, 'temp': 25.94, 'lipoC3S3': 11.69, 'lipoC3S2': 7.77, 'rot1': 52, 'rot0': 54, 'rot3': 29, 'rot2': 24, 'state': 'normal', 'yaw': -17.26, 'datetime': '2018-10-03 17:16:03.363669', 'mgs': 1, 'volt': 0.9375, 'depth': 2.148, 'time': 10, 'pitch': 1.96, 'roll': -0.47, 'pres': 192}
{'lipoC2': 0.0, 'lipoC3S1': 3.92, 'temp': 25.94, 'lipoC3S3': 11.77, 'lipoC3S2': 7.81, 'rot1': 53, 'rot0': 55, 'rot3': 29, 'rot2': 25, 'state': 'normal', 'yaw': -17.46, 'datetime': '2018-10-03 17:16:03.467578', 'mgs': 1, 'volt': 0.957, 'depth': 2.454, 'time': 10, 'pitch': 2.1, 'roll': -0.44, 'pres': 196}
{'lipoC2': 0.0, 'lipoC3S1': 3.89, 'temp': 25.94, 'lipoC3S3': 11.88, 'lipoC3S2': 7.84, 'rot1': 54, 'rot0': 56, 'rot3': 30, 'rot2': 26, 'state': 'normal', 'yaw': -17.65, 'datetime': '2018-10-03 17:16:03.571513', 'mgs': 1, 'volt': 1.001, 'depth': 3.14, 'time': 10, 'pitch': 2.19, 'roll': -0.5, 'pres': 205}
{'lipoC2': 0.0, 'lipoC3S1': 3.81, 'temp': 25.94, 'lipoC3S3': 11.88, 'lipoC3S2': 7.8, 'rot1': 56, 'rot0': 57, 'rot3': 30, 'rot2': 26, 'state': 'normal', 'yaw': -17.76, 'datetime': '2018-10-03 17:16:03.675435', 'mgs': 1, 'volt': 0.9424, 'depth': 2.225, 'time': 11, 'pitch': 2.27, 'roll': -0.48, 'pres': 193}
{'lipoC2': 0.0, 'lipoC3S1': 3.93, 'temp': 25.88, 'lipoC3S3': 11.79, 'lipoC3S2': 7.82, 'rot1': 57, 'rot0': 58, 'rot3': 32, 'rot2': 27, 'state': 'normal', 'yaw': -17.76, 'datetime': '2018-10-03 17:16:03.780487', 'mgs': 1, 'volt': 0.9668, 'depth': 2.606, 'time': 11, 'pitch': 2.31, 'roll': -0.45, 'pres': 198}
{'lipoC2': 0.0, 'lipoC3S1': 3.87, 'temp': 25.88, 'lipoC3S3': 11.87, 'lipoC3S2': 7.83, 'rot1': 58, 'rot0': 60, 'rot3': 33, 'rot2': 27, 'state': 'normal', 'yaw': -17.77, 'datetime': '2018-10-03 17:16:03.884450', 'mgs': 1, 'volt': 1.0107, 'depth': 3.293, 'time': 11, 'pitch': 2.3, 'roll': -0.41, 'pres': 207}
{'lipoC2': 0.0, 'lipoC3S1': 3.94, 'temp': 25.81, 'lipoC3S3': 11.88, 'lipoC3S2': 7.78, 'rot1': 59, 'rot0': 61, 'rot3': 33, 'rot2': 28, 'state': 'normal', 'yaw': -17.83, 'datetime': '2018-10-03 17:16:03.988399', 'mgs': 1, 'volt': 0.9473, 'depth': 2.301, 'time': 11, 'pitch': 2.26, 'roll': -0.38, 'pres': 194}
{'lipoC2': 0.0, 'lipoC3S1': 3.92, 'temp': 25.81, 'lipoC3S3': 11.81, 'lipoC3S2': 7.7, 'rot1': 60, 'rot0': 62, 'rot3': 33, 'rot2': 29, 'state': 'normal', 'yaw': -17.93, 'datetime': '2018-10-03 17:16:04.092457', 'mgs': 1, 'volt': 0.9473, 'depth': 2.301, 'time': 11, 'pitch': 2.44, 'roll': -0.37, 'pres': 194}
{'lipoC2': 0.0, 'lipoC3S1': 3.92, 'temp': 25.81, 'lipoC3S3': 11.67, 'lipoC3S2': 7.8, 'rot1': 61, 'rot0': 63, 'rot3': 33, 'rot2': 29, 'state': 'normal', 'yaw': -18.02, 'datetime': '2018-10-03 17:16:04.196192', 'mgs': 1, 'volt': 0.9473, 'depth': 2.301, 'time': 11, 'pitch': 2.8, 'roll': -0.34, 'pres': 194}
{'lipoC2': 0.0, 'lipoC3S1': 3.92, 'temp': 25.81, 'lipoC3S3': 11.85, 'lipoC3S2': 7.82, 'rot1': 63, 'rot0': 64, 'rot3': 33, 'rot2': 30, 'state': 'normal', 'yaw': -18.07, 'datetime': '2018-10-03 17:16:04.300115', 'mgs': 1, 'volt': 0.9717, 'depth': 2.682, 'time': 11, 'pitch': 3.07, 'roll': -0.3, 'pres': 199}
{'lipoC2': 0.0, 'lipoC3S1': 3.94, 'temp': 25.81, 'lipoC3S3': 11.89, 'lipoC3S2': 7.78, 'rot1': 64, 'rot0': 66, 'rot3': 34, 'rot2': 30, 'state': 'normal', 'yaw': -18.08, 'datetime': '2018-10-03 17:16:04.405044', 'mgs': 1, 'volt': 0.957, 'depth': 2.454, 'time': 11, 'pitch': 3.35, 'roll': -0.29, 'pres': 196}
{'lipoC2': 0.0, 'lipoC3S1': 3.93, 'temp': 25.88, 'lipoC3S3': 11.83, 'lipoC3S2': 7.89, 'rot1': 65, 'rot0': 67, 'rot3': 34, 'rot2': 31, 'state': 'normal', 'yaw': -18.09, 'datetime': '2018-10-03 17:16:04.515185', 'mgs': 1, 'volt': 0.957, 'depth': 2.454, 'time': 11, 'pitch': 3.81, 'roll': -0.26, 'pres': 196}
{'lipoC2': 0.0, 'lipoC3S1': 3.9, 'temp': 25.88, 'lipoC3S3': 11.88, 'lipoC3S2': 7.77, 'rot1': 66, 'rot0': 68, 'rot3': 34, 'rot2': 31, 'state': 'normal', 'yaw': -18.09, 'datetime': '2018-10-03 17:16:04.614153', 'mgs': 1, 'volt': 0.957, 'depth': 2.454, 'time': 12, 'pitch': 4.25, 'roll': -0.24, 'pres': 196}
{'lipoC2': 0.0, 'lipoC3S1': 3.92, 'temp': 25.88, 'lipoC3S3': 11.85, 'lipoC3S2': 7.68, 'rot1': 67, 'rot0': 69, 'rot3': 35, 'rot2': 31, 'state': 'normal', 'yaw': -17.99, 'datetime': '2018-10-03 17:16:04.718119', 'mgs': 1, 'volt': 0.9619, 'depth': 2.53, 'time': 12, 'pitch': 4.59, 'roll': -0.22, 'pres': 197}
{'lipoC2': 0.0, 'lipoC3S1': 3.93, 'temp': 25.88, 'lipoC3S3': 11.69, 'lipoC3S2': 7.83, 'rot1': 69, 'rot0': 70, 'rot3': 35, 'rot2': 33, 'state': 'normal', 'yaw': -17.87, 'datetime': '2018-10-03 17:16:04.822066', 'mgs': 1, 'volt': 0.957, 'depth': 2.454, 'time': 12, 'pitch': 4.74, 'roll': -0.18, 'pres': 196}
{'lipoC2': 0.0, 'lipoC3S1': 3.93, 'temp': 25.88, 'lipoC3S3': 11.87, 'lipoC3S2': 7.83, 'rot1': 70, 'rot0': 72, 'rot3': 36, 'rot2': 33, 'state': 'normal', 'yaw': -17.8, 'datetime': '2018-10-03 17:16:04.926693', 'mgs': 1, 'volt': 0.9668, 'depth': 2.606, 'time': 12, 'pitch': 4.83, 'roll': -0.16, 'pres': 198}
{'lipoC2': 0.0, 'lipoC3S1': 3.88, 'temp': 25.88, 'lipoC3S3': 11.88, 'lipoC3S2': 7.84, 'rot1': 71, 'rot0': 73, 'rot3': 36, 'rot2': 33, 'state': 'normal', 'yaw': -17.78, 'datetime': '2018-10-03 17:16:05.030622', 'mgs': 1, 'volt': 0.9961, 'depth': 3.064, 'time': 12, 'pitch': 4.89, 'roll': -0.15, 'pres': 204}
{'lipoC2': 0.0, 'lipoC3S1': 3.93, 'temp': 25.88, 'lipoC3S3': 11.87, 'lipoC3S2': 7.83, 'rot1': 72, 'rot0': 74, 'rot3': 36, 'rot2': 34, 'state': 'normal', 'yaw': -17.77, 'datetime': '2018-10-03 17:16:05.142257', 'mgs': 1, 'volt': 0.9619, 'depth': 2.53, 'time': 12, 'pitch': 4.97, 'roll': -0.17, 'pres': 197}
{'lipoC2': 0.0, 'lipoC3S1': 3.9, 'temp': 25.81, 'lipoC3S3': 11.87, 'lipoC3S2': 7.83, 'rot1': 73, 'rot0': 75, 'rot3': 37, 'rot2': 34, 'state': 'normal', 'yaw': -17.78, 'datetime': '2018-10-03 17:16:05.239746', 'mgs': 1, 'volt': 1.0205, 'depth': 3.445, 'time': 12, 'pitch': 5.03, 'roll': -0.17, 'pres': 209}
{'lipoC2': 0.0, 'lipoC3S1': 3.93, 'temp': 25.81, 'lipoC3S3': 11.68, 'lipoC3S2': 7.83, 'rot1': 74, 'rot0': 76, 'rot3': 37, 'rot2': 34, 'state': 'normal', 'yaw': -17.79, 'datetime': '2018-10-03 17:16:05.343990', 'mgs': 1, 'volt': 0.9619, 'depth': 2.53, 'time': 12, 'pitch': 5.06, 'roll': -0.15, 'pres': 197}
{'lipoC2': 0.0, 'lipoC3S1': 3.93, 'temp': 25.88, 'lipoC3S3': 11.71, 'lipoC3S2': 7.82, 'rot1': 76, 'rot0': 78, 'rot3': 37, 'rot2': 35, 'state': 'normal', 'yaw': -17.91, 'datetime': '2018-10-03 17:16:05.448545', 'mgs': 1, 'volt': 0.9619, 'depth': 2.53, 'time': 12, 'pitch': 5.06, 'roll': -0.14, 'pres': 197}
{'lipoC2': 0.0, 'lipoC3S1': 3.93, 'temp': 25.88, 'lipoC3S3': 11.85, 'lipoC3S2': 7.83, 'rot1': 77, 'rot0': 79, 'rot3': 38, 'rot2': 35, 'state': 'normal', 'yaw': -18.09, 'datetime': '2018-10-03 17:16:05.552538', 'mgs': 1, 'volt': 0.9619, 'depth': 2.53, 'time': 12, 'pitch': 5.02, 'roll': -0.14, 'pres': 197}
{'lipoC2': 0.0, 'lipoC3S1': 3.92, 'temp': 25.88, 'lipoC3S3': 11.71, 'lipoC3S2': 7.82, 'rot1': 78, 'rot0': 80, 'rot3': 38, 'rot2': 37, 'state': 'normal', 'yaw': -18.23, 'datetime': '2018-10-03 17:16:05.657701', 'mgs': 1, 'volt': 0.9619, 'depth': 2.53, 'time': 13, 'pitch': 4.98, 'roll': -0.13, 'pres': 197}
{'lipoC2': 0.0, 'lipoC3S1': 3.93, 'temp': 25.88, 'lipoC3S3': 11.87, 'lipoC3S2': 7.83, 'rot1': 79, 'rot0': 81, 'rot3': 38, 'rot2': 37, 'state': 'normal', 'yaw': -18.42, 'datetime': '2018-10-03 17:16:05.761591', 'mgs': 1, 'volt': 0.9717, 'depth': 2.682, 'time': 13, 'pitch': 4.89, 'roll': -0.1, 'pres': 199}
{'lipoC2': 0.0, 'lipoC3S1': 3.93, 'temp': 25.88, 'lipoC3S3': 11.87, 'lipoC3S2': 7.84, 'rot1': 80, 'rot0': 83, 'rot3': 39, 'rot2': 37, 'state': 'normal', 'yaw': -18.6, 'datetime': '2018-10-03 17:16:05.866189', 'mgs': 1, 'volt': 0.9766, 'depth': 2.759, 'time': 13, 'pitch': 4.75, 'roll': -0.01, 'pres': 200}
{'lipoC2': 0.0, 'lipoC3S1': 3.93, 'temp': 25.88, 'lipoC3S3': 11.75, 'lipoC3S2': 7.83, 'rot1': 81, 'rot0': 84, 'rot3': 39, 'rot2': 38, 'state': 'normal', 'yaw': -18.76, 'datetime': '2018-10-03 17:16:05.970582', 'mgs': 1, 'volt': 0.9619, 'depth': 2.53, 'time': 13, 'pitch': 4.58, 'roll': 0.09, 'pres': 197}
{'lipoC2': 0.0, 'lipoC3S1': 3.93, 'temp': 25.88, 'lipoC3S3': 11.87, 'lipoC3S2': 7.83, 'rot1': 83, 'rot0': 85, 'rot3': 39, 'rot2': 38, 'state': 'normal', 'yaw': -18.86, 'datetime': '2018-10-03 17:16:06.074511', 'mgs': 1, 'volt': 0.9766, 'depth': 2.759, 'time': 13, 'pitch': 4.43, 'roll': 0.17, 'pres': 200}
{'lipoC2': 0.0, 'lipoC3S1': 3.89, 'temp': 25.81, 'lipoC3S3': 11.87, 'lipoC3S2': 7.83, 'rot1': 84, 'rot0': 86, 'rot3': 41, 'rot2': 38, 'state': 'normal', 'yaw': -18.9, 'datetime': '2018-10-03 17:16:06.178426', 'mgs': 1, 'volt': 1.0254, 'depth': 3.522, 'time': 13, 'pitch': 4.28, 'roll': 0.24, 'pres': 210}
{'lipoC2': 0.0, 'lipoC3S1': 3.8, 'temp': 25.81, 'lipoC3S3': 11.85, 'lipoC3S2': 7.77, 'rot1': 85, 'rot0': 87, 'rot3': 41, 'rot2': 38, 'state': 'normal', 'yaw': -18.96, 'datetime': '2018-10-03 17:16:06.282422', 'mgs': 1, 'volt': 0.9619, 'depth': 2.53, 'time': 13, 'pitch': 4.16, 'roll': 0.3, 'pres': 197}
{'lipoC2': 0.0, 'lipoC3S1': 3.92, 'temp': 25.88, 'lipoC3S3': 11.84, 'lipoC3S2': 7.67, 'rot1': 86, 'rot0': 88, 'rot3': 42, 'rot2': 38, 'state': 'normal', 'yaw': -19.0, 'datetime': '2018-10-03 17:16:06.386583', 'mgs': 1, 'volt': 0.957, 'depth': 2.454, 'time': 13, 'pitch': 4.18, 'roll': 0.35, 'pres': 196}
{'lipoC2': 0.0, 'lipoC3S1': 3.92, 'temp': 25.88, 'lipoC3S3': 11.67, 'lipoC3S2': 7.81, 'rot1': 87, 'rot0': 90, 'rot3': 42, 'rot2': 38, 'state': 'normal', 'yaw': -19.01, 'datetime': '2018-10-03 17:16:06.490683', 'mgs': 1, 'volt': 0.9521, 'depth': 2.377, 'time': 13, 'pitch': 4.42, 'roll': 0.4, 'pres': 195}
{'lipoC2': 0.0, 'lipoC3S1': 3.92, 'temp': 25.88, 'lipoC3S3': 11.85, 'lipoC3S2': 7.82, 'rot1': 88, 'rot0': 91, 'rot3': 44, 'rot2': 38, 'state': 'normal', 'yaw': -19.01, 'datetime': '2018-10-03 17:16:06.594164', 'mgs': 1, 'volt': 0.9668, 'depth': 2.606, 'time': 14, 'pitch': 4.64, 'roll': 0.43, 'pres': 198}
{'lipoC2': 0.0, 'lipoC3S1': 3.92, 'temp': 25.94, 'lipoC3S3': 11.76, 'lipoC3S2': 7.82, 'rot1': 89, 'rot0': 92, 'rot3': 44, 'rot2': 38, 'state': 'normal', 'yaw': -19.05, 'datetime': '2018-10-03 17:16:06.698516', 'mgs': 1, 'volt': 0.957, 'depth': 2.454, 'time': 14, 'pitch': 4.71, 'roll': 0.43, 'pres': 196}
{'lipoC2': 0.0, 'lipoC3S1': 3.85, 'temp': 25.94, 'lipoC3S3': 11.88, 'lipoC3S2': 7.83, 'rot1': 91, 'rot0': 93, 'rot3': 44, 'rot2': 39, 'state': 'normal', 'yaw': -19.2, 'datetime': '2018-10-03 17:16:06.802805', 'mgs': 1, 'volt': 0.9521, 'depth': 2.377, 'time': 14, 'pitch': 4.82, 'roll': 0.43, 'pres': 195}
{'lipoC2': 0.0, 'lipoC3S1': 3.91, 'temp': 25.88, 'lipoC3S3': 11.87, 'lipoC3S2': 7.7, 'rot1': 92, 'rot0': 94, 'rot3': 45, 'rot2': 39, 'state': 'normal', 'yaw': -19.37, 'datetime': '2018-10-03 17:16:06.906678', 'mgs': 1, 'volt': 0.9521, 'depth': 2.377, 'time': 14, 'pitch': 5.02, 'roll': 0.42, 'pres': 195}
{'lipoC2': 0.0, 'lipoC3S1': 3.83, 'temp': 25.88, 'lipoC3S3': 11.87, 'lipoC3S2': 7.83, 'rot1': 93, 'rot0': 96, 'rot3': 45, 'rot2': 40, 'state': 'normal', 'yaw': -19.49, 'datetime': '2018-10-03 17:16:07.011863', 'mgs': 1, 'volt': 0.9717, 'depth': 2.682, 'time': 14, 'pitch': 5.2, 'roll': 0.31, 'pres': 199}
{'lipoC2': 0.0, 'lipoC3S1': 3.92, 'temp': 25.88, 'lipoC3S3': 11.88, 'lipoC3S2': 7.72, 'rot1': 94, 'rot0': 97, 'rot3': 46, 'rot2': 40, 'state': 'normal', 'yaw': -19.66, 'datetime': '2018-10-03 17:16:07.115808', 'mgs': 1, 'volt': 0.9473, 'depth': 2.301, 'time': 14, 'pitch': 5.33, 'roll': 0.11, 'pres': 194}
{'lipoC2': 0.0, 'lipoC3S1': 3.93, 'temp': 25.88, 'lipoC3S3': 11.87, 'lipoC3S2': 7.83, 'rot1': 95, 'rot0': 98, 'rot3': 46, 'rot2': 40, 'state': 'normal', 'yaw': -19.81, 'datetime': '2018-10-03 17:16:07.220702', 'mgs': 1, 'volt': 0.9473, 'depth': 2.301, 'time': 14, 'pitch': 5.41, 'roll': -0.08, 'pres': 194}
{'lipoC2': 0.0, 'lipoC3S1': 3.86, 'temp': 25.88, 'lipoC3S3': 11.85, 'lipoC3S2': 7.82, 'rot1': 97, 'rot0': 99, 'rot3': 46, 'rot2': 41, 'state': 'normal', 'yaw': -20.01, 'datetime': '2018-10-03 17:16:07.328033', 'mgs': 1, 'volt': 1.0156, 'depth': 3.369, 'time': 14, 'pitch': 5.4, 'roll': -0.23, 'pres': 208}
{'lipoC2': 0.0, 'lipoC3S1': 3.91, 'temp': 25.88, 'lipoC3S3': 11.87, 'lipoC3S2': 7.77, 'rot1': 98, 'rot0': 101, 'rot3': 47, 'rot2': 41, 'state': 'normal', 'yaw': -20.18, 'datetime': '2018-10-03 17:16:07.434350', 'mgs': 1, 'volt': 0.9473, 'depth': 2.301, 'time': 14, 'pitch': 5.25, 'roll': -0.4, 'pres': 194}
{'lipoC2': 0.0, 'lipoC3S1': 3.92, 'temp': 25.88, 'lipoC3S3': 11.71, 'lipoC3S2': 7.83, 'rot1': 99, 'rot0': 102, 'rot3': 47, 'rot2': 42, 'state': 'normal', 'yaw': -20.38, 'datetime': '2018-10-03 17:16:07.538569', 'mgs': 1, 'volt': 0.9424, 'depth': 2.225, 'time': 14, 'pitch': 5.04, 'roll': -0.52, 'pres': 193}
{'lipoC2': 0.0, 'lipoC3S1': 3.93, 'temp': 25.94, 'lipoC3S3': 11.84, 'lipoC3S2': 7.82, 'rot1': 100, 'rot0': 103, 'rot3': 48, 'rot2': 42, 'state': 'normal', 'yaw': -20.63, 'datetime': '2018-10-03 17:16:07.642655', 'mgs': 1, 'volt': 0.9863, 'depth': 2.911, 'time': 15, 'pitch': 4.8, 'roll': -0.6, 'pres': 202}
{'lipoC2': 0.0, 'lipoC3S1': 3.92, 'temp': 25.94, 'lipoC3S3': 11.89, 'lipoC3S2': 7.73, 'rot1': 101, 'rot0': 104, 'rot3': 48, 'rot2': 43, 'state': 'normal', 'yaw': -21.03, 'datetime': '2018-10-03 17:16:07.746808', 'mgs': 1, 'volt': 0.9424, 'depth': 2.225, 'time': 15, 'pitch': 4.53, 'roll': -0.69, 'pres': 193}
{'lipoC2': 0.0, 'lipoC3S1': 3.86, 'temp': 25.94, 'lipoC3S3': 11.88, 'lipoC3S2': 7.84, 'rot1': 102, 'rot0': 105, 'rot3': 48, 'rot2': 43, 'state': 'normal', 'yaw': -21.65, 'datetime': '2018-10-03 17:16:07.851048', 'mgs': 1, 'volt': 0.9473, 'depth': 2.301, 'time': 15, 'pitch': 3.83, 'roll': -1.14, 'pres': 194}
{'lipoC2': 0.0, 'lipoC3S1': 3.91, 'temp': 25.94, 'lipoC3S3': 11.71, 'lipoC3S2': 7.74, 'rot1': 104, 'rot0': 107, 'rot3': 49, 'rot2': 43, 'state': 'normal', 'yaw': -22.24, 'datetime': '2018-10-03 17:16:07.955444', 'mgs': 1, 'volt': 0.9473, 'depth': 2.301, 'time': 15, 'pitch': 3.21, 'roll': -1.52, 'pres': 194}
{'lipoC2': 0.0, 'lipoC3S1': 3.88, 'temp': 25.94, 'lipoC3S3': 11.85, 'lipoC3S2': 7.82, 'rot1': 105, 'rot0': 108, 'rot3': 49, 'rot2': 43, 'state': 'normal', 'yaw': -22.73, 'datetime': '2018-10-03 17:16:08.059280', 'mgs': 1, 'volt': 1.0059, 'depth': 3.217, 'time': 15, 'pitch': 3.05, 'roll': -1.79, 'pres': 206}
{'lipoC2': 0.0, 'lipoC3S1': 3.92, 'temp': 25.88, 'lipoC3S3': 11.79, 'lipoC3S2': 7.89, 'rot1': 106, 'rot0': 109, 'rot3': 51, 'rot2': 44, 'state': 'normal', 'yaw': -23.26, 'datetime': '2018-10-03 17:16:08.163532', 'mgs': 1, 'volt': 0.9424, 'depth': 2.225, 'time': 15, 'pitch': 2.91, 'roll': -2.06, 'pres': 193}
{'lipoC2': 0.0, 'lipoC3S1': 3.93, 'temp': 25.88, 'lipoC3S3': 11.87, 'lipoC3S2': 7.83, 'rot1': 107, 'rot0': 110, 'rot3': 51, 'rot2': 45, 'state': 'normal', 'yaw': -23.67, 'datetime': '2018-10-03 17:16:08.267540', 'mgs': 1, 'volt': 0.9912, 'depth': 2.988, 'time': 15, 'pitch': 2.94, 'roll': -2.15, 'pres': 203}
{'lipoC2': 0.0, 'lipoC3S1': 3.93, 'temp': 25.94, 'lipoC3S3': 11.73, 'lipoC3S2': 7.83, 'rot1': 108, 'rot0': 111, 'rot3': 51, 'rot2': 45, 'state': 'normal', 'yaw': -24.01, 'datetime': '2018-10-03 17:16:08.372754', 'mgs': 1, 'volt': 0.9521, 'depth': 2.377, 'time': 15, 'pitch': 2.97, 'roll': -2.06, 'pres': 195}
{'lipoC2': 0.0, 'lipoC3S1': 3.87, 'temp': 25.94, 'lipoC3S3': 11.88, 'lipoC3S2': 7.84, 'rot1': 109, 'rot0': 113, 'rot3': 51, 'rot2': 45, 'state': 'normal', 'yaw': -24.35, 'datetime': '2018-10-03 17:16:08.475612', 'mgs': 1, 'volt': 0.9326, 'depth': 2.072, 'time': 15, 'pitch': 3.03, 'roll': -1.8, 'pres': 191}
{'lipoC2': 0.0, 'lipoC3S1': 3.8, 'temp': 25.88, 'lipoC3S3': 11.83, 'lipoC3S2': 7.78, 'rot1': 110, 'rot0': 114, 'rot3': 51, 'rot2': 46, 'state': 'normal', 'yaw': -24.68, 'datetime': '2018-10-03 17:16:08.582387', 'mgs': 1, 'volt': 0.9814, 'depth': 2.835, 'time': 15, 'pitch': 3.06, 'roll': -1.45, 'pres': 201}
{'lipoC2': 0.0, 'lipoC3S1': 3.91, 'temp': 25.88, 'lipoC3S3': 11.64, 'lipoC3S2': 7.75, 'rot1': 112, 'rot0': 115, 'rot3': 52, 'rot2': 46, 'state': 'normal', 'yaw': -25.0, 'datetime': '2018-10-03 17:16:08.686354', 'mgs': 1, 'volt': 0.9619, 'depth': 2.53, 'time': 16, 'pitch': 3.33, 'roll': -0.95, 'pres': 197}
{'lipoC2': 0.0, 'lipoC3S1': 3.84, 'temp': 25.88, 'lipoC3S3': 11.87, 'lipoC3S2': 7.83, 'rot1': 113, 'rot0': 116, 'rot3': 53, 'rot2': 47, 'state': 'normal', 'yaw': -25.34, 'datetime': '2018-10-03 17:16:08.790570', 'mgs': 1, 'volt': 0.9668, 'depth': 2.606, 'time': 16, 'pitch': 3.77, 'roll': -0.55, 'pres': 198}
{'lipoC2': 0.0, 'lipoC3S1': 3.92, 'temp': 25.88, 'lipoC3S3': 11.87, 'lipoC3S2': 7.82, 'rot1': 114, 'rot0': 117, 'rot3': 53, 'rot2': 47, 'state': 'normal', 'yaw': -25.66, 'datetime': '2018-10-03 17:16:08.894953', 'mgs': 1, 'volt': 0.9668, 'depth': 2.606, 'time': 16, 'pitch': 4.34, 'roll': -0.13, 'pres': 198}
{'lipoC2': 0.0, 'lipoC3S1': 3.82, 'temp': 25.88, 'lipoC3S3': 11.87, 'lipoC3S2': 7.83, 'rot1': 115, 'rot0': 118, 'rot3': 53, 'rot2': 47, 'state': 'normal', 'yaw': -25.83, 'datetime': '2018-10-03 17:16:08.998950', 'mgs': 1, 'volt': 0.9717, 'depth': 2.682, 'time': 16, 'pitch': 4.7, 'roll': 0.31, 'pres': 199}
{'lipoC2': 0.0, 'lipoC3S1': 3.92, 'temp': 25.94, 'lipoC3S3': 11.75, 'lipoC3S2': 7.82, 'rot1': 116, 'rot0': 120, 'rot3': 54, 'rot2': 48, 'state': 'normal', 'yaw': -25.82, 'datetime': '2018-10-03 17:16:09.102961', 'mgs': 1, 'volt': 0.9717, 'depth': 2.682, 'time': 16, 'pitch': 4.6, 'roll': 0.62, 'pres': 199}
{'lipoC2': 0.0, 'lipoC3S1': 3.84, 'temp': 25.94, 'lipoC3S3': 11.87, 'lipoC3S2': 7.83, 'rot1': 117, 'rot0': 121, 'rot3': 54, 'rot2': 48, 'state': 'normal', 'yaw': -25.67, 'datetime': '2018-10-03 17:16:09.207272', 'mgs': 1, 'volt': 0.957, 'depth': 2.454, 'time': 16, 'pitch': 4.18, 'roll': 0.87, 'pres': 196}
{'lipoC2': 0.0, 'lipoC3S1': 3.92, 'temp': 25.88, 'lipoC3S3': 11.76, 'lipoC3S2': 7.82, 'rot1': 119, 'rot0': 122, 'rot3': 54, 'rot2': 48, 'state': 'normal', 'yaw': -25.52, 'datetime': '2018-10-03 17:16:09.310498', 'mgs': 1, 'volt': 0.9766, 'depth': 2.759, 'time': 16, 'pitch': 3.64, 'roll': 0.96, 'pres': 200}
{'lipoC2': 0.0, 'lipoC3S1': 3.93, 'temp': 25.88, 'lipoC3S3': 11.85, 'lipoC3S2': 7.83, 'rot1': 120, 'rot0': 123, 'rot3': 54, 'rot2': 49, 'state': 'normal', 'yaw': -25.44, 'datetime': '2018-10-03 17:16:09.416462', 'mgs': 1, 'volt': 0.9863, 'depth': 2.911, 'time': 16, 'pitch': 3.15, 'roll': 1.06, 'pres': 202}
{'lipoC2': 0.0, 'lipoC3S1': 3.97, 'temp': 25.88, 'lipoC3S3': 11.88, 'lipoC3S2': 7.77, 'rot1': 121, 'rot0': 125, 'rot3': 55, 'rot2': 49, 'state': 'normal', 'yaw': -25.45, 'datetime': '2018-10-03 17:16:09.520374', 'mgs': 1, 'volt': 0.9814, 'depth': 2.835, 'time': 16, 'pitch': 3.19, 'roll': 1.29, 'pres': 201}
{'lipoC2': 0.0, 'lipoC3S1': 3.92, 'temp': 25.88, 'lipoC3S3': 11.88, 'lipoC3S2': 7.75, 'rot1': 122, 'rot0': 126, 'rot3': 55, 'rot2': 49, 'state': 'normal', 'yaw': -25.55, 'datetime': '2018-10-03 17:16:09.625652', 'mgs': 1, 'volt': 0.9863, 'depth': 2.911, 'time': 17, 'pitch': 3.61, 'roll': 1.53, 'pres': 202}
{'lipoC2': 0.0, 'lipoC3S1': 3.93, 'temp': 25.88, 'lipoC3S3': 11.85, 'lipoC3S2': 7.83, 'rot1': 123, 'rot0': 127, 'rot3': 55, 'rot2': 49, 'state': 'normal', 'yaw': -25.78, 'datetime': '2018-10-03 17:16:09.729733', 'mgs': 1, 'volt': 0.9863, 'depth': 2.911, 'time': 17, 'pitch': 4.4, 'roll': 1.8, 'pres': 202}
{'lipoC2': 0.0, 'lipoC3S1': 3.93, 'temp': 25.94, 'lipoC3S3': 11.87, 'lipoC3S2': 7.83, 'rot1': 124, 'rot0': 128, 'rot3': 55, 'rot2': 49, 'state': 'normal', 'yaw': -25.98, 'datetime': '2018-10-03 17:16:09.835222', 'mgs': 1, 'volt': 1.0107, 'depth': 3.293, 'time': 17, 'pitch': 5.06, 'roll': 1.89, 'pres': 207}
{'lipoC2': 0.0, 'lipoC3S1': 3.93, 'temp': 25.94, 'lipoC3S3': 11.88, 'lipoC3S2': 7.78, 'rot1': 126, 'rot0': 129, 'rot3': 55, 'rot2': 49, 'state': 'normal', 'yaw': -26.02, 'datetime': '2018-10-03 17:16:09.939315', 'mgs': 1, 'volt': 0.9912, 'depth': 2.988, 'time': 17, 'pitch': 5.75, 'roll': 1.97, 'pres': 203}
{'lipoC2': 0.0, 'lipoC3S1': 3.93, 'temp': 25.94, 'lipoC3S3': 11.85, 'lipoC3S2': 7.83, 'rot1': 127, 'rot0': 130, 'rot3': 55, 'rot2': 49, 'state': 'normal', 'yaw': -25.69, 'datetime': '2018-10-03 17:16:10.043373', 'mgs': 1, 'volt': 0.9961, 'depth': 3.064, 'time': 17, 'pitch': 5.74, 'roll': 1.93, 'pres': 204}
{'lipoC2': 0.0, 'lipoC3S1': 3.92, 'temp': 25.94, 'lipoC3S3': 11.8, 'lipoC3S2': 7.82, 'rot1': 128, 'rot0': 131, 'rot3': 55, 'rot2': 49, 'state': 'normal', 'yaw': -25.37, 'datetime': '2018-10-03 17:16:10.147685', 'mgs': 1, 'volt': 0.9961, 'depth': 3.064, 'time': 17, 'pitch': 5.95, 'roll': 1.77, 'pres': 204}
{'lipoC2': 0.0, 'lipoC3S1': 3.9, 'temp': 25.94, 'lipoC3S3': 11.87, 'lipoC3S2': 7.84, 'rot1': 129, 'rot0': 133, 'rot3': 55, 'rot2': 49, 'state': 'normal', 'yaw': -24.96, 'datetime': '2018-10-03 17:16:10.251889', 'mgs': 1, 'volt': 1.0449, 'depth': 3.827, 'time': 17, 'pitch': 6.13, 'roll': 1.56, 'pres': 214}
{'lipoC2': 0.0, 'lipoC3S1': 3.92, 'temp': 25.94, 'lipoC3S3': 11.83, 'lipoC3S2': 7.71, 'rot1': 130, 'rot0': 134, 'rot3': 55, 'rot2': 49, 'state': 'normal', 'yaw': -24.47, 'datetime': '2018-10-03 17:16:10.355903', 'mgs': 1, 'volt': 1.001, 'depth': 3.14, 'time': 17, 'pitch': 6.28, 'roll': 1.37, 'pres': 205}
{'lipoC2': 0.0, 'lipoC3S1': 3.93, 'temp': 25.94, 'lipoC3S3': 11.85, 'lipoC3S2': 7.83, 'rot1': 131, 'rot0': 135, 'rot3': 55, 'rot2': 49, 'state': 'normal', 'yaw': -24.02, 'datetime': '2018-10-03 17:16:10.460268', 'mgs': 1, 'volt': 1.0449, 'depth': 3.827, 'time': 17, 'pitch': 6.25, 'roll': 1.1, 'pres': 214}
{'lipoC2': 0.0, 'lipoC3S1': 3.92, 'temp': 25.94, 'lipoC3S3': 11.88, 'lipoC3S2': 7.74, 'rot1': 132, 'rot0': 136, 'rot3': 55, 'rot2': 49, 'state': 'normal', 'yaw': -23.58, 'datetime': '2018-10-03 17:16:10.564457', 'mgs': 1, 'volt': 1.0059, 'depth': 3.217, 'time': 17, 'pitch': 5.79, 'roll': 0.84, 'pres': 206}
{'lipoC2': 0.0, 'lipoC3S1': 3.92, 'temp': 25.94, 'lipoC3S3': 11.85, 'lipoC3S2': 7.82, 'rot1': 134, 'rot0': 137, 'rot3': 56, 'rot2': 50, 'state': 'normal', 'yaw': -23.16, 'datetime': '2018-10-03 17:16:10.669144', 'mgs': 1, 'volt': 1.001, 'depth': 3.14, 'time': 18, 'pitch': 5.07, 'roll': 0.57, 'pres': 205}
{'lipoC2': 0.0, 'lipoC3S1': 3.83, 'temp': 25.94, 'lipoC3S3': 11.87, 'lipoC3S2': 7.8, 'rot1': 135, 'rot0': 138, 'rot3': 56, 'rot2': 50, 'state': 'normal', 'yaw': -22.87, 'datetime': '2018-10-03 17:16:10.770766', 'mgs': 1, 'volt': 1.0059, 'depth': 3.217, 'time': 18, 'pitch': 3.99, 'roll': 0.25, 'pres': 206}
{'lipoC2': 0.0, 'lipoC3S1': 3.92, 'temp': 25.94, 'lipoC3S3': 11.87, 'lipoC3S2': 7.75, 'rot1': 136, 'rot0': 140, 'rot3': 56, 'rot2': 50, 'state': 'normal', 'yaw': -22.94, 'datetime': '2018-10-03 17:16:10.878718', 'mgs': 1, 'volt': 1.001, 'depth': 3.14, 'time': 18, 'pitch': 2.95, 'roll': -0.07, 'pres': 205}
{'lipoC2': 0.0, 'lipoC3S1': 3.92, 'temp': 25.94, 'lipoC3S3': 11.84, 'lipoC3S2': 7.82, 'rot1': 137, 'rot0': 141, 'rot3': 56, 'rot2': 50, 'state': 'normal', 'yaw': -23.31, 'datetime': '2018-10-03 17:16:10.982941', 'mgs': 1, 'volt': 1.0059, 'depth': 3.217, 'time': 18, 'pitch': 2.18, 'roll': -0.49, 'pres': 206}
{'lipoC2': 0.0, 'lipoC3S1': 3.92, 'temp': 25.94, 'lipoC3S3': 11.85, 'lipoC3S2': 7.83, 'rot1': 138, 'rot0': 142, 'rot3': 57, 'rot2': 51, 'state': 'normal', 'yaw': -23.74, 'datetime': '2018-10-03 17:16:11.088422', 'mgs': 1, 'volt': 1.0352, 'depth': 3.674, 'time': 18, 'pitch': 1.66, 'roll': -0.82, 'pres': 212}
{'lipoC2': 0.0, 'lipoC3S1': 3.92, 'temp': 25.94, 'lipoC3S3': 11.87, 'lipoC3S2': 7.74, 'rot1': 139, 'rot0': 143, 'rot3': 57, 'rot2': 51, 'state': 'normal', 'yaw': -24.17, 'datetime': '2018-10-03 17:16:11.192343', 'mgs': 1, 'volt': 1.0059, 'depth': 3.217, 'time': 18, 'pitch': 1.11, 'roll': -1.05, 'pres': 206}
{'lipoC2': 0.0, 'lipoC3S1': 3.92, 'temp': 25.88, 'lipoC3S3': 11.85, 'lipoC3S2': 7.82, 'rot1': 140, 'rot0': 144, 'rot3': 57, 'rot2': 51, 'state': 'normal', 'yaw': -24.5, 'datetime': '2018-10-03 17:16:11.296553', 'mgs': 1, 'volt': 1.0059, 'depth': 3.217, 'time': 18, 'pitch': 0.56, 'roll': -1.12, 'pres': 206}
{'lipoC2': 0.0, 'lipoC3S1': 3.92, 'temp': 25.88, 'lipoC3S3': 11.8, 'lipoC3S2': 7.9, 'rot1': 141, 'rot0': 145, 'rot3': 57, 'rot2': 51, 'state': 'normal', 'yaw': -24.83, 'datetime': '2018-10-03 17:16:11.400789', 'mgs': 1, 'volt': 1.0107, 'depth': 3.293, 'time': 18, 'pitch': 0.37, 'roll': -1.1, 'pres': 207}
{'lipoC2': 0.0, 'lipoC3S1': 3.92, 'temp': 25.94, 'lipoC3S3': 11.85, 'lipoC3S2': 7.82, 'rot1': 142, 'rot0': 146, 'rot3': 58, 'rot2': 52, 'state': 'normal', 'yaw': -25.13, 'datetime': '2018-10-03 17:16:11.505050', 'mgs': 1, 'volt': 1.0596, 'depth': 4.056, 'time': 18, 'pitch': 0.45, 'roll': -1.04, 'pres': 217}
{'lipoC2': 0.0, 'lipoC3S1': 3.91, 'temp': 25.94, 'lipoC3S3': 11.87, 'lipoC3S2': 7.71, 'rot1': 144, 'rot0': 148, 'rot3': 58, 'rot2': 52, 'state': 'normal', 'yaw': -25.2, 'datetime': '2018-10-03 17:16:11.608997', 'mgs': 1, 'volt': 1.0156, 'depth': 3.369, 'time': 19, 'pitch': 0.43, 'roll': -0.88, 'pres': 208}
{'lipoC2': 0.0, 'lipoC3S1': 3.92, 'temp': 25.94, 'lipoC3S3': 11.84, 'lipoC3S2': 7.82, 'rot1': 145, 'rot0': 149, 'rot3': 58, 'rot2': 52, 'state': 'normal', 'yaw': -25.02, 'datetime': '2018-10-03 17:16:11.713337', 'mgs': 1, 'volt': 1.0303, 'depth': 3.598, 'time': 19, 'pitch': 0.18, 'roll': -0.71, 'pres': 211}
{'lipoC2': 0.0, 'lipoC3S1': 3.92, 'temp': 25.94, 'lipoC3S3': 11.87, 'lipoC3S2': 7.74, 'rot1': 146, 'rot0': 150, 'rot3': 59, 'rot2': 53, 'state': 'normal', 'yaw': -24.58, 'datetime': '2018-10-03 17:16:11.817161', 'mgs': 1, 'volt': 1.0205, 'depth': 3.445, 'time': 19, 'pitch': -0.26, 'roll': -0.55, 'pres': 209}
{'lipoC2': 0.0, 'lipoC3S1': 3.92, 'temp': 25.94, 'lipoC3S3': 11.77, 'lipoC3S2': 7.81, 'rot1': 147, 'rot0': 151, 'rot3': 59, 'rot2': 53, 'state': 'normal', 'yaw': -24.0, 'datetime': '2018-10-03 17:16:11.921333', 'mgs': 1, 'volt': 1.0205, 'depth': 3.445, 'time': 19, 'pitch': -0.53, 'roll': -0.41, 'pres': 209}
{'lipoC2': 0.0, 'lipoC3S1': 3.81, 'temp': 25.88, 'lipoC3S3': 11.85, 'lipoC3S2': 7.8, 'rot1': 148, 'rot0': 152, 'rot3': 59, 'rot2': 54, 'state': 'normal', 'yaw': -23.32, 'datetime': '2018-10-03 17:16:12.025540', 'mgs': 1, 'volt': 1.0254, 'depth': 3.522, 'time': 19, 'pitch': -0.35, 'roll': -0.36, 'pres': 210}
{'lipoC2': 0.0, 'lipoC3S1': 3.89, 'temp': 25.88, 'lipoC3S3': 11.84, 'lipoC3S2': 7.81, 'rot1': 149, 'rot0': 154, 'rot3': 60, 'rot2': 54, 'state': 'normal', 'yaw': -22.74, 'datetime': '2018-10-03 17:16:12.130872', 'mgs': 1, 'volt': 1.0791, 'depth': 4.361, 'time': 19, 'pitch': 0.2, 'roll': -0.4, 'pres': 221}
{'lipoC2': 0.0, 'lipoC3S1': 3.91, 'temp': 25.94, 'lipoC3S3': 11.81, 'lipoC3S2': 7.65, 'rot1': 150, 'rot0': 155, 'rot3': 60, 'rot2': 55, 'state': 'normal', 'yaw': -22.17, 'datetime': '2018-10-03 17:16:12.234825', 'mgs': 1, 'volt': 1.0303, 'depth': 3.598, 'time': 19, 'pitch': 0.68, 'roll': -0.56, 'pres': 211}
{'lipoC2': 0.0, 'lipoC3S1': 3.92, 'temp': 25.94, 'lipoC3S3': 11.83, 'lipoC3S2': 7.81, 'rot1': 151, 'rot0': 156, 'rot3': 61, 'rot2': 55, 'state': 'normal', 'yaw': -21.71, 'datetime': '2018-10-03 17:16:12.339100', 'mgs': 1, 'volt': 1.0693, 'depth': 4.208, 'time': 19, 'pitch': 0.83, 'roll': -0.85, 'pres': 219}
{'lipoC2': 0.0, 'lipoC3S1': 3.92, 'temp': 25.94, 'lipoC3S3': 11.84, 'lipoC3S2': 7.81, 'rot1': 152, 'rot0': 157, 'rot3': 61, 'rot2': 56, 'state': 'normal', 'yaw': -21.32, 'datetime': '2018-10-03 17:16:12.444322', 'mgs': 1, 'volt': 1.0352, 'depth': 3.674, 'time': 19, 'pitch': 0.8, 'roll': -1.19, 'pres': 212}
{'lipoC2': 0.0, 'lipoC3S1': 3.93, 'temp': 25.94, 'lipoC3S3': 11.85, 'lipoC3S2': 7.76, 'rot1': 153, 'rot0': 158, 'rot3': 62, 'rot2': 56, 'state': 'normal', 'yaw': -21.01, 'datetime': '2018-10-03 17:16:12.548456', 'mgs': 1, 'volt': 1.0352, 'depth': 3.674, 'time': 19, 'pitch': 0.86, 'roll': -1.61, 'pres': 212}
{'lipoC2': 0.0, 'lipoC3S1': 3.92, 'temp': 25.94, 'lipoC3S3': 11.63, 'lipoC3S2': 7.8, 'rot1': 154, 'rot0': 159, 'rot3': 62, 'rot2': 57, 'state': 'normal', 'yaw': -20.96, 'datetime': '2018-10-03 17:16:12.652367', 'mgs': 1, 'volt': 1.0352, 'depth': 3.674, 'time': 20, 'pitch': 1.28, 'roll': -2.01, 'pres': 212}
{'lipoC2': 0.0, 'lipoC3S1': 3.83, 'temp': 25.94, 'lipoC3S3': 11.84, 'lipoC3S2': 7.82, 'rot1': 156, 'rot0': 161, 'rot3': 63, 'rot2': 57, 'state': 'normal', 'yaw': -21.02, 'datetime': '2018-10-03 17:16:12.756708', 'mgs': 1, 'volt': 1.0498, 'depth': 3.903, 'time': 20, 'pitch': 2.04, 'roll': -2.41, 'pres': 215}
{'lipoC2': 0.0, 'lipoC3S1': 3.92, 'temp': 25.94, 'lipoC3S3': 11.69, 'lipoC3S2': 7.8, 'rot1': 157, 'rot0': 162, 'rot3': 63, 'rot2': 58, 'state': 'normal', 'yaw': -21.1, 'datetime': '2018-10-03 17:16:12.860701', 'mgs': 1, 'volt': 1.0352, 'depth': 3.674, 'time': 20, 'pitch': 2.16, 'roll': -1.9, 'pres': 212}
{'lipoC2': 0.0, 'lipoC3S1': 3.91, 'temp': 25.94, 'lipoC3S3': 11.85, 'lipoC3S2': 7.68, 'rot1': 158, 'rot0': 163, 'rot3': 64, 'rot2': 58, 'state': 'normal', 'yaw': -21.1, 'datetime': '2018-10-03 17:16:12.965221', 'mgs': 1, 'volt': 1.0352, 'depth': 3.674, 'time': 20, 'pitch': 2.17, 'roll': -1.44, 'pres': 212}
{'lipoC2': 0.0, 'lipoC3S1': 3.92, 'temp': 25.94, 'lipoC3S3': 11.83, 'lipoC3S2': 7.81, 'rot1': 159, 'rot0': 164, 'rot3': 64, 'rot2': 59, 'state': 'normal', 'yaw': -21.12, 'datetime': '2018-10-03 17:16:13.069225', 'mgs': 1, 'volt': 1.0693, 'depth': 4.208, 'time': 20, 'pitch': 2.34, 'roll': -1.03, 'pres': 219}
{'lipoC2': 0.0, 'lipoC3S1': 3.92, 'temp': 25.94, 'lipoC3S3': 11.85, 'lipoC3S2': 7.71, 'rot1': 160, 'rot0': 165, 'rot3': 65, 'rot2': 60, 'state': 'normal', 'yaw': -21.12, 'datetime': '2018-10-03 17:16:13.173352', 'mgs': 1, 'volt': 1.04, 'depth': 3.751, 'time': 20, 'pitch': 2.47, 'roll': -0.77, 'pres': 213}
{'lipoC2': 0.0, 'lipoC3S1': 3.92, 'temp': 25.94, 'lipoC3S3': 11.83, 'lipoC3S2': 7.81, 'rot1': 161, 'rot0': 166, 'rot3': 65, 'rot2': 60, 'state': 'normal', 'yaw': -21.24, 'datetime': '2018-10-03 17:16:13.277625', 'mgs': 1, 'volt': 1.0547, 'depth': 3.979, 'time': 20, 'pitch': 2.61, 'roll': -0.64, 'pres': 216}
{'lipoC2': 0.0, 'lipoC3S1': 3.83, 'temp': 25.94, 'lipoC3S3': 11.85, 'lipoC3S2': 7.82, 'rot1': 162, 'rot0': 168, 'rot3': 66, 'rot2': 61, 'state': 'normal', 'yaw': -21.35, 'datetime': '2018-10-03 17:16:13.382439', 'mgs': 1, 'volt': 1.0596, 'depth': 4.056, 'time': 20, 'pitch': 2.59, 'roll': -0.59, 'pres': 217}
