{'lipoC2': 7.47, 'lipoC3S1': 4.08, 'temp': 30.56, 'lipoC3S3': 12.35, 'lipoC3S2': 8.16, 'rot1': 300, 'rot0': 339, 'rot3': 276, 'rot2': 237, 'state': 'normal', 'yaw': -16.27, 'datetime': '2018-10-09 12:40:57.377457', 'mgs': 0, 'volt': 0.8984, 'depth': 1.538, 'time': 116, 'pitch': 26.65, 'roll': -20.31, 'pres': 184}
{'lipoC2': 7.47, 'lipoC3S1': 4.08, 'temp': 30.56, 'lipoC3S3': 12.34, 'lipoC3S2': 8.16, 'rot1': 300, 'rot0': 339, 'rot3': 276, 'rot2': 237, 'state': 'normal', 'yaw': -16.25, 'datetime': '2018-10-09 12:40:57.401544', 'mgs': 0, 'volt': 0.8936, 'depth': 1.462, 'time': 117, 'pitch': 27.17, 'roll': -20.97, 'pres': 183}
{'lipoC2': 7.47, 'lipoC3S1': 4.08, 'temp': 30.56, 'lipoC3S3': 12.35, 'lipoC3S2': 8.16, 'rot1': 300, 'rot0': 339, 'rot3': 276, 'rot2': 237, 'state': 'normal', 'yaw': -16.25, 'datetime': '2018-10-09 12:40:57.425665', 'mgs': 0, 'volt': 0.8838, 'depth': 1.309, 'time': 117, 'pitch': 27.09, 'roll': -21.26, 'pres': 181}
{'lipoC2': 7.47, 'lipoC3S1': 4.08, 'temp': 30.56, 'lipoC3S3': 12.34, 'lipoC3S2': 8.16, 'rot1': 300, 'rot0': 339, 'rot3': 276, 'rot2': 237, 'state': 'normal', 'yaw': -15.79, 'datetime': '2018-10-09 12:40:57.445774', 'mgs': 0, 'volt': 0.8838, 'depth': 1.309, 'time': 117, 'pitch': 25.85, 'roll': -21.3, 'pres': 181}
{'lipoC2': 7.47, 'lipoC3S1': 4.08, 'temp': 30.56, 'lipoC3S3': 12.34, 'lipoC3S2': 8.16, 'rot1': 300, 'rot0': 339, 'rot3': 276, 'rot2': 237, 'state': 'normal', 'yaw': -15.25, 'datetime': '2018-10-09 12:40:57.456138', 'mgs': 0, 'volt': 0.8789, 'depth': 1.233, 'time': 117, 'pitch': 24.3, 'roll': -21.18, 'pres': 180}
{'lipoC2': 7.47, 'lipoC3S1': 4.08, 'temp': 30.56, 'lipoC3S3': 12.35, 'lipoC3S2': 8.16, 'rot1': 300, 'rot0': 339, 'rot3': 276, 'rot2': 237, 'state': 'normal', 'yaw': -14.89, 'datetime': '2018-10-09 12:40:57.466717', 'mgs': 0, 'volt': 0.874, 'depth': 1.157, 'time': 117, 'pitch': 23.03, 'roll': -21.01, 'pres': 179}
{'lipoC2': 7.47, 'lipoC3S1': 4.08, 'temp': 30.56, 'lipoC3S3': 12.35, 'lipoC3S2': 8.16, 'rot1': 300, 'rot0': 339, 'rot3': 276, 'rot2': 237, 'state': 'normal', 'yaw': -14.82, 'datetime': '2018-10-09 12:40:57.477145', 'mgs': 0, 'volt': 0.8691, 'depth': 1.08, 'time': 117, 'pitch': 22.65, 'roll': -20.74, 'pres': 178}
{'lipoC2': 7.47, 'lipoC3S1': 4.08, 'temp': 30.63, 'lipoC3S3': 12.34, 'lipoC3S2': 8.16, 'rot1': 300, 'rot0': 339, 'rot3': 276, 'rot2': 237, 'state': 'normal', 'yaw': -14.95, 'datetime': '2018-10-09 12:40:57.487467', 'mgs': 0, 'volt': 0.8643, 'depth': 1.004, 'time': 117, 'pitch': 23.4, 'roll': -20.49, 'pres': 177}
{'lipoC2': 7.47, 'lipoC3S1': 4.08, 'temp': 30.63, 'lipoC3S3': 12.35, 'lipoC3S2': 8.16, 'rot1': 300, 'rot0': 339, 'rot3': 276, 'rot2': 237, 'state': 'normal', 'yaw': -15.38, 'datetime': '2018-10-09 12:40:57.497803', 'mgs': 0, 'volt': 0.8594, 'depth': 0.928, 'time': 117, 'pitch': 25.28, 'roll': -20.3, 'pres': 176}
{'lipoC2': 7.48, 'lipoC3S1': 4.08, 'temp': 30.63, 'lipoC3S3': 12.34, 'lipoC3S2': 8.16, 'rot1': 300, 'rot0': 339, 'rot3': 276, 'rot2': 237, 'state': 'normal', 'yaw': -16.24, 'datetime': '2018-10-09 12:40:57.508179', 'mgs': 0, 'volt': 0.8545, 'depth': 0.851, 'time': 117, 'pitch': 27.71, 'roll': -20.2, 'pres': 175}
{'lipoC2': 7.47, 'lipoC3S1': 4.08, 'temp': 30.63, 'lipoC3S3': 12.34, 'lipoC3S2': 8.16, 'rot1': 300, 'rot0': 339, 'rot3': 276, 'rot2': 237, 'state': 'normal', 'yaw': -17.03, 'datetime': '2018-10-09 12:40:57.518493', 'mgs': 0, 'volt': 0.8545, 'depth': 0.851, 'time': 117, 'pitch': 29.7, 'roll': -19.93, 'pres': 175}
{'lipoC2': 7.47, 'lipoC3S1': 4.08, 'temp': 30.56, 'lipoC3S3': 12.34, 'lipoC3S2': 8.16, 'rot1': 300, 'rot0': 339, 'rot3': 276, 'rot2': 237, 'state': 'normal', 'yaw': -17.7, 'datetime': '2018-10-09 12:40:57.528811', 'mgs': 0, 'volt': 0.8545, 'depth': 0.851, 'time': 118, 'pitch': 30.97, 'roll': -19.28, 'pres': 175}
{'lipoC2': 7.47, 'lipoC3S1': 4.08, 'temp': 30.56, 'lipoC3S3': 12.34, 'lipoC3S2': 8.16, 'rot1': 300, 'rot0': 339, 'rot3': 276, 'rot2': 237, 'state': 'normal', 'yaw': -18.62, 'datetime': '2018-10-09 12:40:57.541858', 'mgs': 0, 'volt': 0.8545, 'depth': 0.851, 'time': 118, 'pitch': 31.86, 'roll': -18.56, 'pres': 175}
{'lipoC2': 7.47, 'lipoC3S1': 4.08, 'temp': 30.56, 'lipoC3S3': 12.34, 'lipoC3S2': 8.16, 'rot1': 300, 'rot0': 339, 'rot3': 276, 'rot2': 237, 'state': 'normal', 'yaw': -20.12, 'datetime': '2018-10-09 12:40:57.552377', 'mgs': 0, 'volt': 0.8545, 'depth': 0.851, 'time': 118, 'pitch': 32.5, 'roll': -17.76, 'pres': 175}
{'lipoC2': 7.47, 'lipoC3S1': 4.08, 'temp': 30.63, 'lipoC3S3': 12.34, 'lipoC3S2': 8.16, 'rot1': 300, 'rot0': 339, 'rot3': 276, 'rot2': 237, 'state': 'normal', 'yaw': -21.77, 'datetime': '2018-10-09 12:40:57.563121', 'mgs': 0, 'volt': 0.8545, 'depth': 0.851, 'time': 118, 'pitch': 33.11, 'roll': -17.2, 'pres': 175}
{'lipoC2': 7.47, 'lipoC3S1': 4.08, 'temp': 30.63, 'lipoC3S3': 12.34, 'lipoC3S2': 8.16, 'rot1': 300, 'rot0': 339, 'rot3': 276, 'rot2': 237, 'state': 'normal', 'yaw': -23.27, 'datetime': '2018-10-09 12:40:57.573580', 'mgs': 0, 'volt': 0.8545, 'depth': 0.851, 'time': 118, 'pitch': 33.28, 'roll': -16.61, 'pres': 175}
{'lipoC2': 7.47, 'lipoC3S1': 4.08, 'temp': 30.63, 'lipoC3S3': 12.34, 'lipoC3S2': 8.16, 'rot1': 300, 'rot0': 339, 'rot3': 276, 'rot2': 237, 'state': 'normal', 'yaw': -23.98, 'datetime': '2018-10-09 12:40:57.583962', 'mgs': 0, 'volt': 0.8594, 'depth': 0.928, 'time': 118, 'pitch': 33.05, 'roll': -15.75, 'pres': 176}
{'lipoC2': 7.47, 'lipoC3S1': 4.08, 'temp': 30.63, 'lipoC3S3': 12.34, 'lipoC3S2': 8.16, 'rot1': 300, 'rot0': 339, 'rot3': 276, 'rot2': 237, 'state': 'normal', 'yaw': -24.09, 'datetime': '2018-10-09 12:40:57.594376', 'mgs': 0, 'volt': 0.8594, 'depth': 0.928, 'time': 118, 'pitch': 33.21, 'roll': -14.37, 'pres': 176}
{'lipoC2': 7.47, 'lipoC3S1': 4.08, 'temp': 30.63, 'lipoC3S3': 12.34, 'lipoC3S2': 8.16, 'rot1': 300, 'rot0': 339, 'rot3': 276, 'rot2': 237, 'state': 'normal', 'yaw': -23.93, 'datetime': '2018-10-09 12:40:57.604704', 'mgs': 0, 'volt': 0.8594, 'depth': 0.928, 'time': 118, 'pitch': 33.76, 'roll': -12.81, 'pres': 176}
{'lipoC2': 7.47, 'lipoC3S1': 4.08, 'temp': 30.63, 'lipoC3S3': 12.34, 'lipoC3S2': 8.16, 'rot1': 300, 'rot0': 339, 'rot3': 276, 'rot2': 237, 'state': 'normal', 'yaw': -23.9, 'datetime': '2018-10-09 12:40:57.615222', 'mgs': 0, 'volt': 0.8643, 'depth': 1.004, 'time': 118, 'pitch': 34.68, 'roll': -10.84, 'pres': 177}
{'lipoC2': 7.47, 'lipoC3S1': 4.08, 'temp': 30.63, 'lipoC3S3': 12.34, 'lipoC3S2': 8.16, 'rot1': 300, 'rot0': 339, 'rot3': 276, 'rot2': 237, 'state': 'normal', 'yaw': -23.68, 'datetime': '2018-10-09 12:40:57.625583', 'mgs': 0, 'volt': 0.8691, 'depth': 1.08, 'time': 118, 'pitch': 35.77, 'roll': -8.23, 'pres': 178}
{'lipoC2': 7.47, 'lipoC3S1': 4.08, 'temp': 30.56, 'lipoC3S3': 12.34, 'lipoC3S2': 8.16, 'rot1': 300, 'rot0': 339, 'rot3': 276, 'rot2': 237, 'state': 'normal', 'yaw': -23.07, 'datetime': '2018-10-09 12:40:57.636033', 'mgs': 0, 'volt': 0.8691, 'depth': 1.08, 'time': 119, 'pitch': 36.71, 'roll': -5.74, 'pres': 178}
{'lipoC2': 7.47, 'lipoC3S1': 4.08, 'temp': 30.56, 'lipoC3S3': 12.34, 'lipoC3S2': 8.16, 'rot1': 300, 'rot0': 339, 'rot3': 276, 'rot2': 237, 'state': 'normal', 'yaw': -22.77, 'datetime': '2018-10-09 12:40:57.646375', 'mgs': 0, 'volt': 0.874, 'depth': 1.157, 'time': 119, 'pitch': 37.59, 'roll': -3.57, 'pres': 179}
{'lipoC2': 7.47, 'lipoC3S1': 4.08, 'temp': 30.63, 'lipoC3S3': 12.34, 'lipoC3S2': 8.16, 'rot1': 300, 'rot0': 339, 'rot3': 276, 'rot2': 237, 'state': 'normal', 'yaw': -22.84, 'datetime': '2018-10-09 12:40:57.656664', 'mgs': 0, 'volt': 0.8789, 'depth': 1.233, 'time': 119, 'pitch': 38.51, 'roll': -2.43, 'pres': 180}
{'lipoC2': 7.47, 'lipoC3S1': 4.08, 'temp': 30.63, 'lipoC3S3': 12.34, 'lipoC3S2': 8.16, 'rot1': 300, 'rot0': 339, 'rot3': 276, 'rot2': 237, 'state': 'normal', 'yaw': -22.81, 'datetime': '2018-10-09 12:40:57.666922', 'mgs': 0, 'volt': 0.8838, 'depth': 1.309, 'time': 119, 'pitch': 40.25, 'roll': -2.01, 'pres': 181}
{'lipoC2': 7.47, 'lipoC3S1': 4.08, 'temp': 30.63, 'lipoC3S3': 12.34, 'lipoC3S2': 8.16, 'rot1': 300, 'rot0': 339, 'rot3': 276, 'rot2': 237, 'state': 'normal', 'yaw': -22.75, 'datetime': '2018-10-09 12:40:57.677189', 'mgs': 0, 'volt': 0.8887, 'depth': 1.385, 'time': 119, 'pitch': 41.89, 'roll': -2.08, 'pres': 182}
{'lipoC2': 7.47, 'lipoC3S1': 4.08, 'temp': 30.63, 'lipoC3S3': 12.34, 'lipoC3S2': 8.16, 'rot1': 300, 'rot0': 339, 'rot3': 276, 'rot2': 237, 'state': 'normal', 'yaw': -23.28, 'datetime': '2018-10-09 12:40:57.687472', 'mgs': 0, 'volt': 0.8936, 'depth': 1.462, 'time': 119, 'pitch': 42.72, 'roll': -2.19, 'pres': 183}
{'lipoC2': 7.47, 'lipoC3S1': 4.08, 'temp': 30.63, 'lipoC3S3': 12.34, 'lipoC3S2': 8.16, 'rot1': 300, 'rot0': 339, 'rot3': 276, 'rot2': 237, 'state': 'normal', 'yaw': -23.97, 'datetime': '2018-10-09 12:40:57.698023', 'mgs': 0, 'volt': 0.8984, 'depth': 1.538, 'time': 119, 'pitch': 42.7, 'roll': -1.88, 'pres': 184}
{'lipoC2': 7.47, 'lipoC3S1': 4.08, 'temp': 30.63, 'lipoC3S3': 12.34, 'lipoC3S2': 8.16, 'rot1': 300, 'rot0': 339, 'rot3': 276, 'rot2': 237, 'state': 'normal', 'yaw': -23.63, 'datetime': '2018-10-09 12:40:57.708418', 'mgs': 0, 'volt': 0.9033, 'depth': 1.614, 'time': 119, 'pitch': 42.65, 'roll': -0.93, 'pres': 185}
{'lipoC2': 7.47, 'lipoC3S1': 4.08, 'temp': 30.63, 'lipoC3S3': 12.34, 'lipoC3S2': 8.16, 'rot1': 300, 'rot0': 339, 'rot3': 276, 'rot2': 237, 'state': 'normal', 'yaw': -22.19, 'datetime': '2018-10-09 12:40:57.718715', 'mgs': 0, 'volt': 0.9033, 'depth': 1.614, 'time': 119, 'pitch': 43.3, 'roll': 0.13, 'pres': 185}
{'lipoC2': 7.47, 'lipoC3S1': 4.08, 'temp': 30.56, 'lipoC3S3': 12.34, 'lipoC3S2': 8.16, 'rot1': 300, 'rot0': 339, 'rot3': 276, 'rot2': 237, 'state': 'normal', 'yaw': -21.1, 'datetime': '2018-10-09 12:40:57.729012', 'mgs': 0, 'volt': 0.9033, 'depth': 1.614, 'time': 120, 'pitch': 44.85, 'roll': 0.8, 'pres': 185}
{'lipoC2': 7.47, 'lipoC3S1': 4.08, 'temp': 30.56, 'lipoC3S3': 12.34, 'lipoC3S2': 8.16, 'rot1': 300, 'rot0': 339, 'rot3': 276, 'rot2': 237, 'state': 'normal', 'yaw': -20.33, 'datetime': '2018-10-09 12:40:57.739290', 'mgs': 0, 'volt': 0.9082, 'depth': 1.691, 'time': 120, 'pitch': 46.1, 'roll': 1.14, 'pres': 186}
{'lipoC2': 7.47, 'lipoC3S1': 4.08, 'temp': 30.63, 'lipoC3S3': 12.34, 'lipoC3S2': 8.16, 'rot1': 300, 'rot0': 339, 'rot3': 276, 'rot2': 237, 'state': 'normal', 'yaw': -19.62, 'datetime': '2018-10-09 12:40:57.749569', 'mgs': 0, 'volt': 0.9082, 'depth': 1.691, 'time': 120, 'pitch': 46.61, 'roll': 1.15, 'pres': 186}
{'lipoC2': 7.47, 'lipoC3S1': 4.08, 'temp': 30.63, 'lipoC3S3': 12.34, 'lipoC3S2': 8.16, 'rot1': 300, 'rot0': 339, 'rot3': 276, 'rot2': 237, 'state': 'normal', 'yaw': -19.18, 'datetime': '2018-10-09 12:40:57.759869', 'mgs': 0, 'volt': 0.9082, 'depth': 1.691, 'time': 120, 'pitch': 46.55, 'roll': 0.48, 'pres': 186}
{'lipoC2': 7.47, 'lipoC3S1': 4.08, 'temp': 30.63, 'lipoC3S3': 12.34, 'lipoC3S2': 8.16, 'rot1': 300, 'rot0': 339, 'rot3': 276, 'rot2': 237, 'state': 'normal', 'yaw': -19.6, 'datetime': '2018-10-09 12:40:57.770155', 'mgs': 0, 'volt': 0.9082, 'depth': 1.691, 'time': 120, 'pitch': 46.01, 'roll': -0.98, 'pres': 186}
{'lipoC2': 7.47, 'lipoC3S1': 4.08, 'temp': 30.63, 'lipoC3S3': 12.34, 'lipoC3S2': 8.16, 'rot1': 300, 'rot0': 339, 'rot3': 276, 'rot2': 237, 'state': 'normal', 'yaw': -20.02, 'datetime': '2018-10-09 12:40:57.780435', 'mgs': 0, 'volt': 0.9082, 'depth': 1.691, 'time': 120, 'pitch': 45.1, 'roll': -2.73, 'pres': 186}
{'lipoC2': 7.47, 'lipoC3S1': 4.08, 'temp': 30.63, 'lipoC3S3': 12.34, 'lipoC3S2': 8.16, 'rot1': 300, 'rot0': 339, 'rot3': 276, 'rot2': 237, 'state': 'normal', 'yaw': -19.81, 'datetime': '2018-10-09 12:40:57.790739', 'mgs': 0, 'volt': 0.9082, 'depth': 1.691, 'time': 120, 'pitch': 43.54, 'roll': -4.26, 'pres': 186}
{'lipoC2': 7.47, 'lipoC3S1': 4.08, 'temp': 30.63, 'lipoC3S3': 12.34, 'lipoC3S2': 8.16, 'rot1': 300, 'rot0': 339, 'rot3': 276, 'rot2': 237, 'state': 'normal', 'yaw': -19.29, 'datetime': '2018-10-09 12:40:57.801060', 'mgs': 0, 'volt': 0.9082, 'depth': 1.691, 'time': 120, 'pitch': 41.73, 'roll': -5.05, 'pres': 186}
{'lipoC2': 7.48, 'lipoC3S1': 4.08, 'temp': 30.63, 'lipoC3S3': 12.34, 'lipoC3S2': 8.16, 'rot1': 300, 'rot0': 339, 'rot3': 276, 'rot2': 237, 'state': 'normal', 'yaw': -18.56, 'datetime': '2018-10-09 12:40:57.811395', 'mgs': 0, 'volt': 0.9033, 'depth': 1.614, 'time': 120, 'pitch': 40.24, 'roll': -5.4, 'pres': 185}
{'lipoC2': 7.47, 'lipoC3S1': 4.08, 'temp': 30.63, 'lipoC3S3': 12.34, 'lipoC3S2': 8.16, 'rot1': 300, 'rot0': 339, 'rot3': 276, 'rot2': 237, 'state': 'normal', 'yaw': -18.16, 'datetime': '2018-10-09 12:40:57.821685', 'mgs': 0, 'volt': 0.9033, 'depth': 1.614, 'time': 120, 'pitch': 39.76, 'roll': -5.44, 'pres': 185}
{'lipoC2': 7.47, 'lipoC3S1': 4.08, 'temp': 30.63, 'lipoC3S3': 12.34, 'lipoC3S2': 8.16, 'rot1': 300, 'rot0': 339, 'rot3': 276, 'rot2': 237, 'state': 'normal', 'yaw': -18.22, 'datetime': '2018-10-09 12:40:57.832186', 'mgs': 0, 'volt': 0.9033, 'depth': 1.614, 'time': 121, 'pitch': 40.08, 'roll': -5.36, 'pres': 185}
{'lipoC2': 7.47, 'lipoC3S1': 4.08, 'temp': 30.63, 'lipoC3S3': 12.34, 'lipoC3S2': 8.16, 'rot1': 300, 'rot0': 339, 'rot3': 276, 'rot2': 237, 'state': 'normal', 'yaw': -19.02, 'datetime': '2018-10-09 12:40:57.842491', 'mgs': 0, 'volt': 0.9033, 'depth': 1.614, 'time': 121, 'pitch': 40.71, 'roll': -5.36, 'pres': 185}
{'lipoC2': 7.47, 'lipoC3S1': 4.08, 'temp': 30.63, 'lipoC3S3': 12.34, 'lipoC3S2': 8.16, 'rot1': 300, 'rot0': 339, 'rot3': 276, 'rot2': 237, 'state': 'normal', 'yaw': -20.51, 'datetime': '2018-10-09 12:40:57.853675', 'mgs': 0, 'volt': 0.9033, 'depth': 1.614, 'time': 121, 'pitch': 41.09, 'roll': -5.36, 'pres': 185}
{'lipoC2': 7.47, 'lipoC3S1': 4.08, 'temp': 30.63, 'lipoC3S3': 12.34, 'lipoC3S2': 8.16, 'rot1': 300, 'rot0': 339, 'rot3': 276, 'rot2': 237, 'state': 'normal', 'yaw': -22.37, 'datetime': '2018-10-09 12:40:57.864115', 'mgs': 0, 'volt': 0.9033, 'depth': 1.614, 'time': 121, 'pitch': 40.96, 'roll': -5.09, 'pres': 185}
{'lipoC2': 7.47, 'lipoC3S1': 4.08, 'temp': 30.63, 'lipoC3S3': 12.34, 'lipoC3S2': 8.16, 'rot1': 300, 'rot0': 339, 'rot3': 276, 'rot2': 237, 'state': 'normal', 'yaw': -22.93, 'datetime': '2018-10-09 12:40:57.874462', 'mgs': 0, 'volt': 0.9082, 'depth': 1.691, 'time': 121, 'pitch': 40.6, 'roll': -4.19, 'pres': 186}
{'lipoC2': 7.47, 'lipoC3S1': 4.08, 'temp': 30.63, 'lipoC3S3': 12.34, 'lipoC3S2': 8.16, 'rot1': 300, 'rot0': 339, 'rot3': 276, 'rot2': 237, 'state': 'normal', 'yaw': -22.06, 'datetime': '2018-10-09 12:40:57.884845', 'mgs': 0, 'volt': 0.9033, 'depth': 1.614, 'time': 121, 'pitch': 40.35, 'roll': -2.69, 'pres': 185}
{'lipoC2': 7.47, 'lipoC3S1': 4.08, 'temp': 30.63, 'lipoC3S3': 12.34, 'lipoC3S2': 8.16, 'rot1': 300, 'rot0': 339, 'rot3': 276, 'rot2': 237, 'state': 'normal', 'yaw': -21.01, 'datetime': '2018-10-09 12:40:57.895270', 'mgs': 0, 'volt': 0.9033, 'depth': 1.614, 'time': 121, 'pitch': 40.47, 'roll': -1.41, 'pres': 185}
{'lipoC2': 7.47, 'lipoC3S1': 4.08, 'temp': 30.63, 'lipoC3S3': 12.34, 'lipoC3S2': 8.16, 'rot1': 300, 'rot0': 339, 'rot3': 276, 'rot2': 237, 'state': 'normal', 'yaw': -19.46, 'datetime': '2018-10-09 12:40:57.905693', 'mgs': 0, 'volt': 0.8936, 'depth': 1.462, 'time': 121, 'pitch': 40.59, 'roll': -0.28, 'pres': 183}
{'lipoC2': 7.47, 'lipoC3S1': 4.08, 'temp': 30.56, 'lipoC3S3': 12.34, 'lipoC3S2': 8.16, 'rot1': 300, 'rot0': 339, 'rot3': 276, 'rot2': 237, 'state': 'normal', 'yaw': -17.34, 'datetime': '2018-10-09 12:40:57.916050', 'mgs': 0, 'volt': 0.8936, 'depth': 1.462, 'time': 121, 'pitch': 39.96, 'roll': 0.32, 'pres': 183}
{'lipoC2': 7.47, 'lipoC3S1': 4.08, 'temp': 30.56, 'lipoC3S3': 12.34, 'lipoC3S2': 8.16, 'rot1': 300, 'rot0': 339, 'rot3': 276, 'rot2': 237, 'state': 'normal', 'yaw': -13.94, 'datetime': '2018-10-09 12:40:57.926406', 'mgs': 0, 'volt': 0.8838, 'depth': 1.309, 'time': 122, 'pitch': 37.86, 'roll': 0.46, 'pres': 181}
{'lipoC2': 7.47, 'lipoC3S1': 4.08, 'temp': 30.56, 'lipoC3S3': 12.34, 'lipoC3S2': 8.16, 'rot1': 300, 'rot0': 339, 'rot3': 276, 'rot2': 237, 'state': 'normal', 'yaw': -10.64, 'datetime': '2018-10-09 12:40:57.936712', 'mgs': 0, 'volt': 0.874, 'depth': 1.157, 'time': 122, 'pitch': 35.15, 'roll': 0.06, 'pres': 179}
{'lipoC2': 7.47, 'lipoC3S1': 4.08, 'temp': 30.63, 'lipoC3S3': 12.34, 'lipoC3S2': 8.16, 'rot1': 300, 'rot0': 339, 'rot3': 276, 'rot2': 237, 'state': 'normal', 'yaw': -7.38, 'datetime': '2018-10-09 12:40:57.947162', 'mgs': 0, 'volt': 0.8691, 'depth': 1.08, 'time': 122, 'pitch': 32.83, 'roll': -0.78, 'pres': 178}
{'lipoC2': 7.47, 'lipoC3S1': 4.08, 'temp': 30.63, 'lipoC3S3': 12.34, 'lipoC3S2': 8.16, 'rot1': 300, 'rot0': 339, 'rot3': 276, 'rot2': 237, 'state': 'normal', 'yaw': -4.68, 'datetime': '2018-10-09 12:40:57.957501', 'mgs': 0, 'volt': 0.8594, 'depth': 0.928, 'time': 122, 'pitch': 31.79, 'roll': -1.58, 'pres': 176}
{'lipoC2': 7.47, 'lipoC3S1': 4.08, 'temp': 30.63, 'lipoC3S3': 12.34, 'lipoC3S2': 8.16, 'rot1': 300, 'rot0': 339, 'rot3': 276, 'rot2': 237, 'state': 'normal', 'yaw': -1.93, 'datetime': '2018-10-09 12:40:57.967992', 'mgs': 0, 'volt': 0.8594, 'depth': 0.928, 'time': 122, 'pitch': 31.31, 'roll': -2.19, 'pres': 176}
{'lipoC2': 7.47, 'lipoC3S1': 4.08, 'temp': 30.63, 'lipoC3S3': 12.34, 'lipoC3S2': 8.16, 'rot1': 300, 'rot0': 339, 'rot3': 276, 'rot2': 237, 'state': 'normal', 'yaw': 1.05, 'datetime': '2018-10-09 12:40:57.978407', 'mgs': 0, 'volt': 0.8545, 'depth': 0.851, 'time': 122, 'pitch': 31.11, 'roll': -2.5, 'pres': 175}
{'lipoC2': 7.47, 'lipoC3S1': 4.08, 'temp': 30.63, 'lipoC3S3': 12.34, 'lipoC3S2': 8.16, 'rot1': 300, 'rot0': 339, 'rot3': 276, 'rot2': 237, 'state': 'normal', 'yaw': 3.68, 'datetime': '2018-10-09 12:40:57.988716', 'mgs': 0, 'volt': 0.8545, 'depth': 0.851, 'time': 122, 'pitch': 31.14, 'roll': -2.47, 'pres': 175}
{'lipoC2': 7.47, 'lipoC3S1': 4.08, 'temp': 30.63, 'lipoC3S3': 12.34, 'lipoC3S2': 8.16, 'rot1': 300, 'rot0': 339, 'rot3': 276, 'rot2': 237, 'state': 'normal', 'yaw': 6.72, 'datetime': '2018-10-09 12:40:57.999007', 'mgs': 0, 'volt': 0.8545, 'depth': 0.851, 'time': 122, 'pitch': 31.61, 'roll': -2.19, 'pres': 175}
{'lipoC2': 7.47, 'lipoC3S1': 4.08, 'temp': 30.63, 'lipoC3S3': 12.34, 'lipoC3S2': 8.16, 'rot1': 300, 'rot0': 339, 'rot3': 276, 'rot2': 237, 'state': 'normal', 'yaw': 9.49, 'datetime': '2018-10-09 12:40:58.009416', 'mgs': 0, 'volt': 0.8594, 'depth': 0.928, 'time': 122, 'pitch': 32.32, 'roll': -1.8, 'pres': 176}
{'lipoC2': 7.47, 'lipoC3S1': 4.08, 'temp': 30.63, 'lipoC3S3': 12.34, 'lipoC3S2': 8.16, 'rot1': 300, 'rot0': 339, 'rot3': 276, 'rot2': 237, 'state': 'normal', 'yaw': 12.21, 'datetime': '2018-10-09 12:40:58.019724', 'mgs': 0, 'volt': 0.8594, 'depth': 0.928, 'time': 122, 'pitch': 32.86, 'roll': -1.43, 'pres': 176}
{'lipoC2': 7.48, 'lipoC3S1': 4.08, 'temp': 30.63, 'lipoC3S3': 12.34, 'lipoC3S2': 8.16, 'rot1': 300, 'rot0': 339, 'rot3': 276, 'rot2': 237, 'state': 'normal', 'yaw': 13.74, 'datetime': '2018-10-09 12:40:58.030018', 'mgs': 0, 'volt': 0.8594, 'depth': 0.928, 'time': 123, 'pitch': 32.91, 'roll': -1.47, 'pres': 176}
{'lipoC2': 7.48, 'lipoC3S1': 4.08, 'temp': 30.63, 'lipoC3S3': 12.34, 'lipoC3S2': 8.16, 'rot1': 300, 'rot0': 339, 'rot3': 276, 'rot2': 237, 'state': 'normal', 'yaw': 12.99, 'datetime': '2018-10-09 12:40:58.040312', 'mgs': 0, 'volt': 0.8643, 'depth': 1.004, 'time': 123, 'pitch': 32.81, 'roll': -2.0, 'pres': 177}
{'lipoC2': 7.48, 'lipoC3S1': 4.08, 'temp': 30.63, 'lipoC3S3': 12.34, 'lipoC3S2': 8.16, 'rot1': 300, 'rot0': 339, 'rot3': 276, 'rot2': 237, 'state': 'normal', 'yaw': 9.93, 'datetime': '2018-10-09 12:40:58.050659', 'mgs': 0, 'volt': 0.8643, 'depth': 1.004, 'time': 123, 'pitch': 32.86, 'roll': -2.96, 'pres': 177}
{'lipoC2': 7.47, 'lipoC3S1': 4.08, 'temp': 30.63, 'lipoC3S3': 12.34, 'lipoC3S2': 8.16, 'rot1': 300, 'rot0': 339, 'rot3': 276, 'rot2': 237, 'state': 'normal', 'yaw': 5.76, 'datetime': '2018-10-09 12:40:58.061055', 'mgs': 0, 'volt': 0.8643, 'depth': 1.004, 'time': 123, 'pitch': 33.07, 'roll': -4.12, 'pres': 177}
{'lipoC2': 7.47, 'lipoC3S1': 4.08, 'temp': 30.63, 'lipoC3S3': 12.34, 'lipoC3S2': 8.16, 'rot1': 300, 'rot0': 339, 'rot3': 276, 'rot2': 237, 'state': 'normal', 'yaw': 1.13, 'datetime': '2018-10-09 12:40:58.071386', 'mgs': 0, 'volt': 0.8691, 'depth': 1.08, 'time': 123, 'pitch': 33.13, 'roll': -5.61, 'pres': 178}
{'lipoC2': 7.47, 'lipoC3S1': 4.08, 'temp': 30.63, 'lipoC3S3': 12.34, 'lipoC3S2': 8.16, 'rot1': 300, 'rot0': 339, 'rot3': 276, 'rot2': 237, 'state': 'normal', 'yaw': -2.84, 'datetime': '2018-10-09 12:40:58.081665', 'mgs': 0, 'volt': 0.8691, 'depth': 1.08, 'time': 123, 'pitch': 32.8, 'roll': -7.28, 'pres': 178}
{'lipoC2': 7.47, 'lipoC3S1': 4.08, 'temp': 30.56, 'lipoC3S3': 12.34, 'lipoC3S2': 8.16, 'rot1': 300, 'rot0': 339, 'rot3': 276, 'rot2': 237, 'state': 'normal', 'yaw': -7.15, 'datetime': '2018-10-09 12:40:58.091955', 'mgs': 0, 'volt': 0.8691, 'depth': 1.08, 'time': 123, 'pitch': 32.31, 'roll': -9.45, 'pres': 178}
{'lipoC2': 7.47, 'lipoC3S1': 4.08, 'temp': 30.56, 'lipoC3S3': 12.34, 'lipoC3S2': 8.16, 'rot1': 300, 'rot0': 339, 'rot3': 276, 'rot2': 237, 'state': 'normal', 'yaw': -11.1, 'datetime': '2018-10-09 12:40:58.102414', 'mgs': 0, 'volt': 0.8691, 'depth': 1.08, 'time': 123, 'pitch': 31.88, 'roll': -11.74, 'pres': 178}
{'lipoC2': 7.47, 'lipoC3S1': 4.08, 'temp': 30.63, 'lipoC3S3': 12.34, 'lipoC3S2': 8.16, 'rot1': 300, 'rot0': 339, 'rot3': 276, 'rot2': 237, 'state': 'normal', 'yaw': -15.07, 'datetime': '2018-10-09 12:40:58.112774', 'mgs': 0, 'volt': 0.8691, 'depth': 1.08, 'time': 123, 'pitch': 30.94, 'roll': -14.39, 'pres': 178}
{'lipoC2': 7.47, 'lipoC3S1': 4.08, 'temp': 30.63, 'lipoC3S3': 12.34, 'lipoC3S2': 8.16, 'rot1': 300, 'rot0': 339, 'rot3': 276, 'rot2': 237, 'state': 'normal', 'yaw': -19.11, 'datetime': '2018-10-09 12:40:58.123083', 'mgs': 0, 'volt': 0.8643, 'depth': 1.004, 'time': 124, 'pitch': 28.99, 'roll': -17.6, 'pres': 177}
{'lipoC2': 7.47, 'lipoC3S1': 4.08, 'temp': 30.63, 'lipoC3S3': 12.34, 'lipoC3S2': 8.15, 'rot1': 300, 'rot0': 339, 'rot3': 276, 'rot2': 237, 'state': 'normal', 'yaw': -22.61, 'datetime': '2018-10-09 12:40:58.133360', 'mgs': 0, 'volt': 0.8643, 'depth': 1.004, 'time': 124, 'pitch': 26.76, 'roll': -20.73, 'pres': 177}
{'lipoC2': 7.47, 'lipoC3S1': 4.08, 'temp': 30.63, 'lipoC3S3': 12.34, 'lipoC3S2': 8.16, 'rot1': 300, 'rot0': 339, 'rot3': 276, 'rot2': 237, 'state': 'normal', 'yaw': -26.65, 'datetime': '2018-10-09 12:40:58.143635', 'mgs': 0, 'volt': 0.8643, 'depth': 1.004, 'time': 124, 'pitch': 24.36, 'roll': -24.31, 'pres': 177}
{'lipoC2': 7.47, 'lipoC3S1': 4.08, 'temp': 30.63, 'lipoC3S3': 12.34, 'lipoC3S2': 8.16, 'rot1': 300, 'rot0': 339, 'rot3': 276, 'rot2': 237, 'state': 'normal', 'yaw': -30.71, 'datetime': '2018-10-09 12:40:58.153904', 'mgs': 0, 'volt': 0.8594, 'depth': 0.928, 'time': 124, 'pitch': 22.44, 'roll': -27.59, 'pres': 176}
{'lipoC2': 7.47, 'lipoC3S1': 4.08, 'temp': 30.56, 'lipoC3S3': 12.34, 'lipoC3S2': 8.16, 'rot1': 300, 'rot0': 339, 'rot3': 276, 'rot2': 237, 'state': 'normal', 'yaw': -35.58, 'datetime': '2018-10-09 12:40:58.164182', 'mgs': 0, 'volt': 0.8594, 'depth': 0.928, 'time': 124, 'pitch': 20.6, 'roll': -30.92, 'pres': 176}
{'lipoC2': 7.47, 'lipoC3S1': 4.08, 'temp': 30.56, 'lipoC3S3': 12.34, 'lipoC3S2': 8.16, 'rot1': 300, 'rot0': 339, 'rot3': 276, 'rot2': 237, 'state': 'normal', 'yaw': -39.83, 'datetime': '2018-10-09 12:40:58.174498', 'mgs': 0, 'volt': 0.8594, 'depth': 0.928, 'time': 124, 'pitch': 18.91, 'roll': -33.49, 'pres': 176}
{'lipoC2': 7.47, 'lipoC3S1': 4.08, 'temp': 30.63, 'lipoC3S3': 12.34, 'lipoC3S2': 8.16, 'rot1': 300, 'rot0': 339, 'rot3': 276, 'rot2': 237, 'state': 'normal', 'yaw': -43.57, 'datetime': '2018-10-09 12:40:58.184811', 'mgs': 0, 'volt': 0.8594, 'depth': 0.928, 'time': 124, 'pitch': 17.15, 'roll': -35.77, 'pres': 176}
{'lipoC2': 7.47, 'lipoC3S1': 4.08, 'temp': 30.63, 'lipoC3S3': 12.34, 'lipoC3S2': 8.16, 'rot1': 300, 'rot0': 339, 'rot3': 276, 'rot2': 237, 'state': 'normal', 'yaw': -46.21, 'datetime': '2018-10-09 12:40:58.195134', 'mgs': 0, 'volt': 0.8643, 'depth': 1.004, 'time': 124, 'pitch': 15.65, 'roll': -37.35, 'pres': 177}
{'lipoC2': 7.47, 'lipoC3S1': 4.08, 'temp': 30.63, 'lipoC3S3': 12.34, 'lipoC3S2': 8.16, 'rot1': 300, 'rot0': 339, 'rot3': 276, 'rot2': 237, 'state': 'normal', 'yaw': -48.83, 'datetime': '2018-10-09 12:40:58.205438', 'mgs': 0, 'volt': 0.8643, 'depth': 1.004, 'time': 124, 'pitch': 15.07, 'roll': -38.52, 'pres': 177}
{'lipoC2': 7.47, 'lipoC3S1': 4.08, 'temp': 30.63, 'lipoC3S3': 12.34, 'lipoC3S2': 8.16, 'rot1': 300, 'rot0': 339, 'rot3': 276, 'rot2': 237, 'state': 'normal', 'yaw': -51.57, 'datetime': '2018-10-09 12:40:58.215737', 'mgs': 0, 'volt': 0.8691, 'depth': 1.08, 'time': 124, 'pitch': 15.1, 'roll': -39.04, 'pres': 178}
{'lipoC2': 7.47, 'lipoC3S1': 4.08, 'temp': 30.63, 'lipoC3S3': 12.34, 'lipoC3S2': 8.16, 'rot1': 300, 'rot0': 339, 'rot3': 276, 'rot2': 237, 'state': 'normal', 'yaw': -53.8, 'datetime': '2018-10-09 12:40:58.226028', 'mgs': 0, 'volt': 0.874, 'depth': 1.157, 'time': 125, 'pitch': 15.76, 'roll': -38.74, 'pres': 179}
{'lipoC2': 7.47, 'lipoC3S1': 4.08, 'temp': 30.63, 'lipoC3S3': 12.34, 'lipoC3S2': 8.15, 'rot1': 300, 'rot0': 339, 'rot3': 276, 'rot2': 237, 'state': 'normal', 'yaw': -55.83, 'datetime': '2018-10-09 12:40:58.236523', 'mgs': 0, 'volt': 0.8789, 'depth': 1.233, 'time': 125, 'pitch': 17.21, 'roll': -37.62, 'pres': 180}
{'lipoC2': 7.47, 'lipoC3S1': 4.08, 'temp': 30.63, 'lipoC3S3': 12.34, 'lipoC3S2': 8.16, 'rot1': 300, 'rot0': 339, 'rot3': 276, 'rot2': 237, 'state': 'normal', 'yaw': -56.89, 'datetime': '2018-10-09 12:40:58.246832', 'mgs': 0, 'volt': 0.8838, 'depth': 1.309, 'time': 125, 'pitch': 18.67, 'roll': -36.05, 'pres': 181}
{'lipoC2': 7.47, 'lipoC3S1': 4.08, 'temp': 30.63, 'lipoC3S3': 12.34, 'lipoC3S2': 8.16, 'rot1': 300, 'rot0': 339, 'rot3': 276, 'rot2': 237, 'state': 'normal', 'yaw': -56.92, 'datetime': '2018-10-09 12:40:58.257126', 'mgs': 0, 'volt': 0.8838, 'depth': 1.309, 'time': 125, 'pitch': 19.6, 'roll': -34.09, 'pres': 181}
{'lipoC2': 7.47, 'lipoC3S1': 4.08, 'temp': 30.63, 'lipoC3S3': 12.34, 'lipoC3S2': 8.16, 'rot1': 300, 'rot0': 339, 'rot3': 276, 'rot2': 237, 'state': 'normal', 'yaw': -56.26, 'datetime': '2018-10-09 12:40:58.267419', 'mgs': 0, 'volt': 0.8887, 'depth': 1.385, 'time': 125, 'pitch': 19.92, 'roll': -32.54, 'pres': 182}
{'lipoC2': 7.47, 'lipoC3S1': 4.08, 'temp': 30.63, 'lipoC3S3': 12.34, 'lipoC3S2': 8.16, 'rot1': 300, 'rot0': 339, 'rot3': 276, 'rot2': 237, 'state': 'normal', 'yaw': -55.16, 'datetime': '2018-10-09 12:40:58.277708', 'mgs': 0, 'volt': 0.8838, 'depth': 1.309, 'time': 125, 'pitch': 19.95, 'roll': -31.55, 'pres': 181}
{'lipoC2': 7.47, 'lipoC3S1': 4.08, 'temp': 30.63, 'lipoC3S3': 12.34, 'lipoC3S2': 8.16, 'rot1': 300, 'rot0': 339, 'rot3': 276, 'rot2': 237, 'state': 'normal', 'yaw': -54.28, 'datetime': '2018-10-09 12:40:58.287986', 'mgs': 0, 'volt': 0.8887, 'depth': 1.385, 'time': 125, 'pitch': 19.82, 'roll': -31.31, 'pres': 182}
{'lipoC2': 7.47, 'lipoC3S1': 4.08, 'temp': 30.63, 'lipoC3S3': 12.34, 'lipoC3S2': 8.16, 'rot1': 300, 'rot0': 339, 'rot3': 276, 'rot2': 237, 'state': 'normal', 'yaw': -54.09, 'datetime': '2018-10-09 12:40:58.298275', 'mgs': 0, 'volt': 0.8887, 'depth': 1.385, 'time': 125, 'pitch': 19.84, 'roll': -31.59, 'pres': 182}
{'lipoC2': 7.47, 'lipoC3S1': 4.08, 'temp': 30.63, 'lipoC3S3': 12.34, 'lipoC3S2': 8.16, 'rot1': 300, 'rot0': 339, 'rot3': 276, 'rot2': 237, 'state': 'normal', 'yaw': -54.47, 'datetime': '2018-10-09 12:40:58.308572', 'mgs': 0, 'volt': 0.8887, 'depth': 1.385, 'time': 125, 'pitch': 19.97, 'roll': -32.34, 'pres': 182}
{'lipoC2': 7.47, 'lipoC3S1': 4.08, 'temp': 30.63, 'lipoC3S3': 12.34, 'lipoC3S2': 8.16, 'rot1': 300, 'rot0': 339, 'rot3': 276, 'rot2': 237, 'state': 'normal', 'yaw': -55.13, 'datetime': '2018-10-09 12:40:58.318895', 'mgs': 0, 'volt': 0.8887, 'depth': 1.385, 'time': 125, 'pitch': 20.12, 'roll': -33.29, 'pres': 182}
{'lipoC2': 7.47, 'lipoC3S1': 4.08, 'temp': 30.63, 'lipoC3S3': 12.34, 'lipoC3S2': 8.16, 'rot1': 300, 'rot0': 339, 'rot3': 276, 'rot2': 237, 'state': 'normal', 'yaw': -55.91, 'datetime': '2018-10-09 12:40:58.329220', 'mgs': 0, 'volt': 0.8887, 'depth': 1.385, 'time': 126, 'pitch': 20.13, 'roll': -34.47, 'pres': 182}
{'lipoC2': 7.47, 'lipoC3S1': 4.08, 'temp': 30.63, 'lipoC3S3': 12.34, 'lipoC3S2': 8.16, 'rot1': 300, 'rot0': 339, 'rot3': 276, 'rot2': 237, 'state': 'normal', 'yaw': -56.58, 'datetime': '2018-10-09 12:40:58.339963', 'mgs': 0, 'volt': 0.8838, 'depth': 1.309, 'time': 126, 'pitch': 19.9, 'roll': -35.53, 'pres': 181}
{'lipoC2': 7.47, 'lipoC3S1': 4.08, 'temp': 30.63, 'lipoC3S3': 12.34, 'lipoC3S2': 8.16, 'rot1': 300, 'rot0': 339, 'rot3': 276, 'rot2': 237, 'state': 'normal', 'yaw': -57.37, 'datetime': '2018-10-09 12:40:58.350675', 'mgs': 0, 'volt': 0.8887, 'depth': 1.385, 'time': 126, 'pitch': 19.49, 'roll': -36.6, 'pres': 182}
{'lipoC2': 7.47, 'lipoC3S1': 4.08, 'temp': 30.63, 'lipoC3S3': 12.34, 'lipoC3S2': 8.16, 'rot1': 300, 'rot0': 339, 'rot3': 276, 'rot2': 237, 'state': 'normal', 'yaw': -58.16, 'datetime': '2018-10-09 12:40:58.361040', 'mgs': 0, 'volt': 0.8838, 'depth': 1.309, 'time': 126, 'pitch': 19.16, 'roll': -37.56, 'pres': 181}
{'lipoC2': 7.47, 'lipoC3S1': 4.08, 'temp': 30.63, 'lipoC3S3': 12.34, 'lipoC3S2': 8.16, 'rot1': 300, 'rot0': 339, 'rot3': 276, 'rot2': 237, 'state': 'normal', 'yaw': -59.12, 'datetime': '2018-10-09 12:40:58.371277', 'mgs': 0, 'volt': 0.8838, 'depth': 1.309, 'time': 126, 'pitch': 18.92, 'roll': -38.65, 'pres': 181}
{'lipoC2': 7.47, 'lipoC3S1': 4.08, 'temp': 30.63, 'lipoC3S3': 12.34, 'lipoC3S2': 8.16, 'rot1': 300, 'rot0': 339, 'rot3': 276, 'rot2': 237, 'state': 'normal', 'yaw': -60.13, 'datetime': '2018-10-09 12:40:58.381028', 'mgs': 0, 'volt': 0.8887, 'depth': 1.385, 'time': 126, 'pitch': 18.91, 'roll': -39.73, 'pres': 182}
{'lipoC2': 7.47, 'lipoC3S1': 4.08, 'temp': 30.63, 'lipoC3S3': 12.34, 'lipoC3S2': 8.16, 'rot1': 300, 'rot0': 339, 'rot3': 276, 'rot2': 237, 'state': 'normal', 'yaw': -61.25, 'datetime': '2018-10-09 12:40:58.392031', 'mgs': 0, 'volt': 0.8887, 'depth': 1.385, 'time': 126, 'pitch': 19.06, 'roll': -40.99, 'pres': 182}
{'lipoC2': 7.47, 'lipoC3S1': 4.08, 'temp': 30.56, 'lipoC3S3': 12.34, 'lipoC3S2': 8.15, 'rot1': 300, 'rot0': 339, 'rot3': 276, 'rot2': 237, 'state': 'normal', 'yaw': -62.02, 'datetime': '2018-10-09 12:40:58.401842', 'mgs': 0, 'volt': 0.8838, 'depth': 1.309, 'time': 126, 'pitch': 19.17, 'roll': -42.16, 'pres': 181}
{'lipoC2': 7.47, 'lipoC3S1': 4.08, 'temp': 30.56, 'lipoC3S3': 12.34, 'lipoC3S2': 8.16, 'rot1': 300, 'rot0': 339, 'rot3': 276, 'rot2': 237, 'state': 'normal', 'yaw': -62.44, 'datetime': '2018-10-09 12:40:58.411604', 'mgs': 0, 'volt': 0.8838, 'depth': 1.309, 'time': 126, 'pitch': 19.13, 'roll': -43.16, 'pres': 181}
{'lipoC2': 7.47, 'lipoC3S1': 4.08, 'temp': 30.56, 'lipoC3S3': 12.34, 'lipoC3S2': 8.16, 'rot1': 300, 'rot0': 339, 'rot3': 276, 'rot2': 237, 'state': 'normal', 'yaw': -62.58, 'datetime': '2018-10-09 12:40:58.421399', 'mgs': 0, 'volt': 0.8887, 'depth': 1.385, 'time': 127, 'pitch': 19.04, 'roll': -43.78, 'pres': 182}
{'lipoC2': 7.47, 'lipoC3S1': 4.08, 'temp': 30.56, 'lipoC3S3': 12.34, 'lipoC3S2': 8.16, 'rot1': 300, 'rot0': 339, 'rot3': 276, 'rot2': 237, 'state': 'normal', 'yaw': -62.68, 'datetime': '2018-10-09 12:40:58.431211', 'mgs': 0, 'volt': 0.8838, 'depth': 1.309, 'time': 127, 'pitch': 19.13, 'roll': -43.83, 'pres': 181}
{'lipoC2': 7.47, 'lipoC3S1': 4.08, 'temp': 30.63, 'lipoC3S3': 12.34, 'lipoC3S2': 8.16, 'rot1': 300, 'rot0': 339, 'rot3': 276, 'rot2': 237, 'state': 'normal', 'yaw': -62.91, 'datetime': '2018-10-09 12:40:58.441026', 'mgs': 0, 'volt': 0.8838, 'depth': 1.309, 'time': 127, 'pitch': 19.58, 'roll': -43.36, 'pres': 181}
{'lipoC2': 7.47, 'lipoC3S1': 4.08, 'temp': 30.63, 'lipoC3S3': 12.34, 'lipoC3S2': 8.16, 'rot1': 300, 'rot0': 339, 'rot3': 276, 'rot2': 237, 'state': 'normal', 'yaw': -63.21, 'datetime': '2018-10-09 12:40:58.450787', 'mgs': 0, 'volt': 0.8838, 'depth': 1.309, 'time': 127, 'pitch': 20.19, 'roll': -42.67, 'pres': 181}
{'lipoC2': 7.47, 'lipoC3S1': 4.08, 'temp': 30.63, 'lipoC3S3': 12.34, 'lipoC3S2': 8.16, 'rot1': 300, 'rot0': 339, 'rot3': 276, 'rot2': 237, 'state': 'normal', 'yaw': -63.47, 'datetime': '2018-10-09 12:40:58.460551', 'mgs': 0, 'volt': 0.8838, 'depth': 1.309, 'time': 127, 'pitch': 20.76, 'roll': -41.95, 'pres': 181}
{'lipoC2': 7.47, 'lipoC3S1': 4.08, 'temp': 30.56, 'lipoC3S3': 12.34, 'lipoC3S2': 8.16, 'rot1': 300, 'rot0': 339, 'rot3': 276, 'rot2': 237, 'state': 'normal', 'yaw': -63.57, 'datetime': '2018-10-09 12:40:58.470424', 'mgs': 0, 'volt': 0.8789, 'depth': 1.233, 'time': 127, 'pitch': 21.05, 'roll': -41.34, 'pres': 180}
{'lipoC2': 7.47, 'lipoC3S1': 4.08, 'temp': 30.56, 'lipoC3S3': 12.34, 'lipoC3S2': 8.16, 'rot1': 300, 'rot0': 339, 'rot3': 276, 'rot2': 237, 'state': 'normal', 'yaw': -63.45, 'datetime': '2018-10-09 12:40:58.480225', 'mgs': 0, 'volt': 0.8789, 'depth': 1.233, 'time': 127, 'pitch': 20.92, 'roll': -41.01, 'pres': 180}
{'lipoC2': 7.47, 'lipoC3S1': 4.08, 'temp': 30.56, 'lipoC3S3': 12.34, 'lipoC3S2': 8.16, 'rot1': 300, 'rot0': 339, 'rot3': 276, 'rot2': 237, 'state': 'normal', 'yaw': -63.06, 'datetime': '2018-10-09 12:40:58.489944', 'mgs': 0, 'volt': 0.8789, 'depth': 1.233, 'time': 127, 'pitch': 20.35, 'roll': -40.71, 'pres': 180}
{'lipoC2': 7.47, 'lipoC3S1': 4.08, 'temp': 30.56, 'lipoC3S3': 12.34, 'lipoC3S2': 8.16, 'rot1': 300, 'rot0': 339, 'rot3': 276, 'rot2': 237, 'state': 'normal', 'yaw': -62.53, 'datetime': '2018-10-09 12:40:58.499964', 'mgs': 0, 'volt': 0.874, 'depth': 1.157, 'time': 127, 'pitch': 19.34, 'roll': -40.41, 'pres': 179}
{'lipoC2': 7.47, 'lipoC3S1': 4.08, 'temp': 30.5, 'lipoC3S3': 12.34, 'lipoC3S2': 8.16, 'rot1': 300, 'rot0': 339, 'rot3': 276, 'rot2': 237, 'state': 'normal', 'yaw': -62.06, 'datetime': '2018-10-09 12:40:58.509773', 'mgs': 0, 'volt': 0.874, 'depth': 1.157, 'time': 127, 'pitch': 18.03, 'roll': -40.08, 'pres': 179}
{'lipoC2': 7.47, 'lipoC3S1': 4.08, 'temp': 30.5, 'lipoC3S3': 12.34, 'lipoC3S2': 8.16, 'rot1': 300, 'rot0': 339, 'rot3': 276, 'rot2': 237, 'state': 'normal', 'yaw': -61.98, 'datetime': '2018-10-09 12:40:58.519530', 'mgs': 0, 'volt': 0.874, 'depth': 1.157, 'time': 128, 'pitch': 16.94, 'roll': -40.02, 'pres': 179}
{'lipoC2': 7.47, 'lipoC3S1': 4.08, 'temp': 30.5, 'lipoC3S3': 12.34, 'lipoC3S2': 8.16, 'rot1': 300, 'rot0': 339, 'rot3': 276, 'rot2': 237, 'state': 'normal', 'yaw': -62.34, 'datetime': '2018-10-09 12:40:58.529412', 'mgs': 0, 'volt': 0.874, 'depth': 1.157, 'time': 128, 'pitch': 16.28, 'roll': -40.33, 'pres': 179}
{'lipoC2': 7.47, 'lipoC3S1': 4.08, 'temp': 30.5, 'lipoC3S3': 12.34, 'lipoC3S2': 8.16, 'rot1': 300, 'rot0': 339, 'rot3': 276, 'rot2': 237, 'state': 'normal', 'yaw': -62.93, 'datetime': '2018-10-09 12:40:58.539233', 'mgs': 0, 'volt': 0.8691, 'depth': 1.08, 'time': 128, 'pitch': 16.32, 'roll': -40.85, 'pres': 178}
{'lipoC2': 7.47, 'lipoC3S1': 4.08, 'temp': 30.5, 'lipoC3S3': 12.34, 'lipoC3S2': 8.16, 'rot1': 300, 'rot0': 339, 'rot3': 276, 'rot2': 237, 'state': 'normal', 'yaw': -63.64, 'datetime': '2018-10-09 12:40:58.618490', 'mgs': 0, 'volt': 0.874, 'depth': 1.157, 'time': 128, 'pitch': 16.94, 'roll': -41.23, 'pres': 179}
{'lipoC2': 7.47, 'lipoC3S1': 4.08, 'temp': 30.5, 'lipoC3S3': 12.34, 'lipoC3S2': 8.16, 'rot1': 300, 'rot0': 339, 'rot3': 276, 'rot2': 237, 'state': 'normal', 'yaw': -64.43, 'datetime': '2018-10-09 12:40:58.722832', 'mgs': 0, 'volt': 0.874, 'depth': 1.157, 'time': 128, 'pitch': 17.9, 'roll': -41.3, 'pres': 179}
{'lipoC2': 7.47, 'lipoC3S1': 4.08, 'temp': 30.5, 'lipoC3S3': 12.34, 'lipoC3S2': 8.16, 'rot1': 300, 'rot0': 339, 'rot3': 276, 'rot2': 237, 'state': 'normal', 'yaw': -65.05, 'datetime': '2018-10-09 12:40:58.828403', 'mgs': 0, 'volt': 0.874, 'depth': 1.157, 'time': 128, 'pitch': 18.59, 'roll': -41.14, 'pres': 179}
{'lipoC2': 7.47, 'lipoC3S1': 4.08, 'temp': 30.56, 'lipoC3S3': 12.34, 'lipoC3S2': 8.16, 'rot1': 300, 'rot0': 339, 'rot3': 276, 'rot2': 237, 'state': 'normal', 'yaw': -65.5, 'datetime': '2018-10-09 12:40:58.932701', 'mgs': 0, 'volt': 0.874, 'depth': 1.157, 'time': 128, 'pitch': 18.98, 'roll': -40.93, 'pres': 179}
{'lipoC2': 7.47, 'lipoC3S1': 4.08, 'temp': 30.56, 'lipoC3S3': 12.34, 'lipoC3S2': 8.16, 'rot1': 300, 'rot0': 339, 'rot3': 276, 'rot2': 237, 'state': 'normal', 'yaw': -65.66, 'datetime': '2018-10-09 12:40:59.038387', 'mgs': 0, 'volt': 0.874, 'depth': 1.157, 'time': 128, 'pitch': 18.9, 'roll': -41.01, 'pres': 179}
{'lipoC2': 7.47, 'lipoC3S1': 4.08, 'temp': 30.56, 'lipoC3S3': 12.34, 'lipoC3S2': 8.16, 'rot1': 300, 'rot0': 339, 'rot3': 276, 'rot2': 237, 'state': 'normal', 'yaw': -65.59, 'datetime': '2018-10-09 12:40:59.142618', 'mgs': 0, 'volt': 0.8691, 'depth': 1.08, 'time': 128, 'pitch': 18.39, 'roll': -41.57, 'pres': 178}
{'lipoC2': 7.47, 'lipoC3S1': 4.08, 'temp': 30.56, 'lipoC3S3': 12.34, 'lipoC3S2': 8.16, 'rot1': 300, 'rot0': 339, 'rot3': 276, 'rot2': 237, 'state': 'normal', 'yaw': -65.41, 'datetime': '2018-10-09 12:40:59.248226', 'mgs': 0, 'volt': 0.8691, 'depth': 1.08, 'time': 129, 'pitch': 17.58, 'roll': -42.44, 'pres': 178}
{'lipoC2': 7.47, 'lipoC3S1': 4.08, 'temp': 30.56, 'lipoC3S3': 12.34, 'lipoC3S2': 8.16, 'rot1': 300, 'rot0': 339, 'rot3': 276, 'rot2': 237, 'state': 'normal', 'yaw': -65.13, 'datetime': '2018-10-09 12:40:59.352527', 'mgs': 0, 'volt': 0.8643, 'depth': 1.004, 'time': 129, 'pitch': 16.54, 'roll': -43.49, 'pres': 177}
{'lipoC2': 7.47, 'lipoC3S1': 4.08, 'temp': 30.56, 'lipoC3S3': 12.34, 'lipoC3S2': 8.16, 'rot1': 300, 'rot0': 339, 'rot3': 276, 'rot2': 237, 'state': 'normal', 'yaw': -64.77, 'datetime': '2018-10-09 12:40:59.456928', 'mgs': 0, 'volt': 0.8643, 'depth': 1.004, 'time': 129, 'pitch': 15.56, 'roll': -44.33, 'pres': 177}
{'lipoC2': 7.47, 'lipoC3S1': 4.08, 'temp': 30.56, 'lipoC3S3': 12.34, 'lipoC3S2': 8.16, 'rot1': 300, 'rot0': 339, 'rot3': 276, 'rot2': 237, 'state': 'normal', 'yaw': -64.28, 'datetime': '2018-10-09 12:40:59.561779', 'mgs': 0, 'volt': 0.8643, 'depth': 1.004, 'time': 129, 'pitch': 14.6, 'roll': -44.84, 'pres': 177}
{'lipoC2': 7.47, 'lipoC3S1': 4.08, 'temp': 30.5, 'lipoC3S3': 12.34, 'lipoC3S2': 8.16, 'rot1': 300, 'rot0': 339, 'rot3': 276, 'rot2': 237, 'state': 'normal', 'yaw': -63.77, 'datetime': '2018-10-09 12:40:59.666339', 'mgs': 0, 'volt': 0.8643, 'depth': 1.004, 'time': 129, 'pitch': 13.73, 'roll': -44.9, 'pres': 177}
{'lipoC2': 7.47, 'lipoC3S1': 4.08, 'temp': 30.5, 'lipoC3S3': 12.34, 'lipoC3S2': 8.16, 'rot1': 300, 'rot0': 339, 'rot3': 276, 'rot2': 237, 'state': 'normal', 'yaw': -63.62, 'datetime': '2018-10-09 12:40:59.770554', 'mgs': 0, 'volt': 0.8643, 'depth': 1.004, 'time': 129, 'pitch': 13.3, 'roll': -44.56, 'pres': 177}
{'lipoC2': 7.47, 'lipoC3S1': 4.08, 'temp': 30.5, 'lipoC3S3': 12.34, 'lipoC3S2': 8.16, 'rot1': 300, 'rot0': 339, 'rot3': 276, 'rot2': 237, 'state': 'normal', 'yaw': -64.01, 'datetime': '2018-10-09 12:40:59.874804', 'mgs': 0, 'volt': 0.8691, 'depth': 1.08, 'time': 129, 'pitch': 13.31, 'roll': -43.98, 'pres': 178}
{'lipoC2': 7.47, 'lipoC3S1': 4.08, 'temp': 30.56, 'lipoC3S3': 12.34, 'lipoC3S2': 8.16, 'rot1': 300, 'rot0': 339, 'rot3': 276, 'rot2': 237, 'state': 'normal', 'yaw': -64.81, 'datetime': '2018-10-09 12:40:59.978995', 'mgs': 0, 'volt': 0.8691, 'depth': 1.08, 'time': 129, 'pitch': 13.72, 'roll': -43.37, 'pres': 178}
{'lipoC2': 7.47, 'lipoC3S1': 4.08, 'temp': 30.56, 'lipoC3S3': 12.34, 'lipoC3S2': 8.16, 'rot1': 300, 'rot0': 339, 'rot3': 276, 'rot2': 237, 'state': 'normal', 'yaw': -65.86, 'datetime': '2018-10-09 12:41:00.083385', 'mgs': 0, 'volt': 0.8691, 'depth': 1.08, 'time': 129, 'pitch': 14.36, 'roll': -42.53, 'pres': 178}
{'lipoC2': 7.47, 'lipoC3S1': 4.08, 'temp': 30.63, 'lipoC3S3': 12.34, 'lipoC3S2': 8.16, 'rot1': 300, 'rot0': 339, 'rot3': 276, 'rot2': 237, 'state': 'normal', 'yaw': -66.51, 'datetime': '2018-10-09 12:41:00.187843', 'mgs': 0, 'volt': 0.874, 'depth': 1.157, 'time': 129, 'pitch': 14.66, 'roll': -41.59, 'pres': 179}
{'lipoC2': 7.47, 'lipoC3S1': 4.08, 'temp': 30.63, 'lipoC3S3': 12.34, 'lipoC3S2': 8.16, 'rot1': 300, 'rot0': 339, 'rot3': 276, 'rot2': 237, 'state': 'normal', 'yaw': -66.72, 'datetime': '2018-10-09 12:41:00.293115', 'mgs': 0, 'volt': 0.8789, 'depth': 1.233, 'time': 130, 'pitch': 14.8, 'roll': -40.53, 'pres': 180}
{'lipoC2': 7.47, 'lipoC3S1': 4.08, 'temp': 30.63, 'lipoC3S3': 12.34, 'lipoC3S2': 8.16, 'rot1': 300, 'rot0': 339, 'rot3': 276, 'rot2': 237, 'state': 'normal', 'yaw': -66.59, 'datetime': '2018-10-09 12:41:00.397521', 'mgs': 0, 'volt': 0.8838, 'depth': 1.309, 'time': 130, 'pitch': 14.93, 'roll': -39.33, 'pres': 181}
{'lipoC2': 7.47, 'lipoC3S1': 4.08, 'temp': 30.63, 'lipoC3S3': 12.34, 'lipoC3S2': 8.16, 'rot1': 300, 'rot0': 339, 'rot3': 276, 'rot2': 237, 'state': 'normal', 'yaw': -66.4, 'datetime': '2018-10-09 12:41:00.507805', 'mgs': 0, 'volt': 0.8887, 'depth': 1.385, 'time': 130, 'pitch': 15.08, 'roll': -38.28, 'pres': 182}
{'lipoC2': 7.47, 'lipoC3S1': 4.08, 'temp': 30.63, 'lipoC3S3': 12.34, 'lipoC3S2': 8.16, 'rot1': 300, 'rot0': 339, 'rot3': 276, 'rot2': 237, 'state': 'normal', 'yaw': -66.37, 'datetime': '2018-10-09 12:41:00.614077', 'mgs': 0, 'volt': 0.8887, 'depth': 1.385, 'time': 130, 'pitch': 15.27, 'roll': -37.29, 'pres': 182}
{'lipoC2': 7.47, 'lipoC3S1': 4.08, 'temp': 30.63, 'lipoC3S3': 12.34, 'lipoC3S2': 8.16, 'rot1': 300, 'rot0': 339, 'rot3': 276, 'rot2': 237, 'state': 'normal', 'yaw': -66.58, 'datetime': '2018-10-09 12:41:00.718242', 'mgs': 0, 'volt': 0.8936, 'depth': 1.462, 'time': 130, 'pitch': 15.41, 'roll': -36.62, 'pres': 183}
{'lipoC2': 7.47, 'lipoC3S1': 4.08, 'temp': 30.63, 'lipoC3S3': 12.34, 'lipoC3S2': 8.16, 'rot1': 300, 'rot0': 339, 'rot3': 276, 'rot2': 237, 'state': 'normal', 'yaw': -66.92, 'datetime': '2018-10-09 12:41:00.822614', 'mgs': 0, 'volt': 0.8984, 'depth': 1.538, 'time': 130, 'pitch': 15.45, 'roll': -36.13, 'pres': 184}
{'lipoC2': 7.47, 'lipoC3S1': 4.08, 'temp': 30.56, 'lipoC3S3': 12.34, 'lipoC3S2': 8.16, 'rot1': 300, 'rot0': 339, 'rot3': 276, 'rot2': 237, 'state': 'normal', 'yaw': -67.29, 'datetime': '2018-10-09 12:41:00.926905', 'mgs': 0, 'volt': 0.8936, 'depth': 1.462, 'time': 130, 'pitch': 15.56, 'roll': -35.86, 'pres': 183}
{'lipoC2': 7.47, 'lipoC3S1': 4.08, 'temp': 30.56, 'lipoC3S3': 12.34, 'lipoC3S2': 8.16, 'rot1': 300, 'rot0': 339, 'rot3': 276, 'rot2': 237, 'state': 'normal', 'yaw': -67.64, 'datetime': '2018-10-09 12:41:01.032072', 'mgs': 0, 'volt': 0.8936, 'depth': 1.462, 'time': 130, 'pitch': 15.82, 'roll': -35.78, 'pres': 183}
{'lipoC2': 7.47, 'lipoC3S1': 4.08, 'temp': 30.63, 'lipoC3S3': 12.34, 'lipoC3S2': 8.16, 'rot1': 300, 'rot0': 339, 'rot3': 276, 'rot2': 237, 'state': 'normal', 'yaw': -67.91, 'datetime': '2018-10-09 12:41:01.135833', 'mgs': 0, 'volt': 0.8984, 'depth': 1.538, 'time': 130, 'pitch': 16.32, 'roll': -35.99, 'pres': 184}
{'lipoC2': 7.47, 'lipoC3S1': 4.08, 'temp': 30.63, 'lipoC3S3': 12.34, 'lipoC3S2': 8.16, 'rot1': 300, 'rot0': 339, 'rot3': 276, 'rot2': 237, 'state': 'normal', 'yaw': -68.1, 'datetime': '2018-10-09 12:41:01.241290', 'mgs': 0, 'volt': 0.8984, 'depth': 1.538, 'time': 131, 'pitch': 17.1, 'roll': -36.54, 'pres': 184}
{'lipoC2': 7.47, 'lipoC3S1': 4.08, 'temp': 30.63, 'lipoC3S3': 12.34, 'lipoC3S2': 8.16, 'rot1': 300, 'rot0': 339, 'rot3': 276, 'rot2': 237, 'state': 'normal', 'yaw': -68.11, 'datetime': '2018-10-09 12:41:01.345481', 'mgs': 0, 'volt': 0.8984, 'depth': 1.538, 'time': 131, 'pitch': 17.91, 'roll': -37.41, 'pres': 184}
{'lipoC2': 7.47, 'lipoC3S1': 4.08, 'temp': 30.63, 'lipoC3S3': 12.34, 'lipoC3S2': 8.16, 'rot1': 300, 'rot0': 339, 'rot3': 276, 'rot2': 237, 'state': 'normal', 'yaw': -67.81, 'datetime': '2018-10-09 12:41:01.448402', 'mgs': 0, 'volt': 0.8984, 'depth': 1.538, 'time': 131, 'pitch': 18.21, 'roll': -38.28, 'pres': 184}
{'lipoC2': 7.47, 'lipoC3S1': 4.08, 'temp': 30.63, 'lipoC3S3': 12.34, 'lipoC3S2': 8.16, 'rot1': 300, 'rot0': 339, 'rot3': 276, 'rot2': 237, 'state': 'normal', 'yaw': -67.29, 'datetime': '2018-10-09 12:41:01.553938', 'mgs': 0, 'volt': 0.8984, 'depth': 1.538, 'time': 131, 'pitch': 18.12, 'roll': -39.22, 'pres': 184}
{'lipoC2': 7.47, 'lipoC3S1': 4.08, 'temp': 30.56, 'lipoC3S3': 12.34, 'lipoC3S2': 8.16, 'rot1': 300, 'rot0': 339, 'rot3': 276, 'rot2': 237, 'state': 'normal', 'yaw': -66.9, 'datetime': '2018-10-09 12:41:01.661169', 'mgs': 0, 'volt': 0.8936, 'depth': 1.462, 'time': 131, 'pitch': 17.76, 'roll': -40.01, 'pres': 183}
{'lipoC2': 7.47, 'lipoC3S1': 4.08, 'temp': 30.56, 'lipoC3S3': 12.34, 'lipoC3S2': 8.16, 'rot1': 300, 'rot0': 339, 'rot3': 276, 'rot2': 237, 'state': 'normal', 'yaw': -66.73, 'datetime': '2018-10-09 12:41:01.765431', 'mgs': 0, 'volt': 0.8936, 'depth': 1.462, 'time': 131, 'pitch': 17.33, 'roll': -40.89, 'pres': 183}
{'lipoC2': 7.47, 'lipoC3S1': 4.08, 'temp': 30.63, 'lipoC3S3': 12.34, 'lipoC3S2': 8.16, 'rot1': 300, 'rot0': 339, 'rot3': 276, 'rot2': 237, 'state': 'normal', 'yaw': -66.94, 'datetime': '2018-10-09 12:41:01.869746', 'mgs': 0, 'volt': 0.8936, 'depth': 1.462, 'time': 131, 'pitch': 17.12, 'roll': -41.82, 'pres': 183}
{'lipoC2': 7.47, 'lipoC3S1': 4.08, 'temp': 30.63, 'lipoC3S3': 12.34, 'lipoC3S2': 8.16, 'rot1': 300, 'rot0': 339, 'rot3': 276, 'rot2': 237, 'state': 'normal', 'yaw': -67.51, 'datetime': '2018-10-09 12:41:01.974003', 'mgs': 0, 'volt': 0.8936, 'depth': 1.462, 'time': 131, 'pitch': 17.16, 'roll': -42.89, 'pres': 183}
{'lipoC2': 7.47, 'lipoC3S1': 4.08, 'temp': 30.56, 'lipoC3S3': 12.34, 'lipoC3S2': 8.16, 'rot1': 300, 'rot0': 339, 'rot3': 276, 'rot2': 237, 'state': 'normal', 'yaw': -68.11, 'datetime': '2018-10-09 12:41:02.078628', 'mgs': 0, 'volt': 0.8936, 'depth': 1.462, 'time': 131, 'pitch': 17.32, 'roll': -43.85, 'pres': 183}
{'lipoC2': 7.47, 'lipoC3S1': 4.08, 'temp': 30.56, 'lipoC3S3': 12.34, 'lipoC3S2': 8.16, 'rot1': 300, 'rot0': 339, 'rot3': 276, 'rot2': 237, 'state': 'normal', 'yaw': -68.52, 'datetime': '2018-10-09 12:41:02.182939', 'mgs': 0, 'volt': 0.8936, 'depth': 1.462, 'time': 131, 'pitch': 17.43, 'roll': -44.63, 'pres': 183}
{'lipoC2': 7.47, 'lipoC3S1': 4.08, 'temp': 30.56, 'lipoC3S3': 12.34, 'lipoC3S2': 8.16, 'rot1': 300, 'rot0': 339, 'rot3': 276, 'rot2': 237, 'state': 'normal', 'yaw': -68.67, 'datetime': '2018-10-09 12:41:02.287324', 'mgs': 0, 'volt': 0.8936, 'depth': 1.462, 'time': 132, 'pitch': 17.51, 'roll': -45.16, 'pres': 183}
{'lipoC2': 7.47, 'lipoC3S1': 4.08, 'temp': 30.56, 'lipoC3S3': 12.34, 'lipoC3S2': 8.16, 'rot1': 300, 'rot0': 339, 'rot3': 276, 'rot2': 237, 'state': 'normal', 'yaw': -68.68, 'datetime': '2018-10-09 12:41:02.392841', 'mgs': 1, 'volt': 0.8936, 'depth': 1.462, 'time': 132, 'pitch': 17.5, 'roll': -45.26, 'pres': 183}
{'lipoC2': 7.47, 'lipoC3S1': 4.08, 'temp': 30.56, 'lipoC3S3': 12.34, 'lipoC3S2': 8.16, 'rot1': 0, 'rot0': 0, 'rot3': 0, 'rot2': 0, 'state': 'normal', 'yaw': 0.0, 'datetime': '2018-10-09 12:41:05.421082', 'mgs': 0, 'volt': 0.9033, 'depth': 1.614, 'time': 1, 'pitch': 20.66, 'roll': -40.88, 'pres': 185}
{'lipoC2': 7.47, 'lipoC3S1': 4.08, 'temp': 30.56, 'lipoC3S3': 12.34, 'lipoC3S2': 8.16, 'rot1': 0, 'rot0': 0, 'rot3': 0, 'rot2': 0, 'state': 'normal', 'yaw': -0.22, 'datetime': '2018-10-09 12:41:08.465870', 'mgs': 0, 'volt': 0.9082, 'depth': 1.691, 'time': 1, 'pitch': 21.7, 'roll': -41.11, 'pres': 186}
{'lipoC2': 7.47, 'lipoC3S1': 4.08, 'temp': 30.56, 'lipoC3S3': 12.35, 'lipoC3S2': 8.16, 'rot1': 0, 'rot0': 0, 'rot3': 0, 'rot2': 0, 'state': 'normal', 'yaw': -0.42, 'datetime': '2018-10-09 12:41:08.508010', 'mgs': 0, 'volt': 0.9082, 'depth': 1.691, 'time': 1, 'pitch': 22.61, 'roll': -41.28, 'pres': 186}
{'lipoC2': 7.47, 'lipoC3S1': 4.08, 'temp': 30.56, 'lipoC3S3': 12.35, 'lipoC3S2': 8.16, 'rot1': 0, 'rot0': 0, 'rot3': 0, 'rot2': 0, 'state': 'normal', 'yaw': -0.49, 'datetime': '2018-10-09 12:41:08.521773', 'mgs': 0, 'volt': 0.9082, 'depth': 1.691, 'time': 1, 'pitch': 23.3, 'roll': -41.31, 'pres': 186}
{'lipoC2': 7.48, 'lipoC3S1': 4.08, 'temp': 30.56, 'lipoC3S3': 12.35, 'lipoC3S2': 8.16, 'rot1': 0, 'rot0': 0, 'rot3': 0, 'rot2': 0, 'state': 'normal', 'yaw': -0.29, 'datetime': '2018-10-09 12:41:08.540734', 'mgs': 0, 'volt': 0.9131, 'depth': 1.767, 'time': 1, 'pitch': 23.67, 'roll': -41.29, 'pres': 187}
{'lipoC2': 7.47, 'lipoC3S1': 4.08, 'temp': 30.63, 'lipoC3S3': 12.35, 'lipoC3S2': 8.16, 'rot1': 0, 'rot0': 0, 'rot3': 0, 'rot2': 0, 'state': 'normal', 'yaw': 0.11, 'datetime': '2018-10-09 12:41:08.559757', 'mgs': 0, 'volt': 0.9082, 'depth': 1.691, 'time': 1, 'pitch': 23.69, 'roll': -41.31, 'pres': 186}
{'lipoC2': 7.47, 'lipoC3S1': 4.08, 'temp': 30.63, 'lipoC3S3': 12.34, 'lipoC3S2': 8.16, 'rot1': 0, 'rot0': 0, 'rot3': 0, 'rot2': 0, 'state': 'normal', 'yaw': 0.65, 'datetime': '2018-10-09 12:41:08.572686', 'mgs': 0, 'volt': 0.9131, 'depth': 1.767, 'time': 1, 'pitch': 23.49, 'roll': -41.39, 'pres': 187}
{'lipoC2': 7.47, 'lipoC3S1': 4.08, 'temp': 30.63, 'lipoC3S3': 12.34, 'lipoC3S2': 8.16, 'rot1': 0, 'rot0': 0, 'rot3': 0, 'rot2': 0, 'state': 'normal', 'yaw': 1.22, 'datetime': '2018-10-09 12:41:08.591661', 'mgs': 0, 'volt': 0.9082, 'depth': 1.691, 'time': 1, 'pitch': 23.17, 'roll': -41.45, 'pres': 186}
{'lipoC2': 7.47, 'lipoC3S1': 4.08, 'temp': 30.63, 'lipoC3S3': 12.34, 'lipoC3S2': 8.16, 'rot1': 0, 'rot0': 0, 'rot3': 0, 'rot2': 0, 'state': 'normal', 'yaw': 1.71, 'datetime': '2018-10-09 12:41:08.610662', 'mgs': 0, 'volt': 0.9082, 'depth': 1.691, 'time': 2, 'pitch': 22.81, 'roll': -41.37, 'pres': 186}
{'lipoC2': 7.47, 'lipoC3S1': 4.08, 'temp': 30.63, 'lipoC3S3': 12.34, 'lipoC3S2': 8.16, 'rot1': 0, 'rot0': 0, 'rot3': 0, 'rot2': 0, 'state': 'normal', 'yaw': 2.24, 'datetime': '2018-10-09 12:41:08.623871', 'mgs': 1, 'volt': 0.9082, 'depth': 1.691, 'time': 2, 'pitch': 22.26, 'roll': -41.05, 'pres': 186}
{'lipoC2': 7.47, 'lipoC3S1': 4.08, 'temp': 30.63, 'lipoC3S3': 12.34, 'lipoC3S2': 8.16, 'rot1': 0, 'rot0': 0, 'rot3': 0, 'rot2': 0, 'state': 'normal', 'yaw': 2.93, 'datetime': '2018-10-09 12:41:08.643751', 'mgs': 1, 'volt': 0.9082, 'depth': 1.691, 'time': 2, 'pitch': 21.47, 'roll': -40.36, 'pres': 186}
{'lipoC2': 7.47, 'lipoC3S1': 4.08, 'temp': 30.63, 'lipoC3S3': 12.34, 'lipoC3S2': 8.16, 'rot1': 0, 'rot0': 0, 'rot3': 0, 'rot2': 0, 'state': 'normal', 'yaw': 3.49, 'datetime': '2018-10-09 12:41:08.662875', 'mgs': 1, 'volt': 0.9082, 'depth': 1.691, 'time': 2, 'pitch': 20.64, 'roll': -39.62, 'pres': 186}
{'lipoC2': 7.47, 'lipoC3S1': 4.08, 'temp': 30.63, 'lipoC3S3': 12.35, 'lipoC3S2': 8.16, 'rot1': 0, 'rot0': 0, 'rot3': 0, 'rot2': 0, 'state': 'normal', 'yaw': 3.78, 'datetime': '2018-10-09 12:41:08.675855', 'mgs': 1, 'volt': 0.9082, 'depth': 1.691, 'time': 2, 'pitch': 19.93, 'roll': -38.98, 'pres': 186}
{'lipoC2': 7.47, 'lipoC3S1': 4.08, 'temp': 30.63, 'lipoC3S3': 12.34, 'lipoC3S2': 8.16, 'rot1': 0, 'rot0': 0, 'rot3': 0, 'rot2': 0, 'state': 'normal', 'yaw': 3.64, 'datetime': '2018-10-09 12:41:08.694885', 'mgs': 1, 'volt': 0.9131, 'depth': 1.767, 'time': 2, 'pitch': 19.52, 'roll': -38.5, 'pres': 187}
{'lipoC2': 7.47, 'lipoC3S1': 4.08, 'temp': 30.56, 'lipoC3S3': 12.35, 'lipoC3S2': 8.16, 'rot1': 0, 'rot0': 0, 'rot3': 0, 'rot2': 0, 'state': 'normal', 'yaw': 3.17, 'datetime': '2018-10-09 12:41:08.713862', 'mgs': 0, 'volt': 0.9131, 'depth': 1.767, 'time': 2, 'pitch': 19.38, 'roll': -38.25, 'pres': 187}
{'lipoC2': 7.47, 'lipoC3S1': 4.08, 'temp': 30.56, 'lipoC3S3': 12.35, 'lipoC3S2': 8.16, 'rot1': 0, 'rot0': 0, 'rot3': 0, 'rot2': 0, 'state': 'normal', 'yaw': 2.58, 'datetime': '2018-10-09 12:41:08.724923', 'mgs': 0, 'volt': 0.9131, 'depth': 1.767, 'time': 2, 'pitch': 19.25, 'roll': -38.04, 'pres': 187}
{'lipoC2': 7.47, 'lipoC3S1': 4.08, 'temp': 30.56, 'lipoC3S3': 12.35, 'lipoC3S2': 8.16, 'rot1': 0, 'rot0': 0, 'rot3': 0, 'rot2': 0, 'state': 'normal', 'yaw': 2.23, 'datetime': '2018-10-09 12:41:08.744530', 'mgs': 0, 'volt': 0.9131, 'depth': 1.767, 'time': 2, 'pitch': 18.98, 'roll': -37.86, 'pres': 187}
{'lipoC2': 7.46, 'lipoC3S1': 4.06, 'temp': 30.56, 'lipoC3S3': 12.21, 'lipoC3S2': 8.05, 'rot1': 0, 'rot0': 0, 'rot3': 0, 'rot2': 0, 'state': 'normal', 'yaw': 2.1, 'datetime': '2018-10-09 12:41:08.763668', 'mgs': 0, 'volt': 0.9277, 'depth': 1.996, 'time': 3, 'pitch': 18.52, 'roll': -37.77, 'pres': 190}
{'lipoC2': 7.46, 'lipoC3S1': 4.04, 'temp': 30.56, 'lipoC3S3': 12.22, 'lipoC3S2': 8.12, 'rot1': 0, 'rot0': 0, 'rot3': 1, 'rot2': 1, 'state': 'normal', 'yaw': 1.92, 'datetime': '2018-10-09 12:41:08.776657', 'mgs': 0, 'volt': 0.9277, 'depth': 1.996, 'time': 3, 'pitch': 17.92, 'roll': -37.72, 'pres': 190}
{'lipoC2': 7.46, 'lipoC3S1': 4.05, 'temp': 30.63, 'lipoC3S3': 12.29, 'lipoC3S2': 8.13, 'rot1': 0, 'rot0': 0, 'rot3': 2, 'rot2': 2, 'state': 'normal', 'yaw': 1.46, 'datetime': '2018-10-09 12:41:08.795674', 'mgs': 0, 'volt': 0.918, 'depth': 1.843, 'time': 3, 'pitch': 17.18, 'roll': -37.83, 'pres': 188}
{'lipoC2': 7.46, 'lipoC3S1': 4.04, 'temp': 30.63, 'lipoC3S3': 12.29, 'lipoC3S2': 8.13, 'rot1': 0, 'rot0': 0, 'rot3': 3, 'rot2': 3, 'state': 'normal', 'yaw': 0.9, 'datetime': '2018-10-09 12:41:08.814640', 'mgs': 0, 'volt': 0.9229, 'depth': 1.92, 'time': 3, 'pitch': 16.69, 'roll': -37.99, 'pres': 189}
{'lipoC2': 7.47, 'lipoC3S1': 4.03, 'temp': 30.63, 'lipoC3S3': 12.27, 'lipoC3S2': 8.1, 'rot1': 0, 'rot0': 0, 'rot3': 4, 'rot2': 3, 'state': 'normal', 'yaw': 0.16, 'datetime': '2018-10-09 12:41:08.826863', 'mgs': 0, 'volt': 0.9277, 'depth': 1.996, 'time': 3, 'pitch': 16.5, 'roll': -38.2, 'pres': 190}
{'lipoC2': 7.47, 'lipoC3S1': 4.03, 'temp': 30.63, 'lipoC3S3': 12.27, 'lipoC3S2': 8.09, 'rot1': 0, 'rot0': 0, 'rot3': 5, 'rot2': 4, 'state': 'normal', 'yaw': -0.73, 'datetime': '2018-10-09 12:41:08.844203', 'mgs': 0, 'volt': 0.9229, 'depth': 1.92, 'time': 3, 'pitch': 16.51, 'roll': -38.35, 'pres': 189}
{'lipoC2': 7.47, 'lipoC3S1': 4.03, 'temp': 30.63, 'lipoC3S3': 12.26, 'lipoC3S2': 8.09, 'rot1': 0, 'rot0': 0, 'rot3': 6, 'rot2': 5, 'state': 'normal', 'yaw': -1.61, 'datetime': '2018-10-09 12:41:08.863266', 'mgs': 0, 'volt': 0.918, 'depth': 1.843, 'time': 3, 'pitch': 16.72, 'roll': -38.44, 'pres': 188}
{'lipoC2': 7.47, 'lipoC3S1': 4.02, 'temp': 30.63, 'lipoC3S3': 12.25, 'lipoC3S2': 8.09, 'rot1': 0, 'rot0': 0, 'rot3': 7, 'rot2': 6, 'state': 'normal', 'yaw': -2.59, 'datetime': '2018-10-09 12:41:08.876469', 'mgs': 0, 'volt': 0.8936, 'depth': 1.462, 'time': 3, 'pitch': 17.13, 'roll': -38.42, 'pres': 183}
{'lipoC2': 7.47, 'lipoC3S1': 4.02, 'temp': 30.63, 'lipoC3S3': 12.25, 'lipoC3S2': 8.07, 'rot1': 0, 'rot0': 0, 'rot3': 8, 'rot2': 7, 'state': 'normal', 'yaw': -3.85, 'datetime': '2018-10-09 12:41:08.895581', 'mgs': 0, 'volt': 0.8936, 'depth': 1.462, 'time': 3, 'pitch': 17.86, 'roll': -38.29, 'pres': 183}
{'lipoC2': 7.46, 'lipoC3S1': 4.06, 'temp': 30.56, 'lipoC3S3': 12.22, 'lipoC3S2': 8.12, 'rot1': 0, 'rot0': 0, 'rot3': 9, 'rot2': 8, 'state': 'normal', 'yaw': -5.15, 'datetime': '2018-10-09 12:41:08.914585', 'mgs': 0, 'volt': 0.9082, 'depth': 1.691, 'time': 3, 'pitch': 18.75, 'roll': -38.22, 'pres': 186}
{'lipoC2': 7.46, 'lipoC3S1': 4.05, 'temp': 30.56, 'lipoC3S3': 12.29, 'lipoC3S2': 8.12, 'rot1': 0, 'rot0': 0, 'rot3': 10, 'rot2': 9, 'state': 'normal', 'yaw': -6.54, 'datetime': '2018-10-09 12:41:08.927795', 'mgs': 0, 'volt': 0.9033, 'depth': 1.614, 'time': 4, 'pitch': 19.79, 'roll': -38.55, 'pres': 185}
{'lipoC2': 7.47, 'lipoC3S1': 4.03, 'temp': 30.56, 'lipoC3S3': 12.27, 'lipoC3S2': 8.1, 'rot1': 0, 'rot0': 0, 'rot3': 12, 'rot2': 10, 'state': 'normal', 'yaw': -7.86, 'datetime': '2018-10-09 12:41:08.947299', 'mgs': 0, 'volt': 0.8789, 'depth': 1.233, 'time': 4, 'pitch': 20.68, 'roll': -39.17, 'pres': 180}
{'lipoC2': 7.47, 'lipoC3S1': 4.04, 'temp': 30.56, 'lipoC3S3': 12.3, 'lipoC3S2': 8.12, 'rot1': 0, 'rot0': 0, 'rot3': 13, 'rot2': 11, 'state': 'normal', 'yaw': -9.04, 'datetime': '2018-10-09 12:41:08.966446', 'mgs': 0, 'volt': 0.8984, 'depth': 1.538, 'time': 4, 'pitch': 21.3, 'roll': -39.94, 'pres': 184}
{'lipoC2': 7.47, 'lipoC3S1': 4.04, 'temp': 30.56, 'lipoC3S3': 12.29, 'lipoC3S2': 8.1, 'rot1': 0, 'rot0': 0, 'rot3': 14, 'rot2': 12, 'state': 'normal', 'yaw': -9.65, 'datetime': '2018-10-09 12:41:08.979559', 'mgs': 0, 'volt': 0.8838, 'depth': 1.309, 'time': 4, 'pitch': 21.54, 'roll': -40.64, 'pres': 181}
{'lipoC2': 7.47, 'lipoC3S1': 4.06, 'temp': 30.56, 'lipoC3S3': 12.25, 'lipoC3S2': 8.13, 'rot1': 0, 'rot0': 0, 'rot3': 15, 'rot2': 13, 'state': 'normal', 'yaw': -9.52, 'datetime': '2018-10-09 12:41:08.998731', 'mgs': 0, 'volt': 0.8887, 'depth': 1.385, 'time': 4, 'pitch': 21.37, 'roll': -40.82, 'pres': 182}
{'lipoC2': 7.47, 'lipoC3S1': 4.04, 'temp': 30.56, 'lipoC3S3': 12.29, 'lipoC3S2': 8.11, 'rot1': 0, 'rot0': 0, 'rot3': 17, 'rot2': 14, 'state': 'normal', 'yaw': -8.91, 'datetime': '2018-10-09 12:41:09.017820', 'mgs': 0, 'volt': 0.8936, 'depth': 1.462, 'time': 4, 'pitch': 20.81, 'roll': -40.55, 'pres': 183}
{'lipoC2': 7.47, 'lipoC3S1': 4.06, 'temp': 30.56, 'lipoC3S3': 12.26, 'lipoC3S2': 8.09, 'rot1': 0, 'rot0': 0, 'rot3': 18, 'rot2': 15, 'state': 'normal', 'yaw': -7.93, 'datetime': '2018-10-09 12:41:09.030388', 'mgs': 0, 'volt': 0.8789, 'depth': 1.233, 'time': 4, 'pitch': 20.03, 'roll': -40.11, 'pres': 180}
{'lipoC2': 7.47, 'lipoC3S1': 4.06, 'temp': 30.56, 'lipoC3S3': 12.3, 'lipoC3S2': 8.12, 'rot1': 0, 'rot0': 0, 'rot3': 19, 'rot2': 16, 'state': 'normal', 'yaw': -7.16, 'datetime': '2018-10-09 12:41:09.047825', 'mgs': 0, 'volt': 0.8887, 'depth': 1.385, 'time': 4, 'pitch': 19.34, 'roll': -39.93, 'pres': 182}
{'lipoC2': 7.47, 'lipoC3S1': 4.06, 'temp': 30.56, 'lipoC3S3': 12.25, 'lipoC3S2': 8.09, 'rot1': 0, 'rot0': 0, 'rot3': 20, 'rot2': 17, 'state': 'normal', 'yaw': -6.63, 'datetime': '2018-10-09 12:41:09.066997', 'mgs': 0, 'volt': 0.8789, 'depth': 1.233, 'time': 4, 'pitch': 18.86, 'roll': -40.19, 'pres': 180}
{'lipoC2': 7.46, 'lipoC3S1': 4.04, 'temp': 30.56, 'lipoC3S3': 12.3, 'lipoC3S2': 8.12, 'rot1': 0, 'rot0': 0, 'rot3': 22, 'rot2': 18, 'state': 'normal', 'yaw': -6.23, 'datetime': '2018-10-09 12:41:09.076645', 'mgs': 0, 'volt': 0.8838, 'depth': 1.309, 'time': 4, 'pitch': 18.66, 'roll': -40.86, 'pres': 181}
{'lipoC2': 7.47, 'lipoC3S1': 4.06, 'temp': 30.56, 'lipoC3S3': 12.25, 'lipoC3S2': 8.12, 'rot1': 0, 'rot0': 0, 'rot3': 23, 'rot2': 19, 'state': 'normal', 'yaw': -6.03, 'datetime': '2018-10-09 12:41:09.092271', 'mgs': 0, 'volt': 0.874, 'depth': 1.157, 'time': 5, 'pitch': 18.64, 'roll': -41.55, 'pres': 179}
{'lipoC2': 7.47, 'lipoC3S1': 4.04, 'temp': 30.56, 'lipoC3S3': 12.29, 'lipoC3S2': 8.1, 'rot1': 0, 'rot0': 0, 'rot3': 24, 'rot2': 20, 'state': 'normal', 'yaw': -5.87, 'datetime': '2018-10-09 12:41:09.107729', 'mgs': 0, 'volt': 0.8594, 'depth': 0.928, 'time': 5, 'pitch': 18.58, 'roll': -41.94, 'pres': 176}
{'lipoC2': 7.47, 'lipoC3S1': 4.06, 'temp': 30.56, 'lipoC3S3': 12.3, 'lipoC3S2': 8.13, 'rot1': 0, 'rot0': 0, 'rot3': 25, 'rot2': 21, 'state': 'normal', 'yaw': -5.6, 'datetime': '2018-10-09 12:41:09.117097', 'mgs': 0, 'volt': 0.874, 'depth': 1.157, 'time': 5, 'pitch': 18.44, 'roll': -41.72, 'pres': 179}
{'lipoC2': 7.47, 'lipoC3S1': 4.06, 'temp': 30.63, 'lipoC3S3': 12.26, 'lipoC3S2': 8.08, 'rot1': 0, 'rot0': 0, 'rot3': 27, 'rot2': 22, 'state': 'normal', 'yaw': -5.41, 'datetime': '2018-10-09 12:41:09.132860', 'mgs': 0, 'volt': 0.8691, 'depth': 1.08, 'time': 5, 'pitch': 18.33, 'roll': -41.01, 'pres': 178}
{'lipoC2': 7.46, 'lipoC3S1': 4.06, 'temp': 30.63, 'lipoC3S3': 12.29, 'lipoC3S2': 8.13, 'rot1': 0, 'rot0': 0, 'rot3': 28, 'rot2': 23, 'state': 'normal', 'yaw': -5.33, 'datetime': '2018-10-09 12:41:09.148379', 'mgs': 0, 'volt': 0.8789, 'depth': 1.233, 'time': 5, 'pitch': 18.39, 'roll': -40.04, 'pres': 180}
{'lipoC2': 7.47, 'lipoC3S1': 4.06, 'temp': 30.56, 'lipoC3S3': 12.25, 'lipoC3S2': 8.13, 'rot1': 0, 'rot0': 0, 'rot3': 29, 'rot2': 24, 'state': 'normal', 'yaw': -5.45, 'datetime': '2018-10-09 12:41:09.157781', 'mgs': 0, 'volt': 0.874, 'depth': 1.157, 'time': 5, 'pitch': 18.67, 'roll': -39.47, 'pres': 179}
{'lipoC2': 7.47, 'lipoC3S1': 4.06, 'temp': 30.56, 'lipoC3S3': 12.26, 'lipoC3S2': 8.09, 'rot1': 0, 'rot0': 0, 'rot3': 30, 'rot2': 25, 'state': 'normal', 'yaw': -5.73, 'datetime': '2018-10-09 12:41:09.173121', 'mgs': 0, 'volt': 0.8691, 'depth': 1.08, 'time': 5, 'pitch': 19.19, 'roll': -39.64, 'pres': 178}
{'lipoC2': 7.47, 'lipoC3S1': 4.05, 'temp': 30.56, 'lipoC3S3': 12.3, 'lipoC3S2': 8.12, 'rot1': 0, 'rot0': 0, 'rot3': 32, 'rot2': 26, 'state': 'normal', 'yaw': -5.98, 'datetime': '2018-10-09 12:41:09.188590', 'mgs': 0, 'volt': 0.8838, 'depth': 1.309, 'time': 5, 'pitch': 19.59, 'roll': -40.48, 'pres': 181}
