{'lipoC2': 0.0, 'lipoC3S1': 3.96, 'temp': 26.13, 'lipoC3S3': 11.97, 'lipoC3S2': 7.91, 'rot1': 103, 'rot0': 108, 'rot3': 48, 'rot2': 39, 'state': 'normal', 'yaw': -177.53, 'datetime': '2018-10-03 17:24:06.407814', 'mgs': 0, 'volt': 1.0352, 'depth': 3.674, 'time': 390, 'pitch': -7.27, 'roll': -0.33, 'pres': 212}
{'lipoC2': 0.0, 'lipoC3S1': 3.95, 'temp': 26.06, 'lipoC3S3': 11.96, 'lipoC3S2': 7.91, 'rot1': 0, 'rot0': 0, 'rot3': 0, 'rot2': 0, 'state': 'normal', 'yaw': 0.0, 'datetime': '2018-10-03 17:24:06.431250', 'mgs': 0, 'volt': 1.0303, 'depth': 3.598, 'time': 1, 'pitch': -7.45, 'roll': -0.28, 'pres': 211}
{'lipoC2': 0.0, 'lipoC3S1': 3.95, 'temp': 26.06, 'lipoC3S3': 11.96, 'lipoC3S2': 7.91, 'rot1': 0, 'rot0': 0, 'rot3': 0, 'rot2': 0, 'state': 'normal', 'yaw': 0.03, 'datetime': '2018-10-03 17:24:06.454303', 'mgs': 0, 'volt': 1.0303, 'depth': 3.598, 'time': 1, 'pitch': -7.58, 'roll': -0.29, 'pres': 211}
{'lipoC2': 0.0, 'lipoC3S1': 3.96, 'temp': 26.13, 'lipoC3S3': 11.96, 'lipoC3S2': 7.9, 'rot1': 0, 'rot0': 0, 'rot3': 0, 'rot2': 0, 'state': 'normal', 'yaw': 0.03, 'datetime': '2018-10-03 17:24:06.475733', 'mgs': 0, 'volt': 1.0303, 'depth': 3.598, 'time': 1, 'pitch': -7.7, 'roll': -0.28, 'pres': 211}
{'lipoC2': 0.0, 'lipoC3S1': 3.95, 'temp': 26.13, 'lipoC3S3': 11.96, 'lipoC3S2': 7.9, 'rot1': 0, 'rot0': 0, 'rot3': 0, 'rot2': 0, 'state': 'normal', 'yaw': 0.03, 'datetime': '2018-10-03 17:24:06.485800', 'mgs': 0, 'volt': 1.0303, 'depth': 3.598, 'time': 1, 'pitch': -7.79, 'roll': -0.23, 'pres': 211}
{'lipoC2': 0.0, 'lipoC3S1': 3.95, 'temp': 26.13, 'lipoC3S3': 11.96, 'lipoC3S2': 7.9, 'rot1': 0, 'rot0': 0, 'rot3': 0, 'rot2': 0, 'state': 'normal', 'yaw': 0.03, 'datetime': '2018-10-03 17:24:06.495792', 'mgs': 0, 'volt': 1.0303, 'depth': 3.598, 'time': 1, 'pitch': -7.79, 'roll': -0.23, 'pres': 211}
{'lipoC2': 0.0, 'lipoC3S1': 3.95, 'temp': 26.13, 'lipoC3S3': 11.96, 'lipoC3S2': 7.9, 'rot1': 0, 'rot0': 0, 'rot3': 0, 'rot2': 0, 'state': 'normal', 'yaw': 0.03, 'datetime': '2018-10-03 17:24:06.505797', 'mgs': 0, 'volt': 1.0303, 'depth': 3.598, 'time': 1, 'pitch': -7.76, 'roll': -0.23, 'pres': 211}
{'lipoC2': 0.0, 'lipoC3S1': 3.95, 'temp': 26.13, 'lipoC3S3': 11.96, 'lipoC3S2': 7.9, 'rot1': 0, 'rot0': 0, 'rot3': 0, 'rot2': 0, 'state': 'normal', 'yaw': 0.03, 'datetime': '2018-10-03 17:24:06.515779', 'mgs': 0, 'volt': 1.0303, 'depth': 3.598, 'time': 1, 'pitch': -7.65, 'roll': -0.23, 'pres': 211}
{'lipoC2': 0.0, 'lipoC3S1': 3.95, 'temp': 26.06, 'lipoC3S3': 11.96, 'lipoC3S2': 7.9, 'rot1': 0, 'rot0': 0, 'rot3': 0, 'rot2': 0, 'state': 'normal', 'yaw': 0.03, 'datetime': '2018-10-03 17:24:06.525791', 'mgs': 0, 'volt': 1.0303, 'depth': 3.598, 'time': 1, 'pitch': -7.48, 'roll': -0.23, 'pres': 211}
{'lipoC2': 0.0, 'lipoC3S1': 3.95, 'temp': 26.06, 'lipoC3S3': 11.96, 'lipoC3S2': 7.9, 'rot1': 0, 'rot0': 0, 'rot3': 0, 'rot2': 0, 'state': 'normal', 'yaw': 0.02, 'datetime': '2018-10-03 17:24:06.535749', 'mgs': 0, 'volt': 1.0303, 'depth': 3.598, 'time': 2, 'pitch': -7.33, 'roll': -0.23, 'pres': 211}
{'lipoC2': 0.0, 'lipoC3S1': 3.95, 'temp': 26.06, 'lipoC3S3': 11.96, 'lipoC3S2': 7.9, 'rot1': 0, 'rot0': 0, 'rot3': 0, 'rot2': 0, 'state': 'normal', 'yaw': 0.02, 'datetime': '2018-10-03 17:24:06.545693', 'mgs': 0, 'volt': 1.0303, 'depth': 3.598, 'time': 2, 'pitch': -7.21, 'roll': -0.23, 'pres': 211}
{'lipoC2': 0.0, 'lipoC3S1': 3.95, 'temp': 26.06, 'lipoC3S3': 11.96, 'lipoC3S2': 7.91, 'rot1': 0, 'rot0': 0, 'rot3': 0, 'rot2': 0, 'state': 'normal', 'yaw': 0.03, 'datetime': '2018-10-03 17:24:06.555112', 'mgs': 0, 'volt': 1.0303, 'depth': 3.598, 'time': 2, 'pitch': -7.12, 'roll': -0.23, 'pres': 211}
{'lipoC2': 0.0, 'lipoC3S1': 3.95, 'temp': 26.06, 'lipoC3S3': 11.96, 'lipoC3S2': 7.9, 'rot1': 0, 'rot0': 0, 'rot3': 0, 'rot2': 0, 'state': 'normal', 'yaw': 0.03, 'datetime': '2018-10-03 17:24:06.564535', 'mgs': 0, 'volt': 1.0303, 'depth': 3.598, 'time': 2, 'pitch': -7.11, 'roll': -0.3, 'pres': 211}
{'lipoC2': 0.0, 'lipoC3S1': 3.95, 'temp': 26.13, 'lipoC3S3': 11.96, 'lipoC3S2': 7.9, 'rot1': 0, 'rot0': 0, 'rot3': 0, 'rot2': 0, 'state': 'normal', 'yaw': 0.03, 'datetime': '2018-10-03 17:24:06.573982', 'mgs': 0, 'volt': 1.0303, 'depth': 3.598, 'time': 2, 'pitch': -7.11, 'roll': -0.43, 'pres': 211}
{'lipoC2': 0.0, 'lipoC3S1': 3.96, 'temp': 26.13, 'lipoC3S3': 11.96, 'lipoC3S2': 7.9, 'rot1': 0, 'rot0': 0, 'rot3': 0, 'rot2': 0, 'state': 'normal', 'yaw': 0.03, 'datetime': '2018-10-03 17:24:06.584131', 'mgs': 0, 'volt': 1.0303, 'depth': 3.598, 'time': 2, 'pitch': -7.17, 'roll': -0.64, 'pres': 211}
{'lipoC2': 0.0, 'lipoC3S1': 3.95, 'temp': 26.13, 'lipoC3S3': 11.96, 'lipoC3S2': 7.91, 'rot1': 0, 'rot0': 0, 'rot3': 0, 'rot2': 0, 'state': 'normal', 'yaw': -0.0, 'datetime': '2018-10-03 17:24:06.594634', 'mgs': 0, 'volt': 1.0352, 'depth': 3.674, 'time': 2, 'pitch': -7.35, 'roll': -0.68, 'pres': 212}
{'lipoC2': 0.0, 'lipoC3S1': 3.95, 'temp': 26.13, 'lipoC3S3': 11.96, 'lipoC3S2': 7.9, 'rot1': 0, 'rot0': 0, 'rot3': 0, 'rot2': 0, 'state': 'normal', 'yaw': -0.06, 'datetime': '2018-10-03 17:24:06.604620', 'mgs': 0, 'volt': 1.0303, 'depth': 3.598, 'time': 2, 'pitch': -7.52, 'roll': -0.64, 'pres': 211}
{'lipoC2': 0.0, 'lipoC3S1': 3.95, 'temp': 26.06, 'lipoC3S3': 11.96, 'lipoC3S2': 7.91, 'rot1': 0, 'rot0': 0, 'rot3': 0, 'rot2': 0, 'state': 'normal', 'yaw': -0.12, 'datetime': '2018-10-03 17:24:06.614151', 'mgs': 0, 'volt': 1.0303, 'depth': 3.598, 'time': 2, 'pitch': -7.69, 'roll': -0.54, 'pres': 211}
{'lipoC2': 0.0, 'lipoC3S1': 3.95, 'temp': 26.06, 'lipoC3S3': 11.96, 'lipoC3S2': 7.9, 'rot1': 0, 'rot0': 0, 'rot3': 0, 'rot2': 0, 'state': 'normal', 'yaw': -0.19, 'datetime': '2018-10-03 17:24:06.623629', 'mgs': 0, 'volt': 1.0303, 'depth': 3.598, 'time': 3, 'pitch': -7.83, 'roll': -0.41, 'pres': 211}
{'lipoC2': 0.0, 'lipoC3S1': 3.96, 'temp': 26.06, 'lipoC3S3': 11.96, 'lipoC3S2': 7.9, 'rot1': 0, 'rot0': 0, 'rot3': 0, 'rot2': 0, 'state': 'normal', 'yaw': -0.28, 'datetime': '2018-10-03 17:24:06.633042', 'mgs': 0, 'volt': 1.0303, 'depth': 3.598, 'time': 3, 'pitch': -7.93, 'roll': -0.26, 'pres': 211}
{'lipoC2': 0.0, 'lipoC3S1': 3.95, 'temp': 26.13, 'lipoC3S3': 11.96, 'lipoC3S2': 7.9, 'rot1': 0, 'rot0': 0, 'rot3': 0, 'rot2': 0, 'state': 'normal', 'yaw': -0.37, 'datetime': '2018-10-03 17:24:06.642548', 'mgs': 0, 'volt': 1.0303, 'depth': 3.598, 'time': 3, 'pitch': -7.98, 'roll': -0.08, 'pres': 211}
{'lipoC2': 0.0, 'lipoC3S1': 3.96, 'temp': 26.13, 'lipoC3S3': 11.96, 'lipoC3S2': 7.9, 'rot1': 0, 'rot0': 0, 'rot3': 0, 'rot2': 0, 'state': 'normal', 'yaw': -0.47, 'datetime': '2018-10-03 17:24:06.651982', 'mgs': 0, 'volt': 1.0303, 'depth': 3.598, 'time': 3, 'pitch': -7.96, 'roll': 0.04, 'pres': 211}
{'lipoC2': 0.0, 'lipoC3S1': 3.96, 'temp': 26.13, 'lipoC3S3': 11.96, 'lipoC3S2': 7.9, 'rot1': 0, 'rot0': 0, 'rot3': 0, 'rot2': 0, 'state': 'normal', 'yaw': -0.57, 'datetime': '2018-10-03 17:24:06.661352', 'mgs': 0, 'volt': 1.0303, 'depth': 3.598, 'time': 3, 'pitch': -7.84, 'roll': 0.11, 'pres': 211}
{'lipoC2': 0.0, 'lipoC3S1': 3.96, 'temp': 26.13, 'lipoC3S3': 11.96, 'lipoC3S2': 7.9, 'rot1': 0, 'rot0': 0, 'rot3': 0, 'rot2': 0, 'state': 'normal', 'yaw': -0.68, 'datetime': '2018-10-03 17:24:06.670746', 'mgs': 0, 'volt': 1.0303, 'depth': 3.598, 'time': 3, 'pitch': -7.65, 'roll': 0.17, 'pres': 211}
{'lipoC2': 0.0, 'lipoC3S1': 3.95, 'temp': 26.13, 'lipoC3S3': 11.96, 'lipoC3S2': 7.9, 'rot1': 0, 'rot0': 0, 'rot3': 0, 'rot2': 0, 'state': 'normal', 'yaw': -0.77, 'datetime': '2018-10-03 17:24:06.680198', 'mgs': 0, 'volt': 1.0352, 'depth': 3.674, 'time': 3, 'pitch': -7.44, 'roll': 0.18, 'pres': 212}
{'lipoC2': 0.0, 'lipoC3S1': 3.95, 'temp': 26.13, 'lipoC3S3': 11.96, 'lipoC3S2': 7.9, 'rot1': 0, 'rot0': 0, 'rot3': 0, 'rot2': 0, 'state': 'normal', 'yaw': -0.85, 'datetime': '2018-10-03 17:24:06.689704', 'mgs': 0, 'volt': 1.0352, 'depth': 3.674, 'time': 3, 'pitch': -7.26, 'roll': 0.12, 'pres': 212}
{'lipoC2': 0.0, 'lipoC3S1': 3.96, 'temp': 26.13, 'lipoC3S3': 11.96, 'lipoC3S2': 7.91, 'rot1': 0, 'rot0': 0, 'rot3': 0, 'rot2': 0, 'state': 'normal', 'yaw': -0.93, 'datetime': '2018-10-03 17:24:06.699192', 'mgs': 0, 'volt': 1.0352, 'depth': 3.674, 'time': 3, 'pitch': -7.11, 'roll': 0.04, 'pres': 212}
{'lipoC2': 0.0, 'lipoC3S1': 3.95, 'temp': 26.13, 'lipoC3S3': 11.96, 'lipoC3S2': 7.91, 'rot1': 0, 'rot0': 0, 'rot3': 0, 'rot2': 0, 'state': 'normal', 'yaw': -1.02, 'datetime': '2018-10-03 17:24:06.708649', 'mgs': 0, 'volt': 1.0352, 'depth': 3.674, 'time': 3, 'pitch': -6.91, 'roll': 0.0, 'pres': 212}
{'lipoC2': 0.0, 'lipoC3S1': 3.95, 'temp': 26.13, 'lipoC3S3': 11.96, 'lipoC3S2': 7.9, 'rot1': 0, 'rot0': 0, 'rot3': 0, 'rot2': 0, 'state': 'normal', 'yaw': -1.08, 'datetime': '2018-10-03 17:24:06.718317', 'mgs': 0, 'volt': 1.0352, 'depth': 3.674, 'time': 4, 'pitch': -6.78, 'roll': -0.05, 'pres': 212}
{'lipoC2': 0.0, 'lipoC3S1': 3.95, 'temp': 26.06, 'lipoC3S3': 11.96, 'lipoC3S2': 7.9, 'rot1': 0, 'rot0': 0, 'rot3': 0, 'rot2': 0, 'state': 'normal', 'yaw': -1.09, 'datetime': '2018-10-03 17:24:06.808878', 'mgs': 0, 'volt': 1.0352, 'depth': 3.674, 'time': 4, 'pitch': -6.71, 'roll': -0.15, 'pres': 212}
{'lipoC2': 0.0, 'lipoC3S1': 3.96, 'temp': 26.06, 'lipoC3S3': 11.96, 'lipoC3S2': 7.9, 'rot1': 0, 'rot0': 0, 'rot3': 0, 'rot2': 0, 'state': 'normal', 'yaw': -1.09, 'datetime': '2018-10-03 17:24:06.912011', 'mgs': 0, 'volt': 1.0352, 'depth': 3.674, 'time': 4, 'pitch': -6.68, 'roll': -0.28, 'pres': 212}
{'lipoC2': 0.0, 'lipoC3S1': 3.95, 'temp': 26.13, 'lipoC3S3': 11.96, 'lipoC3S2': 7.91, 'rot1': 0, 'rot0': 0, 'rot3': 0, 'rot2': 0, 'state': 'normal', 'yaw': -1.1, 'datetime': '2018-10-03 17:24:07.016244', 'mgs': 0, 'volt': 1.0303, 'depth': 3.598, 'time': 4, 'pitch': -6.73, 'roll': -0.46, 'pres': 211}
{'lipoC2': 0.0, 'lipoC3S1': 3.95, 'temp': 26.13, 'lipoC3S3': 11.96, 'lipoC3S2': 7.91, 'rot1': 0, 'rot0': 0, 'rot3': 0, 'rot2': 0, 'state': 'normal', 'yaw': -1.13, 'datetime': '2018-10-03 17:24:07.119936', 'mgs': 0, 'volt': 1.0303, 'depth': 3.598, 'time': 4, 'pitch': -6.93, 'roll': -0.55, 'pres': 211}
{'lipoC2': 0.0, 'lipoC3S1': 3.95, 'temp': 26.13, 'lipoC3S3': 11.96, 'lipoC3S2': 7.9, 'rot1': 0, 'rot0': 0, 'rot3': 0, 'rot2': 0, 'state': 'normal', 'yaw': -1.24, 'datetime': '2018-10-03 17:24:07.223728', 'mgs': 0, 'volt': 1.0303, 'depth': 3.598, 'time': 4, 'pitch': -7.31, 'roll': -0.53, 'pres': 211}
{'lipoC2': 0.0, 'lipoC3S1': 3.95, 'temp': 26.13, 'lipoC3S3': 11.96, 'lipoC3S2': 7.9, 'rot1': 0, 'rot0': 0, 'rot3': 0, 'rot2': 0, 'state': 'normal', 'yaw': -1.33, 'datetime': '2018-10-03 17:24:07.326858', 'mgs': 0, 'volt': 1.0303, 'depth': 3.598, 'time': 4, 'pitch': -7.62, 'roll': -0.4, 'pres': 211}
{'lipoC2': 0.0, 'lipoC3S1': 3.95, 'temp': 26.13, 'lipoC3S3': 11.96, 'lipoC3S2': 7.9, 'rot1': 0, 'rot0': 0, 'rot3': 0, 'rot2': 0, 'state': 'normal', 'yaw': -1.43, 'datetime': '2018-10-03 17:24:07.429965', 'mgs': 0, 'volt': 1.0303, 'depth': 3.598, 'time': 4, 'pitch': -7.87, 'roll': -0.34, 'pres': 211}
{'lipoC2': 0.0, 'lipoC3S1': 3.95, 'temp': 26.13, 'lipoC3S3': 11.96, 'lipoC3S2': 7.9, 'rot1': 0, 'rot0': 0, 'rot3': 0, 'rot2': 0, 'state': 'normal', 'yaw': -1.55, 'datetime': '2018-10-03 17:24:07.533170', 'mgs': 0, 'volt': 1.0303, 'depth': 3.598, 'time': 4, 'pitch': -8.03, 'roll': -0.31, 'pres': 211}
{'lipoC2': 0.0, 'lipoC3S1': 3.95, 'temp': 26.13, 'lipoC3S3': 11.96, 'lipoC3S2': 7.9, 'rot1': 0, 'rot0': 0, 'rot3': 0, 'rot2': 0, 'state': 'normal', 'yaw': -1.67, 'datetime': '2018-10-03 17:24:07.636240', 'mgs': 0, 'volt': 1.0303, 'depth': 3.598, 'time': 4, 'pitch': -8.07, 'roll': -0.24, 'pres': 211}
{'lipoC2': 0.0, 'lipoC3S1': 3.96, 'temp': 26.13, 'lipoC3S3': 11.96, 'lipoC3S2': 7.9, 'rot1': 0, 'rot0': 0, 'rot3': 0, 'rot2': 0, 'state': 'normal', 'yaw': -1.79, 'datetime': '2018-10-03 17:24:07.740781', 'mgs': 0, 'volt': 1.0303, 'depth': 3.598, 'time': 5, 'pitch': -8.06, 'roll': -0.13, 'pres': 211}
{'lipoC2': 0.0, 'lipoC3S1': 3.96, 'temp': 26.13, 'lipoC3S3': 11.96, 'lipoC3S2': 7.9, 'rot1': 0, 'rot0': 0, 'rot3': 0, 'rot2': 0, 'state': 'normal', 'yaw': -1.93, 'datetime': '2018-10-03 17:24:07.843890', 'mgs': 0, 'volt': 1.0303, 'depth': 3.598, 'time': 5, 'pitch': -7.93, 'roll': 0.03, 'pres': 211}
{'lipoC2': 0.0, 'lipoC3S1': 3.95, 'temp': 26.13, 'lipoC3S3': 11.96, 'lipoC3S2': 7.9, 'rot1': 0, 'rot0': 0, 'rot3': 0, 'rot2': 0, 'state': 'normal', 'yaw': -2.02, 'datetime': '2018-10-03 17:24:07.947003', 'mgs': 0, 'volt': 1.0303, 'depth': 3.598, 'time': 5, 'pitch': -7.79, 'roll': 0.12, 'pres': 211}
{'lipoC2': 0.0, 'lipoC3S1': 3.96, 'temp': 26.13, 'lipoC3S3': 11.96, 'lipoC3S2': 7.9, 'rot1': 0, 'rot0': 0, 'rot3': 0, 'rot2': 0, 'state': 'normal', 'yaw': -2.06, 'datetime': '2018-10-03 17:24:08.051429', 'mgs': 0, 'volt': 1.0303, 'depth': 3.598, 'time': 5, 'pitch': -7.67, 'roll': 0.13, 'pres': 211}
{'lipoC2': 0.0, 'lipoC3S1': 3.95, 'temp': 26.13, 'lipoC3S3': 11.96, 'lipoC3S2': 7.9, 'rot1': 0, 'rot0': 0, 'rot3': 0, 'rot2': 0, 'state': 'normal', 'yaw': -2.12, 'datetime': '2018-10-03 17:24:08.154548', 'mgs': 0, 'volt': 1.0303, 'depth': 3.598, 'time': 5, 'pitch': -7.53, 'roll': 0.14, 'pres': 211}
{'lipoC2': 0.0, 'lipoC3S1': 3.95, 'temp': 26.13, 'lipoC3S3': 11.96, 'lipoC3S2': 7.9, 'rot1': 0, 'rot0': 0, 'rot3': 0, 'rot2': 0, 'state': 'normal', 'yaw': -2.14, 'datetime': '2018-10-03 17:24:08.261290', 'mgs': 0, 'volt': 1.0303, 'depth': 3.598, 'time': 5, 'pitch': -7.4, 'roll': 0.17, 'pres': 211}
{'lipoC2': 0.0, 'lipoC3S1': 3.96, 'temp': 26.13, 'lipoC3S3': 11.96, 'lipoC3S2': 7.9, 'rot1': 0, 'rot0': 0, 'rot3': 0, 'rot2': 0, 'state': 'normal', 'yaw': -2.15, 'datetime': '2018-10-03 17:24:08.362134', 'mgs': 0, 'volt': 1.0303, 'depth': 3.598, 'time': 5, 'pitch': -7.29, 'roll': 0.21, 'pres': 211}
{'lipoC2': 0.0, 'lipoC3S1': 3.95, 'temp': 26.13, 'lipoC3S3': 11.96, 'lipoC3S2': 7.9, 'rot1': 0, 'rot0': 0, 'rot3': 0, 'rot2': 0, 'state': 'normal', 'yaw': -2.16, 'datetime': '2018-10-03 17:24:08.465233', 'mgs': 0, 'volt': 1.0303, 'depth': 3.598, 'time': 5, 'pitch': -7.17, 'roll': 0.26, 'pres': 211}
{'lipoC2': 0.0, 'lipoC3S1': 3.96, 'temp': 26.13, 'lipoC3S3': 11.96, 'lipoC3S2': 7.9, 'rot1': 0, 'rot0': 0, 'rot3': 0, 'rot2': 0, 'state': 'normal', 'yaw': -2.17, 'datetime': '2018-10-03 17:24:08.568352', 'mgs': 0, 'volt': 1.0303, 'depth': 3.598, 'time': 5, 'pitch': -7.03, 'roll': 0.25, 'pres': 211}
{'lipoC2': 0.0, 'lipoC3S1': 3.96, 'temp': 26.13, 'lipoC3S3': 11.96, 'lipoC3S2': 7.9, 'rot1': 0, 'rot0': 0, 'rot3': 0, 'rot2': 0, 'state': 'normal', 'yaw': -2.17, 'datetime': '2018-10-03 17:24:08.672777', 'mgs': 0, 'volt': 1.0303, 'depth': 3.598, 'time': 6, 'pitch': -6.91, 'roll': 0.28, 'pres': 211}
{'lipoC2': 0.0, 'lipoC3S1': 3.95, 'temp': 26.19, 'lipoC3S3': 11.96, 'lipoC3S2': 7.9, 'rot1': 0, 'rot0': 0, 'rot3': 0, 'rot2': 0, 'state': 'normal', 'yaw': -2.17, 'datetime': '2018-10-03 17:24:08.775895', 'mgs': 0, 'volt': 1.0303, 'depth': 3.598, 'time': 6, 'pitch': -6.79, 'roll': 0.31, 'pres': 211}
{'lipoC2': 0.0, 'lipoC3S1': 3.96, 'temp': 26.19, 'lipoC3S3': 11.96, 'lipoC3S2': 7.9, 'rot1': 0, 'rot0': 0, 'rot3': 0, 'rot2': 0, 'state': 'normal', 'yaw': -2.17, 'datetime': '2018-10-03 17:24:08.879029', 'mgs': 0, 'volt': 1.0352, 'depth': 3.674, 'time': 6, 'pitch': -6.74, 'roll': 0.32, 'pres': 212}
{'lipoC2': 0.0, 'lipoC3S1': 3.95, 'temp': 26.06, 'lipoC3S3': 11.96, 'lipoC3S2': 7.9, 'rot1': 0, 'rot0': 0, 'rot3': 0, 'rot2': 0, 'state': 'normal', 'yaw': -2.18, 'datetime': '2018-10-03 17:24:08.982211', 'mgs': 0, 'volt': 1.0303, 'depth': 3.598, 'time': 6, 'pitch': -6.71, 'roll': 0.33, 'pres': 211}
{'lipoC2': 0.0, 'lipoC3S1': 3.95, 'temp': 26.06, 'lipoC3S3': 11.96, 'lipoC3S2': 7.9, 'rot1': 0, 'rot0': 0, 'rot3': 0, 'rot2': 0, 'state': 'normal', 'yaw': -2.18, 'datetime': '2018-10-03 17:24:09.085463', 'mgs': 0, 'volt': 1.0303, 'depth': 3.598, 'time': 6, 'pitch': -6.75, 'roll': 0.12, 'pres': 211}
{'lipoC2': 0.0, 'lipoC3S1': 3.95, 'temp': 26.13, 'lipoC3S3': 11.96, 'lipoC3S2': 7.9, 'rot1': 0, 'rot0': 0, 'rot3': 0, 'rot2': 0, 'state': 'normal', 'yaw': -2.18, 'datetime': '2018-10-03 17:24:09.188590', 'mgs': 0, 'volt': 1.0352, 'depth': 3.674, 'time': 6, 'pitch': -6.87, 'roll': -0.13, 'pres': 212}
{'lipoC2': 0.0, 'lipoC3S1': 3.95, 'temp': 26.13, 'lipoC3S3': 11.96, 'lipoC3S2': 7.9, 'rot1': 0, 'rot0': 0, 'rot3': 0, 'rot2': 0, 'state': 'normal', 'yaw': -2.17, 'datetime': '2018-10-03 17:24:09.291728', 'mgs': 0, 'volt': 1.0303, 'depth': 3.598, 'time': 6, 'pitch': -6.96, 'roll': -0.17, 'pres': 211}
{'lipoC2': 0.0, 'lipoC3S1': 3.95, 'temp': 26.13, 'lipoC3S3': 11.96, 'lipoC3S2': 7.91, 'rot1': 0, 'rot0': 0, 'rot3': 0, 'rot2': 0, 'state': 'normal', 'yaw': -2.17, 'datetime': '2018-10-03 17:24:09.394853', 'mgs': 0, 'volt': 1.0352, 'depth': 3.674, 'time': 6, 'pitch': -7.1, 'roll': -0.05, 'pres': 212}
{'lipoC2': 0.0, 'lipoC3S1': 3.96, 'temp': 26.13, 'lipoC3S3': 11.96, 'lipoC3S2': 7.9, 'rot1': 0, 'rot0': 0, 'rot3': 0, 'rot2': 0, 'state': 'normal', 'yaw': -2.17, 'datetime': '2018-10-03 17:24:09.498037', 'mgs': 0, 'volt': 1.0303, 'depth': 3.598, 'time': 6, 'pitch': -7.26, 'roll': 0.11, 'pres': 211}
{'lipoC2': 0.0, 'lipoC3S1': 3.95, 'temp': 26.13, 'lipoC3S3': 11.96, 'lipoC3S2': 7.9, 'rot1': 0, 'rot0': 0, 'rot3': 0, 'rot2': 0, 'state': 'normal', 'yaw': -2.17, 'datetime': '2018-10-03 17:24:09.601140', 'mgs': 0, 'volt': 1.0303, 'depth': 3.598, 'time': 6, 'pitch': -7.41, 'roll': 0.28, 'pres': 211}
{'lipoC2': 0.0, 'lipoC3S1': 3.96, 'temp': 26.13, 'lipoC3S3': 11.96, 'lipoC3S2': 7.9, 'rot1': 0, 'rot0': 0, 'rot3': 0, 'rot2': 0, 'state': 'normal', 'yaw': -2.18, 'datetime': '2018-10-03 17:24:09.704300', 'mgs': 0, 'volt': 1.0303, 'depth': 3.598, 'time': 7, 'pitch': -7.58, 'roll': 0.49, 'pres': 211}
{'lipoC2': 0.0, 'lipoC3S1': 3.96, 'temp': 26.13, 'lipoC3S3': 11.96, 'lipoC3S2': 7.9, 'rot1': 0, 'rot0': 0, 'rot3': 0, 'rot2': 0, 'state': 'normal', 'yaw': -2.18, 'datetime': '2018-10-03 17:24:09.808089', 'mgs': 0, 'volt': 1.0303, 'depth': 3.598, 'time': 7, 'pitch': -7.74, 'roll': 0.68, 'pres': 211}
{'lipoC2': 0.0, 'lipoC3S1': 3.95, 'temp': 26.13, 'lipoC3S3': 11.96, 'lipoC3S2': 7.9, 'rot1': 0, 'rot0': 0, 'rot3': 0, 'rot2': 0, 'state': 'normal', 'yaw': -2.18, 'datetime': '2018-10-03 17:24:09.911198', 'mgs': 0, 'volt': 1.0303, 'depth': 3.598, 'time': 7, 'pitch': -7.87, 'roll': 0.89, 'pres': 211}
{'lipoC2': 0.0, 'lipoC3S1': 3.95, 'temp': 26.13, 'lipoC3S3': 11.96, 'lipoC3S2': 7.9, 'rot1': 0, 'rot0': 0, 'rot3': 0, 'rot2': 0, 'state': 'normal', 'yaw': -2.18, 'datetime': '2018-10-03 17:24:10.015462', 'mgs': 0, 'volt': 1.0303, 'depth': 3.598, 'time': 7, 'pitch': -7.95, 'roll': 1.04, 'pres': 211}
{'lipoC2': 0.0, 'lipoC3S1': 3.95, 'temp': 26.13, 'lipoC3S3': 11.96, 'lipoC3S2': 7.9, 'rot1': 0, 'rot0': 0, 'rot3': 0, 'rot2': 0, 'state': 'normal', 'yaw': -2.18, 'datetime': '2018-10-03 17:24:10.119146', 'mgs': 0, 'volt': 1.0303, 'depth': 3.598, 'time': 7, 'pitch': -8.02, 'roll': 1.11, 'pres': 211}
{'lipoC2': 0.0, 'lipoC3S1': 3.96, 'temp': 26.13, 'lipoC3S3': 11.96, 'lipoC3S2': 7.9, 'rot1': 0, 'rot0': 0, 'rot3': 0, 'rot2': 0, 'state': 'normal', 'yaw': -2.19, 'datetime': '2018-10-03 17:24:10.222337', 'mgs': 0, 'volt': 1.0303, 'depth': 3.598, 'time': 7, 'pitch': -8.06, 'roll': 1.13, 'pres': 211}
{'lipoC2': 0.0, 'lipoC3S1': 3.95, 'temp': 26.13, 'lipoC3S3': 11.96, 'lipoC3S2': 7.9, 'rot1': 0, 'rot0': 0, 'rot3': 0, 'rot2': 0, 'state': 'normal', 'yaw': -2.19, 'datetime': '2018-10-03 17:24:10.326714', 'mgs': 0, 'volt': 1.0303, 'depth': 3.598, 'time': 7, 'pitch': -8.06, 'roll': 1.1, 'pres': 211}
{'lipoC2': 0.0, 'lipoC3S1': 3.95, 'temp': 26.13, 'lipoC3S3': 11.96, 'lipoC3S2': 7.9, 'rot1': 0, 'rot0': 0, 'rot3': 0, 'rot2': 0, 'state': 'normal', 'yaw': -2.19, 'datetime': '2018-10-03 17:24:10.430295', 'mgs': 0, 'volt': 1.0303, 'depth': 3.598, 'time': 7, 'pitch': -8.06, 'roll': 0.94, 'pres': 211}
{'lipoC2': 0.0, 'lipoC3S1': 3.95, 'temp': 26.13, 'lipoC3S3': 11.96, 'lipoC3S2': 7.9, 'rot1': 0, 'rot0': 0, 'rot3': 0, 'rot2': 0, 'state': 'normal', 'yaw': -2.2, 'datetime': '2018-10-03 17:24:10.533464', 'mgs': 0, 'volt': 1.0303, 'depth': 3.598, 'time': 7, 'pitch': -8.06, 'roll': 0.76, 'pres': 211}
{'lipoC2': 0.0, 'lipoC3S1': 3.96, 'temp': 26.13, 'lipoC3S3': 11.96, 'lipoC3S2': 7.9, 'rot1': 0, 'rot0': 0, 'rot3': 0, 'rot2': 0, 'state': 'normal', 'yaw': -2.2, 'datetime': '2018-10-03 17:24:10.636598', 'mgs': 0, 'volt': 1.0303, 'depth': 3.598, 'time': 7, 'pitch': -8.07, 'roll': 0.57, 'pres': 211}
{'lipoC2': 0.0, 'lipoC3S1': 3.95, 'temp': 26.13, 'lipoC3S3': 11.96, 'lipoC3S2': 7.9, 'rot1': 0, 'rot0': 0, 'rot3': 0, 'rot2': 0, 'state': 'normal', 'yaw': -2.19, 'datetime': '2018-10-03 17:24:10.739998', 'mgs': 0, 'volt': 1.0303, 'depth': 3.598, 'time': 8, 'pitch': -7.9, 'roll': 0.39, 'pres': 211}
{'lipoC2': 0.0, 'lipoC3S1': 3.95, 'temp': 26.13, 'lipoC3S3': 11.96, 'lipoC3S2': 7.9, 'rot1': 0, 'rot0': 0, 'rot3': 0, 'rot2': 0, 'state': 'normal', 'yaw': -2.19, 'datetime': '2018-10-03 17:24:10.843189', 'mgs': 0, 'volt': 1.0303, 'depth': 3.598, 'time': 8, 'pitch': -7.66, 'roll': 0.23, 'pres': 211}
{'lipoC2': 0.0, 'lipoC3S1': 3.95, 'temp': 26.13, 'lipoC3S3': 11.96, 'lipoC3S2': 7.9, 'rot1': 0, 'rot0': 0, 'rot3': 0, 'rot2': 0, 'state': 'normal', 'yaw': -2.21, 'datetime': '2018-10-03 17:24:10.946629', 'mgs': 0, 'volt': 1.0303, 'depth': 3.598, 'time': 8, 'pitch': -7.51, 'roll': 0.1, 'pres': 211}
{'lipoC2': 0.0, 'lipoC3S1': 3.95, 'temp': 26.13, 'lipoC3S3': 11.96, 'lipoC3S2': 7.9, 'rot1': 0, 'rot0': 0, 'rot3': 0, 'rot2': 0, 'state': 'normal', 'yaw': -2.31, 'datetime': '2018-10-03 17:24:11.050990', 'mgs': 0, 'volt': 1.0303, 'depth': 3.598, 'time': 8, 'pitch': -7.55, 'roll': 0.14, 'pres': 211}
{'lipoC2': 0.0, 'lipoC3S1': 3.95, 'temp': 26.13, 'lipoC3S3': 11.96, 'lipoC3S2': 7.9, 'rot1': 0, 'rot0': 0, 'rot3': 0, 'rot2': 0, 'state': 'normal', 'yaw': -2.42, 'datetime': '2018-10-03 17:24:11.154130', 'mgs': 0, 'volt': 1.0303, 'depth': 3.598, 'time': 8, 'pitch': -7.61, 'roll': 0.22, 'pres': 211}
{'lipoC2': 0.0, 'lipoC3S1': 3.95, 'temp': 26.13, 'lipoC3S3': 11.96, 'lipoC3S2': 7.9, 'rot1': 0, 'rot0': 0, 'rot3': 0, 'rot2': 0, 'state': 'normal', 'yaw': -2.45, 'datetime': '2018-10-03 17:24:11.261522', 'mgs': 0, 'volt': 1.0303, 'depth': 3.598, 'time': 8, 'pitch': -7.77, 'roll': 0.24, 'pres': 211}
{'lipoC2': 0.0, 'lipoC3S1': 3.95, 'temp': 26.13, 'lipoC3S3': 11.96, 'lipoC3S2': 7.9, 'rot1': 0, 'rot0': 0, 'rot3': 0, 'rot2': 0, 'state': 'normal', 'yaw': -2.46, 'datetime': '2018-10-03 17:24:11.361014', 'mgs': 0, 'volt': 1.0303, 'depth': 3.598, 'time': 8, 'pitch': -8.0, 'roll': 0.25, 'pres': 211}
{'lipoC2': 0.0, 'lipoC3S1': 3.95, 'temp': 26.13, 'lipoC3S3': 11.96, 'lipoC3S2': 7.9, 'rot1': 0, 'rot0': 0, 'rot3': 0, 'rot2': 0, 'state': 'normal', 'yaw': -2.45, 'datetime': '2018-10-03 17:24:11.464161', 'mgs': 0, 'volt': 1.0303, 'depth': 3.598, 'time': 8, 'pitch': -8.25, 'roll': 0.25, 'pres': 211}
{'lipoC2': 0.0, 'lipoC3S1': 3.95, 'temp': 26.13, 'lipoC3S3': 11.96, 'lipoC3S2': 7.9, 'rot1': 0, 'rot0': 0, 'rot3': 0, 'rot2': 0, 'state': 'normal', 'yaw': -2.46, 'datetime': '2018-10-03 17:24:11.567326', 'mgs': 0, 'volt': 1.0303, 'depth': 3.598, 'time': 8, 'pitch': -8.4, 'roll': 0.25, 'pres': 211}
{'lipoC2': 0.0, 'lipoC3S1': 3.95, 'temp': 26.13, 'lipoC3S3': 11.96, 'lipoC3S2': 7.9, 'rot1': 0, 'rot0': 0, 'rot3': 0, 'rot2': 0, 'state': 'normal', 'yaw': -2.46, 'datetime': '2018-10-03 17:24:11.671790', 'mgs': 0, 'volt': 1.0254, 'depth': 3.522, 'time': 9, 'pitch': -8.46, 'roll': 0.26, 'pres': 210}
{'lipoC2': 0.0, 'lipoC3S1': 3.95, 'temp': 26.13, 'lipoC3S3': 11.96, 'lipoC3S2': 7.91, 'rot1': 0, 'rot0': 0, 'rot3': 0, 'rot2': 0, 'state': 'normal', 'yaw': -2.46, 'datetime': '2018-10-03 17:24:11.775054', 'mgs': 0, 'volt': 1.0303, 'depth': 3.598, 'time': 9, 'pitch': -8.44, 'roll': 0.29, 'pres': 211}
{'lipoC2': 0.0, 'lipoC3S1': 3.96, 'temp': 26.13, 'lipoC3S3': 11.96, 'lipoC3S2': 7.9, 'rot1': 0, 'rot0': 0, 'rot3': 0, 'rot2': 0, 'state': 'normal', 'yaw': -2.46, 'datetime': '2018-10-03 17:24:11.878063', 'mgs': 0, 'volt': 1.0254, 'depth': 3.522, 'time': 9, 'pitch': -8.38, 'roll': 0.38, 'pres': 210}
{'lipoC2': 0.0, 'lipoC3S1': 3.95, 'temp': 26.13, 'lipoC3S3': 11.96, 'lipoC3S2': 7.91, 'rot1': 0, 'rot0': 0, 'rot3': 0, 'rot2': 0, 'state': 'normal', 'yaw': -2.46, 'datetime': '2018-10-03 17:24:11.982531', 'mgs': 0, 'volt': 1.0303, 'depth': 3.598, 'time': 9, 'pitch': -8.27, 'roll': 0.48, 'pres': 211}
{'lipoC2': 0.0, 'lipoC3S1': 3.95, 'temp': 26.13, 'lipoC3S3': 11.96, 'lipoC3S2': 7.9, 'rot1': 0, 'rot0': 0, 'rot3': 0, 'rot2': 0, 'state': 'normal', 'yaw': -2.46, 'datetime': '2018-10-03 17:24:12.085588', 'mgs': 0, 'volt': 1.0303, 'depth': 3.598, 'time': 9, 'pitch': -8.16, 'roll': 0.59, 'pres': 211}
{'lipoC2': 0.0, 'lipoC3S1': 3.95, 'temp': 26.13, 'lipoC3S3': 11.96, 'lipoC3S2': 7.9, 'rot1': 0, 'rot0': 0, 'rot3': 0, 'rot2': 0, 'state': 'normal', 'yaw': -2.46, 'datetime': '2018-10-03 17:24:12.188756', 'mgs': 0, 'volt': 1.0303, 'depth': 3.598, 'time': 9, 'pitch': -8.06, 'roll': 0.67, 'pres': 211}
{'lipoC2': 0.0, 'lipoC3S1': 3.95, 'temp': 26.13, 'lipoC3S3': 11.96, 'lipoC3S2': 7.9, 'rot1': 0, 'rot0': 0, 'rot3': 0, 'rot2': 0, 'state': 'normal', 'yaw': -2.46, 'datetime': '2018-10-03 17:24:12.291889', 'mgs': 0, 'volt': 1.0303, 'depth': 3.598, 'time': 9, 'pitch': -7.93, 'roll': 0.75, 'pres': 211}
{'lipoC2': 0.0, 'lipoC3S1': 3.95, 'temp': 26.13, 'lipoC3S3': 11.96, 'lipoC3S2': 7.9, 'rot1': 0, 'rot0': 0, 'rot3': 0, 'rot2': 0, 'state': 'normal', 'yaw': -2.46, 'datetime': '2018-10-03 17:24:12.395282', 'mgs': 0, 'volt': 1.0303, 'depth': 3.598, 'time': 9, 'pitch': -7.7, 'roll': 0.82, 'pres': 211}
{'lipoC2': 0.0, 'lipoC3S1': 3.95, 'temp': 26.13, 'lipoC3S3': 11.96, 'lipoC3S2': 7.9, 'rot1': 0, 'rot0': 0, 'rot3': 0, 'rot2': 0, 'state': 'normal', 'yaw': -2.45, 'datetime': '2018-10-03 17:24:12.498401', 'mgs': 0, 'volt': 1.0303, 'depth': 3.598, 'time': 9, 'pitch': -7.46, 'roll': 0.87, 'pres': 211}
{'lipoC2': 0.0, 'lipoC3S1': 3.95, 'temp': 26.13, 'lipoC3S3': 11.96, 'lipoC3S2': 7.9, 'rot1': 0, 'rot0': 0, 'rot3': 0, 'rot2': 0, 'state': 'normal', 'yaw': -2.46, 'datetime': '2018-10-03 17:24:12.601552', 'mgs': 0, 'volt': 1.0352, 'depth': 3.674, 'time': 9, 'pitch': -7.29, 'roll': 0.85, 'pres': 212}
{'lipoC2': 0.0, 'lipoC3S1': 3.95, 'temp': 26.13, 'lipoC3S3': 11.96, 'lipoC3S2': 7.9, 'rot1': 0, 'rot0': 0, 'rot3': 0, 'rot2': 0, 'state': 'normal', 'yaw': -2.46, 'datetime': '2018-10-03 17:24:12.704844', 'mgs': 0, 'volt': 1.0303, 'depth': 3.598, 'time': 10, 'pitch': -7.31, 'roll': 0.46, 'pres': 211}
{'lipoC2': 0.0, 'lipoC3S1': 3.95, 'temp': 26.13, 'lipoC3S3': 11.96, 'lipoC3S2': 7.9, 'rot1': 0, 'rot0': 0, 'rot3': 0, 'rot2': 0, 'state': 'normal', 'yaw': -2.45, 'datetime': '2018-10-03 17:24:12.808100', 'mgs': 0, 'volt': 1.0303, 'depth': 3.598, 'time': 10, 'pitch': -7.38, 'roll': 0.05, 'pres': 211}
{'lipoC2': 0.0, 'lipoC3S1': 3.95, 'temp': 26.13, 'lipoC3S3': 11.96, 'lipoC3S2': 7.9, 'rot1': 0, 'rot0': 0, 'rot3': 0, 'rot2': 0, 'state': 'normal', 'yaw': -2.45, 'datetime': '2018-10-03 17:24:12.911330', 'mgs': 0, 'volt': 1.0303, 'depth': 3.598, 'time': 10, 'pitch': -7.47, 'roll': -0.23, 'pres': 211}
{'lipoC2': 0.0, 'lipoC3S1': 3.95, 'temp': 26.13, 'lipoC3S3': 11.96, 'lipoC3S2': 7.91, 'rot1': 0, 'rot0': 0, 'rot3': 0, 'rot2': 0, 'state': 'normal', 'yaw': -2.45, 'datetime': '2018-10-03 17:24:13.014881', 'mgs': 0, 'volt': 1.0303, 'depth': 3.598, 'time': 10, 'pitch': -7.65, 'roll': -0.25, 'pres': 211}
{'lipoC2': 0.0, 'lipoC3S1': 3.95, 'temp': 26.13, 'lipoC3S3': 11.96, 'lipoC3S2': 7.9, 'rot1': 0, 'rot0': 0, 'rot3': 0, 'rot2': 0, 'state': 'normal', 'yaw': -2.45, 'datetime': '2018-10-03 17:24:13.118507', 'mgs': 0, 'volt': 1.0303, 'depth': 3.598, 'time': 10, 'pitch': -7.85, 'roll': -0.2, 'pres': 211}
{'lipoC2': 0.0, 'lipoC3S1': 3.95, 'temp': 26.13, 'lipoC3S3': 11.96, 'lipoC3S2': 7.9, 'rot1': 0, 'rot0': 0, 'rot3': 0, 'rot2': 0, 'state': 'normal', 'yaw': -2.46, 'datetime': '2018-10-03 17:24:13.221388', 'mgs': 0, 'volt': 1.0303, 'depth': 3.598, 'time': 10, 'pitch': -8.02, 'roll': -0.08, 'pres': 211}
{'lipoC2': 0.0, 'lipoC3S1': 3.95, 'temp': 26.13, 'lipoC3S3': 11.96, 'lipoC3S2': 7.9, 'rot1': 0, 'rot0': 0, 'rot3': 0, 'rot2': 0, 'state': 'normal', 'yaw': -2.46, 'datetime': '2018-10-03 17:24:13.325961', 'mgs': 0, 'volt': 1.0303, 'depth': 3.598, 'time': 10, 'pitch': -8.18, 'roll': 0.11, 'pres': 211}
{'lipoC2': 0.0, 'lipoC3S1': 3.95, 'temp': 26.13, 'lipoC3S3': 11.96, 'lipoC3S2': 7.9, 'rot1': 0, 'rot0': 0, 'rot3': 0, 'rot2': 0, 'state': 'normal', 'yaw': -2.45, 'datetime': '2018-10-03 17:24:13.429220', 'mgs': 0, 'volt': 1.0352, 'depth': 3.674, 'time': 10, 'pitch': -8.36, 'roll': 0.34, 'pres': 212}
{'lipoC2': 0.0, 'lipoC3S1': 3.95, 'temp': 26.13, 'lipoC3S3': 11.96, 'lipoC3S2': 7.91, 'rot1': 0, 'rot0': 0, 'rot3': 0, 'rot2': 0, 'state': 'normal', 'yaw': -2.46, 'datetime': '2018-10-03 17:24:13.532496', 'mgs': 0, 'volt': 1.0303, 'depth': 3.598, 'time': 10, 'pitch': -8.48, 'roll': 0.56, 'pres': 211}
{'lipoC2': 0.0, 'lipoC3S1': 3.96, 'temp': 26.13, 'lipoC3S3': 11.96, 'lipoC3S2': 7.9, 'rot1': 0, 'rot0': 0, 'rot3': 0, 'rot2': 0, 'state': 'normal', 'yaw': -2.47, 'datetime': '2018-10-03 17:24:13.637055', 'mgs': 0, 'volt': 1.0303, 'depth': 3.598, 'time': 10, 'pitch': -8.48, 'roll': 0.76, 'pres': 211}
{'lipoC2': 0.0, 'lipoC3S1': 3.95, 'temp': 26.13, 'lipoC3S3': 11.96, 'lipoC3S2': 7.9, 'rot1': 0, 'rot0': 0, 'rot3': 0, 'rot2': 0, 'state': 'normal', 'yaw': -2.48, 'datetime': '2018-10-03 17:24:13.740299', 'mgs': 0, 'volt': 1.0303, 'depth': 3.598, 'time': 11, 'pitch': -8.38, 'roll': 0.65, 'pres': 211}
{'lipoC2': 0.0, 'lipoC3S1': 3.95, 'temp': 26.13, 'lipoC3S3': 11.96, 'lipoC3S2': 7.9, 'rot1': 0, 'rot0': 0, 'rot3': 0, 'rot2': 0, 'state': 'normal', 'yaw': -2.48, 'datetime': '2018-10-03 17:24:13.843573', 'mgs': 0, 'volt': 1.0303, 'depth': 3.598, 'time': 11, 'pitch': -8.29, 'roll': 0.53, 'pres': 211}
{'lipoC2': 0.0, 'lipoC3S1': 3.95, 'temp': 26.13, 'lipoC3S3': 11.96, 'lipoC3S2': 7.9, 'rot1': 0, 'rot0': 0, 'rot3': 0, 'rot2': 0, 'state': 'normal', 'yaw': -2.48, 'datetime': '2018-10-03 17:24:13.946797', 'mgs': 0, 'volt': 1.0303, 'depth': 3.598, 'time': 11, 'pitch': -8.12, 'roll': 0.39, 'pres': 211}
{'lipoC2': 0.0, 'lipoC3S1': 3.95, 'temp': 26.19, 'lipoC3S3': 11.96, 'lipoC3S2': 7.9, 'rot1': 0, 'rot0': 0, 'rot3': 0, 'rot2': 0, 'state': 'normal', 'yaw': -2.49, 'datetime': '2018-10-03 17:24:14.050338', 'mgs': 0, 'volt': 1.0303, 'depth': 3.598, 'time': 11, 'pitch': -7.81, 'roll': 0.29, 'pres': 211}
{'lipoC2': 0.0, 'lipoC3S1': 3.95, 'temp': 26.19, 'lipoC3S3': 11.96, 'lipoC3S2': 7.9, 'rot1': 0, 'rot0': 0, 'rot3': 0, 'rot2': 0, 'state': 'normal', 'yaw': -2.5, 'datetime': '2018-10-03 17:24:14.153596', 'mgs': 0, 'volt': 1.0303, 'depth': 3.598, 'time': 11, 'pitch': -7.34, 'roll': 0.19, 'pres': 211}
{'lipoC2': 0.0, 'lipoC3S1': 3.96, 'temp': 26.19, 'lipoC3S3': 11.96, 'lipoC3S2': 7.9, 'rot1': 0, 'rot0': 0, 'rot3': 0, 'rot2': 0, 'state': 'normal', 'yaw': -2.51, 'datetime': '2018-10-03 17:24:14.256835', 'mgs': 0, 'volt': 1.0303, 'depth': 3.598, 'time': 11, 'pitch': -6.92, 'roll': 0.12, 'pres': 211}
{'lipoC2': 0.0, 'lipoC3S1': 3.95, 'temp': 26.13, 'lipoC3S3': 11.96, 'lipoC3S2': 7.9, 'rot1': 0, 'rot0': 0, 'rot3': 0, 'rot2': 0, 'state': 'normal', 'yaw': -2.23, 'datetime': '2018-10-03 17:24:14.360095', 'mgs': 0, 'volt': 1.0303, 'depth': 3.598, 'time': 11, 'pitch': -6.35, 'roll': -0.07, 'pres': 211}
{'lipoC2': 0.0, 'lipoC3S1': 3.95, 'temp': 26.13, 'lipoC3S3': 11.96, 'lipoC3S2': 7.9, 'rot1': 0, 'rot0': 0, 'rot3': 0, 'rot2': 0, 'state': 'normal', 'yaw': -1.47, 'datetime': '2018-10-03 17:24:14.463403', 'mgs': 0, 'volt': 1.0303, 'depth': 3.598, 'time': 11, 'pitch': -6.72, 'roll': -0.44, 'pres': 211}
{'lipoC2': 0.0, 'lipoC3S1': 3.96, 'temp': 26.19, 'lipoC3S3': 11.96, 'lipoC3S2': 7.9, 'rot1': 0, 'rot0': 0, 'rot3': 0, 'rot2': 0, 'state': 'normal', 'yaw': -0.3, 'datetime': '2018-10-03 17:24:14.566589', 'mgs': 0, 'volt': 1.0303, 'depth': 3.598, 'time': 11, 'pitch': -7.49, 'roll': -1.01, 'pres': 211}
{'lipoC2': 0.0, 'lipoC3S1': 3.95, 'temp': 26.19, 'lipoC3S3': 11.96, 'lipoC3S2': 7.91, 'rot1': 0, 'rot0': 0, 'rot3': 0, 'rot2': 0, 'state': 'normal', 'yaw': 1.12, 'datetime': '2018-10-03 17:24:14.669853', 'mgs': 0, 'volt': 1.0254, 'depth': 3.522, 'time': 12, 'pitch': -7.97, 'roll': -1.65, 'pres': 210}
{'lipoC2': 0.0, 'lipoC3S1': 3.95, 'temp': 26.13, 'lipoC3S3': 11.96, 'lipoC3S2': 7.9, 'rot1': 0, 'rot0': 0, 'rot3': 0, 'rot2': 0, 'state': 'normal', 'yaw': 2.35, 'datetime': '2018-10-03 17:24:14.773140', 'mgs': 0, 'volt': 1.0303, 'depth': 3.598, 'time': 12, 'pitch': -7.82, 'roll': -2.07, 'pres': 211}
{'lipoC2': 0.0, 'lipoC3S1': 3.95, 'temp': 26.13, 'lipoC3S3': 11.96, 'lipoC3S2': 7.9, 'rot1': 0, 'rot0': 0, 'rot3': 0, 'rot2': 0, 'state': 'normal', 'yaw': 2.95, 'datetime': '2018-10-03 17:24:14.876426', 'mgs': 0, 'volt': 1.0303, 'depth': 3.598, 'time': 12, 'pitch': -7.22, 'roll': -1.91, 'pres': 211}
{'lipoC2': 0.0, 'lipoC3S1': 3.95, 'temp': 26.13, 'lipoC3S3': 11.96, 'lipoC3S2': 7.9, 'rot1': 0, 'rot0': 0, 'rot3': 0, 'rot2': 0, 'state': 'normal', 'yaw': 3.49, 'datetime': '2018-10-03 17:24:14.980899', 'mgs': 0, 'volt': 1.0254, 'depth': 3.522, 'time': 12, 'pitch': -6.67, 'roll': -1.56, 'pres': 210}
{'lipoC2': 0.0, 'lipoC3S1': 3.96, 'temp': 26.13, 'lipoC3S3': 11.96, 'lipoC3S2': 7.9, 'rot1': 0, 'rot0': 0, 'rot3': 0, 'rot2': 0, 'state': 'normal', 'yaw': 4.19, 'datetime': '2018-10-03 17:24:15.084147', 'mgs': 0, 'volt': 1.0254, 'depth': 3.522, 'time': 12, 'pitch': -6.63, 'roll': -1.16, 'pres': 210}
{'lipoC2': 0.0, 'lipoC3S1': 3.95, 'temp': 26.13, 'lipoC3S3': 11.96, 'lipoC3S2': 7.9, 'rot1': 0, 'rot0': 0, 'rot3': 0, 'rot2': 0, 'state': 'normal', 'yaw': 4.69, 'datetime': '2018-10-03 17:24:15.189146', 'mgs': 0, 'volt': 1.0254, 'depth': 3.522, 'time': 12, 'pitch': -6.77, 'roll': -0.67, 'pres': 210}
{'lipoC2': 0.0, 'lipoC3S1': 3.95, 'temp': 26.19, 'lipoC3S3': 11.96, 'lipoC3S2': 7.9, 'rot1': 0, 'rot0': 0, 'rot3': 0, 'rot2': 0, 'state': 'normal', 'yaw': 4.92, 'datetime': '2018-10-03 17:24:15.292028', 'mgs': 0, 'volt': 1.0254, 'depth': 3.522, 'time': 12, 'pitch': -6.65, 'roll': 0.03, 'pres': 210}
{'lipoC2': 0.0, 'lipoC3S1': 3.95, 'temp': 26.19, 'lipoC3S3': 11.96, 'lipoC3S2': 7.9, 'rot1': 0, 'rot0': 0, 'rot3': 0, 'rot2': 0, 'state': 'normal', 'yaw': 5.02, 'datetime': '2018-10-03 17:24:15.395198', 'mgs': 0, 'volt': 1.0303, 'depth': 3.598, 'time': 12, 'pitch': -6.34, 'roll': 0.9, 'pres': 211}
{'lipoC2': 0.0, 'lipoC3S1': 3.95, 'temp': 26.19, 'lipoC3S3': 11.96, 'lipoC3S2': 7.9, 'rot1': 0, 'rot0': 0, 'rot3': 0, 'rot2': 0, 'state': 'normal', 'yaw': 5.19, 'datetime': '2018-10-03 17:24:15.498466', 'mgs': 0, 'volt': 1.0254, 'depth': 3.522, 'time': 12, 'pitch': -6.17, 'roll': 1.56, 'pres': 210}
{'lipoC2': 0.0, 'lipoC3S1': 3.96, 'temp': 26.19, 'lipoC3S3': 11.96, 'lipoC3S2': 7.9, 'rot1': 0, 'rot0': 0, 'rot3': 0, 'rot2': 0, 'state': 'normal', 'yaw': 5.46, 'datetime': '2018-10-03 17:24:15.601700', 'mgs': 0, 'volt': 1.0303, 'depth': 3.598, 'time': 12, 'pitch': -6.37, 'roll': 1.98, 'pres': 211}
{'lipoC2': 0.0, 'lipoC3S1': 3.96, 'temp': 26.19, 'lipoC3S3': 11.96, 'lipoC3S2': 7.9, 'rot1': 0, 'rot0': 0, 'rot3': 0, 'rot2': 0, 'state': 'normal', 'yaw': 5.78, 'datetime': '2018-10-03 17:24:15.705183', 'mgs': 0, 'volt': 1.0254, 'depth': 3.522, 'time': 13, 'pitch': -6.63, 'roll': 2.11, 'pres': 210}
{'lipoC2': 0.0, 'lipoC3S1': 3.95, 'temp': 26.13, 'lipoC3S3': 11.96, 'lipoC3S2': 7.9, 'rot1': 0, 'rot0': 0, 'rot3': 0, 'rot2': 0, 'state': 'normal', 'yaw': 6.03, 'datetime': '2018-10-03 17:24:15.808485', 'mgs': 0, 'volt': 1.0303, 'depth': 3.598, 'time': 13, 'pitch': -6.65, 'roll': 2.07, 'pres': 211}
{'lipoC2': 0.0, 'lipoC3S1': 3.95, 'temp': 26.13, 'lipoC3S3': 11.96, 'lipoC3S2': 7.9, 'rot1': 0, 'rot0': 0, 'rot3': 0, 'rot2': 0, 'state': 'normal', 'yaw': 6.12, 'datetime': '2018-10-03 17:24:15.915616', 'mgs': 0, 'volt': 1.0254, 'depth': 3.522, 'time': 13, 'pitch': -6.53, 'roll': 1.92, 'pres': 210}
{'lipoC2': 0.0, 'lipoC3S1': 3.95, 'temp': 26.13, 'lipoC3S3': 11.96, 'lipoC3S2': 7.9, 'rot1': 0, 'rot0': 0, 'rot3': 0, 'rot2': 0, 'state': 'normal', 'yaw': 6.11, 'datetime': '2018-10-03 17:24:16.020968', 'mgs': 0, 'volt': 1.0303, 'depth': 3.598, 'time': 13, 'pitch': -6.49, 'roll': 1.68, 'pres': 211}
{'lipoC2': 0.0, 'lipoC3S1': 3.95, 'temp': 26.13, 'lipoC3S3': 11.96, 'lipoC3S2': 7.9, 'rot1': 0, 'rot0': 0, 'rot3': 0, 'rot2': 0, 'state': 'normal', 'yaw': 5.98, 'datetime': '2018-10-03 17:24:16.124259', 'mgs': 0, 'volt': 1.0303, 'depth': 3.598, 'time': 13, 'pitch': -6.66, 'roll': 1.38, 'pres': 211}
{'lipoC2': 0.0, 'lipoC3S1': 3.95, 'temp': 26.13, 'lipoC3S3': 11.96, 'lipoC3S2': 7.9, 'rot1': 0, 'rot0': 0, 'rot3': 0, 'rot2': 0, 'state': 'normal', 'yaw': 5.79, 'datetime': '2018-10-03 17:24:16.227480', 'mgs': 0, 'volt': 1.0303, 'depth': 3.598, 'time': 13, 'pitch': -6.91, 'roll': 1.08, 'pres': 211}
{'lipoC2': 0.0, 'lipoC3S1': 3.96, 'temp': 26.13, 'lipoC3S3': 11.96, 'lipoC3S2': 7.9, 'rot1': 0, 'rot0': 0, 'rot3': 0, 'rot2': 0, 'state': 'normal', 'yaw': 5.59, 'datetime': '2018-10-03 17:24:16.329764', 'mgs': 0, 'volt': 1.0303, 'depth': 3.598, 'time': 13, 'pitch': -7.15, 'roll': 0.76, 'pres': 211}
{'lipoC2': 0.0, 'lipoC3S1': 3.95, 'temp': 26.13, 'lipoC3S3': 11.96, 'lipoC3S2': 7.9, 'rot1': 0, 'rot0': 0, 'rot3': 0, 'rot2': 0, 'state': 'normal', 'yaw': 5.37, 'datetime': '2018-10-03 17:24:16.434043', 'mgs': 0, 'volt': 1.0303, 'depth': 3.598, 'time': 13, 'pitch': -7.39, 'roll': 0.42, 'pres': 211}
{'lipoC2': 0.0, 'lipoC3S1': 3.95, 'temp': 26.13, 'lipoC3S3': 11.96, 'lipoC3S2': 7.91, 'rot1': 0, 'rot0': 0, 'rot3': 0, 'rot2': 0, 'state': 'normal', 'yaw': 5.14, 'datetime': '2018-10-03 17:24:16.537331', 'mgs': 0, 'volt': 1.0254, 'depth': 3.522, 'time': 13, 'pitch': -7.63, 'roll': 0.16, 'pres': 210}
{'lipoC2': 0.0, 'lipoC3S1': 3.95, 'temp': 26.13, 'lipoC3S3': 11.96, 'lipoC3S2': 7.9, 'rot1': 0, 'rot0': 0, 'rot3': 0, 'rot2': 0, 'state': 'normal', 'yaw': 4.91, 'datetime': '2018-10-03 17:24:16.642755', 'mgs': 0, 'volt': 1.0303, 'depth': 3.598, 'time': 13, 'pitch': -7.94, 'roll': -0.05, 'pres': 211}
{'lipoC2': 0.0, 'lipoC3S1': 3.95, 'temp': 26.19, 'lipoC3S3': 11.96, 'lipoC3S2': 7.9, 'rot1': 0, 'rot0': 0, 'rot3': 0, 'rot2': 0, 'state': 'normal', 'yaw': 4.68, 'datetime': '2018-10-03 17:24:16.745192', 'mgs': 0, 'volt': 1.0303, 'depth': 3.598, 'time': 14, 'pitch': -8.35, 'roll': -0.23, 'pres': 211}
{'lipoC2': 0.0, 'lipoC3S1': 3.95, 'temp': 26.19, 'lipoC3S3': 11.96, 'lipoC3S2': 7.9, 'rot1': 0, 'rot0': 0, 'rot3': 0, 'rot2': 0, 'state': 'normal', 'yaw': 4.52, 'datetime': '2018-10-03 17:24:16.848427', 'mgs': 0, 'volt': 1.0303, 'depth': 3.598, 'time': 14, 'pitch': -8.68, 'roll': -0.35, 'pres': 211}
{'lipoC2': 0.0, 'lipoC3S1': 3.95, 'temp': 26.13, 'lipoC3S3': 11.96, 'lipoC3S2': 7.9, 'rot1': 0, 'rot0': 0, 'rot3': 0, 'rot2': 0, 'state': 'normal', 'yaw': 4.35, 'datetime': '2018-10-03 17:24:16.953053', 'mgs': 0, 'volt': 1.0303, 'depth': 3.598, 'time': 14, 'pitch': -8.98, 'roll': -0.38, 'pres': 211}
{'lipoC2': 0.0, 'lipoC3S1': 3.95, 'temp': 26.13, 'lipoC3S3': 11.96, 'lipoC3S2': 7.9, 'rot1': 0, 'rot0': 0, 'rot3': 0, 'rot2': 0, 'state': 'normal', 'yaw': 4.17, 'datetime': '2018-10-03 17:24:17.056333', 'mgs': 0, 'volt': 1.0303, 'depth': 3.598, 'time': 14, 'pitch': -9.22, 'roll': -0.35, 'pres': 211}
{'lipoC2': 0.0, 'lipoC3S1': 3.95, 'temp': 26.13, 'lipoC3S3': 11.96, 'lipoC3S2': 7.9, 'rot1': 0, 'rot0': 0, 'rot3': 0, 'rot2': 0, 'state': 'normal', 'yaw': 4.0, 'datetime': '2018-10-03 17:24:17.159671', 'mgs': 0, 'volt': 1.0303, 'depth': 3.598, 'time': 14, 'pitch': -9.11, 'roll': -0.01, 'pres': 211}
{'lipoC2': 0.0, 'lipoC3S1': 3.95, 'temp': 26.13, 'lipoC3S3': 11.96, 'lipoC3S2': 7.9, 'rot1': 0, 'rot0': 0, 'rot3': 0, 'rot2': 0, 'state': 'normal', 'yaw': 3.79, 'datetime': '2018-10-03 17:24:17.263522', 'mgs': 0, 'volt': 1.0303, 'depth': 3.598, 'time': 14, 'pitch': -8.92, 'roll': 0.46, 'pres': 211}
{'lipoC2': 0.0, 'lipoC3S1': 3.95, 'temp': 26.13, 'lipoC3S3': 11.96, 'lipoC3S2': 7.9, 'rot1': 0, 'rot0': 0, 'rot3': 0, 'rot2': 0, 'state': 'normal', 'yaw': 3.77, 'datetime': '2018-10-03 17:24:17.366554', 'mgs': 0, 'volt': 1.0303, 'depth': 3.598, 'time': 14, 'pitch': -8.5, 'roll': 0.48, 'pres': 211}
{'lipoC2': 0.0, 'lipoC3S1': 3.95, 'temp': 26.13, 'lipoC3S3': 11.96, 'lipoC3S2': 7.9, 'rot1': 0, 'rot0': 0, 'rot3': 0, 'rot2': 0, 'state': 'normal', 'yaw': 3.77, 'datetime': '2018-10-03 17:24:17.469229', 'mgs': 0, 'volt': 1.0303, 'depth': 3.598, 'time': 14, 'pitch': -8.09, 'roll': 0.46, 'pres': 211}
{'lipoC2': 0.0, 'lipoC3S1': 3.95, 'temp': 26.13, 'lipoC3S3': 11.96, 'lipoC3S2': 7.9, 'rot1': 0, 'rot0': 0, 'rot3': 0, 'rot2': 0, 'state': 'normal', 'yaw': 3.77, 'datetime': '2018-10-03 17:24:17.572510', 'mgs': 0, 'volt': 1.0303, 'depth': 3.598, 'time': 14, 'pitch': -7.7, 'roll': 0.45, 'pres': 211}
{'lipoC2': 0.0, 'lipoC3S1': 3.96, 'temp': 26.13, 'lipoC3S3': 11.96, 'lipoC3S2': 7.9, 'rot1': 0, 'rot0': 0, 'rot3': 0, 'rot2': 0, 'state': 'normal', 'yaw': 3.77, 'datetime': '2018-10-03 17:24:17.676141', 'mgs': 0, 'volt': 1.0303, 'depth': 3.598, 'time': 14, 'pitch': -7.37, 'roll': 0.42, 'pres': 211}
{'lipoC2': 0.0, 'lipoC3S1': 3.96, 'temp': 26.13, 'lipoC3S3': 11.96, 'lipoC3S2': 7.9, 'rot1': 0, 'rot0': 0, 'rot3': 0, 'rot2': 0, 'state': 'normal', 'yaw': 3.77, 'datetime': '2018-10-03 17:24:17.775908', 'mgs': 0, 'volt': 1.0303, 'depth': 3.598, 'time': 15, 'pitch': -7.13, 'roll': 0.43, 'pres': 211}
{'lipoC2': 0.0, 'lipoC3S1': 3.95, 'temp': 26.13, 'lipoC3S3': 11.96, 'lipoC3S2': 7.9, 'rot1': 0, 'rot0': 0, 'rot3': 0, 'rot2': 0, 'state': 'normal', 'yaw': 3.77, 'datetime': '2018-10-03 17:24:17.877672', 'mgs': 0, 'volt': 1.0352, 'depth': 3.674, 'time': 15, 'pitch': -7.04, 'roll': 0.46, 'pres': 212}
{'lipoC2': 0.0, 'lipoC3S1': 3.95, 'temp': 26.13, 'lipoC3S3': 11.96, 'lipoC3S2': 7.9, 'rot1': 0, 'rot0': 0, 'rot3': 0, 'rot2': 0, 'state': 'normal', 'yaw': 3.76, 'datetime': '2018-10-03 17:24:17.985933', 'mgs': 0, 'volt': 1.0352, 'depth': 3.674, 'time': 15, 'pitch': -6.99, 'roll': 0.49, 'pres': 212}
{'lipoC2': 0.0, 'lipoC3S1': 3.95, 'temp': 26.13, 'lipoC3S3': 11.96, 'lipoC3S2': 7.9, 'rot1': 0, 'rot0': 0, 'rot3': 0, 'rot2': 0, 'state': 'normal', 'yaw': 3.76, 'datetime': '2018-10-03 17:24:18.090634', 'mgs': 0, 'volt': 1.0352, 'depth': 3.674, 'time': 15, 'pitch': -7.0, 'roll': 0.5, 'pres': 212}
{'lipoC2': 0.0, 'lipoC3S1': 3.95, 'temp': 26.13, 'lipoC3S3': 11.96, 'lipoC3S2': 7.9, 'rot1': 0, 'rot0': 0, 'rot3': 0, 'rot2': 0, 'state': 'normal', 'yaw': 3.76, 'datetime': '2018-10-03 17:24:18.195157', 'mgs': 0, 'volt': 1.0303, 'depth': 3.598, 'time': 15, 'pitch': -7.05, 'roll': 0.5, 'pres': 211}
{'lipoC2': 0.0, 'lipoC3S1': 3.95, 'temp': 26.13, 'lipoC3S3': 11.96, 'lipoC3S2': 7.9, 'rot1': 0, 'rot0': 0, 'rot3': 0, 'rot2': 0, 'state': 'normal', 'yaw': 3.76, 'datetime': '2018-10-03 17:24:18.298449', 'mgs': 0, 'volt': 1.0303, 'depth': 3.598, 'time': 15, 'pitch': -7.13, 'roll': 0.5, 'pres': 211}
{'lipoC2': 0.0, 'lipoC3S1': 3.95, 'temp': 26.13, 'lipoC3S3': 11.96, 'lipoC3S2': 7.9, 'rot1': 0, 'rot0': 0, 'rot3': 0, 'rot2': 0, 'state': 'normal', 'yaw': 3.76, 'datetime': '2018-10-03 17:24:18.401644', 'mgs': 0, 'volt': 1.0303, 'depth': 3.598, 'time': 15, 'pitch': -7.23, 'roll': 0.55, 'pres': 211}
{'lipoC2': 0.0, 'lipoC3S1': 3.95, 'temp': 26.13, 'lipoC3S3': 11.96, 'lipoC3S2': 7.9, 'rot1': 0, 'rot0': 0, 'rot3': 0, 'rot2': 0, 'state': 'normal', 'yaw': 3.81, 'datetime': '2018-10-03 17:24:18.505633', 'mgs': 0, 'volt': 1.0303, 'depth': 3.598, 'time': 15, 'pitch': -7.41, 'roll': 0.67, 'pres': 211}
{'lipoC2': 0.0, 'lipoC3S1': 3.95, 'temp': 26.13, 'lipoC3S3': 11.96, 'lipoC3S2': 7.9, 'rot1': 0, 'rot0': 0, 'rot3': 0, 'rot2': 0, 'state': 'normal', 'yaw': 3.84, 'datetime': '2018-10-03 17:24:18.609286', 'mgs': 0, 'volt': 1.0303, 'depth': 3.598, 'time': 15, 'pitch': -7.68, 'roll': 0.52, 'pres': 211}
{'lipoC2': 0.0, 'lipoC3S1': 3.95, 'temp': 26.13, 'lipoC3S3': 11.96, 'lipoC3S2': 7.9, 'rot1': 0, 'rot0': 0, 'rot3': 0, 'rot2': 0, 'state': 'normal', 'yaw': 3.84, 'datetime': '2018-10-03 17:24:18.712727', 'mgs': 0, 'volt': 1.0303, 'depth': 3.598, 'time': 16, 'pitch': -7.85, 'roll': 0.45, 'pres': 211}
{'lipoC2': 0.0, 'lipoC3S1': 3.95, 'temp': 26.13, 'lipoC3S3': 11.96, 'lipoC3S2': 7.9, 'rot1': 0, 'rot0': 0, 'rot3': 0, 'rot2': 0, 'state': 'normal', 'yaw': 3.83, 'datetime': '2018-10-03 17:24:18.816013', 'mgs': 0, 'volt': 1.0254, 'depth': 3.522, 'time': 16, 'pitch': -7.95, 'roll': 0.44, 'pres': 210}
{'lipoC2': 0.0, 'lipoC3S1': 3.95, 'temp': 26.13, 'lipoC3S3': 11.96, 'lipoC3S2': 7.9, 'rot1': 0, 'rot0': 0, 'rot3': 0, 'rot2': 0, 'state': 'normal', 'yaw': 3.83, 'datetime': '2018-10-03 17:24:18.919722', 'mgs': 0, 'volt': 1.0303, 'depth': 3.598, 'time': 16, 'pitch': -8.03, 'roll': 0.44, 'pres': 211}
{'lipoC2': 0.0, 'lipoC3S1': 3.95, 'temp': 26.13, 'lipoC3S3': 11.96, 'lipoC3S2': 7.9, 'rot1': 0, 'rot0': 0, 'rot3': 0, 'rot2': 0, 'state': 'normal', 'yaw': 3.8, 'datetime': '2018-10-03 17:24:19.023005', 'mgs': 0, 'volt': 1.0303, 'depth': 3.598, 'time': 16, 'pitch': -8.12, 'roll': 0.44, 'pres': 211}
{'lipoC2': 0.0, 'lipoC3S1': 3.95, 'temp': 26.13, 'lipoC3S3': 11.96, 'lipoC3S2': 7.9, 'rot1': 0, 'rot0': 0, 'rot3': 0, 'rot2': 0, 'state': 'normal', 'yaw': 3.79, 'datetime': '2018-10-03 17:24:19.126227', 'mgs': 0, 'volt': 1.0254, 'depth': 3.522, 'time': 16, 'pitch': -8.31, 'roll': 0.44, 'pres': 210}
{'lipoC2': 0.0, 'lipoC3S1': 3.95, 'temp': 26.13, 'lipoC3S3': 11.96, 'lipoC3S2': 7.9, 'rot1': 0, 'rot0': 0, 'rot3': 0, 'rot2': 0, 'state': 'normal', 'yaw': 3.76, 'datetime': '2018-10-03 17:24:19.229466', 'mgs': 0, 'volt': 1.0303, 'depth': 3.598, 'time': 16, 'pitch': -8.53, 'roll': 0.46, 'pres': 211}
{'lipoC2': 0.0, 'lipoC3S1': 3.95, 'temp': 26.13, 'lipoC3S3': 11.96, 'lipoC3S2': 7.9, 'rot1': 0, 'rot0': 0, 'rot3': 0, 'rot2': 0, 'state': 'normal', 'yaw': 3.7, 'datetime': '2018-10-03 17:24:19.332846', 'mgs': 0, 'volt': 1.0303, 'depth': 3.598, 'time': 16, 'pitch': -8.7, 'roll': 0.44, 'pres': 211}
{'lipoC2': 0.0, 'lipoC3S1': 3.95, 'temp': 26.13, 'lipoC3S3': 11.96, 'lipoC3S2': 7.9, 'rot1': 0, 'rot0': 0, 'rot3': 0, 'rot2': 0, 'state': 'normal', 'yaw': 3.58, 'datetime': '2018-10-03 17:24:19.436016', 'mgs': 0, 'volt': 1.0303, 'depth': 3.598, 'time': 16, 'pitch': -8.56, 'roll': 0.25, 'pres': 211}
{'lipoC2': 0.0, 'lipoC3S1': 3.95, 'temp': 26.13, 'lipoC3S3': 11.96, 'lipoC3S2': 7.9, 'rot1': 0, 'rot0': 0, 'rot3': 0, 'rot2': 0, 'state': 'normal', 'yaw': 3.5, 'datetime': '2018-10-03 17:24:19.539227', 'mgs': 0, 'volt': 1.0303, 'depth': 3.598, 'time': 16, 'pitch': -8.29, 'roll': 0.26, 'pres': 211}
{'lipoC2': 0.0, 'lipoC3S1': 3.95, 'temp': 26.19, 'lipoC3S3': 11.96, 'lipoC3S2': 7.9, 'rot1': 0, 'rot0': 0, 'rot3': 0, 'rot2': 0, 'state': 'normal', 'yaw': 3.56, 'datetime': '2018-10-03 17:24:19.642487', 'mgs': 0, 'volt': 1.0303, 'depth': 3.598, 'time': 16, 'pitch': -8.0, 'roll': 0.15, 'pres': 211}
{'lipoC2': 0.0, 'lipoC3S1': 3.95, 'temp': 26.19, 'lipoC3S3': 11.96, 'lipoC3S2': 7.9, 'rot1': 0, 'rot0': 0, 'rot3': 0, 'rot2': 0, 'state': 'normal', 'yaw': 3.66, 'datetime': '2018-10-03 17:24:19.745888', 'mgs': 0, 'volt': 1.0303, 'depth': 3.598, 'time': 17, 'pitch': -7.94, 'roll': -0.03, 'pres': 211}
{'lipoC2': 0.0, 'lipoC3S1': 3.95, 'temp': 26.19, 'lipoC3S3': 11.96, 'lipoC3S2': 7.9, 'rot1': 0, 'rot0': 0, 'rot3': 0, 'rot2': 0, 'state': 'normal', 'yaw': 3.82, 'datetime': '2018-10-03 17:24:19.850346', 'mgs': 0, 'volt': 1.0303, 'depth': 3.598, 'time': 17, 'pitch': -8.0, 'roll': -0.06, 'pres': 211}
{'lipoC2': 0.0, 'lipoC3S1': 3.95, 'temp': 26.13, 'lipoC3S3': 11.96, 'lipoC3S2': 7.9, 'rot1': 0, 'rot0': 0, 'rot3': 0, 'rot2': 0, 'state': 'normal', 'yaw': 4.02, 'datetime': '2018-10-03 17:24:19.953674', 'mgs': 0, 'volt': 1.0303, 'depth': 3.598, 'time': 17, 'pitch': -8.13, 'roll': -0.09, 'pres': 211}
{'lipoC2': 0.0, 'lipoC3S1': 3.95, 'temp': 26.13, 'lipoC3S3': 11.96, 'lipoC3S2': 7.9, 'rot1': 0, 'rot0': 0, 'rot3': 0, 'rot2': 0, 'state': 'normal', 'yaw': 4.2, 'datetime': '2018-10-03 17:24:20.056923', 'mgs': 0, 'volt': 1.0254, 'depth': 3.522, 'time': 17, 'pitch': -8.21, 'roll': -0.1, 'pres': 210}
{'lipoC2': 0.0, 'lipoC3S1': 3.95, 'temp': 26.13, 'lipoC3S3': 11.96, 'lipoC3S2': 7.9, 'rot1': 0, 'rot0': 0, 'rot3': 0, 'rot2': 0, 'state': 'normal', 'yaw': 4.37, 'datetime': '2018-10-03 17:24:20.161390', 'mgs': 0, 'volt': 1.0303, 'depth': 3.598, 'time': 17, 'pitch': -8.26, 'roll': -0.03, 'pres': 211}
{'lipoC2': 0.0, 'lipoC3S1': 3.95, 'temp': 26.13, 'lipoC3S3': 11.96, 'lipoC3S2': 7.9, 'rot1': 0, 'rot0': 0, 'rot3': 0, 'rot2': 0, 'state': 'normal', 'yaw': 4.53, 'datetime': '2018-10-03 17:24:20.264803', 'mgs': 0, 'volt': 1.0303, 'depth': 3.598, 'time': 17, 'pitch': -8.29, 'roll': 0.1, 'pres': 211}
{'lipoC2': 0.0, 'lipoC3S1': 3.95, 'temp': 26.13, 'lipoC3S3': 11.96, 'lipoC3S2': 7.9, 'rot1': 0, 'rot0': 0, 'rot3': 0, 'rot2': 0, 'state': 'normal', 'yaw': 4.68, 'datetime': '2018-10-03 17:24:20.366301', 'mgs': 0, 'volt': 1.0303, 'depth': 3.598, 'time': 17, 'pitch': -8.28, 'roll': 0.26, 'pres': 211}
{'lipoC2': 0.0, 'lipoC3S1': 3.95, 'temp': 26.13, 'lipoC3S3': 11.96, 'lipoC3S2': 7.9, 'rot1': 0, 'rot0': 0, 'rot3': 0, 'rot2': 0, 'state': 'normal', 'yaw': 4.82, 'datetime': '2018-10-03 17:24:20.471333', 'mgs': 0, 'volt': 1.0303, 'depth': 3.598, 'time': 17, 'pitch': -8.22, 'roll': 0.46, 'pres': 211}
{'lipoC2': 0.0, 'lipoC3S1': 3.95, 'temp': 26.13, 'lipoC3S3': 11.96, 'lipoC3S2': 7.9, 'rot1': 0, 'rot0': 0, 'rot3': 0, 'rot2': 0, 'state': 'normal', 'yaw': 4.98, 'datetime': '2018-10-03 17:24:20.574842', 'mgs': 0, 'volt': 1.0303, 'depth': 3.598, 'time': 17, 'pitch': -8.16, 'roll': 0.7, 'pres': 211}
{'lipoC2': 0.0, 'lipoC3S1': 3.95, 'temp': 26.13, 'lipoC3S3': 11.96, 'lipoC3S2': 7.9, 'rot1': 0, 'rot0': 0, 'rot3': 0, 'rot2': 0, 'state': 'normal', 'yaw': 5.12, 'datetime': '2018-10-03 17:24:20.678012', 'mgs': 0, 'volt': 1.0352, 'depth': 3.674, 'time': 17, 'pitch': -8.07, 'roll': 0.94, 'pres': 212}
{'lipoC2': 0.0, 'lipoC3S1': 3.95, 'temp': 26.13, 'lipoC3S3': 11.96, 'lipoC3S2': 7.9, 'rot1': 0, 'rot0': 0, 'rot3': 0, 'rot2': 0, 'state': 'normal', 'yaw': 5.27, 'datetime': '2018-10-03 17:24:20.781300', 'mgs': 0, 'volt': 1.0303, 'depth': 3.598, 'time': 18, 'pitch': -7.93, 'roll': 1.14, 'pres': 211}
{'lipoC2': 0.0, 'lipoC3S1': 3.95, 'temp': 26.13, 'lipoC3S3': 11.96, 'lipoC3S2': 7.9, 'rot1': 0, 'rot0': 0, 'rot3': 0, 'rot2': 0, 'state': 'normal', 'yaw': 5.41, 'datetime': '2018-10-03 17:24:20.884782', 'mgs': 0, 'volt': 1.0303, 'depth': 3.598, 'time': 18, 'pitch': -7.78, 'roll': 1.34, 'pres': 211}
{'lipoC2': 0.0, 'lipoC3S1': 3.95, 'temp': 26.13, 'lipoC3S3': 11.96, 'lipoC3S2': 7.9, 'rot1': 0, 'rot0': 0, 'rot3': 0, 'rot2': 0, 'state': 'normal', 'yaw': 5.61, 'datetime': '2018-10-03 17:24:20.988019', 'mgs': 0, 'volt': 1.0352, 'depth': 3.674, 'time': 18, 'pitch': -7.72, 'roll': 1.34, 'pres': 212}
{'lipoC2': 0.0, 'lipoC3S1': 3.95, 'temp': 26.13, 'lipoC3S3': 11.96, 'lipoC3S2': 7.9, 'rot1': 0, 'rot0': 0, 'rot3': 0, 'rot2': 0, 'state': 'normal', 'yaw': 5.81, 'datetime': '2018-10-03 17:24:21.091273', 'mgs': 0, 'volt': 1.0303, 'depth': 3.598, 'time': 18, 'pitch': -7.74, 'roll': 1.21, 'pres': 211}
{'lipoC2': 0.0, 'lipoC3S1': 3.95, 'temp': 26.13, 'lipoC3S3': 11.96, 'lipoC3S2': 7.9, 'rot1': 0, 'rot0': 0, 'rot3': 0, 'rot2': 0, 'state': 'normal', 'yaw': 5.99, 'datetime': '2018-10-03 17:24:21.195611', 'mgs': 0, 'volt': 1.0303, 'depth': 3.598, 'time': 18, 'pitch': -7.78, 'roll': 1.04, 'pres': 211}
{'lipoC2': 0.0, 'lipoC3S1': 3.95, 'temp': 26.13, 'lipoC3S3': 11.96, 'lipoC3S2': 7.9, 'rot1': 0, 'rot0': 0, 'rot3': 0, 'rot2': 0, 'state': 'normal', 'yaw': 6.2, 'datetime': '2018-10-03 17:24:21.298871', 'mgs': 0, 'volt': 1.0303, 'depth': 3.598, 'time': 18, 'pitch': -7.85, 'roll': 0.82, 'pres': 211}
{'lipoC2': 0.0, 'lipoC3S1': 3.95, 'temp': 26.13, 'lipoC3S3': 11.96, 'lipoC3S2': 7.9, 'rot1': 0, 'rot0': 0, 'rot3': 0, 'rot2': 0, 'state': 'normal', 'yaw': 6.4, 'datetime': '2018-10-03 17:24:21.402638', 'mgs': 0, 'volt': 1.0303, 'depth': 3.598, 'time': 18, 'pitch': -7.92, 'roll': 0.61, 'pres': 211}
{'lipoC2': 0.0, 'lipoC3S1': 3.95, 'temp': 26.13, 'lipoC3S3': 11.96, 'lipoC3S2': 7.9, 'rot1': 0, 'rot0': 0, 'rot3': 0, 'rot2': 0, 'state': 'normal', 'yaw': 6.58, 'datetime': '2018-10-03 17:24:21.506771', 'mgs': 0, 'volt': 1.0303, 'depth': 3.598, 'time': 18, 'pitch': -8.01, 'roll': 0.38, 'pres': 211}
{'lipoC2': 0.0, 'lipoC3S1': 3.95, 'temp': 26.19, 'lipoC3S3': 11.96, 'lipoC3S2': 7.9, 'rot1': 0, 'rot0': 0, 'rot3': 0, 'rot2': 0, 'state': 'normal', 'yaw': 6.78, 'datetime': '2018-10-03 17:24:21.610536', 'mgs': 0, 'volt': 1.0303, 'depth': 3.598, 'time': 18, 'pitch': -8.05, 'roll': 0.14, 'pres': 211}
{'lipoC2': 0.0, 'lipoC3S1': 3.95, 'temp': 26.19, 'lipoC3S3': 11.96, 'lipoC3S2': 7.9, 'rot1': 0, 'rot0': 0, 'rot3': 0, 'rot2': 0, 'state': 'normal', 'yaw': 6.95, 'datetime': '2018-10-03 17:24:21.713770', 'mgs': 0, 'volt': 1.0303, 'depth': 3.598, 'time': 19, 'pitch': -8.04, 'roll': -0.04, 'pres': 211}
{'lipoC2': 0.0, 'lipoC3S1': 3.95, 'temp': 26.13, 'lipoC3S3': 11.96, 'lipoC3S2': 7.91, 'rot1': 0, 'rot0': 0, 'rot3': 0, 'rot2': 0, 'state': 'normal', 'yaw': 7.12, 'datetime': '2018-10-03 17:24:21.817856', 'mgs': 0, 'volt': 1.0303, 'depth': 3.598, 'time': 19, 'pitch': -8.0, 'roll': -0.17, 'pres': 211}
{'lipoC2': 0.0, 'lipoC3S1': 3.96, 'temp': 26.13, 'lipoC3S3': 11.96, 'lipoC3S2': 7.9, 'rot1': 0, 'rot0': 0, 'rot3': 0, 'rot2': 0, 'state': 'normal', 'yaw': 7.33, 'datetime': '2018-10-03 17:24:21.921118', 'mgs': 0, 'volt': 1.0303, 'depth': 3.598, 'time': 19, 'pitch': -7.99, 'roll': -0.21, 'pres': 211}
{'lipoC2': 0.0, 'lipoC3S1': 3.95, 'temp': 26.13, 'lipoC3S3': 11.96, 'lipoC3S2': 7.9, 'rot1': 0, 'rot0': 0, 'rot3': 0, 'rot2': 0, 'state': 'normal', 'yaw': 7.52, 'datetime': '2018-10-03 17:24:22.024391', 'mgs': 0, 'volt': 1.0303, 'depth': 3.598, 'time': 19, 'pitch': -7.98, 'roll': -0.15, 'pres': 211}
{'lipoC2': 0.0, 'lipoC3S1': 3.96, 'temp': 26.13, 'lipoC3S3': 11.96, 'lipoC3S2': 7.9, 'rot1': 0, 'rot0': 0, 'rot3': 0, 'rot2': 0, 'state': 'normal', 'yaw': 7.71, 'datetime': '2018-10-03 17:24:22.127666', 'mgs': 0, 'volt': 1.0303, 'depth': 3.598, 'time': 19, 'pitch': -8.01, 'roll': -0.06, 'pres': 211}
{'lipoC2': 0.0, 'lipoC3S1': 3.95, 'temp': 26.13, 'lipoC3S3': 11.96, 'lipoC3S2': 7.9, 'rot1': 0, 'rot0': 0, 'rot3': 0, 'rot2': 0, 'state': 'normal', 'yaw': 7.84, 'datetime': '2018-10-03 17:24:22.230937', 'mgs': 0, 'volt': 1.0303, 'depth': 3.598, 'time': 19, 'pitch': -8.05, 'roll': -0.08, 'pres': 211}
{'lipoC2': 0.0, 'lipoC3S1': 3.95, 'temp': 26.19, 'lipoC3S3': 11.96, 'lipoC3S2': 7.9, 'rot1': 0, 'rot0': 0, 'rot3': 0, 'rot2': 0, 'state': 'normal', 'yaw': 7.96, 'datetime': '2018-10-03 17:24:22.334220', 'mgs': 0, 'volt': 1.0303, 'depth': 3.598, 'time': 19, 'pitch': -8.14, 'roll': -0.1, 'pres': 211}
{'lipoC2': 0.0, 'lipoC3S1': 3.95, 'temp': 26.19, 'lipoC3S3': 11.96, 'lipoC3S2': 7.9, 'rot1': 0, 'rot0': 0, 'rot3': 0, 'rot2': 0, 'state': 'normal', 'yaw': 8.06, 'datetime': '2018-10-03 17:24:22.437477', 'mgs': 0, 'volt': 1.0303, 'depth': 3.598, 'time': 19, 'pitch': -8.29, 'roll': -0.1, 'pres': 211}
{'lipoC2': 0.0, 'lipoC3S1': 3.95, 'temp': 26.19, 'lipoC3S3': 11.96, 'lipoC3S2': 7.9, 'rot1': 0, 'rot0': 0, 'rot3': 0, 'rot2': 0, 'state': 'normal', 'yaw': 8.21, 'datetime': '2018-10-03 17:24:22.540700', 'mgs': 0, 'volt': 1.0303, 'depth': 3.598, 'time': 19, 'pitch': -8.53, 'roll': -0.0, 'pres': 211}
{'lipoC2': 0.0, 'lipoC3S1': 3.95, 'temp': 26.19, 'lipoC3S3': 11.96, 'lipoC3S2': 7.9, 'rot1': 0, 'rot0': 0, 'rot3': 0, 'rot2': 0, 'state': 'normal', 'yaw': 8.37, 'datetime': '2018-10-03 17:24:22.643972', 'mgs': 0, 'volt': 1.0303, 'depth': 3.598, 'time': 19, 'pitch': -8.75, 'roll': 0.12, 'pres': 211}
{'lipoC2': 0.0, 'lipoC3S1': 3.95, 'temp': 26.19, 'lipoC3S3': 11.96, 'lipoC3S2': 7.9, 'rot1': 0, 'rot0': 0, 'rot3': 0, 'rot2': 0, 'state': 'normal', 'yaw': 8.54, 'datetime': '2018-10-03 17:24:22.747242', 'mgs': 0, 'volt': 1.0303, 'depth': 3.598, 'time': 20, 'pitch': -8.68, 'roll': 0.11, 'pres': 211}
{'lipoC2': 0.0, 'lipoC3S1': 3.95, 'temp': 26.19, 'lipoC3S3': 11.96, 'lipoC3S2': 7.9, 'rot1': 0, 'rot0': 0, 'rot3': 0, 'rot2': 0, 'state': 'normal', 'yaw': 8.71, 'datetime': '2018-10-03 17:24:22.850810', 'mgs': 0, 'volt': 1.0303, 'depth': 3.598, 'time': 20, 'pitch': -8.59, 'roll': 0.17, 'pres': 211}
{'lipoC2': 0.0, 'lipoC3S1': 3.95, 'temp': 26.19, 'lipoC3S3': 11.96, 'lipoC3S2': 7.9, 'rot1': 0, 'rot0': 0, 'rot3': 0, 'rot2': 0, 'state': 'normal', 'yaw': 8.88, 'datetime': '2018-10-03 17:24:22.954124', 'mgs': 0, 'volt': 1.0303, 'depth': 3.598, 'time': 20, 'pitch': -8.47, 'roll': 0.25, 'pres': 211}
{'lipoC2': 0.0, 'lipoC3S1': 3.95, 'temp': 26.19, 'lipoC3S3': 11.96, 'lipoC3S2': 7.9, 'rot1': 0, 'rot0': 0, 'rot3': 0, 'rot2': 0, 'state': 'normal', 'yaw': 8.97, 'datetime': '2018-10-03 17:24:23.058663', 'mgs': 0, 'volt': 1.0303, 'depth': 3.598, 'time': 20, 'pitch': -8.32, 'roll': 0.25, 'pres': 211}
{'lipoC2': 0.0, 'lipoC3S1': 3.95, 'temp': 26.19, 'lipoC3S3': 11.96, 'lipoC3S2': 7.9, 'rot1': 0, 'rot0': 0, 'rot3': 0, 'rot2': 0, 'state': 'normal', 'yaw': 9.04, 'datetime': '2018-10-03 17:24:23.162024', 'mgs': 0, 'volt': 1.0303, 'depth': 3.598, 'time': 20, 'pitch': -8.26, 'roll': 0.26, 'pres': 211}
{'lipoC2': 0.0, 'lipoC3S1': 3.95, 'temp': 26.13, 'lipoC3S3': 11.96, 'lipoC3S2': 7.9, 'rot1': 0, 'rot0': 0, 'rot3': 0, 'rot2': 0, 'state': 'normal', 'yaw': 9.13, 'datetime': '2018-10-03 17:24:23.265296', 'mgs': 0, 'volt': 1.0303, 'depth': 3.598, 'time': 20, 'pitch': -8.36, 'roll': 0.05, 'pres': 211}
{'lipoC2': 0.0, 'lipoC3S1': 3.95, 'temp': 26.13, 'lipoC3S3': 11.96, 'lipoC3S2': 7.9, 'rot1': 0, 'rot0': 0, 'rot3': 0, 'rot2': 0, 'state': 'normal', 'yaw': 9.25, 'datetime': '2018-10-03 17:24:23.370004', 'mgs': 0, 'volt': 1.0303, 'depth': 3.598, 'time': 20, 'pitch': -8.58, 'roll': -0.05, 'pres': 211}
{'lipoC2': 0.0, 'lipoC3S1': 3.96, 'temp': 26.13, 'lipoC3S3': 11.96, 'lipoC3S2': 7.9, 'rot1': 0, 'rot0': 0, 'rot3': 0, 'rot2': 0, 'state': 'normal', 'yaw': 9.39, 'datetime': '2018-10-03 17:24:23.473129', 'mgs': 0, 'volt': 1.0303, 'depth': 3.598, 'time': 20, 'pitch': -8.67, 'roll': 0.08, 'pres': 211}
{'lipoC2': 0.0, 'lipoC3S1': 3.95, 'temp': 26.13, 'lipoC3S3': 11.96, 'lipoC3S2': 7.9, 'rot1': 0, 'rot0': 0, 'rot3': 0, 'rot2': 0, 'state': 'normal', 'yaw': 9.47, 'datetime': '2018-10-03 17:24:23.576493', 'mgs': 0, 'volt': 1.0303, 'depth': 3.598, 'time': 20, 'pitch': -8.68, 'roll': 0.24, 'pres': 211}
{'lipoC2': 0.0, 'lipoC3S1': 3.96, 'temp': 26.13, 'lipoC3S3': 11.96, 'lipoC3S2': 7.9, 'rot1': 0, 'rot0': 0, 'rot3': 0, 'rot2': 0, 'state': 'normal', 'yaw': 9.54, 'datetime': '2018-10-03 17:24:23.679663', 'mgs': 0, 'volt': 1.0303, 'depth': 3.598, 'time': 20, 'pitch': -8.63, 'roll': 0.4, 'pres': 211}
{'lipoC2': 0.0, 'lipoC3S1': 3.95, 'temp': 26.13, 'lipoC3S3': 11.96, 'lipoC3S2': 7.9, 'rot1': 0, 'rot0': 0, 'rot3': 0, 'rot2': 0, 'state': 'normal', 'yaw': 9.58, 'datetime': '2018-10-03 17:24:23.783211', 'mgs': 0, 'volt': 1.0303, 'depth': 3.598, 'time': 21, 'pitch': -8.49, 'roll': 0.59, 'pres': 211}
{'lipoC2': 0.0, 'lipoC3S1': 3.95, 'temp': 26.13, 'lipoC3S3': 11.96, 'lipoC3S2': 7.9, 'rot1': 0, 'rot0': 0, 'rot3': 0, 'rot2': 0, 'state': 'normal', 'yaw': 9.62, 'datetime': '2018-10-03 17:24:23.886464', 'mgs': 0, 'volt': 1.0303, 'depth': 3.598, 'time': 21, 'pitch': -8.25, 'roll': 0.82, 'pres': 211}
{'lipoC2': 0.0, 'lipoC3S1': 3.95, 'temp': 26.19, 'lipoC3S3': 11.96, 'lipoC3S2': 7.9, 'rot1': 0, 'rot0': 0, 'rot3': 0, 'rot2': 0, 'state': 'normal', 'yaw': 9.64, 'datetime': '2018-10-03 17:24:23.989681', 'mgs': 0, 'volt': 1.0303, 'depth': 3.598, 'time': 21, 'pitch': -7.98, 'roll': 1.03, 'pres': 211}
{'lipoC2': 0.0, 'lipoC3S1': 3.95, 'temp': 26.19, 'lipoC3S3': 11.96, 'lipoC3S2': 7.9, 'rot1': 0, 'rot0': 0, 'rot3': 0, 'rot2': 0, 'state': 'normal', 'yaw': 9.69, 'datetime': '2018-10-03 17:24:24.092960', 'mgs': 0, 'volt': 1.0303, 'depth': 3.598, 'time': 21, 'pitch': -7.72, 'roll': 1.19, 'pres': 211}
{'lipoC2': 0.0, 'lipoC3S1': 3.95, 'temp': 26.19, 'lipoC3S3': 11.96, 'lipoC3S2': 7.9, 'rot1': 0, 'rot0': 0, 'rot3': 0, 'rot2': 0, 'state': 'normal', 'yaw': 9.76, 'datetime': '2018-10-03 17:24:24.196237', 'mgs': 0, 'volt': 1.0303, 'depth': 3.598, 'time': 21, 'pitch': -7.46, 'roll': 1.33, 'pres': 211}
{'lipoC2': 0.0, 'lipoC3S1': 3.95, 'temp': 26.19, 'lipoC3S3': 11.96, 'lipoC3S2': 7.9, 'rot1': 0, 'rot0': 0, 'rot3': 0, 'rot2': 0, 'state': 'normal', 'yaw': 9.82, 'datetime': '2018-10-03 17:24:24.299480', 'mgs': 0, 'volt': 1.0303, 'depth': 3.598, 'time': 21, 'pitch': -7.25, 'roll': 1.42, 'pres': 211}
