{'lipoC2': 7.9, 'lipoC3S1': 3.96, 'temp': 28.44, 'lipoC3S3': 11.98, 'lipoC3S2': 7.91, 'rot1': 0, 'rot0': 0, 'rot3': 0, 'rot2': 0, 'state': 'normal', 'yaw': -2.26, 'datetime': '2018-10-05 19:34:33.635959', 'mgs': 0, 'volt': 0.791, 'depth': -0.14, 'time': 1, 'pitch': -14.16, 'roll': -8.38, 'pres': 162}
{'lipoC2': 7.9, 'lipoC3S1': 3.96, 'temp': 28.44, 'lipoC3S3': 11.98, 'lipoC3S2': 7.91, 'rot1': 0, 'rot0': 0, 'rot3': 0, 'rot2': 0, 'state': 'normal', 'yaw': -2.63, 'datetime': '2018-10-05 19:34:33.670805', 'mgs': 0, 'volt': 0.791, 'depth': -0.14, 'time': 1, 'pitch': -14.23, 'roll': -8.54, 'pres': 162}
{'lipoC2': 7.9, 'lipoC3S1': 3.96, 'temp': 28.44, 'lipoC3S3': 11.98, 'lipoC3S2': 7.92, 'rot1': 0, 'rot0': 0, 'rot3': 0, 'rot2': 0, 'state': 'normal', 'yaw': -2.7, 'datetime': '2018-10-05 19:34:33.701716', 'mgs': 0, 'volt': 0.791, 'depth': -0.14, 'time': 1, 'pitch': -13.79, 'roll': -8.39, 'pres': 162}
{'lipoC2': 7.9, 'lipoC3S1': 3.96, 'temp': 28.44, 'lipoC3S3': 11.98, 'lipoC3S2': 7.91, 'rot1': 0, 'rot0': 0, 'rot3': 0, 'rot2': 0, 'state': 'normal', 'yaw': -2.85, 'datetime': '2018-10-05 19:34:33.732142', 'mgs': 0, 'volt': 0.791, 'depth': -0.14, 'time': 1, 'pitch': -12.85, 'roll': -7.56, 'pres': 162}
{'lipoC2': 7.9, 'lipoC3S1': 3.96, 'temp': 28.44, 'lipoC3S3': 11.98, 'lipoC3S2': 7.91, 'rot1': 0, 'rot0': 0, 'rot3': 0, 'rot2': 0, 'state': 'normal', 'yaw': -2.88, 'datetime': '2018-10-05 19:34:33.754588', 'mgs': 0, 'volt': 0.791, 'depth': -0.14, 'time': 1, 'pitch': -12.25, 'roll': -6.37, 'pres': 162}
{'lipoC2': 7.9, 'lipoC3S1': 3.96, 'temp': 28.44, 'lipoC3S3': 11.97, 'lipoC3S2': 7.91, 'rot1': 0, 'rot0': 0, 'rot3': 0, 'rot2': 0, 'state': 'normal', 'yaw': -2.67, 'datetime': '2018-10-05 19:34:33.764225', 'mgs': 0, 'volt': 0.791, 'depth': -0.14, 'time': 1, 'pitch': -12.08, 'roll': -5.1, 'pres': 162}
{'lipoC2': 7.9, 'lipoC3S1': 3.96, 'temp': 28.44, 'lipoC3S3': 11.98, 'lipoC3S2': 7.92, 'rot1': 0, 'rot0': 0, 'rot3': 0, 'rot2': 0, 'state': 'normal', 'yaw': -2.36, 'datetime': '2018-10-05 19:34:33.773989', 'mgs': 0, 'volt': 0.791, 'depth': -0.14, 'time': 2, 'pitch': -12.18, 'roll': -3.81, 'pres': 162}
{'lipoC2': 7.9, 'lipoC3S1': 3.96, 'temp': 28.44, 'lipoC3S3': 11.98, 'lipoC3S2': 7.92, 'rot1': 0, 'rot0': 0, 'rot3': 0, 'rot2': 0, 'state': 'normal', 'yaw': -1.72, 'datetime': '2018-10-05 19:34:33.784573', 'mgs': 0, 'volt': 0.791, 'depth': -0.14, 'time': 2, 'pitch': -12.63, 'roll': -2.65, 'pres': 162}
{'lipoC2': 7.9, 'lipoC3S1': 3.96, 'temp': 28.44, 'lipoC3S3': 11.97, 'lipoC3S2': 7.92, 'rot1': 0, 'rot0': 0, 'rot3': 0, 'rot2': 0, 'state': 'normal', 'yaw': -1.22, 'datetime': '2018-10-05 19:34:33.794235', 'mgs': 0, 'volt': 0.7861, 'depth': -0.217, 'time': 2, 'pitch': -12.87, 'roll': -1.65, 'pres': 161}
{'lipoC2': 7.9, 'lipoC3S1': 3.96, 'temp': 28.44, 'lipoC3S3': 11.98, 'lipoC3S2': 7.92, 'rot1': 0, 'rot0': 0, 'rot3': 0, 'rot2': 0, 'state': 'normal', 'yaw': -0.77, 'datetime': '2018-10-05 19:34:33.803695', 'mgs': 0, 'volt': 0.7861, 'depth': -0.217, 'time': 2, 'pitch': -13.32, 'roll': -0.77, 'pres': 161}
{'lipoC2': 7.9, 'lipoC3S1': 3.96, 'temp': 28.44, 'lipoC3S3': 11.98, 'lipoC3S2': 7.92, 'rot1': 0, 'rot0': 0, 'rot3': 0, 'rot2': 0, 'state': 'normal', 'yaw': -0.48, 'datetime': '2018-10-05 19:34:33.813182', 'mgs': 0, 'volt': 0.7861, 'depth': -0.217, 'time': 2, 'pitch': -13.98, 'roll': 0.16, 'pres': 161}
{'lipoC2': 7.9, 'lipoC3S1': 3.96, 'temp': 28.44, 'lipoC3S3': 11.98, 'lipoC3S2': 7.91, 'rot1': 0, 'rot0': 0, 'rot3': 0, 'rot2': 0, 'state': 'normal', 'yaw': -0.2, 'datetime': '2018-10-05 19:34:33.822665', 'mgs': 0, 'volt': 0.791, 'depth': -0.14, 'time': 2, 'pitch': -14.36, 'roll': 0.89, 'pres': 162}
{'lipoC2': 7.9, 'lipoC3S1': 3.96, 'temp': 28.44, 'lipoC3S3': 11.98, 'lipoC3S2': 7.91, 'rot1': 0, 'rot0': 0, 'rot3': 0, 'rot2': 0, 'state': 'normal', 'yaw': 0.28, 'datetime': '2018-10-05 19:34:33.832154', 'mgs': 0, 'volt': 0.7861, 'depth': -0.217, 'time': 2, 'pitch': -14.16, 'roll': 1.3, 'pres': 161}
{'lipoC2': 7.9, 'lipoC3S1': 3.96, 'temp': 28.44, 'lipoC3S3': 11.98, 'lipoC3S2': 7.92, 'rot1': 0, 'rot0': 0, 'rot3': 0, 'rot2': 0, 'state': 'normal', 'yaw': 0.76, 'datetime': '2018-10-05 19:34:33.841643', 'mgs': 0, 'volt': 0.791, 'depth': -0.14, 'time': 2, 'pitch': -13.42, 'roll': 1.59, 'pres': 162}
{'lipoC2': 7.9, 'lipoC3S1': 3.96, 'temp': 28.44, 'lipoC3S3': 11.98, 'lipoC3S2': 7.91, 'rot1': 0, 'rot0': 0, 'rot3': 0, 'rot2': 0, 'state': 'normal', 'yaw': 0.92, 'datetime': '2018-10-05 19:34:33.851317', 'mgs': 0, 'volt': 0.791, 'depth': -0.14, 'time': 2, 'pitch': -12.43, 'roll': 1.7, 'pres': 162}
{'lipoC2': 7.9, 'lipoC3S1': 3.96, 'temp': 28.44, 'lipoC3S3': 11.98, 'lipoC3S2': 7.91, 'rot1': 0, 'rot0': 0, 'rot3': 0, 'rot2': 0, 'state': 'normal', 'yaw': 1.05, 'datetime': '2018-10-05 19:34:33.861804', 'mgs': 0, 'volt': 0.7861, 'depth': -0.217, 'time': 3, 'pitch': -12.05, 'roll': 1.57, 'pres': 161}
{'lipoC2': 7.9, 'lipoC3S1': 3.96, 'temp': 28.44, 'lipoC3S3': 11.98, 'lipoC3S2': 7.91, 'rot1': 0, 'rot0': 0, 'rot3': 0, 'rot2': 0, 'state': 'normal', 'yaw': 1.47, 'datetime': '2018-10-05 19:34:33.871355', 'mgs': 0, 'volt': 0.7861, 'depth': -0.217, 'time': 3, 'pitch': -12.4, 'roll': 1.03, 'pres': 161}
{'lipoC2': 7.9, 'lipoC3S1': 3.96, 'temp': 28.38, 'lipoC3S3': 11.98, 'lipoC3S2': 7.92, 'rot1': 0, 'rot0': 0, 'rot3': 0, 'rot2': 0, 'state': 'normal', 'yaw': 2.25, 'datetime': '2018-10-05 19:34:33.881134', 'mgs': 0, 'volt': 0.7861, 'depth': -0.217, 'time': 3, 'pitch': -12.92, 'roll': 0.19, 'pres': 161}
{'lipoC2': 7.9, 'lipoC3S1': 3.96, 'temp': 28.38, 'lipoC3S3': 11.98, 'lipoC3S2': 7.92, 'rot1': 0, 'rot0': 0, 'rot3': 0, 'rot2': 0, 'state': 'normal', 'yaw': 2.93, 'datetime': '2018-10-05 19:34:33.890572', 'mgs': 0, 'volt': 0.7861, 'depth': -0.217, 'time': 3, 'pitch': -12.87, 'roll': -0.51, 'pres': 161}
{'lipoC2': 7.9, 'lipoC3S1': 3.96, 'temp': 28.44, 'lipoC3S3': 11.97, 'lipoC3S2': 7.92, 'rot1': 0, 'rot0': 0, 'rot3': 0, 'rot2': 0, 'state': 'normal', 'yaw': 3.4, 'datetime': '2018-10-05 19:34:33.900040', 'mgs': 0, 'volt': 0.7813, 'depth': -0.293, 'time': 3, 'pitch': -12.26, 'roll': -0.86, 'pres': 160}
{'lipoC2': 7.9, 'lipoC3S1': 3.96, 'temp': 28.44, 'lipoC3S3': 11.98, 'lipoC3S2': 7.92, 'rot1': 0, 'rot0': 0, 'rot3': 0, 'rot2': 0, 'state': 'normal', 'yaw': 3.77, 'datetime': '2018-10-05 19:34:33.909657', 'mgs': 0, 'volt': 0.7813, 'depth': -0.293, 'time': 3, 'pitch': -11.73, 'roll': -0.93, 'pres': 160}
{'lipoC2': 7.9, 'lipoC3S1': 3.96, 'temp': 28.38, 'lipoC3S3': 11.98, 'lipoC3S2': 7.92, 'rot1': 0, 'rot0': 0, 'rot3': 0, 'rot2': 0, 'state': 'normal', 'yaw': 4.02, 'datetime': '2018-10-05 19:34:33.919207', 'mgs': 0, 'volt': 0.7813, 'depth': -0.293, 'time': 3, 'pitch': -11.63, 'roll': -0.77, 'pres': 160}
{'lipoC2': 7.9, 'lipoC3S1': 3.96, 'temp': 28.38, 'lipoC3S3': 11.98, 'lipoC3S2': 7.92, 'rot1': 0, 'rot0': 0, 'rot3': 0, 'rot2': 0, 'state': 'normal', 'yaw': 4.28, 'datetime': '2018-10-05 19:34:33.981773', 'mgs': 0, 'volt': 0.7813, 'depth': -0.293, 'time': 3, 'pitch': -11.76, 'roll': -0.62, 'pres': 160}
{'lipoC2': 7.9, 'lipoC3S1': 3.96, 'temp': 28.38, 'lipoC3S3': 11.98, 'lipoC3S2': 7.92, 'rot1': 0, 'rot0': 0, 'rot3': 0, 'rot2': 0, 'state': 'normal', 'yaw': 4.57, 'datetime': '2018-10-05 19:34:34.085093', 'mgs': 0, 'volt': 0.7861, 'depth': -0.217, 'time': 3, 'pitch': -11.71, 'roll': -0.61, 'pres': 161}
{'lipoC2': 7.9, 'lipoC3S1': 3.96, 'temp': 28.38, 'lipoC3S3': 11.98, 'lipoC3S2': 7.91, 'rot1': 0, 'rot0': 0, 'rot3': 0, 'rot2': 0, 'state': 'normal', 'yaw': 4.96, 'datetime': '2018-10-05 19:34:34.189547', 'mgs': 0, 'volt': 0.7813, 'depth': -0.293, 'time': 3, 'pitch': -11.47, 'roll': -0.75, 'pres': 160}
{'lipoC2': 7.9, 'lipoC3S1': 3.96, 'temp': 28.38, 'lipoC3S3': 11.97, 'lipoC3S2': 7.91, 'rot1': 0, 'rot0': 0, 'rot3': 0, 'rot2': 0, 'state': 'normal', 'yaw': 5.61, 'datetime': '2018-10-05 19:34:34.292875', 'mgs': 0, 'volt': 0.7861, 'depth': -0.217, 'time': 4, 'pitch': -11.21, 'roll': -1.09, 'pres': 161}
{'lipoC2': 7.9, 'lipoC3S1': 3.96, 'temp': 28.38, 'lipoC3S3': 11.98, 'lipoC3S2': 7.92, 'rot1': 0, 'rot0': 0, 'rot3': 0, 'rot2': 0, 'state': 'normal', 'yaw': 6.56, 'datetime': '2018-10-05 19:34:34.397254', 'mgs': 0, 'volt': 0.7861, 'depth': -0.217, 'time': 4, 'pitch': -11.32, 'roll': -1.52, 'pres': 161}
{'lipoC2': 7.9, 'lipoC3S1': 3.96, 'temp': 28.38, 'lipoC3S3': 11.98, 'lipoC3S2': 7.92, 'rot1': 0, 'rot0': 0, 'rot3': 0, 'rot2': 0, 'state': 'normal', 'yaw': 7.65, 'datetime': '2018-10-05 19:34:34.507336', 'mgs': 0, 'volt': 0.7861, 'depth': -0.217, 'time': 4, 'pitch': -11.77, 'roll': -1.78, 'pres': 161}
{'lipoC2': 7.9, 'lipoC3S1': 3.96, 'temp': 28.38, 'lipoC3S3': 11.98, 'lipoC3S2': 7.92, 'rot1': 0, 'rot0': 0, 'rot3': 0, 'rot2': 0, 'state': 'normal', 'yaw': 8.5, 'datetime': '2018-10-05 19:34:34.610718', 'mgs': 0, 'volt': 0.7861, 'depth': -0.217, 'time': 4, 'pitch': -12.12, 'roll': -1.72, 'pres': 161}
{'lipoC2': 7.9, 'lipoC3S1': 3.96, 'temp': 28.38, 'lipoC3S3': 11.98, 'lipoC3S2': 7.91, 'rot1': 0, 'rot0': 0, 'rot3': 0, 'rot2': 0, 'state': 'normal', 'yaw': 9.22, 'datetime': '2018-10-05 19:34:34.713295', 'mgs': 0, 'volt': 0.791, 'depth': -0.14, 'time': 4, 'pitch': -12.28, 'roll': -1.44, 'pres': 162}
{'lipoC2': 7.9, 'lipoC3S1': 3.96, 'temp': 28.38, 'lipoC3S3': 11.98, 'lipoC3S2': 7.92, 'rot1': 0, 'rot0': 0, 'rot3': 0, 'rot2': 0, 'state': 'normal', 'yaw': 10.14, 'datetime': '2018-10-05 19:34:34.818933', 'mgs': 0, 'volt': 0.791, 'depth': -0.14, 'time': 4, 'pitch': -12.14, 'roll': -1.17, 'pres': 162}
{'lipoC2': 7.9, 'lipoC3S1': 3.96, 'temp': 28.44, 'lipoC3S3': 11.98, 'lipoC3S2': 7.91, 'rot1': 0, 'rot0': 0, 'rot3': 0, 'rot2': 0, 'state': 'normal', 'yaw': 11.33, 'datetime': '2018-10-05 19:34:34.921858', 'mgs': 0, 'volt': 0.791, 'depth': -0.14, 'time': 4, 'pitch': -11.85, 'roll': -1.16, 'pres': 162}
{'lipoC2': 7.9, 'lipoC3S1': 3.96, 'temp': 28.44, 'lipoC3S3': 11.98, 'lipoC3S2': 7.92, 'rot1': 0, 'rot0': 0, 'rot3': 0, 'rot2': 0, 'state': 'normal', 'yaw': 12.6, 'datetime': '2018-10-05 19:34:35.025070', 'mgs': 0, 'volt': 0.791, 'depth': -0.14, 'time': 4, 'pitch': -11.84, 'roll': -1.15, 'pres': 162}
{'lipoC2': 7.9, 'lipoC3S1': 3.96, 'temp': 28.44, 'lipoC3S3': 11.98, 'lipoC3S2': 7.91, 'rot1': 0, 'rot0': 0, 'rot3': 0, 'rot2': 0, 'state': 'normal', 'yaw': 13.74, 'datetime': '2018-10-05 19:34:35.128784', 'mgs': 0, 'volt': 0.791, 'depth': -0.14, 'time': 4, 'pitch': -12.16, 'roll': -0.96, 'pres': 162}
{'lipoC2': 7.9, 'lipoC3S1': 3.96, 'temp': 28.44, 'lipoC3S3': 11.98, 'lipoC3S2': 7.92, 'rot1': 0, 'rot0': 0, 'rot3': 0, 'rot2': 0, 'state': 'normal', 'yaw': 14.78, 'datetime': '2018-10-05 19:34:35.232140', 'mgs': 0, 'volt': 0.7959, 'depth': -0.064, 'time': 4, 'pitch': -12.99, 'roll': -0.48, 'pres': 163}
{'lipoC2': 7.9, 'lipoC3S1': 3.96, 'temp': 28.44, 'lipoC3S3': 11.98, 'lipoC3S2': 7.92, 'rot1': 0, 'rot0': 0, 'rot3': 0, 'rot2': 0, 'state': 'normal', 'yaw': 15.95, 'datetime': '2018-10-05 19:34:35.335439', 'mgs': 0, 'volt': 0.7959, 'depth': -0.064, 'time': 5, 'pitch': -14.15, 'roll': -0.19, 'pres': 163}
{'lipoC2': 7.9, 'lipoC3S1': 3.96, 'temp': 28.44, 'lipoC3S3': 11.98, 'lipoC3S2': 7.92, 'rot1': 0, 'rot0': 0, 'rot3': 0, 'rot2': 0, 'state': 'normal', 'yaw': 17.31, 'datetime': '2018-10-05 19:34:35.439163', 'mgs': 0, 'volt': 0.7959, 'depth': -0.064, 'time': 5, 'pitch': -15.34, 'roll': -0.12, 'pres': 163}
{'lipoC2': 7.88, 'lipoC3S1': 3.96, 'temp': 28.44, 'lipoC3S3': 11.98, 'lipoC3S2': 7.92, 'rot1': 0, 'rot0': 0, 'rot3': 0, 'rot2': 0, 'state': 'normal', 'yaw': 18.26, 'datetime': '2018-10-05 19:34:35.542626', 'mgs': 0, 'volt': 0.791, 'depth': -0.14, 'time': 5, 'pitch': -16.27, 'roll': -0.05, 'pres': 162}
{'lipoC2': 7.9, 'lipoC3S1': 3.96, 'temp': 28.38, 'lipoC3S3': 11.98, 'lipoC3S2': 7.92, 'rot1': 0, 'rot0': 0, 'rot3': 0, 'rot2': 0, 'state': 'normal', 'yaw': 18.69, 'datetime': '2018-10-05 19:34:35.645921', 'mgs': 0, 'volt': 0.7959, 'depth': -0.064, 'time': 5, 'pitch': -16.73, 'roll': -0.15, 'pres': 163}
{'lipoC2': 7.9, 'lipoC3S1': 3.96, 'temp': 28.38, 'lipoC3S3': 11.98, 'lipoC3S2': 7.92, 'rot1': 0, 'rot0': 0, 'rot3': 0, 'rot2': 0, 'state': 'normal', 'yaw': 19.06, 'datetime': '2018-10-05 19:34:35.749804', 'mgs': 0, 'volt': 0.791, 'depth': -0.14, 'time': 5, 'pitch': -16.88, 'roll': -0.56, 'pres': 162}
{'lipoC2': 7.88, 'lipoC3S1': 3.96, 'temp': 28.44, 'lipoC3S3': 11.98, 'lipoC3S2': 7.92, 'rot1': 0, 'rot0': 0, 'rot3': 0, 'rot2': 0, 'state': 'normal', 'yaw': 19.81, 'datetime': '2018-10-05 19:34:35.853209', 'mgs': 0, 'volt': 0.791, 'depth': -0.14, 'time': 5, 'pitch': -16.9, 'roll': -1.35, 'pres': 162}
{'lipoC2': 7.9, 'lipoC3S1': 3.96, 'temp': 28.44, 'lipoC3S3': 11.98, 'lipoC3S2': 7.92, 'rot1': 0, 'rot0': 0, 'rot3': 0, 'rot2': 0, 'state': 'normal', 'yaw': 20.15, 'datetime': '2018-10-05 19:34:35.957125', 'mgs': 0, 'volt': 0.791, 'depth': -0.14, 'time': 5, 'pitch': -16.35, 'roll': -1.76, 'pres': 162}
{'lipoC2': 7.9, 'lipoC3S1': 3.96, 'temp': 28.44, 'lipoC3S3': 11.98, 'lipoC3S2': 7.91, 'rot1': 0, 'rot0': 0, 'rot3': 0, 'rot2': 0, 'state': 'normal', 'yaw': 20.49, 'datetime': '2018-10-05 19:34:36.061168', 'mgs': 0, 'volt': 0.791, 'depth': -0.14, 'time': 5, 'pitch': -15.97, 'roll': -2.05, 'pres': 162}
{'lipoC2': 7.88, 'lipoC3S1': 3.96, 'temp': 28.44, 'lipoC3S3': 11.98, 'lipoC3S2': 7.91, 'rot1': 0, 'rot0': 0, 'rot3': 0, 'rot2': 0, 'state': 'normal', 'yaw': 20.76, 'datetime': '2018-10-05 19:34:36.164575', 'mgs': 0, 'volt': 0.7813, 'depth': -0.293, 'time': 5, 'pitch': -15.65, 'roll': -2.29, 'pres': 160}
{'lipoC2': 7.9, 'lipoC3S1': 3.96, 'temp': 28.44, 'lipoC3S3': 11.98, 'lipoC3S2': 7.91, 'rot1': 0, 'rot0': 0, 'rot3': 0, 'rot2': 0, 'state': 'normal', 'yaw': 20.74, 'datetime': '2018-10-05 19:34:36.269247', 'mgs': 0, 'volt': 0.7813, 'depth': -0.293, 'time': 6, 'pitch': -15.31, 'roll': -2.38, 'pres': 160}
{'lipoC2': 7.88, 'lipoC3S1': 3.96, 'temp': 28.38, 'lipoC3S3': 11.98, 'lipoC3S2': 7.92, 'rot1': 0, 'rot0': 0, 'rot3': 0, 'rot2': 0, 'state': 'normal', 'yaw': 20.63, 'datetime': '2018-10-05 19:34:36.373108', 'mgs': 0, 'volt': 0.7813, 'depth': -0.293, 'time': 6, 'pitch': -14.92, 'roll': -2.58, 'pres': 160}
{'lipoC2': 7.9, 'lipoC3S1': 3.96, 'temp': 28.38, 'lipoC3S3': 11.98, 'lipoC3S2': 7.92, 'rot1': 0, 'rot0': 0, 'rot3': 0, 'rot2': 0, 'state': 'normal', 'yaw': 20.56, 'datetime': '2018-10-05 19:34:36.476500', 'mgs': 0, 'volt': 0.7764, 'depth': -0.369, 'time': 6, 'pitch': -14.78, 'roll': -2.98, 'pres': 159}
{'lipoC2': 7.9, 'lipoC3S1': 3.96, 'temp': 28.44, 'lipoC3S3': 11.98, 'lipoC3S2': 7.91, 'rot1': 0, 'rot0': 0, 'rot3': 0, 'rot2': 0, 'state': 'normal', 'yaw': 20.21, 'datetime': '2018-10-05 19:34:36.579902', 'mgs': 0, 'volt': 0.7715, 'depth': -0.446, 'time': 6, 'pitch': -14.42, 'roll': -3.32, 'pres': 158}
{'lipoC2': 7.9, 'lipoC3S1': 3.96, 'temp': 28.44, 'lipoC3S3': 11.98, 'lipoC3S2': 7.92, 'rot1': 0, 'rot0': 0, 'rot3': 0, 'rot2': 0, 'state': 'normal', 'yaw': 19.6, 'datetime': '2018-10-05 19:34:36.683274', 'mgs': 0, 'volt': 0.7715, 'depth': -0.446, 'time': 6, 'pitch': -13.64, 'roll': -3.73, 'pres': 158}
{'lipoC2': 7.9, 'lipoC3S1': 3.96, 'temp': 28.44, 'lipoC3S3': 11.98, 'lipoC3S2': 7.92, 'rot1': 0, 'rot0': 0, 'rot3': 0, 'rot2': 0, 'state': 'normal', 'yaw': 19.06, 'datetime': '2018-10-05 19:34:36.786409', 'mgs': 0, 'volt': 0.7715, 'depth': -0.446, 'time': 6, 'pitch': -12.97, 'roll': -4.12, 'pres': 158}
{'lipoC2': 7.88, 'lipoC3S1': 3.96, 'temp': 28.44, 'lipoC3S3': 11.98, 'lipoC3S2': 7.92, 'rot1': 0, 'rot0': 0, 'rot3': 0, 'rot2': 0, 'state': 'normal', 'yaw': 18.53, 'datetime': '2018-10-05 19:34:36.889813', 'mgs': 0, 'volt': 0.7666, 'depth': -0.522, 'time': 6, 'pitch': -12.47, 'roll': -4.43, 'pres': 157}
{'lipoC2': 7.9, 'lipoC3S1': 3.96, 'temp': 28.44, 'lipoC3S3': 11.98, 'lipoC3S2': 7.92, 'rot1': 0, 'rot0': 0, 'rot3': 0, 'rot2': 0, 'state': 'normal', 'yaw': 17.62, 'datetime': '2018-10-05 19:34:36.993378', 'mgs': 0, 'volt': 0.7715, 'depth': -0.446, 'time': 6, 'pitch': -11.99, 'roll': -4.35, 'pres': 158}
{'lipoC2': 7.9, 'lipoC3S1': 3.96, 'temp': 28.38, 'lipoC3S3': 11.98, 'lipoC3S2': 7.92, 'rot1': 0, 'rot0': 0, 'rot3': 0, 'rot2': 0, 'state': 'normal', 'yaw': 16.24, 'datetime': '2018-10-05 19:34:37.097226', 'mgs': 0, 'volt': 0.7666, 'depth': -0.522, 'time': 6, 'pitch': -11.42, 'roll': -3.8, 'pres': 157}
{'lipoC2': 7.9, 'lipoC3S1': 3.96, 'temp': 28.38, 'lipoC3S3': 11.98, 'lipoC3S2': 7.92, 'rot1': 0, 'rot0': 0, 'rot3': 0, 'rot2': 0, 'state': 'normal', 'yaw': 15.54, 'datetime': '2018-10-05 19:34:37.200076', 'mgs': 0, 'volt': 0.7715, 'depth': -0.446, 'time': 6, 'pitch': -11.42, 'roll': -3.28, 'pres': 158}
{'lipoC2': 7.9, 'lipoC3S1': 3.96, 'temp': 28.38, 'lipoC3S3': 11.98, 'lipoC3S2': 7.92, 'rot1': 0, 'rot0': 0, 'rot3': 0, 'rot2': 0, 'state': 'normal', 'yaw': 15.29, 'datetime': '2018-10-05 19:34:37.302353', 'mgs': 0, 'volt': 0.7715, 'depth': -0.446, 'time': 7, 'pitch': -11.3, 'roll': -2.92, 'pres': 158}
{'lipoC2': 7.9, 'lipoC3S1': 3.96, 'temp': 28.38, 'lipoC3S3': 11.98, 'lipoC3S2': 7.92, 'rot1': 0, 'rot0': 0, 'rot3': 0, 'rot2': 0, 'state': 'normal', 'yaw': 14.78, 'datetime': '2018-10-05 19:34:37.400415', 'mgs': 0, 'volt': 0.7715, 'depth': -0.446, 'time': 7, 'pitch': -10.66, 'roll': -2.36, 'pres': 158}
{'lipoC2': 7.9, 'lipoC3S1': 3.96, 'temp': 28.38, 'lipoC3S3': 11.98, 'lipoC3S2': 7.92, 'rot1': 0, 'rot0': 0, 'rot3': 0, 'rot2': 0, 'state': 'normal', 'yaw': 14.19, 'datetime': '2018-10-05 19:34:37.503998', 'mgs': 0, 'volt': 0.7715, 'depth': -0.446, 'time': 7, 'pitch': -9.96, 'roll': -1.74, 'pres': 158}
{'lipoC2': 7.9, 'lipoC3S1': 3.96, 'temp': 28.38, 'lipoC3S3': 11.98, 'lipoC3S2': 7.92, 'rot1': 0, 'rot0': 0, 'rot3': 0, 'rot2': 0, 'state': 'normal', 'yaw': 13.54, 'datetime': '2018-10-05 19:34:37.608203', 'mgs': 0, 'volt': 0.7715, 'depth': -0.446, 'time': 7, 'pitch': -9.8, 'roll': -1.05, 'pres': 158}
{'lipoC2': 7.88, 'lipoC3S1': 3.96, 'temp': 28.38, 'lipoC3S3': 11.98, 'lipoC3S2': 7.92, 'rot1': 0, 'rot0': 0, 'rot3': 0, 'rot2': 0, 'state': 'normal', 'yaw': 12.83, 'datetime': '2018-10-05 19:34:37.711509', 'mgs': 0, 'volt': 0.7764, 'depth': -0.369, 'time': 7, 'pitch': -10.3, 'roll': -0.17, 'pres': 159}
{'lipoC2': 7.9, 'lipoC3S1': 3.96, 'temp': 28.44, 'lipoC3S3': 11.98, 'lipoC3S2': 7.92, 'rot1': 0, 'rot0': 0, 'rot3': 0, 'rot2': 0, 'state': 'normal', 'yaw': 12.36, 'datetime': '2018-10-05 19:34:37.815645', 'mgs': 0, 'volt': 0.7764, 'depth': -0.369, 'time': 7, 'pitch': -10.93, 'roll': 0.48, 'pres': 159}
{'lipoC2': 7.9, 'lipoC3S1': 3.96, 'temp': 28.44, 'lipoC3S3': 11.98, 'lipoC3S2': 7.92, 'rot1': 0, 'rot0': 0, 'rot3': 0, 'rot2': 0, 'state': 'normal', 'yaw': 12.1, 'datetime': '2018-10-05 19:34:37.919565', 'mgs': 0, 'volt': 0.7764, 'depth': -0.369, 'time': 7, 'pitch': -11.27, 'roll': 1.03, 'pres': 159}
{'lipoC2': 7.9, 'lipoC3S1': 3.96, 'temp': 28.38, 'lipoC3S3': 11.98, 'lipoC3S2': 7.92, 'rot1': 0, 'rot0': 0, 'rot3': 0, 'rot2': 0, 'state': 'normal', 'yaw': 12.06, 'datetime': '2018-10-05 19:34:38.022883', 'mgs': 0, 'volt': 0.7764, 'depth': -0.369, 'time': 7, 'pitch': -11.41, 'roll': 1.46, 'pres': 159}
{'lipoC2': 7.9, 'lipoC3S1': 3.96, 'temp': 28.38, 'lipoC3S3': 11.98, 'lipoC3S2': 7.91, 'rot1': 0, 'rot0': 0, 'rot3': 0, 'rot2': 0, 'state': 'normal', 'yaw': 12.21, 'datetime': '2018-10-05 19:34:38.132381', 'mgs': 0, 'volt': 0.7764, 'depth': -0.369, 'time': 7, 'pitch': -11.59, 'roll': 1.62, 'pres': 159}
{'lipoC2': 7.9, 'lipoC3S1': 3.96, 'temp': 28.38, 'lipoC3S3': 11.98, 'lipoC3S2': 7.92, 'rot1': 0, 'rot0': 0, 'rot3': 0, 'rot2': 0, 'state': 'normal', 'yaw': 12.25, 'datetime': '2018-10-05 19:34:38.236320', 'mgs': 0, 'volt': 0.7764, 'depth': -0.369, 'time': 7, 'pitch': -11.82, 'roll': 1.65, 'pres': 159}
{'lipoC2': 7.9, 'lipoC3S1': 3.96, 'temp': 28.44, 'lipoC3S3': 11.98, 'lipoC3S2': 7.91, 'rot1': 0, 'rot0': 0, 'rot3': 0, 'rot2': 0, 'state': 'normal', 'yaw': 12.17, 'datetime': '2018-10-05 19:34:38.339578', 'mgs': 0, 'volt': 0.7764, 'depth': -0.369, 'time': 8, 'pitch': -12.06, 'roll': 1.58, 'pres': 159}
{'lipoC2': 7.9, 'lipoC3S1': 3.96, 'temp': 28.44, 'lipoC3S3': 11.98, 'lipoC3S2': 7.92, 'rot1': 0, 'rot0': 0, 'rot3': 0, 'rot2': 0, 'state': 'normal', 'yaw': 11.77, 'datetime': '2018-10-05 19:34:38.442973', 'mgs': 0, 'volt': 0.7813, 'depth': -0.293, 'time': 8, 'pitch': -12.27, 'roll': 1.55, 'pres': 160}
{'lipoC2': 7.9, 'lipoC3S1': 3.96, 'temp': 28.38, 'lipoC3S3': 11.98, 'lipoC3S2': 7.91, 'rot1': 0, 'rot0': 0, 'rot3': 0, 'rot2': 0, 'state': 'normal', 'yaw': 11.02, 'datetime': '2018-10-05 19:34:38.546226', 'mgs': 0, 'volt': 0.7764, 'depth': -0.369, 'time': 8, 'pitch': -12.55, 'roll': 1.63, 'pres': 159}
{'lipoC2': 7.9, 'lipoC3S1': 3.96, 'temp': 28.38, 'lipoC3S3': 11.98, 'lipoC3S2': 7.91, 'rot1': 0, 'rot0': 0, 'rot3': 0, 'rot2': 0, 'state': 'normal', 'yaw': 10.27, 'datetime': '2018-10-05 19:34:38.649516', 'mgs': 0, 'volt': 0.7813, 'depth': -0.293, 'time': 8, 'pitch': -12.93, 'roll': 1.64, 'pres': 160}
{'lipoC2': 7.9, 'lipoC3S1': 3.96, 'temp': 28.38, 'lipoC3S3': 11.98, 'lipoC3S2': 7.92, 'rot1': 0, 'rot0': 0, 'rot3': 0, 'rot2': 0, 'state': 'normal', 'yaw': 10.01, 'datetime': '2018-10-05 19:34:38.752857', 'mgs': 0, 'volt': 0.7813, 'depth': -0.293, 'time': 8, 'pitch': -13.09, 'roll': 1.34, 'pres': 160}
{'lipoC2': 7.9, 'lipoC3S1': 3.96, 'temp': 28.38, 'lipoC3S3': 11.98, 'lipoC3S2': 7.91, 'rot1': 0, 'rot0': 0, 'rot3': 0, 'rot2': 0, 'state': 'normal', 'yaw': 9.87, 'datetime': '2018-10-05 19:34:38.857204', 'mgs': 0, 'volt': 0.7813, 'depth': -0.293, 'time': 8, 'pitch': -12.84, 'roll': 0.96, 'pres': 160}
{'lipoC2': 7.9, 'lipoC3S1': 3.96, 'temp': 28.38, 'lipoC3S3': 11.98, 'lipoC3S2': 7.92, 'rot1': 0, 'rot0': 0, 'rot3': 0, 'rot2': 0, 'state': 'normal', 'yaw': 9.89, 'datetime': '2018-10-05 19:34:38.959530', 'mgs': 0, 'volt': 0.7813, 'depth': -0.293, 'time': 8, 'pitch': -12.6, 'roll': 0.44, 'pres': 160}
{'lipoC2': 7.9, 'lipoC3S1': 3.96, 'temp': 28.44, 'lipoC3S3': 11.98, 'lipoC3S2': 7.92, 'rot1': 0, 'rot0': 0, 'rot3': 0, 'rot2': 0, 'state': 'normal', 'yaw': 9.29, 'datetime': '2018-10-05 19:34:39.062871', 'mgs': 0, 'volt': 0.7813, 'depth': -0.293, 'time': 8, 'pitch': -12.87, 'roll': 0.38, 'pres': 160}
{'lipoC2': 7.9, 'lipoC3S1': 3.96, 'temp': 28.44, 'lipoC3S3': 11.98, 'lipoC3S2': 7.92, 'rot1': 0, 'rot0': 0, 'rot3': 0, 'rot2': 0, 'state': 'normal', 'yaw': 8.79, 'datetime': '2018-10-05 19:34:39.167456', 'mgs': 0, 'volt': 0.7813, 'depth': -0.293, 'time': 8, 'pitch': -13.97, 'roll': 0.29, 'pres': 160}
{'lipoC2': 7.9, 'lipoC3S1': 3.96, 'temp': 28.38, 'lipoC3S3': 11.98, 'lipoC3S2': 7.92, 'rot1': 0, 'rot0': 0, 'rot3': 0, 'rot2': 0, 'state': 'normal', 'yaw': 8.76, 'datetime': '2018-10-05 19:34:39.270873', 'mgs': 0, 'volt': 0.7813, 'depth': -0.293, 'time': 9, 'pitch': -15.82, 'roll': -0.16, 'pres': 160}
{'lipoC2': 7.9, 'lipoC3S1': 3.96, 'temp': 28.38, 'lipoC3S3': 11.98, 'lipoC3S2': 7.92, 'rot1': 0, 'rot0': 0, 'rot3': 0, 'rot2': 0, 'state': 'normal', 'yaw': 8.72, 'datetime': '2018-10-05 19:34:39.374560', 'mgs': 0, 'volt': 0.7813, 'depth': -0.293, 'time': 9, 'pitch': -17.4, 'roll': -0.41, 'pres': 160}
{'lipoC2': 7.9, 'lipoC3S1': 3.96, 'temp': 28.44, 'lipoC3S3': 11.98, 'lipoC3S2': 7.91, 'rot1': 0, 'rot0': 0, 'rot3': 0, 'rot2': 0, 'state': 'normal', 'yaw': 8.76, 'datetime': '2018-10-05 19:34:39.479554', 'mgs': 0, 'volt': 0.7813, 'depth': -0.293, 'time': 9, 'pitch': -18.56, 'roll': -0.49, 'pres': 160}
{'lipoC2': 7.9, 'lipoC3S1': 3.96, 'temp': 28.44, 'lipoC3S3': 11.98, 'lipoC3S2': 7.92, 'rot1': 0, 'rot0': 0, 'rot3': 0, 'rot2': 0, 'state': 'normal', 'yaw': 8.84, 'datetime': '2018-10-05 19:34:39.582941', 'mgs': 0, 'volt': 0.7764, 'depth': -0.369, 'time': 9, 'pitch': -19.39, 'roll': -0.43, 'pres': 159}
{'lipoC2': 7.9, 'lipoC3S1': 3.96, 'temp': 28.44, 'lipoC3S3': 11.98, 'lipoC3S2': 7.91, 'rot1': 0, 'rot0': 0, 'rot3': 0, 'rot2': 0, 'state': 'normal', 'yaw': 8.86, 'datetime': '2018-10-05 19:34:39.686365', 'mgs': 0, 'volt': 0.7764, 'depth': -0.369, 'time': 9, 'pitch': -19.93, 'roll': -0.1, 'pres': 159}
{'lipoC2': 7.9, 'lipoC3S1': 3.96, 'temp': 28.38, 'lipoC3S3': 11.98, 'lipoC3S2': 7.92, 'rot1': 0, 'rot0': 0, 'rot3': 0, 'rot2': 0, 'state': 'normal', 'yaw': 8.72, 'datetime': '2018-10-05 19:34:39.786243', 'mgs': 0, 'volt': 0.7764, 'depth': -0.369, 'time': 9, 'pitch': -20.28, 'roll': 0.59, 'pres': 159}
{'lipoC2': 7.9, 'lipoC3S1': 3.96, 'temp': 28.38, 'lipoC3S3': 11.98, 'lipoC3S2': 7.92, 'rot1': 0, 'rot0': 0, 'rot3': 0, 'rot2': 0, 'state': 'normal', 'yaw': 8.6, 'datetime': '2018-10-05 19:34:39.893361', 'mgs': 0, 'volt': 0.7764, 'depth': -0.369, 'time': 9, 'pitch': -20.37, 'roll': 1.51, 'pres': 159}
{'lipoC2': 7.9, 'lipoC3S1': 3.96, 'temp': 28.44, 'lipoC3S3': 11.98, 'lipoC3S2': 7.92, 'rot1': 0, 'rot0': 0, 'rot3': 0, 'rot2': 0, 'state': 'normal', 'yaw': 8.67, 'datetime': '2018-10-05 19:34:39.996913', 'mgs': 0, 'volt': 0.7764, 'depth': -0.369, 'time': 9, 'pitch': -20.06, 'roll': 2.26, 'pres': 159}
{'lipoC2': 7.9, 'lipoC3S1': 3.96, 'temp': 28.44, 'lipoC3S3': 11.98, 'lipoC3S2': 7.91, 'rot1': 0, 'rot0': 0, 'rot3': 0, 'rot2': 0, 'state': 'normal', 'yaw': 8.98, 'datetime': '2018-10-05 19:34:40.100234', 'mgs': 0, 'volt': 0.7813, 'depth': -0.293, 'time': 9, 'pitch': -19.22, 'roll': 2.74, 'pres': 160}
{'lipoC2': 7.9, 'lipoC3S1': 3.96, 'temp': 28.38, 'lipoC3S3': 11.98, 'lipoC3S2': 7.92, 'rot1': 0, 'rot0': 0, 'rot3': 0, 'rot2': 0, 'state': 'normal', 'yaw': 9.44, 'datetime': '2018-10-05 19:34:40.203349', 'mgs': 0, 'volt': 0.7764, 'depth': -0.369, 'time': 9, 'pitch': -17.91, 'roll': 3.0, 'pres': 159}
{'lipoC2': 7.9, 'lipoC3S1': 3.96, 'temp': 28.38, 'lipoC3S3': 11.98, 'lipoC3S2': 7.92, 'rot1': 0, 'rot0': 0, 'rot3': 0, 'rot2': 0, 'state': 'normal', 'yaw': 9.79, 'datetime': '2018-10-05 19:34:40.306887', 'mgs': 0, 'volt': 0.7813, 'depth': -0.293, 'time': 10, 'pitch': -16.75, 'roll': 3.05, 'pres': 160}
{'lipoC2': 7.9, 'lipoC3S1': 3.96, 'temp': 28.38, 'lipoC3S3': 11.98, 'lipoC3S2': 7.91, 'rot1': 0, 'rot0': 0, 'rot3': 0, 'rot2': 0, 'state': 'normal', 'yaw': 10.08, 'datetime': '2018-10-05 19:34:40.410682', 'mgs': 0, 'volt': 0.7813, 'depth': -0.293, 'time': 10, 'pitch': -15.96, 'roll': 2.88, 'pres': 160}
{'lipoC2': 7.9, 'lipoC3S1': 3.96, 'temp': 28.44, 'lipoC3S3': 11.98, 'lipoC3S2': 7.92, 'rot1': 0, 'rot0': 0, 'rot3': 0, 'rot2': 0, 'state': 'normal', 'yaw': 10.5, 'datetime': '2018-10-05 19:34:40.514016', 'mgs': 0, 'volt': 0.7764, 'depth': -0.369, 'time': 10, 'pitch': -15.47, 'roll': 2.27, 'pres': 159}
{'lipoC2': 7.9, 'lipoC3S1': 3.96, 'temp': 28.44, 'lipoC3S3': 11.98, 'lipoC3S2': 7.91, 'rot1': 0, 'rot0': 0, 'rot3': 0, 'rot2': 0, 'state': 'normal', 'yaw': 10.88, 'datetime': '2018-10-05 19:34:40.617673', 'mgs': 0, 'volt': 0.7764, 'depth': -0.369, 'time': 10, 'pitch': -15.34, 'roll': 1.49, 'pres': 159}
{'lipoC2': 7.9, 'lipoC3S1': 3.96, 'temp': 28.44, 'lipoC3S3': 11.98, 'lipoC3S2': 7.91, 'rot1': 0, 'rot0': 0, 'rot3': 0, 'rot2': 0, 'state': 'normal', 'yaw': 11.08, 'datetime': '2018-10-05 19:34:40.722471', 'mgs': 0, 'volt': 0.7764, 'depth': -0.369, 'time': 10, 'pitch': -15.36, 'roll': 0.74, 'pres': 159}
{'lipoC2': 7.9, 'lipoC3S1': 3.96, 'temp': 28.44, 'lipoC3S3': 11.98, 'lipoC3S2': 7.92, 'rot1': 0, 'rot0': 0, 'rot3': 0, 'rot2': 0, 'state': 'normal', 'yaw': 11.11, 'datetime': '2018-10-05 19:34:40.825894', 'mgs': 0, 'volt': 0.7764, 'depth': -0.369, 'time': 10, 'pitch': -15.39, 'roll': 0.11, 'pres': 159}
{'lipoC2': 7.9, 'lipoC3S1': 3.96, 'temp': 28.44, 'lipoC3S3': 11.98, 'lipoC3S2': 7.91, 'rot1': 0, 'rot0': 0, 'rot3': 0, 'rot2': 0, 'state': 'normal', 'yaw': 11.0, 'datetime': '2018-10-05 19:34:40.930772', 'mgs': 0, 'volt': 0.7764, 'depth': -0.369, 'time': 10, 'pitch': -15.39, 'roll': -0.32, 'pres': 159}
{'lipoC2': 7.9, 'lipoC3S1': 3.96, 'temp': 28.44, 'lipoC3S3': 11.98, 'lipoC3S2': 7.92, 'rot1': 0, 'rot0': 0, 'rot3': 0, 'rot2': 0, 'state': 'normal', 'yaw': 10.74, 'datetime': '2018-10-05 19:34:41.034274', 'mgs': 0, 'volt': 0.7764, 'depth': -0.369, 'time': 10, 'pitch': -15.53, 'roll': -0.69, 'pres': 159}
{'lipoC2': 7.9, 'lipoC3S1': 3.96, 'temp': 28.44, 'lipoC3S3': 11.97, 'lipoC3S2': 7.92, 'rot1': 0, 'rot0': 0, 'rot3': 0, 'rot2': 0, 'state': 'normal', 'yaw': 10.49, 'datetime': '2018-10-05 19:34:41.137864', 'mgs': 0, 'volt': 0.7764, 'depth': -0.369, 'time': 10, 'pitch': -15.98, 'roll': -1.03, 'pres': 159}
{'lipoC2': 7.9, 'lipoC3S1': 3.96, 'temp': 28.44, 'lipoC3S3': 11.98, 'lipoC3S2': 7.91, 'rot1': 0, 'rot0': 0, 'rot3': 0, 'rot2': 0, 'state': 'normal', 'yaw': 10.25, 'datetime': '2018-10-05 19:34:41.241444', 'mgs': 0, 'volt': 0.7764, 'depth': -0.369, 'time': 10, 'pitch': -16.6, 'roll': -1.35, 'pres': 159}
{'lipoC2': 7.9, 'lipoC3S1': 3.96, 'temp': 28.44, 'lipoC3S3': 11.98, 'lipoC3S2': 7.91, 'rot1': 0, 'rot0': 0, 'rot3': 0, 'rot2': 0, 'state': 'normal', 'yaw': 9.97, 'datetime': '2018-10-05 19:34:41.344890', 'mgs': 0, 'volt': 0.7813, 'depth': -0.293, 'time': 11, 'pitch': -17.33, 'roll': -1.57, 'pres': 160}
{'lipoC2': 7.9, 'lipoC3S1': 3.96, 'temp': 28.44, 'lipoC3S3': 11.98, 'lipoC3S2': 7.92, 'rot1': 0, 'rot0': 0, 'rot3': 0, 'rot2': 0, 'state': 'normal', 'yaw': 9.5, 'datetime': '2018-10-05 19:34:41.448511', 'mgs': 0, 'volt': 0.7813, 'depth': -0.293, 'time': 11, 'pitch': -18.09, 'roll': -1.43, 'pres': 160}
{'lipoC2': 7.9, 'lipoC3S1': 3.96, 'temp': 28.44, 'lipoC3S3': 11.98, 'lipoC3S2': 7.91, 'rot1': 0, 'rot0': 0, 'rot3': 0, 'rot2': 0, 'state': 'normal', 'yaw': 9.13, 'datetime': '2018-10-05 19:34:41.552065', 'mgs': 0, 'volt': 0.7813, 'depth': -0.293, 'time': 11, 'pitch': -18.56, 'roll': -1.14, 'pres': 160}
{'lipoC2': 7.9, 'lipoC3S1': 3.96, 'temp': 28.38, 'lipoC3S3': 11.98, 'lipoC3S2': 7.92, 'rot1': 0, 'rot0': 0, 'rot3': 0, 'rot2': 0, 'state': 'normal', 'yaw': 9.41, 'datetime': '2018-10-05 19:34:41.655556', 'mgs': 0, 'volt': 0.7861, 'depth': -0.217, 'time': 11, 'pitch': -17.93, 'roll': -1.15, 'pres': 161}
{'lipoC2': 7.9, 'lipoC3S1': 3.96, 'temp': 28.38, 'lipoC3S3': 11.98, 'lipoC3S2': 7.91, 'rot1': 0, 'rot0': 0, 'rot3': 0, 'rot2': 0, 'state': 'normal', 'yaw': 10.19, 'datetime': '2018-10-05 19:34:41.759128', 'mgs': 0, 'volt': 0.7813, 'depth': -0.293, 'time': 11, 'pitch': -17.31, 'roll': -1.4, 'pres': 160}
{'lipoC2': 7.9, 'lipoC3S1': 3.96, 'temp': 28.38, 'lipoC3S3': 11.98, 'lipoC3S2': 7.91, 'rot1': 0, 'rot0': 0, 'rot3': 0, 'rot2': 0, 'state': 'normal', 'yaw': 10.57, 'datetime': '2018-10-05 19:34:41.863355', 'mgs': 0, 'volt': 0.7861, 'depth': -0.217, 'time': 11, 'pitch': -17.55, 'roll': -1.26, 'pres': 161}
{'lipoC2': 7.9, 'lipoC3S1': 3.96, 'temp': 28.44, 'lipoC3S3': 11.98, 'lipoC3S2': 7.91, 'rot1': 0, 'rot0': 0, 'rot3': 0, 'rot2': 0, 'state': 'normal', 'yaw': 11.46, 'datetime': '2018-10-05 19:34:41.966375', 'mgs': 0, 'volt': 0.7861, 'depth': -0.217, 'time': 11, 'pitch': -17.72, 'roll': -1.35, 'pres': 161}
{'lipoC2': 7.9, 'lipoC3S1': 3.96, 'temp': 28.44, 'lipoC3S3': 11.98, 'lipoC3S2': 7.92, 'rot1': 0, 'rot0': 0, 'rot3': 0, 'rot2': 0, 'state': 'normal', 'yaw': 12.02, 'datetime': '2018-10-05 19:34:42.069890', 'mgs': 0, 'volt': 0.791, 'depth': -0.14, 'time': 11, 'pitch': -18.12, 'roll': -1.09, 'pres': 162}
{'lipoC2': 7.9, 'lipoC3S1': 3.96, 'temp': 28.44, 'lipoC3S3': 11.98, 'lipoC3S2': 7.92, 'rot1': 0, 'rot0': 0, 'rot3': 0, 'rot2': 0, 'state': 'normal', 'yaw': 12.7, 'datetime': '2018-10-05 19:34:42.175107', 'mgs': 0, 'volt': 0.791, 'depth': -0.14, 'time': 11, 'pitch': -18.17, 'roll': -0.79, 'pres': 162}
{'lipoC2': 7.9, 'lipoC3S1': 3.96, 'temp': 28.44, 'lipoC3S3': 11.98, 'lipoC3S2': 7.92, 'rot1': 0, 'rot0': 0, 'rot3': 0, 'rot2': 0, 'state': 'normal', 'yaw': 13.55, 'datetime': '2018-10-05 19:34:42.279605', 'mgs': 0, 'volt': 0.791, 'depth': -0.14, 'time': 12, 'pitch': -17.63, 'roll': -0.39, 'pres': 162}
{'lipoC2': 7.9, 'lipoC3S1': 3.96, 'temp': 28.38, 'lipoC3S3': 11.98, 'lipoC3S2': 7.92, 'rot1': 0, 'rot0': 0, 'rot3': 0, 'rot2': 0, 'state': 'normal', 'yaw': 14.43, 'datetime': '2018-10-05 19:34:42.381316', 'mgs': 0, 'volt': 0.791, 'depth': -0.14, 'time': 12, 'pitch': -17.08, 'roll': -0.1, 'pres': 162}
{'lipoC2': 7.9, 'lipoC3S1': 3.96, 'temp': 28.38, 'lipoC3S3': 11.98, 'lipoC3S2': 7.92, 'rot1': 0, 'rot0': 0, 'rot3': 0, 'rot2': 0, 'state': 'normal', 'yaw': 15.12, 'datetime': '2018-10-05 19:34:42.486995', 'mgs': 0, 'volt': 0.791, 'depth': -0.14, 'time': 12, 'pitch': -16.97, 'roll': 0.21, 'pres': 162}
{'lipoC2': 7.9, 'lipoC3S1': 3.96, 'temp': 28.38, 'lipoC3S3': 11.98, 'lipoC3S2': 7.92, 'rot1': 0, 'rot0': 0, 'rot3': 0, 'rot2': 0, 'state': 'normal', 'yaw': 15.42, 'datetime': '2018-10-05 19:34:42.590580', 'mgs': 0, 'volt': 0.7861, 'depth': -0.217, 'time': 12, 'pitch': -17.03, 'roll': 0.81, 'pres': 161}
{'lipoC2': 7.9, 'lipoC3S1': 3.96, 'temp': 28.38, 'lipoC3S3': 11.98, 'lipoC3S2': 7.92, 'rot1': 0, 'rot0': 0, 'rot3': 0, 'rot2': 0, 'state': 'normal', 'yaw': 15.6, 'datetime': '2018-10-05 19:34:42.694141', 'mgs': 0, 'volt': 0.7861, 'depth': -0.217, 'time': 12, 'pitch': -16.87, 'roll': 1.33, 'pres': 161}
{'lipoC2': 7.9, 'lipoC3S1': 3.96, 'temp': 28.38, 'lipoC3S3': 11.98, 'lipoC3S2': 7.92, 'rot1': 0, 'rot0': 0, 'rot3': 0, 'rot2': 0, 'state': 'normal', 'yaw': 15.61, 'datetime': '2018-10-05 19:34:42.797925', 'mgs': 0, 'volt': 0.791, 'depth': -0.14, 'time': 12, 'pitch': -16.32, 'roll': 1.82, 'pres': 162}
{'lipoC2': 7.9, 'lipoC3S1': 3.96, 'temp': 28.44, 'lipoC3S3': 11.98, 'lipoC3S2': 7.91, 'rot1': 0, 'rot0': 0, 'rot3': 0, 'rot2': 0, 'state': 'normal', 'yaw': 15.62, 'datetime': '2018-10-05 19:34:42.897778', 'mgs': 0, 'volt': 0.791, 'depth': -0.14, 'time': 12, 'pitch': -15.09, 'roll': 2.32, 'pres': 162}
{'lipoC2': 7.9, 'lipoC3S1': 3.96, 'temp': 28.44, 'lipoC3S3': 11.98, 'lipoC3S2': 7.92, 'rot1': 0, 'rot0': 0, 'rot3': 0, 'rot2': 0, 'state': 'normal', 'yaw': 15.58, 'datetime': '2018-10-05 19:34:43.004532', 'mgs': 0, 'volt': 0.791, 'depth': -0.14, 'time': 12, 'pitch': -13.77, 'roll': 2.73, 'pres': 162}
{'lipoC2': 7.9, 'lipoC3S1': 3.96, 'temp': 28.38, 'lipoC3S3': 11.98, 'lipoC3S2': 7.92, 'rot1': 0, 'rot0': 0, 'rot3': 0, 'rot2': 0, 'state': 'normal', 'yaw': 15.29, 'datetime': '2018-10-05 19:34:43.108076', 'mgs': 0, 'volt': 0.791, 'depth': -0.14, 'time': 12, 'pitch': -13.2, 'roll': 3.11, 'pres': 162}
{'lipoC2': 7.9, 'lipoC3S1': 3.96, 'temp': 28.38, 'lipoC3S3': 11.98, 'lipoC3S2': 7.91, 'rot1': 0, 'rot0': 0, 'rot3': 0, 'rot2': 0, 'state': 'normal', 'yaw': 14.69, 'datetime': '2018-10-05 19:34:43.211562', 'mgs': 0, 'volt': 0.7861, 'depth': -0.217, 'time': 12, 'pitch': -13.59, 'roll': 3.3, 'pres': 161}
{'lipoC2': 7.9, 'lipoC3S1': 3.96, 'temp': 28.38, 'lipoC3S3': 11.98, 'lipoC3S2': 7.92, 'rot1': 0, 'rot0': 0, 'rot3': 0, 'rot2': 0, 'state': 'normal', 'yaw': 13.99, 'datetime': '2018-10-05 19:34:43.314967', 'mgs': 0, 'volt': 0.791, 'depth': -0.14, 'time': 13, 'pitch': -13.47, 'roll': 3.19, 'pres': 162}
{'lipoC2': 7.88, 'lipoC3S1': 3.96, 'temp': 28.38, 'lipoC3S3': 11.98, 'lipoC3S2': 7.92, 'rot1': 0, 'rot0': 0, 'rot3': 0, 'rot2': 0, 'state': 'normal', 'yaw': 13.24, 'datetime': '2018-10-05 19:34:43.420795', 'mgs': 0, 'volt': 0.791, 'depth': -0.14, 'time': 13, 'pitch': -12.67, 'roll': 2.86, 'pres': 162}
{'lipoC2': 7.9, 'lipoC3S1': 3.96, 'temp': 28.38, 'lipoC3S3': 11.98, 'lipoC3S2': 7.92, 'rot1': 0, 'rot0': 0, 'rot3': 0, 'rot2': 0, 'state': 'normal', 'yaw': 12.45, 'datetime': '2018-10-05 19:34:43.524019', 'mgs': 0, 'volt': 0.7861, 'depth': -0.217, 'time': 13, 'pitch': -11.95, 'roll': 2.32, 'pres': 161}
{'lipoC2': 7.9, 'lipoC3S1': 3.96, 'temp': 28.38, 'lipoC3S3': 11.98, 'lipoC3S2': 7.92, 'rot1': 0, 'rot0': 0, 'rot3': 0, 'rot2': 0, 'state': 'normal', 'yaw': 11.98, 'datetime': '2018-10-05 19:34:43.627083', 'mgs': 0, 'volt': 0.7861, 'depth': -0.217, 'time': 13, 'pitch': -11.7, 'roll': 1.6, 'pres': 161}
{'lipoC2': 7.88, 'lipoC3S1': 3.96, 'temp': 28.38, 'lipoC3S3': 11.98, 'lipoC3S2': 7.92, 'rot1': 0, 'rot0': 0, 'rot3': 0, 'rot2': 0, 'state': 'normal', 'yaw': 11.64, 'datetime': '2018-10-05 19:34:43.730490', 'mgs': 0, 'volt': 0.7813, 'depth': -0.293, 'time': 13, 'pitch': -11.34, 'roll': 0.71, 'pres': 160}
{'lipoC2': 7.88, 'lipoC3S1': 3.96, 'temp': 28.38, 'lipoC3S3': 11.98, 'lipoC3S2': 7.92, 'rot1': 0, 'rot0': 0, 'rot3': 0, 'rot2': 0, 'state': 'normal', 'yaw': 11.51, 'datetime': '2018-10-05 19:34:43.834110', 'mgs': 0, 'volt': 0.7813, 'depth': -0.293, 'time': 13, 'pitch': -10.67, 'roll': -0.09, 'pres': 160}
{'lipoC2': 7.9, 'lipoC3S1': 3.96, 'temp': 28.38, 'lipoC3S3': 11.98, 'lipoC3S2': 7.91, 'rot1': 0, 'rot0': 0, 'rot3': 0, 'rot2': 0, 'state': 'normal', 'yaw': 11.56, 'datetime': '2018-10-05 19:34:43.938613', 'mgs': 0, 'volt': 0.7813, 'depth': -0.293, 'time': 13, 'pitch': -10.11, 'roll': -0.86, 'pres': 160}
{'lipoC2': 7.9, 'lipoC3S1': 3.96, 'temp': 28.38, 'lipoC3S3': 11.98, 'lipoC3S2': 7.92, 'rot1': 0, 'rot0': 0, 'rot3': 0, 'rot2': 0, 'state': 'normal', 'yaw': 11.9, 'datetime': '2018-10-05 19:34:44.042226', 'mgs': 0, 'volt': 0.7764, 'depth': -0.369, 'time': 13, 'pitch': -9.91, 'roll': -1.65, 'pres': 159}
{'lipoC2': 7.9, 'lipoC3S1': 3.96, 'temp': 28.38, 'lipoC3S3': 11.98, 'lipoC3S2': 7.92, 'rot1': 0, 'rot0': 0, 'rot3': 0, 'rot2': 0, 'state': 'normal', 'yaw': 12.41, 'datetime': '2018-10-05 19:34:44.145873', 'mgs': 0, 'volt': 0.7813, 'depth': -0.293, 'time': 13, 'pitch': -10.03, 'roll': -2.21, 'pres': 160}
{'lipoC2': 7.9, 'lipoC3S1': 3.96, 'temp': 28.38, 'lipoC3S3': 11.98, 'lipoC3S2': 7.92, 'rot1': 0, 'rot0': 0, 'rot3': 0, 'rot2': 0, 'state': 'normal', 'yaw': 12.92, 'datetime': '2018-10-05 19:34:44.249136', 'mgs': 0, 'volt': 0.7764, 'depth': -0.369, 'time': 13, 'pitch': -10.18, 'roll': -2.54, 'pres': 159}
{'lipoC2': 7.88, 'lipoC3S1': 3.96, 'temp': 28.44, 'lipoC3S3': 11.98, 'lipoC3S2': 7.92, 'rot1': 0, 'rot0': 0, 'rot3': 0, 'rot2': 0, 'state': 'normal', 'yaw': 13.41, 'datetime': '2018-10-05 19:34:44.352542', 'mgs': 0, 'volt': 0.7764, 'depth': -0.369, 'time': 14, 'pitch': -10.2, 'roll': -2.59, 'pres': 159}
{'lipoC2': 7.9, 'lipoC3S1': 3.96, 'temp': 28.44, 'lipoC3S3': 11.98, 'lipoC3S2': 7.92, 'rot1': 0, 'rot0': 0, 'rot3': 0, 'rot2': 0, 'state': 'normal', 'yaw': 13.82, 'datetime': '2018-10-05 19:34:44.455894', 'mgs': 0, 'volt': 0.7764, 'depth': -0.369, 'time': 14, 'pitch': -10.12, 'roll': -2.34, 'pres': 159}
{'lipoC2': 7.88, 'lipoC3S1': 3.96, 'temp': 28.38, 'lipoC3S3': 11.98, 'lipoC3S2': 7.92, 'rot1': 0, 'rot0': 0, 'rot3': 0, 'rot2': 0, 'state': 'normal', 'yaw': 14.25, 'datetime': '2018-10-05 19:34:44.559404', 'mgs': 0, 'volt': 0.7764, 'depth': -0.369, 'time': 14, 'pitch': -10.0, 'roll': -1.82, 'pres': 159}
{'lipoC2': 7.9, 'lipoC3S1': 3.96, 'temp': 28.38, 'lipoC3S3': 11.98, 'lipoC3S2': 7.92, 'rot1': 0, 'rot0': 0, 'rot3': 0, 'rot2': 0, 'state': 'normal', 'yaw': 14.57, 'datetime': '2018-10-05 19:34:44.662950', 'mgs': 0, 'volt': 0.7764, 'depth': -0.369, 'time': 14, 'pitch': -9.72, 'roll': -1.05, 'pres': 159}
{'lipoC2': 7.9, 'lipoC3S1': 3.96, 'temp': 28.38, 'lipoC3S3': 11.98, 'lipoC3S2': 7.91, 'rot1': 0, 'rot0': 0, 'rot3': 0, 'rot2': 0, 'state': 'normal', 'yaw': 14.86, 'datetime': '2018-10-05 19:34:44.766764', 'mgs': 0, 'volt': 0.7764, 'depth': -0.369, 'time': 14, 'pitch': -9.5, 'roll': -0.1, 'pres': 159}
{'lipoC2': 7.9, 'lipoC3S1': 3.96, 'temp': 28.38, 'lipoC3S3': 11.98, 'lipoC3S2': 7.92, 'rot1': 0, 'rot0': 0, 'rot3': 0, 'rot2': 0, 'state': 'normal', 'yaw': 15.08, 'datetime': '2018-10-05 19:34:44.875780', 'mgs': 0, 'volt': 0.7764, 'depth': -0.369, 'time': 14, 'pitch': -9.42, 'roll': 0.69, 'pres': 159}
{'lipoC2': 7.88, 'lipoC3S1': 3.96, 'temp': 28.38, 'lipoC3S3': 11.97, 'lipoC3S2': 7.91, 'rot1': 0, 'rot0': 0, 'rot3': 0, 'rot2': 0, 'state': 'normal', 'yaw': 15.32, 'datetime': '2018-10-05 19:34:44.966971', 'mgs': 0, 'volt': 0.7764, 'depth': -0.369, 'time': 14, 'pitch': -9.36, 'roll': 1.2, 'pres': 159}
{'lipoC2': 7.9, 'lipoC3S1': 3.96, 'temp': 28.38, 'lipoC3S3': 11.98, 'lipoC3S2': 7.91, 'rot1': 0, 'rot0': 0, 'rot3': 0, 'rot2': 0, 'state': 'normal', 'yaw': 15.6, 'datetime': '2018-10-05 19:34:45.070409', 'mgs': 0, 'volt': 0.7764, 'depth': -0.369, 'time': 14, 'pitch': -9.54, 'roll': 1.18, 'pres': 159}
{'lipoC2': 7.88, 'lipoC3S1': 3.96, 'temp': 28.38, 'lipoC3S3': 11.98, 'lipoC3S2': 7.92, 'rot1': 0, 'rot0': 0, 'rot3': 0, 'rot2': 0, 'state': 'normal', 'yaw': 15.8, 'datetime': '2018-10-05 19:34:45.175135', 'mgs': 0, 'volt': 0.7813, 'depth': -0.293, 'time': 14, 'pitch': -9.91, 'roll': 0.94, 'pres': 160}
{'lipoC2': 7.9, 'lipoC3S1': 3.96, 'temp': 28.38, 'lipoC3S3': 11.98, 'lipoC3S2': 7.92, 'rot1': 0, 'rot0': 0, 'rot3': 0, 'rot2': 0, 'state': 'normal', 'yaw': 15.94, 'datetime': '2018-10-05 19:34:45.278565', 'mgs': 0, 'volt': 0.7813, 'depth': -0.293, 'time': 15, 'pitch': -10.11, 'roll': 0.6, 'pres': 160}
{'lipoC2': 7.88, 'lipoC3S1': 3.96, 'temp': 28.38, 'lipoC3S3': 11.98, 'lipoC3S2': 7.92, 'rot1': 0, 'rot0': 0, 'rot3': 0, 'rot2': 0, 'state': 'normal', 'yaw': 15.87, 'datetime': '2018-10-05 19:34:45.381997', 'mgs': 0, 'volt': 0.7813, 'depth': -0.293, 'time': 15, 'pitch': -10.04, 'roll': 0.37, 'pres': 160}
{'lipoC2': 7.9, 'lipoC3S1': 3.96, 'temp': 28.38, 'lipoC3S3': 11.98, 'lipoC3S2': 7.91, 'rot1': 0, 'rot0': 0, 'rot3': 0, 'rot2': 0, 'state': 'normal', 'yaw': 15.52, 'datetime': '2018-10-05 19:34:45.486717', 'mgs': 0, 'volt': 0.7813, 'depth': -0.293, 'time': 15, 'pitch': -9.88, 'roll': 0.25, 'pres': 160}
{'lipoC2': 7.88, 'lipoC3S1': 3.96, 'temp': 28.38, 'lipoC3S3': 11.98, 'lipoC3S2': 7.92, 'rot1': 0, 'rot0': 0, 'rot3': 0, 'rot2': 0, 'state': 'normal', 'yaw': 15.0, 'datetime': '2018-10-05 19:34:45.590166', 'mgs': 0, 'volt': 0.7813, 'depth': -0.293, 'time': 15, 'pitch': -9.76, 'roll': 0.16, 'pres': 160}
{'lipoC2': 7.9, 'lipoC3S1': 3.96, 'temp': 28.38, 'lipoC3S3': 11.98, 'lipoC3S2': 7.91, 'rot1': 0, 'rot0': 0, 'rot3': 0, 'rot2': 0, 'state': 'normal', 'yaw': 14.72, 'datetime': '2018-10-05 19:34:45.700337', 'mgs': 0, 'volt': 0.7861, 'depth': -0.217, 'time': 15, 'pitch': -9.76, 'roll': -0.07, 'pres': 161}
{'lipoC2': 7.9, 'lipoC3S1': 3.96, 'temp': 28.44, 'lipoC3S3': 11.98, 'lipoC3S2': 7.91, 'rot1': 0, 'rot0': 0, 'rot3': 0, 'rot2': 0, 'state': 'normal', 'yaw': 14.7, 'datetime': '2018-10-05 19:34:45.803524', 'mgs': 0, 'volt': 0.7861, 'depth': -0.217, 'time': 15, 'pitch': -10.04, 'roll': -0.34, 'pres': 161}
{'lipoC2': 7.88, 'lipoC3S1': 3.96, 'temp': 28.44, 'lipoC3S3': 11.98, 'lipoC3S2': 7.92, 'rot1': 0, 'rot0': 0, 'rot3': 0, 'rot2': 0, 'state': 'normal', 'yaw': 14.85, 'datetime': '2018-10-05 19:34:45.907001', 'mgs': 0, 'volt': 0.7861, 'depth': -0.217, 'time': 15, 'pitch': -10.37, 'roll': -0.5, 'pres': 161}
{'lipoC2': 7.9, 'lipoC3S1': 3.96, 'temp': 28.38, 'lipoC3S3': 11.98, 'lipoC3S2': 7.92, 'rot1': 0, 'rot0': 0, 'rot3': 0, 'rot2': 0, 'state': 'normal', 'yaw': 14.91, 'datetime': '2018-10-05 19:34:46.010475', 'mgs': 0, 'volt': 0.7861, 'depth': -0.217, 'time': 15, 'pitch': -10.42, 'roll': -0.48, 'pres': 161}
{'lipoC2': 7.9, 'lipoC3S1': 3.96, 'temp': 28.38, 'lipoC3S3': 11.98, 'lipoC3S2': 7.91, 'rot1': 0, 'rot0': 0, 'rot3': 0, 'rot2': 0, 'state': 'normal', 'yaw': 14.91, 'datetime': '2018-10-05 19:34:46.113889', 'mgs': 0, 'volt': 0.7861, 'depth': -0.217, 'time': 15, 'pitch': -10.43, 'roll': -0.27, 'pres': 161}
{'lipoC2': 7.9, 'lipoC3S1': 3.96, 'temp': 28.38, 'lipoC3S3': 11.98, 'lipoC3S2': 7.91, 'rot1': 0, 'rot0': 0, 'rot3': 0, 'rot2': 0, 'state': 'normal', 'yaw': 14.83, 'datetime': '2018-10-05 19:34:46.217379', 'mgs': 0, 'volt': 0.7861, 'depth': -0.217, 'time': 15, 'pitch': -10.54, 'roll': 0.1, 'pres': 161}
{'lipoC2': 7.9, 'lipoC3S1': 3.96, 'temp': 28.38, 'lipoC3S3': 11.98, 'lipoC3S2': 7.92, 'rot1': 0, 'rot0': 0, 'rot3': 0, 'rot2': 0, 'state': 'normal', 'yaw': 14.73, 'datetime': '2018-10-05 19:34:46.320791', 'mgs': 0, 'volt': 0.7861, 'depth': -0.217, 'time': 16, 'pitch': -10.8, 'roll': 0.54, 'pres': 161}
{'lipoC2': 7.9, 'lipoC3S1': 3.96, 'temp': 28.38, 'lipoC3S3': 11.98, 'lipoC3S2': 7.92, 'rot1': 0, 'rot0': 0, 'rot3': 0, 'rot2': 0, 'state': 'normal', 'yaw': 14.67, 'datetime': '2018-10-05 19:34:46.424269', 'mgs': 0, 'volt': 0.791, 'depth': -0.14, 'time': 16, 'pitch': -11.01, 'roll': 0.96, 'pres': 162}
{'lipoC2': 7.9, 'lipoC3S1': 3.96, 'temp': 28.38, 'lipoC3S3': 11.98, 'lipoC3S2': 7.92, 'rot1': 0, 'rot0': 0, 'rot3': 0, 'rot2': 0, 'state': 'normal', 'yaw': 14.58, 'datetime': '2018-10-05 19:34:46.527850', 'mgs': 0, 'volt': 0.791, 'depth': -0.14, 'time': 16, 'pitch': -11.14, 'roll': 1.33, 'pres': 162}
{'lipoC2': 7.9, 'lipoC3S1': 3.96, 'temp': 28.38, 'lipoC3S3': 11.98, 'lipoC3S2': 7.91, 'rot1': 0, 'rot0': 0, 'rot3': 0, 'rot2': 0, 'state': 'normal', 'yaw': 14.38, 'datetime': '2018-10-05 19:34:46.631259', 'mgs': 0, 'volt': 0.791, 'depth': -0.14, 'time': 16, 'pitch': -11.17, 'roll': 1.54, 'pres': 162}
{'lipoC2': 7.9, 'lipoC3S1': 3.96, 'temp': 28.38, 'lipoC3S3': 11.98, 'lipoC3S2': 7.91, 'rot1': 0, 'rot0': 0, 'rot3': 0, 'rot2': 0, 'state': 'normal', 'yaw': 14.14, 'datetime': '2018-10-05 19:34:46.735912', 'mgs': 0, 'volt': 0.791, 'depth': -0.14, 'time': 16, 'pitch': -11.36, 'roll': 1.63, 'pres': 162}
{'lipoC2': 7.9, 'lipoC3S1': 3.96, 'temp': 28.38, 'lipoC3S3': 11.98, 'lipoC3S2': 7.92, 'rot1': 0, 'rot0': 0, 'rot3': 0, 'rot2': 0, 'state': 'normal', 'yaw': 13.88, 'datetime': '2018-10-05 19:34:46.839354', 'mgs': 0, 'volt': 0.791, 'depth': -0.14, 'time': 16, 'pitch': -11.78, 'roll': 1.62, 'pres': 162}
{'lipoC2': 7.88, 'lipoC3S1': 3.96, 'temp': 28.38, 'lipoC3S3': 11.98, 'lipoC3S2': 7.92, 'rot1': 0, 'rot0': 0, 'rot3': 0, 'rot2': 0, 'state': 'normal', 'yaw': 13.63, 'datetime': '2018-10-05 19:34:46.942783', 'mgs': 0, 'volt': 0.791, 'depth': -0.14, 'time': 16, 'pitch': -12.23, 'roll': 1.51, 'pres': 162}
{'lipoC2': 7.9, 'lipoC3S1': 3.96, 'temp': 28.38, 'lipoC3S3': 11.98, 'lipoC3S2': 7.92, 'rot1': 0, 'rot0': 0, 'rot3': 0, 'rot2': 0, 'state': 'normal', 'yaw': 13.35, 'datetime': '2018-10-05 19:34:47.047473', 'mgs': 0, 'volt': 0.791, 'depth': -0.14, 'time': 16, 'pitch': -12.67, 'roll': 1.31, 'pres': 162}
{'lipoC2': 7.9, 'lipoC3S1': 3.96, 'temp': 28.38, 'lipoC3S3': 11.98, 'lipoC3S2': 7.92, 'rot1': 0, 'rot0': 0, 'rot3': 0, 'rot2': 0, 'state': 'normal', 'yaw': 13.14, 'datetime': '2018-10-05 19:34:47.150995', 'mgs': 0, 'volt': 0.791, 'depth': -0.14, 'time': 16, 'pitch': -12.95, 'roll': 0.96, 'pres': 162}
{'lipoC2': 7.9, 'lipoC3S1': 3.96, 'temp': 28.44, 'lipoC3S3': 11.98, 'lipoC3S2': 7.91, 'rot1': 0, 'rot0': 0, 'rot3': 0, 'rot2': 0, 'state': 'normal', 'yaw': 12.98, 'datetime': '2018-10-05 19:34:47.254410', 'mgs': 0, 'volt': 0.791, 'depth': -0.14, 'time': 16, 'pitch': -13.06, 'roll': 0.58, 'pres': 162}
{'lipoC2': 7.9, 'lipoC3S1': 3.96, 'temp': 28.44, 'lipoC3S3': 11.98, 'lipoC3S2': 7.92, 'rot1': 0, 'rot0': 0, 'rot3': 0, 'rot2': 0, 'state': 'normal', 'yaw': 12.8, 'datetime': '2018-10-05 19:34:47.357871', 'mgs': 0, 'volt': 0.791, 'depth': -0.14, 'time': 17, 'pitch': -13.07, 'roll': 0.19, 'pres': 162}
{'lipoC2': 7.9, 'lipoC3S1': 3.96, 'temp': 28.38, 'lipoC3S3': 11.98, 'lipoC3S2': 7.91, 'rot1': 0, 'rot0': 0, 'rot3': 0, 'rot2': 0, 'state': 'normal', 'yaw': 12.65, 'datetime': '2018-10-05 19:34:47.461307', 'mgs': 0, 'volt': 0.791, 'depth': -0.14, 'time': 17, 'pitch': -13.07, 'roll': -0.19, 'pres': 162}
{'lipoC2': 7.9, 'lipoC3S1': 3.96, 'temp': 28.38, 'lipoC3S3': 11.98, 'lipoC3S2': 7.92, 'rot1': 0, 'rot0': 0, 'rot3': 0, 'rot2': 0, 'state': 'normal', 'yaw': 12.64, 'datetime': '2018-10-05 19:34:47.564719', 'mgs': 0, 'volt': 0.7959, 'depth': -0.064, 'time': 17, 'pitch': -13.16, 'roll': -0.5, 'pres': 163}
{'lipoC2': 7.88, 'lipoC3S1': 3.96, 'temp': 28.38, 'lipoC3S3': 11.98, 'lipoC3S2': 7.92, 'rot1': 0, 'rot0': 0, 'rot3': 0, 'rot2': 0, 'state': 'normal', 'yaw': 12.82, 'datetime': '2018-10-05 19:34:47.668226', 'mgs': 0, 'volt': 0.7959, 'depth': -0.064, 'time': 17, 'pitch': -13.4, 'roll': -0.76, 'pres': 163}
{'lipoC2': 7.9, 'lipoC3S1': 3.96, 'temp': 28.44, 'lipoC3S3': 11.98, 'lipoC3S2': 7.92, 'rot1': 0, 'rot0': 0, 'rot3': 0, 'rot2': 0, 'state': 'normal', 'yaw': 13.36, 'datetime': '2018-10-05 19:34:47.772104', 'mgs': 0, 'volt': 0.7959, 'depth': -0.064, 'time': 17, 'pitch': -13.82, 'roll': -0.94, 'pres': 163}
{'lipoC2': 7.9, 'lipoC3S1': 3.96, 'temp': 28.44, 'lipoC3S3': 11.98, 'lipoC3S2': 7.91, 'rot1': 0, 'rot0': 0, 'rot3': 0, 'rot2': 0, 'state': 'normal', 'yaw': 14.28, 'datetime': '2018-10-05 19:34:47.875510', 'mgs': 0, 'volt': 0.7959, 'depth': -0.064, 'time': 17, 'pitch': -14.24, 'roll': -1.07, 'pres': 163}
{'lipoC2': 7.9, 'lipoC3S1': 3.96, 'temp': 28.38, 'lipoC3S3': 11.98, 'lipoC3S2': 7.92, 'rot1': 0, 'rot0': 0, 'rot3': 0, 'rot2': 0, 'state': 'normal', 'yaw': 15.04, 'datetime': '2018-10-05 19:34:47.979151', 'mgs': 0, 'volt': 0.7959, 'depth': -0.064, 'time': 17, 'pitch': -14.37, 'roll': -0.86, 'pres': 163}
{'lipoC2': 7.9, 'lipoC3S1': 3.96, 'temp': 28.38, 'lipoC3S3': 11.98, 'lipoC3S2': 7.92, 'rot1': 0, 'rot0': 0, 'rot3': 0, 'rot2': 0, 'state': 'normal', 'yaw': 15.28, 'datetime': '2018-10-05 19:34:48.082489', 'mgs': 0, 'volt': 0.7959, 'depth': -0.064, 'time': 17, 'pitch': -14.03, 'roll': -0.16, 'pres': 163}
{'lipoC2': 7.9, 'lipoC3S1': 3.96, 'temp': 28.38, 'lipoC3S3': 11.98, 'lipoC3S2': 7.92, 'rot1': 0, 'rot0': 0, 'rot3': 0, 'rot2': 0, 'state': 'normal', 'yaw': 15.33, 'datetime': '2018-10-05 19:34:48.185889', 'mgs': 0, 'volt': 0.7959, 'depth': -0.064, 'time': 17, 'pitch': -13.51, 'roll': 0.54, 'pres': 163}
{'lipoC2': 7.9, 'lipoC3S1': 3.96, 'temp': 28.38, 'lipoC3S3': 11.98, 'lipoC3S2': 7.92, 'rot1': 0, 'rot0': 0, 'rot3': 0, 'rot2': 0, 'state': 'normal', 'yaw': 15.03, 'datetime': '2018-10-05 19:34:48.290777', 'mgs': 0, 'volt': 0.7959, 'depth': -0.064, 'time': 18, 'pitch': -13.09, 'roll': 1.39, 'pres': 163}
{'lipoC2': 7.9, 'lipoC3S1': 3.96, 'temp': 28.38, 'lipoC3S3': 11.98, 'lipoC3S2': 7.92, 'rot1': 0, 'rot0': 0, 'rot3': 0, 'rot2': 0, 'state': 'normal', 'yaw': 14.81, 'datetime': '2018-10-05 19:34:48.394172', 'mgs': 0, 'volt': 0.7959, 'depth': -0.064, 'time': 18, 'pitch': -13.15, 'roll': 2.19, 'pres': 163}
{'lipoC2': 7.9, 'lipoC3S1': 3.96, 'temp': 28.38, 'lipoC3S3': 11.98, 'lipoC3S2': 7.92, 'rot1': 0, 'rot0': 0, 'rot3': 0, 'rot2': 0, 'state': 'normal', 'yaw': 14.85, 'datetime': '2018-10-05 19:34:48.498069', 'mgs': 0, 'volt': 0.7959, 'depth': -0.064, 'time': 18, 'pitch': -13.32, 'roll': 2.63, 'pres': 163}
{'lipoC2': 7.88, 'lipoC3S1': 3.96, 'temp': 28.38, 'lipoC3S3': 11.98, 'lipoC3S2': 7.92, 'rot1': 0, 'rot0': 0, 'rot3': 0, 'rot2': 0, 'state': 'normal', 'yaw': 14.9, 'datetime': '2018-10-05 19:34:48.602093', 'mgs': 0, 'volt': 0.8008, 'depth': 0.012, 'time': 18, 'pitch': -12.7, 'roll': 2.89, 'pres': 164}
{'lipoC2': 7.9, 'lipoC3S1': 3.96, 'temp': 28.31, 'lipoC3S3': 11.98, 'lipoC3S2': 7.92, 'rot1': 0, 'rot0': 0, 'rot3': 0, 'rot2': 0, 'state': 'normal', 'yaw': 14.64, 'datetime': '2018-10-05 19:34:48.705384', 'mgs': 0, 'volt': 0.8008, 'depth': 0.012, 'time': 18, 'pitch': -11.33, 'roll': 3.01, 'pres': 164}
{'lipoC2': 7.9, 'lipoC3S1': 3.96, 'temp': 28.31, 'lipoC3S3': 11.98, 'lipoC3S2': 7.92, 'rot1': 0, 'rot0': 0, 'rot3': 0, 'rot2': 0, 'state': 'normal', 'yaw': 14.13, 'datetime': '2018-10-05 19:34:48.809962', 'mgs': 0, 'volt': 0.8008, 'depth': 0.012, 'time': 18, 'pitch': -10.14, 'roll': 2.97, 'pres': 164}
{'lipoC2': 7.9, 'lipoC3S1': 3.96, 'temp': 28.38, 'lipoC3S3': 11.98, 'lipoC3S2': 7.92, 'rot1': 0, 'rot0': 0, 'rot3': 0, 'rot2': 0, 'state': 'normal', 'yaw': 13.52, 'datetime': '2018-10-05 19:34:48.912393', 'mgs': 0, 'volt': 0.8008, 'depth': 0.012, 'time': 18, 'pitch': -9.65, 'roll': 2.75, 'pres': 164}
{'lipoC2': 7.9, 'lipoC3S1': 3.96, 'temp': 28.38, 'lipoC3S3': 11.98, 'lipoC3S2': 7.92, 'rot1': 0, 'rot0': 0, 'rot3': 0, 'rot2': 0, 'state': 'normal', 'yaw': 13.09, 'datetime': '2018-10-05 19:34:49.015774', 'mgs': 0, 'volt': 0.7959, 'depth': -0.064, 'time': 18, 'pitch': -9.84, 'roll': 2.23, 'pres': 163}
{'lipoC2': 7.9, 'lipoC3S1': 3.96, 'temp': 28.38, 'lipoC3S3': 11.98, 'lipoC3S2': 7.92, 'rot1': 0, 'rot0': 0, 'rot3': 0, 'rot2': 0, 'state': 'normal', 'yaw': 13.35, 'datetime': '2018-10-05 19:34:49.119324', 'mgs': 0, 'volt': 0.7959, 'depth': -0.064, 'time': 18, 'pitch': -10.04, 'roll': 1.38, 'pres': 163}
{'lipoC2': 7.9, 'lipoC3S1': 3.96, 'temp': 28.38, 'lipoC3S3': 11.98, 'lipoC3S2': 7.92, 'rot1': 0, 'rot0': 0, 'rot3': 0, 'rot2': 0, 'state': 'normal', 'yaw': 13.72, 'datetime': '2018-10-05 19:34:49.222947', 'mgs': 0, 'volt': 0.7959, 'depth': -0.064, 'time': 18, 'pitch': -10.01, 'roll': 0.52, 'pres': 163}
{'lipoC2': 7.9, 'lipoC3S1': 3.96, 'temp': 28.38, 'lipoC3S3': 11.98, 'lipoC3S2': 7.92, 'rot1': 0, 'rot0': 0, 'rot3': 0, 'rot2': 0, 'state': 'normal', 'yaw': 14.25, 'datetime': '2018-10-05 19:34:49.326366', 'mgs': 0, 'volt': 0.7959, 'depth': -0.064, 'time': 19, 'pitch': -9.22, 'roll': -0.2, 'pres': 163}
{'lipoC2': 7.9, 'lipoC3S1': 3.96, 'temp': 28.38, 'lipoC3S3': 11.98, 'lipoC3S2': 7.92, 'rot1': 0, 'rot0': 0, 'rot3': 0, 'rot2': 0, 'state': 'normal', 'yaw': 14.7, 'datetime': '2018-10-05 19:34:49.429842', 'mgs': 0, 'volt': 0.791, 'depth': -0.14, 'time': 19, 'pitch': -8.19, 'roll': -0.65, 'pres': 162}
{'lipoC2': 7.9, 'lipoC3S1': 3.96, 'temp': 28.38, 'lipoC3S3': 11.98, 'lipoC3S2': 7.92, 'rot1': 0, 'rot0': 0, 'rot3': 0, 'rot2': 0, 'state': 'normal', 'yaw': 14.65, 'datetime': '2018-10-05 19:34:49.533977', 'mgs': 0, 'volt': 0.791, 'depth': -0.14, 'time': 19, 'pitch': -7.35, 'roll': -0.71, 'pres': 162}
{'lipoC2': 7.9, 'lipoC3S1': 3.96, 'temp': 28.44, 'lipoC3S3': 11.98, 'lipoC3S2': 7.92, 'rot1': 0, 'rot0': 0, 'rot3': 0, 'rot2': 0, 'state': 'normal', 'yaw': 14.52, 'datetime': '2018-10-05 19:34:49.637295', 'mgs': 0, 'volt': 0.791, 'depth': -0.14, 'time': 19, 'pitch': -7.1, 'roll': -0.59, 'pres': 162}
{'lipoC2': 7.9, 'lipoC3S1': 3.96, 'temp': 28.44, 'lipoC3S3': 11.98, 'lipoC3S2': 7.92, 'rot1': 0, 'rot0': 0, 'rot3': 0, 'rot2': 0, 'state': 'normal', 'yaw': 14.69, 'datetime': '2018-10-05 19:34:49.741699', 'mgs': 0, 'volt': 0.791, 'depth': -0.14, 'time': 19, 'pitch': -7.37, 'roll': -0.64, 'pres': 162}
{'lipoC2': 7.9, 'lipoC3S1': 3.96, 'temp': 28.44, 'lipoC3S3': 11.98, 'lipoC3S2': 7.92, 'rot1': 0, 'rot0': 0, 'rot3': 0, 'rot2': 0, 'state': 'normal', 'yaw': 15.24, 'datetime': '2018-10-05 19:34:49.845294', 'mgs': 0, 'volt': 0.791, 'depth': -0.14, 'time': 19, 'pitch': -7.86, 'roll': -0.78, 'pres': 162}
{'lipoC2': 7.9, 'lipoC3S1': 3.96, 'temp': 28.38, 'lipoC3S3': 11.98, 'lipoC3S2': 7.92, 'rot1': 0, 'rot0': 0, 'rot3': 0, 'rot2': 0, 'state': 'normal', 'yaw': 15.76, 'datetime': '2018-10-05 19:34:49.948820', 'mgs': 0, 'volt': 0.791, 'depth': -0.14, 'time': 19, 'pitch': -8.33, 'roll': -0.73, 'pres': 162}
{'lipoC2': 7.9, 'lipoC3S1': 3.96, 'temp': 28.38, 'lipoC3S3': 11.98, 'lipoC3S2': 7.92, 'rot1': 0, 'rot0': 0, 'rot3': 0, 'rot2': 0, 'state': 'normal', 'yaw': 16.01, 'datetime': '2018-10-05 19:34:50.053491', 'mgs': 0, 'volt': 0.791, 'depth': -0.14, 'time': 19, 'pitch': -8.76, 'roll': -0.31, 'pres': 162}
{'lipoC2': 7.9, 'lipoC3S1': 3.96, 'temp': 28.38, 'lipoC3S3': 11.98, 'lipoC3S2': 7.92, 'rot1': 0, 'rot0': 0, 'rot3': 0, 'rot2': 0, 'state': 'normal', 'yaw': 16.04, 'datetime': '2018-10-05 19:34:50.156995', 'mgs': 0, 'volt': 0.791, 'depth': -0.14, 'time': 19, 'pitch': -9.23, 'roll': 0.37, 'pres': 162}
{'lipoC2': 7.9, 'lipoC3S1': 3.96, 'temp': 28.38, 'lipoC3S3': 11.98, 'lipoC3S2': 7.92, 'rot1': 0, 'rot0': 0, 'rot3': 0, 'rot2': 0, 'state': 'normal', 'yaw': 16.1, 'datetime': '2018-10-05 19:34:50.260442', 'mgs': 0, 'volt': 0.791, 'depth': -0.14, 'time': 19, 'pitch': -9.59, 'roll': 0.96, 'pres': 162}
{'lipoC2': 7.9, 'lipoC3S1': 3.96, 'temp': 28.44, 'lipoC3S3': 11.98, 'lipoC3S2': 7.91, 'rot1': 0, 'rot0': 0, 'rot3': 0, 'rot2': 0, 'state': 'normal', 'yaw': 16.27, 'datetime': '2018-10-05 19:34:50.363822', 'mgs': 0, 'volt': 0.7959, 'depth': -0.064, 'time': 20, 'pitch': -9.89, 'roll': 1.45, 'pres': 163}
{'lipoC2': 7.9, 'lipoC3S1': 3.96, 'temp': 28.44, 'lipoC3S3': 11.98, 'lipoC3S2': 7.92, 'rot1': 0, 'rot0': 0, 'rot3': 0, 'rot2': 0, 'state': 'normal', 'yaw': 16.36, 'datetime': '2018-10-05 19:34:50.467334', 'mgs': 0, 'volt': 0.7959, 'depth': -0.064, 'time': 20, 'pitch': -10.16, 'roll': 2.01, 'pres': 163}
{'lipoC2': 7.9, 'lipoC3S1': 3.96, 'temp': 28.44, 'lipoC3S3': 11.98, 'lipoC3S2': 7.91, 'rot1': 0, 'rot0': 0, 'rot3': 0, 'rot2': 0, 'state': 'normal', 'yaw': 16.28, 'datetime': '2018-10-05 19:34:50.570801', 'mgs': 0, 'volt': 0.7959, 'depth': -0.064, 'time': 20, 'pitch': -10.31, 'roll': 2.62, 'pres': 163}
{'lipoC2': 7.9, 'lipoC3S1': 3.96, 'temp': 28.38, 'lipoC3S3': 11.98, 'lipoC3S2': 7.92, 'rot1': 0, 'rot0': 0, 'rot3': 0, 'rot2': 0, 'state': 'normal', 'yaw': 16.11, 'datetime': '2018-10-05 19:34:50.674439', 'mgs': 0, 'volt': 0.7959, 'depth': -0.064, 'time': 20, 'pitch': -10.48, 'roll': 3.25, 'pres': 163}
{'lipoC2': 7.88, 'lipoC3S1': 3.96, 'temp': 28.38, 'lipoC3S3': 11.98, 'lipoC3S2': 7.92, 'rot1': 0, 'rot0': 0, 'rot3': 0, 'rot2': 0, 'state': 'normal', 'yaw': 16.04, 'datetime': '2018-10-05 19:34:50.778072', 'mgs': 0, 'volt': 0.7959, 'depth': -0.064, 'time': 20, 'pitch': -10.77, 'roll': 3.7, 'pres': 163}
{'lipoC2': 7.9, 'lipoC3S1': 3.96, 'temp': 28.44, 'lipoC3S3': 11.98, 'lipoC3S2': 7.92, 'rot1': 0, 'rot0': 0, 'rot3': 0, 'rot2': 0, 'state': 'normal', 'yaw': 16.09, 'datetime': '2018-10-05 19:34:50.875555', 'mgs': 0, 'volt': 0.7959, 'depth': -0.064, 'time': 20, 'pitch': -11.32, 'roll': 3.83, 'pres': 163}
{'lipoC2': 7.9, 'lipoC3S1': 3.96, 'temp': 28.44, 'lipoC3S3': 11.98, 'lipoC3S2': 7.92, 'rot1': 0, 'rot0': 0, 'rot3': 0, 'rot2': 0, 'state': 'normal', 'yaw': 16.2, 'datetime': '2018-10-05 19:34:50.978831', 'mgs': 0, 'volt': 0.7959, 'depth': -0.064, 'time': 20, 'pitch': -11.98, 'roll': 3.69, 'pres': 163}
{'lipoC2': 7.9, 'lipoC3S1': 3.96, 'temp': 28.44, 'lipoC3S3': 11.98, 'lipoC3S2': 7.92, 'rot1': 0, 'rot0': 0, 'rot3': 0, 'rot2': 0, 'state': 'normal', 'yaw': 16.34, 'datetime': '2018-10-05 19:34:51.082524', 'mgs': 0, 'volt': 0.7959, 'depth': -0.064, 'time': 20, 'pitch': -12.54, 'roll': 3.35, 'pres': 163}
{'lipoC2': 7.9, 'lipoC3S1': 3.96, 'temp': 28.44, 'lipoC3S3': 11.98, 'lipoC3S2': 7.92, 'rot1': 0, 'rot0': 0, 'rot3': 0, 'rot2': 0, 'state': 'normal', 'yaw': 16.43, 'datetime': '2018-10-05 19:34:51.185977', 'mgs': 0, 'volt': 0.7959, 'depth': -0.064, 'time': 20, 'pitch': -12.91, 'roll': 3.1, 'pres': 163}
{'lipoC2': 7.9, 'lipoC3S1': 3.96, 'temp': 28.44, 'lipoC3S3': 11.98, 'lipoC3S2': 7.91, 'rot1': 0, 'rot0': 0, 'rot3': 0, 'rot2': 0, 'state': 'normal', 'yaw': 16.55, 'datetime': '2018-10-05 19:34:51.290630', 'mgs': 0, 'volt': 0.8008, 'depth': 0.012, 'time': 21, 'pitch': -13.15, 'roll': 2.86, 'pres': 164}
{'lipoC2': 7.9, 'lipoC3S1': 3.96, 'temp': 28.38, 'lipoC3S3': 11.98, 'lipoC3S2': 7.92, 'rot1': 0, 'rot0': 0, 'rot3': 0, 'rot2': 0, 'state': 'normal', 'yaw': 16.45, 'datetime': '2018-10-05 19:34:51.394089', 'mgs': 0, 'volt': 0.7959, 'depth': -0.064, 'time': 21, 'pitch': -13.11, 'roll': 2.55, 'pres': 163}
{'lipoC2': 7.9, 'lipoC3S1': 3.96, 'temp': 28.38, 'lipoC3S3': 11.98, 'lipoC3S2': 7.92, 'rot1': 0, 'rot0': 0, 'rot3': 0, 'rot2': 0, 'state': 'normal', 'yaw': 16.48, 'datetime': '2018-10-05 19:34:51.497471', 'mgs': 0, 'volt': 0.8008, 'depth': 0.012, 'time': 21, 'pitch': -13.19, 'roll': 2.12, 'pres': 164}
{'lipoC2': 7.9, 'lipoC3S1': 3.96, 'temp': 28.31, 'lipoC3S3': 11.98, 'lipoC3S2': 7.92, 'rot1': 0, 'rot0': 0, 'rot3': 0, 'rot2': 0, 'state': 'normal', 'yaw': 16.76, 'datetime': '2018-10-05 19:34:51.602150', 'mgs': 0, 'volt': 0.8008, 'depth': 0.012, 'time': 21, 'pitch': -13.23, 'roll': 1.46, 'pres': 164}
{'lipoC2': 7.88, 'lipoC3S1': 3.96, 'temp': 28.31, 'lipoC3S3': 11.98, 'lipoC3S2': 7.92, 'rot1': 0, 'rot0': 0, 'rot3': 0, 'rot2': 0, 'state': 'normal', 'yaw': 17.12, 'datetime': '2018-10-05 19:34:51.705475', 'mgs': 0, 'volt': 0.8008, 'depth': 0.012, 'time': 21, 'pitch': -13.26, 'roll': 0.71, 'pres': 164}
{'lipoC2': 7.9, 'lipoC3S1': 3.96, 'temp': 28.38, 'lipoC3S3': 11.98, 'lipoC3S2': 7.92, 'rot1': 0, 'rot0': 0, 'rot3': 0, 'rot2': 0, 'state': 'normal', 'yaw': 17.44, 'datetime': '2018-10-05 19:34:51.808794', 'mgs': 0, 'volt': 0.8008, 'depth': 0.012, 'time': 21, 'pitch': -13.4, 'roll': 0.14, 'pres': 164}
{'lipoC2': 7.88, 'lipoC3S1': 3.96, 'temp': 28.38, 'lipoC3S3': 11.98, 'lipoC3S2': 7.92, 'rot1': 0, 'rot0': 0, 'rot3': 0, 'rot2': 0, 'state': 'normal', 'yaw': 17.69, 'datetime': '2018-10-05 19:34:51.912164', 'mgs': 0, 'volt': 0.8008, 'depth': 0.012, 'time': 21, 'pitch': -13.52, 'roll': -0.26, 'pres': 164}
{'lipoC2': 7.9, 'lipoC3S1': 3.96, 'temp': 28.38, 'lipoC3S3': 11.98, 'lipoC3S2': 7.92, 'rot1': 0, 'rot0': 0, 'rot3': 0, 'rot2': 0, 'state': 'normal', 'yaw': 17.92, 'datetime': '2018-10-05 19:34:52.015519', 'mgs': 0, 'volt': 0.8008, 'depth': 0.012, 'time': 21, 'pitch': -13.53, 'roll': -0.46, 'pres': 164}
{'lipoC2': 7.9, 'lipoC3S1': 3.96, 'temp': 28.38, 'lipoC3S3': 11.98, 'lipoC3S2': 7.92, 'rot1': 0, 'rot0': 0, 'rot3': 0, 'rot2': 0, 'state': 'normal', 'yaw': 17.9, 'datetime': '2018-10-05 19:34:52.118876', 'mgs': 0, 'volt': 0.8008, 'depth': 0.012, 'time': 21, 'pitch': -13.43, 'roll': -0.39, 'pres': 164}
