{'lipoC2': 7.28, 'lipoC3S1': 3.82, 'temp': 26.88, 'lipoC3S3': 11.55, 'lipoC3S2': 7.65, 'rot1': 36, 'rot0': 23, 'rot3': 59, 'rot2': 53, 'state': 'normal', 'yaw': 29.5, 'datetime': '2018-10-09 20:23:08.607038', 'mgs': 0, 'volt': 0.8984, 'depth': 1.538, 'time': 84, 'pitch': -4.14, 'roll': -1.07, 'pres': 184}
{'lipoC2': 7.28, 'lipoC3S1': 3.82, 'temp': 26.94, 'lipoC3S3': 11.55, 'lipoC3S2': 7.65, 'rot1': 36, 'rot0': 23, 'rot3': 59, 'rot2': 53, 'state': 'normal', 'yaw': 29.5, 'datetime': '2018-10-09 20:23:11.634018', 'mgs': 0, 'volt': 0.8984, 'depth': 1.538, 'time': 84, 'pitch': -4.14, 'roll': -1.07, 'pres': 184}
{'lipoC2': 7.28, 'lipoC3S1': 3.82, 'temp': 26.94, 'lipoC3S3': 11.55, 'lipoC3S2': 7.65, 'rot1': 36, 'rot0': 23, 'rot3': 59, 'rot2': 53, 'state': 'normal', 'yaw': 29.5, 'datetime': '2018-10-09 20:23:11.657482', 'mgs': 0, 'volt': 0.8984, 'depth': 1.538, 'time': 84, 'pitch': -4.14, 'roll': -1.07, 'pres': 184}
{'lipoC2': 7.28, 'lipoC3S1': 3.82, 'temp': 26.88, 'lipoC3S3': 11.55, 'lipoC3S2': 7.65, 'rot1': 36, 'rot0': 23, 'rot3': 59, 'rot2': 53, 'state': 'normal', 'yaw': 29.5, 'datetime': '2018-10-09 20:23:11.687942', 'mgs': 0, 'volt': 0.8984, 'depth': 1.538, 'time': 84, 'pitch': -4.14, 'roll': -1.07, 'pres': 184}
{'lipoC2': 7.28, 'lipoC3S1': 3.82, 'temp': 26.88, 'lipoC3S3': 11.55, 'lipoC3S2': 7.65, 'rot1': 36, 'rot0': 23, 'rot3': 59, 'rot2': 53, 'state': 'normal', 'yaw': 29.5, 'datetime': '2018-10-09 20:23:11.718474', 'mgs': 0, 'volt': 0.8984, 'depth': 1.538, 'time': 84, 'pitch': -4.14, 'roll': -1.07, 'pres': 184}
{'lipoC2': 7.28, 'lipoC3S1': 3.82, 'temp': 26.88, 'lipoC3S3': 11.55, 'lipoC3S2': 7.65, 'rot1': 36, 'rot0': 23, 'rot3': 59, 'rot2': 53, 'state': 'normal', 'yaw': 29.5, 'datetime': '2018-10-09 20:23:11.737007', 'mgs': 0, 'volt': 0.8984, 'depth': 1.538, 'time': 84, 'pitch': -4.12, 'roll': -1.07, 'pres': 184}
{'lipoC2': 7.28, 'lipoC3S1': 3.82, 'temp': 26.88, 'lipoC3S3': 11.55, 'lipoC3S2': 7.65, 'rot1': 36, 'rot0': 23, 'rot3': 59, 'rot2': 53, 'state': 'normal', 'yaw': 29.5, 'datetime': '2018-10-09 20:23:11.753266', 'mgs': 0, 'volt': 0.8984, 'depth': 1.538, 'time': 84, 'pitch': -4.11, 'roll': -1.07, 'pres': 184}
{'lipoC2': 7.28, 'lipoC3S1': 3.82, 'temp': 26.88, 'lipoC3S3': 11.55, 'lipoC3S2': 7.65, 'rot1': 36, 'rot0': 23, 'rot3': 59, 'rot2': 53, 'state': 'normal', 'yaw': 29.5, 'datetime': '2018-10-09 20:23:11.769451', 'mgs': 0, 'volt': 0.8984, 'depth': 1.538, 'time': 84, 'pitch': -4.11, 'roll': -1.07, 'pres': 184}
{'lipoC2': 7.28, 'lipoC3S1': 3.82, 'temp': 26.88, 'lipoC3S3': 11.55, 'lipoC3S2': 7.65, 'rot1': 36, 'rot0': 23, 'rot3': 59, 'rot2': 53, 'state': 'normal', 'yaw': 29.5, 'datetime': '2018-10-09 20:23:11.785596', 'mgs': 0, 'volt': 0.8984, 'depth': 1.538, 'time': 84, 'pitch': -4.11, 'roll': -1.07, 'pres': 184}
{'lipoC2': 7.28, 'lipoC3S1': 3.82, 'temp': 26.88, 'lipoC3S3': 11.55, 'lipoC3S2': 7.64, 'rot1': 36, 'rot0': 23, 'rot3': 59, 'rot2': 53, 'state': 'normal', 'yaw': 29.5, 'datetime': '2018-10-09 20:23:11.801778', 'mgs': 0, 'volt': 0.8936, 'depth': 1.462, 'time': 85, 'pitch': -4.12, 'roll': -1.07, 'pres': 183}
{'lipoC2': 7.28, 'lipoC3S1': 3.82, 'temp': 26.88, 'lipoC3S3': 11.55, 'lipoC3S2': 7.64, 'rot1': 36, 'rot0': 23, 'rot3': 59, 'rot2': 53, 'state': 'normal', 'yaw': 29.5, 'datetime': '2018-10-09 20:23:11.817950', 'mgs': 0, 'volt': 0.8936, 'depth': 1.462, 'time': 85, 'pitch': -4.16, 'roll': -1.07, 'pres': 183}
{'lipoC2': 7.28, 'lipoC3S1': 3.82, 'temp': 26.88, 'lipoC3S3': 11.55, 'lipoC3S2': 7.65, 'rot1': 36, 'rot0': 23, 'rot3': 59, 'rot2': 53, 'state': 'normal', 'yaw': 29.5, 'datetime': '2018-10-09 20:23:11.834154', 'mgs': 0, 'volt': 0.8936, 'depth': 1.462, 'time': 85, 'pitch': -4.21, 'roll': -1.07, 'pres': 183}
{'lipoC2': 7.28, 'lipoC3S1': 3.82, 'temp': 26.88, 'lipoC3S3': 11.55, 'lipoC3S2': 7.65, 'rot1': 36, 'rot0': 23, 'rot3': 59, 'rot2': 53, 'state': 'normal', 'yaw': 29.5, 'datetime': '2018-10-09 20:23:11.850340', 'mgs': 0, 'volt': 0.8984, 'depth': 1.538, 'time': 85, 'pitch': -4.21, 'roll': -1.07, 'pres': 184}
{'lipoC2': 7.28, 'lipoC3S1': 3.82, 'temp': 26.88, 'lipoC3S3': 11.55, 'lipoC3S2': 7.64, 'rot1': 36, 'rot0': 23, 'rot3': 59, 'rot2': 53, 'state': 'normal', 'yaw': 29.5, 'datetime': '2018-10-09 20:23:11.866502', 'mgs': 0, 'volt': 0.8936, 'depth': 1.462, 'time': 85, 'pitch': -4.21, 'roll': -1.07, 'pres': 183}
{'lipoC2': 7.28, 'lipoC3S1': 3.82, 'temp': 26.88, 'lipoC3S3': 11.55, 'lipoC3S2': 7.65, 'rot1': 36, 'rot0': 23, 'rot3': 59, 'rot2': 53, 'state': 'normal', 'yaw': 29.5, 'datetime': '2018-10-09 20:23:11.882808', 'mgs': 0, 'volt': 0.8984, 'depth': 1.538, 'time': 85, 'pitch': -4.21, 'roll': -1.07, 'pres': 184}
{'lipoC2': 7.28, 'lipoC3S1': 3.82, 'temp': 26.88, 'lipoC3S3': 11.55, 'lipoC3S2': 7.64, 'rot1': 36, 'rot0': 23, 'rot3': 59, 'rot2': 53, 'state': 'normal', 'yaw': 29.5, 'datetime': '2018-10-09 20:23:11.898972', 'mgs': 0, 'volt': 0.8936, 'depth': 1.462, 'time': 85, 'pitch': -4.21, 'roll': -1.07, 'pres': 183}
{'lipoC2': 7.28, 'lipoC3S1': 3.82, 'temp': 26.88, 'lipoC3S3': 11.55, 'lipoC3S2': 7.65, 'rot1': 36, 'rot0': 23, 'rot3': 59, 'rot2': 53, 'state': 'normal', 'yaw': 29.5, 'datetime': '2018-10-09 20:23:11.915132', 'mgs': 0, 'volt': 0.8936, 'depth': 1.462, 'time': 85, 'pitch': -4.18, 'roll': -1.07, 'pres': 183}
{'lipoC2': 7.28, 'lipoC3S1': 3.82, 'temp': 26.94, 'lipoC3S3': 11.55, 'lipoC3S2': 7.65, 'rot1': 36, 'rot0': 23, 'rot3': 59, 'rot2': 53, 'state': 'normal', 'yaw': 29.5, 'datetime': '2018-10-09 20:23:11.931330', 'mgs': 0, 'volt': 0.8984, 'depth': 1.538, 'time': 85, 'pitch': -4.17, 'roll': -1.08, 'pres': 184}
{'lipoC2': 7.28, 'lipoC3S1': 3.82, 'temp': 26.94, 'lipoC3S3': 11.55, 'lipoC3S2': 7.64, 'rot1': 36, 'rot0': 23, 'rot3': 59, 'rot2': 53, 'state': 'normal', 'yaw': 29.5, 'datetime': '2018-10-09 20:23:11.947490', 'mgs': 0, 'volt': 0.8936, 'depth': 1.462, 'time': 85, 'pitch': -4.16, 'roll': -1.08, 'pres': 183}
{'lipoC2': 7.28, 'lipoC3S1': 3.82, 'temp': 26.94, 'lipoC3S3': 11.55, 'lipoC3S2': 7.64, 'rot1': 36, 'rot0': 23, 'rot3': 59, 'rot2': 53, 'state': 'normal', 'yaw': 29.5, 'datetime': '2018-10-09 20:23:11.963693', 'mgs': 0, 'volt': 0.8936, 'depth': 1.462, 'time': 86, 'pitch': -4.15, 'roll': -1.09, 'pres': 183}
{'lipoC2': 7.28, 'lipoC3S1': 3.82, 'temp': 26.94, 'lipoC3S3': 11.55, 'lipoC3S2': 7.64, 'rot1': 36, 'rot0': 23, 'rot3': 59, 'rot2': 53, 'state': 'normal', 'yaw': 29.5, 'datetime': '2018-10-09 20:23:11.979831', 'mgs': 0, 'volt': 0.8936, 'depth': 1.462, 'time': 86, 'pitch': -4.15, 'roll': -1.09, 'pres': 183}
{'lipoC2': 7.28, 'lipoC3S1': 3.82, 'temp': 26.94, 'lipoC3S3': 11.55, 'lipoC3S2': 7.65, 'rot1': 36, 'rot0': 23, 'rot3': 59, 'rot2': 53, 'state': 'normal', 'yaw': 29.5, 'datetime': '2018-10-09 20:23:11.996040', 'mgs': 0, 'volt': 0.8936, 'depth': 1.462, 'time': 86, 'pitch': -4.17, 'roll': -1.09, 'pres': 183}
{'lipoC2': 7.28, 'lipoC3S1': 3.82, 'temp': 26.88, 'lipoC3S3': 11.55, 'lipoC3S2': 7.65, 'rot1': 36, 'rot0': 23, 'rot3': 59, 'rot2': 53, 'state': 'normal', 'yaw': 29.49, 'datetime': '2018-10-09 20:23:12.012183', 'mgs': 0, 'volt': 0.8936, 'depth': 1.462, 'time': 86, 'pitch': -4.22, 'roll': -1.1, 'pres': 183}
{'lipoC2': 7.28, 'lipoC3S1': 3.82, 'temp': 26.88, 'lipoC3S3': 11.55, 'lipoC3S2': 7.65, 'rot1': 36, 'rot0': 23, 'rot3': 59, 'rot2': 53, 'state': 'normal', 'yaw': 29.5, 'datetime': '2018-10-09 20:23:12.028348', 'mgs': 0, 'volt': 0.8936, 'depth': 1.462, 'time': 86, 'pitch': -4.28, 'roll': -1.1, 'pres': 183}
{'lipoC2': 7.28, 'lipoC3S1': 3.82, 'temp': 26.88, 'lipoC3S3': 11.55, 'lipoC3S2': 7.65, 'rot1': 36, 'rot0': 23, 'rot3': 59, 'rot2': 53, 'state': 'normal', 'yaw': 29.5, 'datetime': '2018-10-09 20:23:12.044562', 'mgs': 0, 'volt': 0.8936, 'depth': 1.462, 'time': 86, 'pitch': -4.3, 'roll': -1.1, 'pres': 183}
{'lipoC2': 7.28, 'lipoC3S1': 3.82, 'temp': 26.88, 'lipoC3S3': 11.55, 'lipoC3S2': 7.65, 'rot1': 36, 'rot0': 23, 'rot3': 59, 'rot2': 53, 'state': 'normal', 'yaw': 29.5, 'datetime': '2018-10-09 20:23:12.060749', 'mgs': 0, 'volt': 0.8936, 'depth': 1.462, 'time': 86, 'pitch': -4.3, 'roll': -1.1, 'pres': 183}
{'lipoC2': 7.28, 'lipoC3S1': 3.82, 'temp': 26.88, 'lipoC3S3': 11.55, 'lipoC3S2': 7.65, 'rot1': 36, 'rot0': 23, 'rot3': 59, 'rot2': 53, 'state': 'normal', 'yaw': 29.5, 'datetime': '2018-10-09 20:23:12.076933', 'mgs': 0, 'volt': 0.8936, 'depth': 1.462, 'time': 86, 'pitch': -4.3, 'roll': -1.1, 'pres': 183}
{'lipoC2': 7.28, 'lipoC3S1': 3.82, 'temp': 26.88, 'lipoC3S3': 11.55, 'lipoC3S2': 7.65, 'rot1': 36, 'rot0': 23, 'rot3': 59, 'rot2': 53, 'state': 'normal', 'yaw': 29.5, 'datetime': '2018-10-09 20:23:12.093218', 'mgs': 0, 'volt': 0.8936, 'depth': 1.462, 'time': 86, 'pitch': -4.29, 'roll': -1.09, 'pres': 183}
{'lipoC2': 7.28, 'lipoC3S1': 3.82, 'temp': 26.88, 'lipoC3S3': 11.55, 'lipoC3S2': 7.65, 'rot1': 36, 'rot0': 23, 'rot3': 59, 'rot2': 53, 'state': 'normal', 'yaw': 29.5, 'datetime': '2018-10-09 20:23:12.109382', 'mgs': 0, 'volt': 0.8936, 'depth': 1.462, 'time': 87, 'pitch': -4.29, 'roll': -1.05, 'pres': 183}
{'lipoC2': 7.28, 'lipoC3S1': 3.82, 'temp': 26.94, 'lipoC3S3': 11.55, 'lipoC3S2': 7.65, 'rot1': 36, 'rot0': 23, 'rot3': 59, 'rot2': 53, 'state': 'normal', 'yaw': 29.5, 'datetime': '2018-10-09 20:23:12.125590', 'mgs': 0, 'volt': 0.8936, 'depth': 1.462, 'time': 87, 'pitch': -4.29, 'roll': -0.96, 'pres': 183}
{'lipoC2': 7.28, 'lipoC3S1': 3.82, 'temp': 26.94, 'lipoC3S3': 11.55, 'lipoC3S2': 7.65, 'rot1': 0, 'rot0': 0, 'rot3': 0, 'rot2': 0, 'state': 'normal', 'yaw': 0.0, 'datetime': '2018-10-09 20:23:12.141617', 'mgs': 0, 'volt': 0.8936, 'depth': 1.462, 'time': 1, 'pitch': -4.3, 'roll': -0.65, 'pres': 183}
{'lipoC2': 7.28, 'lipoC3S1': 3.82, 'temp': 26.94, 'lipoC3S3': 11.55, 'lipoC3S2': 7.65, 'rot1': 0, 'rot0': 0, 'rot3': 0, 'rot2': 0, 'state': 'normal', 'yaw': 0.0, 'datetime': '2018-10-09 20:23:12.157605', 'mgs': 0, 'volt': 0.8936, 'depth': 1.462, 'time': 1, 'pitch': -4.3, 'roll': -0.65, 'pres': 183}
{'lipoC2': 7.28, 'lipoC3S1': 3.82, 'temp': 26.94, 'lipoC3S3': 11.55, 'lipoC3S2': 7.65, 'rot1': 0, 'rot0': 0, 'rot3': 0, 'rot2': 0, 'state': 'normal', 'yaw': 0.0, 'datetime': '2018-10-09 20:23:12.173577', 'mgs': 0, 'volt': 0.8936, 'depth': 1.462, 'time': 1, 'pitch': -4.31, 'roll': -0.65, 'pres': 183}
{'lipoC2': 7.28, 'lipoC3S1': 3.82, 'temp': 26.94, 'lipoC3S3': 11.55, 'lipoC3S2': 7.65, 'rot1': 0, 'rot0': 0, 'rot3': 0, 'rot2': 0, 'state': 'normal', 'yaw': -0.0, 'datetime': '2018-10-09 20:23:12.189547', 'mgs': 0, 'volt': 0.8887, 'depth': 1.385, 'time': 1, 'pitch': -4.35, 'roll': -0.64, 'pres': 182}
{'lipoC2': 7.28, 'lipoC3S1': 3.82, 'temp': 26.94, 'lipoC3S3': 11.55, 'lipoC3S2': 7.65, 'rot1': 0, 'rot0': 0, 'rot3': 0, 'rot2': 0, 'state': 'normal', 'yaw': -0.0, 'datetime': '2018-10-09 20:23:12.205508', 'mgs': 0, 'volt': 0.8936, 'depth': 1.462, 'time': 1, 'pitch': -4.39, 'roll': -0.64, 'pres': 183}
{'lipoC2': 7.28, 'lipoC3S1': 3.82, 'temp': 26.94, 'lipoC3S3': 11.55, 'lipoC3S2': 7.65, 'rot1': 0, 'rot0': 0, 'rot3': 0, 'rot2': 0, 'state': 'normal', 'yaw': -0.0, 'datetime': '2018-10-09 20:23:12.221486', 'mgs': 0, 'volt': 0.8936, 'depth': 1.462, 'time': 1, 'pitch': -4.4, 'roll': -0.64, 'pres': 183}
{'lipoC2': 7.28, 'lipoC3S1': 3.82, 'temp': 26.94, 'lipoC3S3': 11.55, 'lipoC3S2': 7.65, 'rot1': 0, 'rot0': 0, 'rot3': 0, 'rot2': 0, 'state': 'normal', 'yaw': -0.0, 'datetime': '2018-10-09 20:23:12.236932', 'mgs': 0, 'volt': 0.8887, 'depth': 1.385, 'time': 1, 'pitch': -4.4, 'roll': -0.58, 'pres': 182}
{'lipoC2': 7.28, 'lipoC3S1': 3.82, 'temp': 27.0, 'lipoC3S3': 11.55, 'lipoC3S2': 7.65, 'rot1': 0, 'rot0': 0, 'rot3': 0, 'rot2': 0, 'state': 'normal', 'yaw': 0.0, 'datetime': '2018-10-09 20:23:12.252443', 'mgs': 0, 'volt': 0.8936, 'depth': 1.462, 'time': 1, 'pitch': -4.4, 'roll': -0.5, 'pres': 183}
{'lipoC2': 7.28, 'lipoC3S1': 3.82, 'temp': 27.0, 'lipoC3S3': 11.55, 'lipoC3S2': 7.65, 'rot1': 0, 'rot0': 0, 'rot3': 0, 'rot2': 0, 'state': 'normal', 'yaw': 0.0, 'datetime': '2018-10-09 20:23:12.267890', 'mgs': 0, 'volt': 0.8936, 'depth': 1.462, 'time': 2, 'pitch': -4.4, 'roll': -0.42, 'pres': 183}
{'lipoC2': 7.28, 'lipoC3S1': 3.82, 'temp': 26.94, 'lipoC3S3': 11.55, 'lipoC3S2': 7.65, 'rot1': 0, 'rot0': 0, 'rot3': 0, 'rot2': 0, 'state': 'normal', 'yaw': -0.0, 'datetime': '2018-10-09 20:23:12.283330', 'mgs': 0, 'volt': 0.8936, 'depth': 1.462, 'time': 2, 'pitch': -4.4, 'roll': -0.34, 'pres': 183}
{'lipoC2': 7.28, 'lipoC3S1': 3.82, 'temp': 26.94, 'lipoC3S3': 11.55, 'lipoC3S2': 7.65, 'rot1': 0, 'rot0': 0, 'rot3': 0, 'rot2': 0, 'state': 'normal', 'yaw': -0.0, 'datetime': '2018-10-09 20:23:12.298775', 'mgs': 0, 'volt': 0.8936, 'depth': 1.462, 'time': 2, 'pitch': -4.39, 'roll': -0.32, 'pres': 183}
{'lipoC2': 7.28, 'lipoC3S1': 3.82, 'temp': 26.94, 'lipoC3S3': 11.55, 'lipoC3S2': 7.65, 'rot1': 0, 'rot0': 0, 'rot3': 0, 'rot2': 0, 'state': 'normal', 'yaw': -0.0, 'datetime': '2018-10-09 20:23:12.314327', 'mgs': 0, 'volt': 0.8936, 'depth': 1.462, 'time': 2, 'pitch': -4.39, 'roll': -0.32, 'pres': 183}
{'lipoC2': 7.28, 'lipoC3S1': 3.82, 'temp': 26.94, 'lipoC3S3': 11.55, 'lipoC3S2': 7.65, 'rot1': 0, 'rot0': 0, 'rot3': 0, 'rot2': 0, 'state': 'normal', 'yaw': -0.0, 'datetime': '2018-10-09 20:23:12.329740', 'mgs': 0, 'volt': 0.8936, 'depth': 1.462, 'time': 2, 'pitch': -4.42, 'roll': -0.32, 'pres': 183}
{'lipoC2': 7.28, 'lipoC3S1': 3.82, 'temp': 26.94, 'lipoC3S3': 11.55, 'lipoC3S2': 7.65, 'rot1': 0, 'rot0': 0, 'rot3': 0, 'rot2': 0, 'state': 'normal', 'yaw': -0.0, 'datetime': '2018-10-09 20:23:12.345195', 'mgs': 0, 'volt': 0.8936, 'depth': 1.462, 'time': 2, 'pitch': -4.42, 'roll': -0.32, 'pres': 183}
{'lipoC2': 7.28, 'lipoC3S1': 3.82, 'temp': 26.94, 'lipoC3S3': 11.55, 'lipoC3S2': 7.65, 'rot1': 0, 'rot0': 0, 'rot3': 0, 'rot2': 0, 'state': 'normal', 'yaw': -0.0, 'datetime': '2018-10-09 20:23:12.360658', 'mgs': 0, 'volt': 0.8936, 'depth': 1.462, 'time': 2, 'pitch': -4.42, 'roll': -0.32, 'pres': 183}
{'lipoC2': 7.28, 'lipoC3S1': 3.82, 'temp': 26.94, 'lipoC3S3': 11.55, 'lipoC3S2': 7.65, 'rot1': 0, 'rot0': 0, 'rot3': 0, 'rot2': 0, 'state': 'normal', 'yaw': -0.0, 'datetime': '2018-10-09 20:23:12.376078', 'mgs': 0, 'volt': 0.8936, 'depth': 1.462, 'time': 2, 'pitch': -4.42, 'roll': -0.32, 'pres': 183}
{'lipoC2': 7.28, 'lipoC3S1': 3.82, 'temp': 27.0, 'lipoC3S3': 11.55, 'lipoC3S2': 7.64, 'rot1': 0, 'rot0': 0, 'rot3': 0, 'rot2': 0, 'state': 'normal', 'yaw': -0.0, 'datetime': '2018-10-09 20:23:12.391492', 'mgs': 0, 'volt': 0.8887, 'depth': 1.385, 'time': 2, 'pitch': -4.42, 'roll': -0.32, 'pres': 182}
{'lipoC2': 7.28, 'lipoC3S1': 3.81, 'temp': 27.0, 'lipoC3S3': 11.54, 'lipoC3S2': 7.61, 'rot1': 0, 'rot0': 0, 'rot3': 0, 'rot2': 0, 'state': 'normal', 'yaw': -0.0, 'datetime': '2018-10-09 20:23:12.406995', 'mgs': 0, 'volt': 0.8936, 'depth': 1.462, 'time': 3, 'pitch': -4.42, 'roll': -0.32, 'pres': 183}
{'lipoC2': 7.28, 'lipoC3S1': 3.81, 'temp': 27.0, 'lipoC3S3': 11.54, 'lipoC3S2': 7.64, 'rot1': 0, 'rot0': 0, 'rot3': 0, 'rot2': 0, 'state': 'normal', 'yaw': -0.06, 'datetime': '2018-10-09 20:23:12.422420', 'mgs': 0, 'volt': 0.8887, 'depth': 1.385, 'time': 3, 'pitch': -4.42, 'roll': -0.32, 'pres': 182}
{'lipoC2': 7.28, 'lipoC3S1': 3.82, 'temp': 26.88, 'lipoC3S3': 11.54, 'lipoC3S2': 7.64, 'rot1': 1, 'rot0': 0, 'rot3': 0, 'rot2': 0, 'state': 'normal', 'yaw': -0.34, 'datetime': '2018-10-09 20:23:12.437889', 'mgs': 0, 'volt': 0.8936, 'depth': 1.462, 'time': 3, 'pitch': -4.42, 'roll': -0.29, 'pres': 183}
{'lipoC2': 7.27, 'lipoC3S1': 3.82, 'temp': 26.88, 'lipoC3S3': 11.54, 'lipoC3S2': 7.64, 'rot1': 1, 'rot0': 1, 'rot3': 0, 'rot2': 0, 'state': 'normal', 'yaw': -0.72, 'datetime': '2018-10-09 20:23:12.453330', 'mgs': 0, 'volt': 0.8936, 'depth': 1.462, 'time': 3, 'pitch': -4.42, 'roll': -0.24, 'pres': 183}
{'lipoC2': 7.27, 'lipoC3S1': 3.79, 'temp': 26.88, 'lipoC3S3': 11.54, 'lipoC3S2': 7.64, 'rot1': 1, 'rot0': 1, 'rot3': 0, 'rot2': 0, 'state': 'normal', 'yaw': -1.21, 'datetime': '2018-10-09 20:23:12.468868', 'mgs': 0, 'volt': 0.8936, 'depth': 1.462, 'time': 3, 'pitch': -4.43, 'roll': -0.17, 'pres': 183}
{'lipoC2': 7.28, 'lipoC3S1': 3.82, 'temp': 26.88, 'lipoC3S3': 11.54, 'lipoC3S2': 7.64, 'rot1': 1, 'rot0': 1, 'rot3': 0, 'rot2': 0, 'state': 'normal', 'yaw': -1.83, 'datetime': '2018-10-09 20:23:12.484285', 'mgs': 0, 'volt': 0.8887, 'depth': 1.385, 'time': 3, 'pitch': -4.43, 'roll': -0.1, 'pres': 182}
{'lipoC2': 7.27, 'lipoC3S1': 3.82, 'temp': 26.88, 'lipoC3S3': 11.54, 'lipoC3S2': 7.64, 'rot1': 2, 'rot0': 1, 'rot3': 0, 'rot2': 0, 'state': 'normal', 'yaw': -2.26, 'datetime': '2018-10-09 20:23:12.500766', 'mgs': 0, 'volt': 0.8936, 'depth': 1.462, 'time': 3, 'pitch': -4.43, 'roll': -0.06, 'pres': 183}
{'lipoC2': 7.28, 'lipoC3S1': 3.82, 'temp': 26.88, 'lipoC3S3': 11.54, 'lipoC3S2': 7.64, 'rot1': 2, 'rot0': 2, 'rot3': 0, 'rot2': 0, 'state': 'normal', 'yaw': -2.59, 'datetime': '2018-10-09 20:23:12.516341', 'mgs': 0, 'volt': 0.8936, 'depth': 1.462, 'time': 3, 'pitch': -4.43, 'roll': -0.08, 'pres': 183}
{'lipoC2': 7.27, 'lipoC3S1': 3.82, 'temp': 26.88, 'lipoC3S3': 11.54, 'lipoC3S2': 7.64, 'rot1': 2, 'rot0': 2, 'rot3': 0, 'rot2': 0, 'state': 'normal', 'yaw': -2.78, 'datetime': '2018-10-09 20:23:12.576262', 'mgs': 0, 'volt': 0.8887, 'depth': 1.385, 'time': 3, 'pitch': -4.43, 'roll': -0.15, 'pres': 182}
{'lipoC2': 7.28, 'lipoC3S1': 3.82, 'temp': 26.88, 'lipoC3S3': 11.54, 'lipoC3S2': 7.64, 'rot1': 2, 'rot0': 2, 'rot3': 0, 'rot2': 0, 'state': 'normal', 'yaw': -2.9, 'datetime': '2018-10-09 20:23:12.680794', 'mgs': 0, 'volt': 0.8936, 'depth': 1.462, 'time': 3, 'pitch': -4.43, 'roll': -0.25, 'pres': 183}
{'lipoC2': 7.28, 'lipoC3S1': 3.82, 'temp': 26.88, 'lipoC3S3': 11.54, 'lipoC3S2': 7.64, 'rot1': 3, 'rot0': 2, 'rot3': 0, 'rot2': 0, 'state': 'normal', 'yaw': -2.93, 'datetime': '2018-10-09 20:23:12.784052', 'mgs': 0, 'volt': 0.8936, 'depth': 1.462, 'time': 4, 'pitch': -4.43, 'roll': -0.4, 'pres': 183}
{'lipoC2': 7.28, 'lipoC3S1': 3.82, 'temp': 26.88, 'lipoC3S3': 11.54, 'lipoC3S2': 7.64, 'rot1': 3, 'rot0': 2, 'rot3': 0, 'rot2': 0, 'state': 'normal', 'yaw': -2.92, 'datetime': '2018-10-09 20:23:12.887272', 'mgs': 0, 'volt': 0.8936, 'depth': 1.462, 'time': 4, 'pitch': -4.43, 'roll': -0.54, 'pres': 183}
{'lipoC2': 7.28, 'lipoC3S1': 3.82, 'temp': 26.88, 'lipoC3S3': 11.54, 'lipoC3S2': 7.64, 'rot1': 3, 'rot0': 3, 'rot3': 0, 'rot2': 0, 'state': 'normal', 'yaw': -2.91, 'datetime': '2018-10-09 20:23:12.990511', 'mgs': 0, 'volt': 0.8936, 'depth': 1.462, 'time': 4, 'pitch': -4.45, 'roll': -0.67, 'pres': 183}
{'lipoC2': 7.28, 'lipoC3S1': 3.82, 'temp': 26.88, 'lipoC3S3': 11.54, 'lipoC3S2': 7.64, 'rot1': 3, 'rot0': 3, 'rot3': 0, 'rot2': 0, 'state': 'normal', 'yaw': -2.83, 'datetime': '2018-10-09 20:23:13.094327', 'mgs': 0, 'volt': 0.8936, 'depth': 1.462, 'time': 4, 'pitch': -4.46, 'roll': -0.79, 'pres': 183}
{'lipoC2': 7.28, 'lipoC3S1': 3.82, 'temp': 26.88, 'lipoC3S3': 11.54, 'lipoC3S2': 7.64, 'rot1': 4, 'rot0': 3, 'rot3': 0, 'rot2': 0, 'state': 'normal', 'yaw': -2.7, 'datetime': '2018-10-09 20:23:13.202810', 'mgs': 0, 'volt': 0.9082, 'depth': 1.691, 'time': 4, 'pitch': -4.45, 'roll': -0.9, 'pres': 186}
{'lipoC2': 7.28, 'lipoC3S1': 3.82, 'temp': 26.88, 'lipoC3S3': 11.54, 'lipoC3S2': 7.64, 'rot1': 4, 'rot0': 3, 'rot3': 0, 'rot2': 0, 'state': 'normal', 'yaw': -2.54, 'datetime': '2018-10-09 20:23:13.307806', 'mgs': 0, 'volt': 0.8936, 'depth': 1.462, 'time': 4, 'pitch': -4.45, 'roll': -0.94, 'pres': 183}
{'lipoC2': 7.28, 'lipoC3S1': 3.82, 'temp': 26.88, 'lipoC3S3': 11.52, 'lipoC3S2': 7.64, 'rot1': 4, 'rot0': 4, 'rot3': 0, 'rot2': 0, 'state': 'normal', 'yaw': -2.34, 'datetime': '2018-10-09 20:23:13.410953', 'mgs': 0, 'volt': 0.8936, 'depth': 1.462, 'time': 4, 'pitch': -4.45, 'roll': -0.95, 'pres': 183}
{'lipoC2': 7.27, 'lipoC3S1': 3.82, 'temp': 26.88, 'lipoC3S3': 11.54, 'lipoC3S2': 7.61, 'rot1': 4, 'rot0': 4, 'rot3': 0, 'rot2': 0, 'state': 'normal', 'yaw': -2.08, 'datetime': '2018-10-09 20:23:13.514238', 'mgs': 0, 'volt': 0.8936, 'depth': 1.462, 'time': 4, 'pitch': -4.44, 'roll': -0.94, 'pres': 183}
{'lipoC2': 7.28, 'lipoC3S1': 3.8, 'temp': 26.94, 'lipoC3S3': 11.54, 'lipoC3S2': 7.64, 'rot1': 5, 'rot0': 4, 'rot3': 0, 'rot2': 0, 'state': 'normal', 'yaw': -1.8, 'datetime': '2018-10-09 20:23:13.617348', 'mgs': 0, 'volt': 0.8936, 'depth': 1.462, 'time': 4, 'pitch': -4.44, 'roll': -0.89, 'pres': 183}
{'lipoC2': 7.28, 'lipoC3S1': 3.82, 'temp': 26.94, 'lipoC3S3': 11.54, 'lipoC3S2': 7.64, 'rot1': 5, 'rot0': 4, 'rot3': 0, 'rot2': 0, 'state': 'normal', 'yaw': -1.48, 'datetime': '2018-10-09 20:23:13.721890', 'mgs': 0, 'volt': 0.8936, 'depth': 1.462, 'time': 4, 'pitch': -4.43, 'roll': -0.78, 'pres': 183}
{'lipoC2': 7.28, 'lipoC3S1': 3.82, 'temp': 26.94, 'lipoC3S3': 11.54, 'lipoC3S2': 7.64, 'rot1': 5, 'rot0': 5, 'rot3': 0, 'rot2': 0, 'state': 'normal', 'yaw': -1.07, 'datetime': '2018-10-09 20:23:13.825048', 'mgs': 0, 'volt': 0.8936, 'depth': 1.462, 'time': 5, 'pitch': -4.43, 'roll': -0.65, 'pres': 183}
{'lipoC2': 7.28, 'lipoC3S1': 3.82, 'temp': 26.94, 'lipoC3S3': 11.54, 'lipoC3S2': 7.64, 'rot1': 5, 'rot0': 5, 'rot3': 0, 'rot2': 0, 'state': 'normal', 'yaw': -0.65, 'datetime': '2018-10-09 20:23:13.928731', 'mgs': 0, 'volt': 0.8936, 'depth': 1.462, 'time': 5, 'pitch': -4.42, 'roll': -0.54, 'pres': 183}
{'lipoC2': 7.27, 'lipoC3S1': 3.82, 'temp': 26.94, 'lipoC3S3': 11.54, 'lipoC3S2': 7.64, 'rot1': 6, 'rot0': 5, 'rot3': 0, 'rot2': 0, 'state': 'normal', 'yaw': -0.18, 'datetime': '2018-10-09 20:23:14.033216', 'mgs': 0, 'volt': 0.8936, 'depth': 1.462, 'time': 5, 'pitch': -4.42, 'roll': -0.42, 'pres': 183}
{'lipoC2': 7.28, 'lipoC3S1': 3.82, 'temp': 26.88, 'lipoC3S3': 11.54, 'lipoC3S2': 7.64, 'rot1': 6, 'rot0': 5, 'rot3': 0, 'rot2': 0, 'state': 'normal', 'yaw': 0.39, 'datetime': '2018-10-09 20:23:14.136414', 'mgs': 0, 'volt': 0.8936, 'depth': 1.462, 'time': 5, 'pitch': -4.42, 'roll': -0.29, 'pres': 183}
{'lipoC2': 7.28, 'lipoC3S1': 3.82, 'temp': 26.88, 'lipoC3S3': 11.54, 'lipoC3S2': 7.64, 'rot1': 6, 'rot0': 6, 'rot3': 0, 'rot2': 0, 'state': 'normal', 'yaw': 0.94, 'datetime': '2018-10-09 20:23:14.240699', 'mgs': 0, 'volt': 0.8936, 'depth': 1.462, 'time': 5, 'pitch': -4.41, 'roll': -0.17, 'pres': 183}
{'lipoC2': 7.28, 'lipoC3S1': 3.82, 'temp': 26.94, 'lipoC3S3': 11.54, 'lipoC3S2': 7.64, 'rot1': 6, 'rot0': 6, 'rot3': 0, 'rot2': 0, 'state': 'normal', 'yaw': 1.53, 'datetime': '2018-10-09 20:23:14.344801', 'mgs': 0, 'volt': 0.8887, 'depth': 1.385, 'time': 5, 'pitch': -4.44, 'roll': -0.06, 'pres': 182}
{'lipoC2': 7.27, 'lipoC3S1': 3.82, 'temp': 26.94, 'lipoC3S3': 11.54, 'lipoC3S2': 7.64, 'rot1': 6, 'rot0': 6, 'rot3': 0, 'rot2': 0, 'state': 'normal', 'yaw': 2.23, 'datetime': '2018-10-09 20:23:14.448252', 'mgs': 0, 'volt': 0.8936, 'depth': 1.462, 'time': 5, 'pitch': -4.53, 'roll': 0.05, 'pres': 183}
{'lipoC2': 7.28, 'lipoC3S1': 3.82, 'temp': 26.88, 'lipoC3S3': 11.52, 'lipoC3S2': 7.64, 'rot1': 7, 'rot0': 6, 'rot3': 0, 'rot2': 0, 'state': 'normal', 'yaw': 2.88, 'datetime': '2018-10-09 20:23:14.551221', 'mgs': 0, 'volt': 0.8936, 'depth': 1.462, 'time': 5, 'pitch': -4.6, 'roll': 0.11, 'pres': 183}
{'lipoC2': 7.28, 'lipoC3S1': 3.82, 'temp': 26.88, 'lipoC3S3': 11.54, 'lipoC3S2': 7.64, 'rot1': 7, 'rot0': 7, 'rot3': 0, 'rot2': 0, 'state': 'normal', 'yaw': 3.54, 'datetime': '2018-10-09 20:23:14.654555', 'mgs': 0, 'volt': 0.8936, 'depth': 1.462, 'time': 5, 'pitch': -4.6, 'roll': 0.14, 'pres': 183}
{'lipoC2': 7.28, 'lipoC3S1': 3.82, 'temp': 26.88, 'lipoC3S3': 11.54, 'lipoC3S2': 7.64, 'rot1': 7, 'rot0': 7, 'rot3': 0, 'rot2': 0, 'state': 'normal', 'yaw': 4.28, 'datetime': '2018-10-09 20:23:14.757794', 'mgs': 0, 'volt': 0.8936, 'depth': 1.462, 'time': 6, 'pitch': -4.61, 'roll': 0.09, 'pres': 183}
{'lipoC2': 7.28, 'lipoC3S1': 3.82, 'temp': 26.88, 'lipoC3S3': 11.54, 'lipoC3S2': 7.64, 'rot1': 7, 'rot0': 7, 'rot3': 0, 'rot2': 0, 'state': 'normal', 'yaw': 4.96, 'datetime': '2018-10-09 20:23:14.860854', 'mgs': 0, 'volt': 0.8887, 'depth': 1.385, 'time': 6, 'pitch': -4.61, 'roll': 0.04, 'pres': 182}
{'lipoC2': 7.28, 'lipoC3S1': 3.82, 'temp': 26.88, 'lipoC3S3': 11.55, 'lipoC3S2': 7.64, 'rot1': 8, 'rot0': 7, 'rot3': 0, 'rot2': 0, 'state': 'normal', 'yaw': 5.66, 'datetime': '2018-10-09 20:23:14.964070', 'mgs': 0, 'volt': 0.8936, 'depth': 1.462, 'time': 6, 'pitch': -4.62, 'roll': -0.02, 'pres': 183}
{'lipoC2': 7.28, 'lipoC3S1': 3.82, 'temp': 26.94, 'lipoC3S3': 11.5, 'lipoC3S2': 7.64, 'rot1': 8, 'rot0': 7, 'rot3': 0, 'rot2': 0, 'state': 'normal', 'yaw': 6.4, 'datetime': '2018-10-09 20:23:15.067310', 'mgs': 0, 'volt': 0.8936, 'depth': 1.462, 'time': 6, 'pitch': -4.7, 'roll': -0.09, 'pres': 183}
{'lipoC2': 7.28, 'lipoC3S1': 3.82, 'temp': 26.94, 'lipoC3S3': 11.54, 'lipoC3S2': 7.62, 'rot1': 8, 'rot0': 7, 'rot3': 0, 'rot2': 0, 'state': 'normal', 'yaw': 7.03, 'datetime': '2018-10-09 20:23:15.170516', 'mgs': 0, 'volt': 0.8936, 'depth': 1.462, 'time': 6, 'pitch': -4.8, 'roll': -0.15, 'pres': 183}
{'lipoC2': 7.28, 'lipoC3S1': 3.82, 'temp': 26.94, 'lipoC3S3': 11.54, 'lipoC3S2': 7.64, 'rot1': 8, 'rot0': 7, 'rot3': 0, 'rot2': 0, 'state': 'normal', 'yaw': 7.61, 'datetime': '2018-10-09 20:23:15.275006', 'mgs': 0, 'volt': 0.8936, 'depth': 1.462, 'time': 6, 'pitch': -4.85, 'roll': -0.2, 'pres': 183}
{'lipoC2': 7.28, 'lipoC3S1': 3.82, 'temp': 26.94, 'lipoC3S3': 11.54, 'lipoC3S2': 7.64, 'rot1': 8, 'rot0': 7, 'rot3': 0, 'rot2': 0, 'state': 'normal', 'yaw': 8.18, 'datetime': '2018-10-09 20:23:15.378211', 'mgs': 0, 'volt': 0.8936, 'depth': 1.462, 'time': 6, 'pitch': -4.88, 'roll': -0.25, 'pres': 183}
{'lipoC2': 7.28, 'lipoC3S1': 3.82, 'temp': 26.94, 'lipoC3S3': 11.54, 'lipoC3S2': 7.64, 'rot1': 8, 'rot0': 7, 'rot3': 0, 'rot2': 0, 'state': 'normal', 'yaw': 8.64, 'datetime': '2018-10-09 20:23:15.481456', 'mgs': 0, 'volt': 0.8936, 'depth': 1.462, 'time': 6, 'pitch': -4.95, 'roll': -0.23, 'pres': 183}
{'lipoC2': 7.28, 'lipoC3S1': 3.82, 'temp': 26.94, 'lipoC3S3': 11.55, 'lipoC3S2': 7.64, 'rot1': 8, 'rot0': 7, 'rot3': 0, 'rot2': 0, 'state': 'normal', 'yaw': 9.08, 'datetime': '2018-10-09 20:23:15.585888', 'mgs': 0, 'volt': 0.8936, 'depth': 1.462, 'time': 6, 'pitch': -4.98, 'roll': -0.19, 'pres': 183}
{'lipoC2': 7.28, 'lipoC3S1': 3.82, 'temp': 26.94, 'lipoC3S3': 11.54, 'lipoC3S2': 7.64, 'rot1': 8, 'rot0': 7, 'rot3': 0, 'rot2': 0, 'state': 'normal', 'yaw': 9.56, 'datetime': '2018-10-09 20:23:15.689072', 'mgs': 0, 'volt': 0.8936, 'depth': 1.462, 'time': 6, 'pitch': -4.98, 'roll': -0.14, 'pres': 183}
{'lipoC2': 7.28, 'lipoC3S1': 3.82, 'temp': 27.0, 'lipoC3S3': 11.54, 'lipoC3S2': 7.64, 'rot1': 8, 'rot0': 7, 'rot3': 0, 'rot2': 0, 'state': 'normal', 'yaw': 10.0, 'datetime': '2018-10-09 20:23:15.792402', 'mgs': 0, 'volt': 0.8936, 'depth': 1.462, 'time': 7, 'pitch': -5.0, 'roll': -0.13, 'pres': 183}
{'lipoC2': 7.28, 'lipoC3S1': 3.82, 'temp': 27.0, 'lipoC3S3': 11.55, 'lipoC3S2': 7.64, 'rot1': 8, 'rot0': 7, 'rot3': 0, 'rot2': 0, 'state': 'normal', 'yaw': 10.59, 'datetime': '2018-10-09 20:23:15.897484', 'mgs': 0, 'volt': 0.8936, 'depth': 1.462, 'time': 7, 'pitch': -5.17, 'roll': -0.2, 'pres': 183}
{'lipoC2': 7.28, 'lipoC3S1': 3.82, 'temp': 26.94, 'lipoC3S3': 11.54, 'lipoC3S2': 7.64, 'rot1': 8, 'rot0': 7, 'rot3': 0, 'rot2': 0, 'state': 'normal', 'yaw': 11.49, 'datetime': '2018-10-09 20:23:16.000016', 'mgs': 0, 'volt': 0.8936, 'depth': 1.462, 'time': 7, 'pitch': -5.44, 'roll': -0.49, 'pres': 183}
{'lipoC2': 7.28, 'lipoC3S1': 3.82, 'temp': 26.94, 'lipoC3S3': 11.54, 'lipoC3S2': 7.64, 'rot1': 8, 'rot0': 7, 'rot3': 0, 'rot2': 0, 'state': 'normal', 'yaw': 12.52, 'datetime': '2018-10-09 20:23:16.103284', 'mgs': 0, 'volt': 0.8887, 'depth': 1.385, 'time': 7, 'pitch': -5.78, 'roll': -0.91, 'pres': 182}
{'lipoC2': 7.28, 'lipoC3S1': 3.82, 'temp': 26.94, 'lipoC3S3': 11.54, 'lipoC3S2': 7.64, 'rot1': 8, 'rot0': 7, 'rot3': 0, 'rot2': 0, 'state': 'normal', 'yaw': 13.71, 'datetime': '2018-10-09 20:23:16.206475', 'mgs': 0, 'volt': 0.8887, 'depth': 1.385, 'time': 7, 'pitch': -6.14, 'roll': -1.4, 'pres': 182}
{'lipoC2': 7.28, 'lipoC3S1': 3.82, 'temp': 26.94, 'lipoC3S3': 11.54, 'lipoC3S2': 7.64, 'rot1': 8, 'rot0': 7, 'rot3': 0, 'rot2': 0, 'state': 'normal', 'yaw': 14.99, 'datetime': '2018-10-09 20:23:16.309901', 'mgs': 0, 'volt': 0.8887, 'depth': 1.385, 'time': 7, 'pitch': -6.5, 'roll': -1.91, 'pres': 182}
{'lipoC2': 7.28, 'lipoC3S1': 3.82, 'temp': 26.94, 'lipoC3S3': 11.55, 'lipoC3S2': 7.64, 'rot1': 8, 'rot0': 7, 'rot3': 0, 'rot2': 0, 'state': 'normal', 'yaw': 16.48, 'datetime': '2018-10-09 20:23:16.413072', 'mgs': 0, 'volt': 0.8887, 'depth': 1.385, 'time': 7, 'pitch': -6.91, 'roll': -2.41, 'pres': 182}
{'lipoC2': 7.28, 'lipoC3S1': 3.82, 'temp': 26.94, 'lipoC3S3': 11.54, 'lipoC3S2': 7.64, 'rot1': 8, 'rot0': 8, 'rot3': 0, 'rot2': 0, 'state': 'normal', 'yaw': 17.88, 'datetime': '2018-10-09 20:23:16.516277', 'mgs': 0, 'volt': 0.9033, 'depth': 1.614, 'time': 7, 'pitch': -7.3, 'roll': -2.75, 'pres': 185}
{'lipoC2': 7.28, 'lipoC3S1': 3.82, 'temp': 26.94, 'lipoC3S3': 11.54, 'lipoC3S2': 7.64, 'rot1': 8, 'rot0': 8, 'rot3': 0, 'rot2': 0, 'state': 'normal', 'yaw': 19.34, 'datetime': '2018-10-09 20:23:16.619523', 'mgs': 0, 'volt': 0.8838, 'depth': 1.309, 'time': 7, 'pitch': -7.67, 'roll': -2.98, 'pres': 181}
{'lipoC2': 7.28, 'lipoC3S1': 3.82, 'temp': 26.94, 'lipoC3S3': 11.51, 'lipoC3S2': 7.64, 'rot1': 8, 'rot0': 8, 'rot3': 0, 'rot2': 0, 'state': 'normal', 'yaw': 21.03, 'datetime': '2018-10-09 20:23:16.722755', 'mgs': 0, 'volt': 0.8838, 'depth': 1.309, 'time': 7, 'pitch': -8.05, 'roll': -3.15, 'pres': 181}
{'lipoC2': 7.28, 'lipoC3S1': 3.82, 'temp': 26.94, 'lipoC3S3': 11.54, 'lipoC3S2': 7.64, 'rot1': 8, 'rot0': 8, 'rot3': 0, 'rot2': 0, 'state': 'normal', 'yaw': 22.61, 'datetime': '2018-10-09 20:23:16.825940', 'mgs': 0, 'volt': 0.8838, 'depth': 1.309, 'time': 8, 'pitch': -8.34, 'roll': -3.21, 'pres': 181}
{'lipoC2': 7.28, 'lipoC3S1': 3.82, 'temp': 26.94, 'lipoC3S3': 11.54, 'lipoC3S2': 7.64, 'rot1': 8, 'rot0': 8, 'rot3': 0, 'rot2': 0, 'state': 'normal', 'yaw': 24.2, 'datetime': '2018-10-09 20:23:16.930404', 'mgs': 0, 'volt': 0.8789, 'depth': 1.233, 'time': 8, 'pitch': -8.52, 'roll': -3.14, 'pres': 180}
{'lipoC2': 7.28, 'lipoC3S1': 3.81, 'temp': 26.88, 'lipoC3S3': 11.54, 'lipoC3S2': 7.64, 'rot1': 8, 'rot0': 8, 'rot3': 0, 'rot2': 0, 'state': 'normal', 'yaw': 25.85, 'datetime': '2018-10-09 20:23:17.033629', 'mgs': 0, 'volt': 0.8789, 'depth': 1.233, 'time': 8, 'pitch': -8.55, 'roll': -2.87, 'pres': 180}
{'lipoC2': 7.28, 'lipoC3S1': 3.82, 'temp': 26.88, 'lipoC3S3': 11.54, 'lipoC3S2': 7.64, 'rot1': 9, 'rot0': 8, 'rot3': 0, 'rot2': 0, 'state': 'normal', 'yaw': 27.25, 'datetime': '2018-10-09 20:23:17.137204', 'mgs': 0, 'volt': 0.8838, 'depth': 1.309, 'time': 8, 'pitch': -8.48, 'roll': -2.48, 'pres': 181}
{'lipoC2': 7.28, 'lipoC3S1': 3.82, 'temp': 26.88, 'lipoC3S3': 11.55, 'lipoC3S2': 7.64, 'rot1': 9, 'rot0': 8, 'rot3': 0, 'rot2': 0, 'state': 'normal', 'yaw': 28.55, 'datetime': '2018-10-09 20:23:17.241692', 'mgs': 0, 'volt': 0.8838, 'depth': 1.309, 'time': 8, 'pitch': -8.37, 'roll': -1.97, 'pres': 181}
{'lipoC2': 7.28, 'lipoC3S1': 3.82, 'temp': 26.88, 'lipoC3S3': 11.54, 'lipoC3S2': 7.64, 'rot1': 9, 'rot0': 9, 'rot3': 0, 'rot2': 0, 'state': 'normal', 'yaw': 29.68, 'datetime': '2018-10-09 20:23:17.344962', 'mgs': 0, 'volt': 0.8838, 'depth': 1.309, 'time': 8, 'pitch': -8.13, 'roll': -1.16, 'pres': 181}
{'lipoC2': 7.28, 'lipoC3S1': 3.82, 'temp': 26.88, 'lipoC3S3': 11.54, 'lipoC3S2': 7.64, 'rot1': 10, 'rot0': 9, 'rot3': 0, 'rot2': 0, 'state': 'normal', 'yaw': 30.25, 'datetime': '2018-10-09 20:23:17.448952', 'mgs': 0, 'volt': 0.8838, 'depth': 1.309, 'time': 8, 'pitch': -7.85, 'roll': -0.14, 'pres': 181}
{'lipoC2': 7.28, 'lipoC3S1': 3.82, 'temp': 26.94, 'lipoC3S3': 11.54, 'lipoC3S2': 7.64, 'rot1': 10, 'rot0': 9, 'rot3': 0, 'rot2': 0, 'state': 'normal', 'yaw': 30.37, 'datetime': '2018-10-09 20:23:17.553498', 'mgs': 0, 'volt': 0.8838, 'depth': 1.309, 'time': 8, 'pitch': -7.56, 'roll': 1.08, 'pres': 181}
{'lipoC2': 7.28, 'lipoC3S1': 3.82, 'temp': 26.94, 'lipoC3S3': 11.54, 'lipoC3S2': 7.64, 'rot1': 11, 'rot0': 10, 'rot3': 0, 'rot2': 0, 'state': 'normal', 'yaw': 30.02, 'datetime': '2018-10-09 20:23:17.657033', 'mgs': 0, 'volt': 0.8838, 'depth': 1.309, 'time': 8, 'pitch': -7.28, 'roll': 2.54, 'pres': 181}
{'lipoC2': 7.28, 'lipoC3S1': 3.82, 'temp': 26.94, 'lipoC3S3': 11.54, 'lipoC3S2': 7.64, 'rot1': 11, 'rot0': 10, 'rot3': 0, 'rot2': 0, 'state': 'normal', 'yaw': 29.29, 'datetime': '2018-10-09 20:23:17.760748', 'mgs': 0, 'volt': 0.8838, 'depth': 1.309, 'time': 9, 'pitch': -7.14, 'roll': 3.88, 'pres': 181}
{'lipoC2': 7.28, 'lipoC3S1': 3.82, 'temp': 26.94, 'lipoC3S3': 11.48, 'lipoC3S2': 7.64, 'rot1': 12, 'rot0': 11, 'rot3': 0, 'rot2': 0, 'state': 'normal', 'yaw': 28.27, 'datetime': '2018-10-09 20:23:17.864275', 'mgs': 0, 'volt': 0.8838, 'depth': 1.309, 'time': 9, 'pitch': -7.09, 'roll': 5.07, 'pres': 181}
{'lipoC2': 7.28, 'lipoC3S1': 3.82, 'temp': 26.88, 'lipoC3S3': 11.54, 'lipoC3S2': 7.64, 'rot1': 12, 'rot0': 11, 'rot3': 0, 'rot2': 0, 'state': 'normal', 'yaw': 26.93, 'datetime': '2018-10-09 20:23:17.967881', 'mgs': 0, 'volt': 0.8838, 'depth': 1.309, 'time': 9, 'pitch': -7.19, 'roll': 6.08, 'pres': 181}
{'lipoC2': 7.28, 'lipoC3S1': 3.82, 'temp': 26.88, 'lipoC3S3': 11.54, 'lipoC3S2': 7.64, 'rot1': 12, 'rot0': 11, 'rot3': 0, 'rot2': 0, 'state': 'normal', 'yaw': 25.56, 'datetime': '2018-10-09 20:23:18.071398', 'mgs': 0, 'volt': 0.8838, 'depth': 1.309, 'time': 9, 'pitch': -7.41, 'roll': 6.66, 'pres': 181}
{'lipoC2': 7.28, 'lipoC3S1': 3.82, 'temp': 26.88, 'lipoC3S3': 11.54, 'lipoC3S2': 7.64, 'rot1': 13, 'rot0': 12, 'rot3': 0, 'rot2': 0, 'state': 'normal', 'yaw': 24.1, 'datetime': '2018-10-09 20:23:18.175212', 'mgs': 0, 'volt': 0.8838, 'depth': 1.309, 'time': 9, 'pitch': -7.68, 'roll': 6.84, 'pres': 181}
{'lipoC2': 7.28, 'lipoC3S1': 3.82, 'temp': 26.88, 'lipoC3S3': 11.54, 'lipoC3S2': 7.64, 'rot1': 13, 'rot0': 12, 'rot3': 0, 'rot2': 0, 'state': 'normal', 'yaw': 22.48, 'datetime': '2018-10-09 20:23:18.278642', 'mgs': 0, 'volt': 0.8838, 'depth': 1.309, 'time': 9, 'pitch': -8.04, 'roll': 6.59, 'pres': 181}
{'lipoC2': 7.28, 'lipoC3S1': 3.82, 'temp': 26.88, 'lipoC3S3': 11.54, 'lipoC3S2': 7.64, 'rot1': 13, 'rot0': 12, 'rot3': 0, 'rot2': 0, 'state': 'normal', 'yaw': 20.95, 'datetime': '2018-10-09 20:23:18.382894', 'mgs': 0, 'volt': 0.8838, 'depth': 1.309, 'time': 9, 'pitch': -8.31, 'roll': 6.05, 'pres': 181}
{'lipoC2': 7.28, 'lipoC3S1': 3.82, 'temp': 26.94, 'lipoC3S3': 11.54, 'lipoC3S2': 7.64, 'rot1': 14, 'rot0': 12, 'rot3': 0, 'rot2': 0, 'state': 'normal', 'yaw': 19.21, 'datetime': '2018-10-09 20:23:18.486709', 'mgs': 0, 'volt': 0.8789, 'depth': 1.233, 'time': 9, 'pitch': -8.44, 'roll': 5.21, 'pres': 180}
{'lipoC2': 7.28, 'lipoC3S1': 3.82, 'temp': 26.94, 'lipoC3S3': 11.54, 'lipoC3S2': 7.64, 'rot1': 14, 'rot0': 13, 'rot3': 0, 'rot2': 0, 'state': 'normal', 'yaw': 17.59, 'datetime': '2018-10-09 20:23:18.590130', 'mgs': 0, 'volt': 0.8789, 'depth': 1.233, 'time': 9, 'pitch': -8.39, 'roll': 4.3, 'pres': 180}
{'lipoC2': 7.28, 'lipoC3S1': 3.82, 'temp': 26.88, 'lipoC3S3': 11.55, 'lipoC3S2': 7.62, 'rot1': 14, 'rot0': 13, 'rot3': 0, 'rot2': 0, 'state': 'normal', 'yaw': 15.9, 'datetime': '2018-10-09 20:23:18.695046', 'mgs': 0, 'volt': 0.8789, 'depth': 1.233, 'time': 9, 'pitch': -8.21, 'roll': 3.31, 'pres': 180}
{'lipoC2': 7.28, 'lipoC3S1': 3.82, 'temp': 26.88, 'lipoC3S3': 11.54, 'lipoC3S2': 7.64, 'rot1': 14, 'rot0': 13, 'rot3': 0, 'rot2': 0, 'state': 'normal', 'yaw': 13.95, 'datetime': '2018-10-09 20:23:18.798788', 'mgs': 0, 'volt': 0.8789, 'depth': 1.233, 'time': 10, 'pitch': -7.93, 'roll': 2.26, 'pres': 180}
{'lipoC2': 7.28, 'lipoC3S1': 3.82, 'temp': 26.88, 'lipoC3S3': 11.54, 'lipoC3S2': 7.64, 'rot1': 14, 'rot0': 13, 'rot3': 0, 'rot2': 0, 'state': 'normal', 'yaw': 12.07, 'datetime': '2018-10-09 20:23:18.902920', 'mgs': 0, 'volt': 0.874, 'depth': 1.157, 'time': 10, 'pitch': -7.69, 'roll': 1.4, 'pres': 179}
{'lipoC2': 7.28, 'lipoC3S1': 3.82, 'temp': 26.88, 'lipoC3S3': 11.54, 'lipoC3S2': 7.64, 'rot1': 14, 'rot0': 13, 'rot3': 0, 'rot2': 0, 'state': 'normal', 'yaw': 10.13, 'datetime': '2018-10-09 20:23:19.007753', 'mgs': 0, 'volt': 0.874, 'depth': 1.157, 'time': 10, 'pitch': -7.51, 'roll': 0.67, 'pres': 179}
{'lipoC2': 7.28, 'lipoC3S1': 3.82, 'temp': 26.88, 'lipoC3S3': 11.54, 'lipoC3S2': 7.64, 'rot1': 14, 'rot0': 13, 'rot3': 0, 'rot2': 0, 'state': 'normal', 'yaw': 7.94, 'datetime': '2018-10-09 20:23:19.111454', 'mgs': 0, 'volt': 0.874, 'depth': 1.157, 'time': 10, 'pitch': -7.39, 'roll': 0.07, 'pres': 179}
{'lipoC2': 7.28, 'lipoC3S1': 3.82, 'temp': 26.88, 'lipoC3S3': 11.54, 'lipoC3S2': 7.64, 'rot1': 14, 'rot0': 13, 'rot3': 0, 'rot2': 0, 'state': 'normal', 'yaw': 5.91, 'datetime': '2018-10-09 20:23:19.215101', 'mgs': 0, 'volt': 0.874, 'depth': 1.157, 'time': 10, 'pitch': -7.34, 'roll': -0.29, 'pres': 179}
{'lipoC2': 7.28, 'lipoC3S1': 3.82, 'temp': 26.88, 'lipoC3S3': 11.54, 'lipoC3S2': 7.64, 'rot1': 14, 'rot0': 13, 'rot3': 0, 'rot2': 0, 'state': 'normal', 'yaw': 3.89, 'datetime': '2018-10-09 20:23:19.318968', 'mgs': 0, 'volt': 0.874, 'depth': 1.157, 'time': 10, 'pitch': -7.35, 'roll': -0.47, 'pres': 179}
{'lipoC2': 7.28, 'lipoC3S1': 3.82, 'temp': 26.88, 'lipoC3S3': 11.54, 'lipoC3S2': 7.64, 'rot1': 14, 'rot0': 13, 'rot3': 0, 'rot2': 0, 'state': 'normal', 'yaw': 1.75, 'datetime': '2018-10-09 20:23:19.422545', 'mgs': 0, 'volt': 0.874, 'depth': 1.157, 'time': 10, 'pitch': -7.46, 'roll': -0.51, 'pres': 179}
{'lipoC2': 7.28, 'lipoC3S1': 3.82, 'temp': 26.88, 'lipoC3S3': 11.54, 'lipoC3S2': 7.64, 'rot1': 14, 'rot0': 13, 'rot3': 0, 'rot2': 0, 'state': 'normal', 'yaw': -0.05, 'datetime': '2018-10-09 20:23:19.526155', 'mgs': 0, 'volt': 0.874, 'depth': 1.157, 'time': 10, 'pitch': -7.68, 'roll': -0.5, 'pres': 179}
{'lipoC2': 7.27, 'lipoC3S1': 3.82, 'temp': 26.88, 'lipoC3S3': 11.54, 'lipoC3S2': 7.64, 'rot1': 14, 'rot0': 13, 'rot3': 0, 'rot2': 0, 'state': 'normal', 'yaw': -1.74, 'datetime': '2018-10-09 20:23:19.629874', 'mgs': 0, 'volt': 0.8691, 'depth': 1.08, 'time': 10, 'pitch': -7.93, 'roll': -0.43, 'pres': 178}
{'lipoC2': 7.28, 'lipoC3S1': 3.82, 'temp': 26.88, 'lipoC3S3': 11.54, 'lipoC3S2': 7.64, 'rot1': 14, 'rot0': 13, 'rot3': 0, 'rot2': 0, 'state': 'normal', 'yaw': -3.46, 'datetime': '2018-10-09 20:23:19.733586', 'mgs': 0, 'volt': 0.874, 'depth': 1.157, 'time': 10, 'pitch': -8.2, 'roll': -0.3, 'pres': 179}
{'lipoC2': 7.28, 'lipoC3S1': 3.82, 'temp': 26.88, 'lipoC3S3': 11.54, 'lipoC3S2': 7.64, 'rot1': 14, 'rot0': 13, 'rot3': 0, 'rot2': 0, 'state': 'normal', 'yaw': -4.67, 'datetime': '2018-10-09 20:23:19.838186', 'mgs': 0, 'volt': 0.874, 'depth': 1.157, 'time': 11, 'pitch': -8.46, 'roll': -0.32, 'pres': 179}
{'lipoC2': 7.28, 'lipoC3S1': 3.82, 'temp': 26.94, 'lipoC3S3': 11.5, 'lipoC3S2': 7.64, 'rot1': 15, 'rot0': 13, 'rot3': 0, 'rot2': 0, 'state': 'normal', 'yaw': -5.49, 'datetime': '2018-10-09 20:23:19.941833', 'mgs': 0, 'volt': 0.874, 'depth': 1.157, 'time': 11, 'pitch': -8.74, 'roll': -0.59, 'pres': 179}
{'lipoC2': 7.28, 'lipoC3S1': 3.82, 'temp': 26.94, 'lipoC3S3': 11.54, 'lipoC3S2': 7.59, 'rot1': 15, 'rot0': 13, 'rot3': 0, 'rot2': 0, 'state': 'normal', 'yaw': -5.67, 'datetime': '2018-10-09 20:23:20.046045', 'mgs': 0, 'volt': 0.8691, 'depth': 1.08, 'time': 11, 'pitch': -8.97, 'roll': -1.13, 'pres': 178}
{'lipoC2': 7.28, 'lipoC3S1': 3.82, 'temp': 26.88, 'lipoC3S3': 11.54, 'lipoC3S2': 7.64, 'rot1': 15, 'rot0': 13, 'rot3': 0, 'rot2': 0, 'state': 'normal', 'yaw': -5.29, 'datetime': '2018-10-09 20:23:20.150657', 'mgs': 0, 'volt': 0.8691, 'depth': 1.08, 'time': 11, 'pitch': -9.07, 'roll': -1.94, 'pres': 178}
{'lipoC2': 7.28, 'lipoC3S1': 3.82, 'temp': 26.88, 'lipoC3S3': 11.54, 'lipoC3S2': 7.64, 'rot1': 16, 'rot0': 13, 'rot3': 0, 'rot2': 0, 'state': 'normal', 'yaw': -4.46, 'datetime': '2018-10-09 20:23:20.254364', 'mgs': 0, 'volt': 0.8887, 'depth': 1.385, 'time': 11, 'pitch': -8.96, 'roll': -2.91, 'pres': 182}
{'lipoC2': 7.28, 'lipoC3S1': 3.82, 'temp': 26.94, 'lipoC3S3': 11.48, 'lipoC3S2': 7.64, 'rot1': 16, 'rot0': 14, 'rot3': 0, 'rot2': 0, 'state': 'normal', 'yaw': -3.49, 'datetime': '2018-10-09 20:23:20.359247', 'mgs': 0, 'volt': 0.8691, 'depth': 1.08, 'time': 11, 'pitch': -8.68, 'roll': -3.68, 'pres': 178}
{'lipoC2': 7.28, 'lipoC3S1': 3.82, 'temp': 26.94, 'lipoC3S3': 11.54, 'lipoC3S2': 7.64, 'rot1': 16, 'rot0': 14, 'rot3': 0, 'rot2': 0, 'state': 'normal', 'yaw': -2.33, 'datetime': '2018-10-09 20:23:20.462882', 'mgs': 0, 'volt': 0.8691, 'depth': 1.08, 'time': 11, 'pitch': -8.23, 'roll': -4.29, 'pres': 178}
{'lipoC2': 7.28, 'lipoC3S1': 3.8, 'temp': 26.94, 'lipoC3S3': 11.54, 'lipoC3S2': 7.64, 'rot1': 16, 'rot0': 14, 'rot3': 0, 'rot2': 0, 'state': 'normal', 'yaw': -1.32, 'datetime': '2018-10-09 20:23:20.576375', 'mgs': 0, 'volt': 0.8643, 'depth': 1.004, 'time': 11, 'pitch': -7.78, 'roll': -4.46, 'pres': 177}
{'lipoC2': 7.28, 'lipoC3S1': 3.82, 'temp': 26.94, 'lipoC3S3': 11.54, 'lipoC3S2': 7.64, 'rot1': 17, 'rot0': 14, 'rot3': 0, 'rot2': 0, 'state': 'normal', 'yaw': -0.32, 'datetime': '2018-10-09 20:23:20.663188', 'mgs': 0, 'volt': 0.8691, 'depth': 1.08, 'time': 11, 'pitch': -7.54, 'roll': -4.28, 'pres': 178}
{'lipoC2': 7.28, 'lipoC3S1': 3.82, 'temp': 26.94, 'lipoC3S3': 11.54, 'lipoC3S2': 7.64, 'rot1': 17, 'rot0': 15, 'rot3': 0, 'rot2': 0, 'state': 'normal', 'yaw': 0.83, 'datetime': '2018-10-09 20:23:20.769462', 'mgs': 0, 'volt': 0.8691, 'depth': 1.08, 'time': 12, 'pitch': -7.65, 'roll': -3.78, 'pres': 178}
{'lipoC2': 7.28, 'lipoC3S1': 3.82, 'temp': 26.88, 'lipoC3S3': 11.54, 'lipoC3S2': 7.64, 'rot1': 17, 'rot0': 15, 'rot3': 0, 'rot2': 0, 'state': 'normal', 'yaw': 1.85, 'datetime': '2018-10-09 20:23:20.870455', 'mgs': 0, 'volt': 0.8936, 'depth': 1.462, 'time': 12, 'pitch': -7.99, 'roll': -3.05, 'pres': 183}
{'lipoC2': 7.28, 'lipoC3S1': 3.82, 'temp': 26.88, 'lipoC3S3': 11.54, 'lipoC3S2': 7.64, 'rot1': 17, 'rot0': 15, 'rot3': 0, 'rot2': 0, 'state': 'normal', 'yaw': 3.02, 'datetime': '2018-10-09 20:23:20.974220', 'mgs': 0, 'volt': 0.8691, 'depth': 1.08, 'time': 12, 'pitch': -8.55, 'roll': -2.29, 'pres': 178}
{'lipoC2': 7.27, 'lipoC3S1': 3.82, 'temp': 26.94, 'lipoC3S3': 11.54, 'lipoC3S2': 7.64, 'rot1': 18, 'rot0': 15, 'rot3': 0, 'rot2': 0, 'state': 'normal', 'yaw': 4.75, 'datetime': '2018-10-09 20:23:21.077703', 'mgs': 0, 'volt': 0.874, 'depth': 1.157, 'time': 12, 'pitch': -9.26, 'roll': -1.75, 'pres': 179}
{'lipoC2': 7.28, 'lipoC3S1': 3.82, 'temp': 26.94, 'lipoC3S3': 11.54, 'lipoC3S2': 7.64, 'rot1': 18, 'rot0': 15, 'rot3': 0, 'rot2': 0, 'state': 'normal', 'yaw': 6.77, 'datetime': '2018-10-09 20:23:21.181368', 'mgs': 0, 'volt': 0.8691, 'depth': 1.08, 'time': 12, 'pitch': -9.81, 'roll': -1.61, 'pres': 178}
{'lipoC2': 7.27, 'lipoC3S1': 3.82, 'temp': 26.94, 'lipoC3S3': 11.54, 'lipoC3S2': 7.64, 'rot1': 18, 'rot0': 15, 'rot3': 0, 'rot2': 0, 'state': 'normal', 'yaw': 8.9, 'datetime': '2018-10-09 20:23:21.286279', 'mgs': 0, 'volt': 0.8691, 'depth': 1.08, 'time': 12, 'pitch': -10.24, 'roll': -1.57, 'pres': 178}
{'lipoC2': 7.28, 'lipoC3S1': 3.82, 'temp': 26.88, 'lipoC3S3': 11.54, 'lipoC3S2': 7.64, 'rot1': 18, 'rot0': 15, 'rot3': 0, 'rot2': 0, 'state': 'normal', 'yaw': 11.29, 'datetime': '2018-10-09 20:23:21.389964', 'mgs': 0, 'volt': 0.8691, 'depth': 1.08, 'time': 12, 'pitch': -10.64, 'roll': -1.53, 'pres': 178}
{'lipoC2': 7.27, 'lipoC3S1': 3.82, 'temp': 26.88, 'lipoC3S3': 11.54, 'lipoC3S2': 7.64, 'rot1': 18, 'rot0': 15, 'rot3': 0, 'rot2': 0, 'state': 'normal', 'yaw': 13.61, 'datetime': '2018-10-09 20:23:21.494837', 'mgs': 0, 'volt': 0.8691, 'depth': 1.08, 'time': 12, 'pitch': -11.0, 'roll': -1.63, 'pres': 178}
{'lipoC2': 7.28, 'lipoC3S1': 3.82, 'temp': 26.88, 'lipoC3S3': 11.54, 'lipoC3S2': 7.64, 'rot1': 18, 'rot0': 15, 'rot3': 0, 'rot2': 0, 'state': 'normal', 'yaw': 16.54, 'datetime': '2018-10-09 20:23:21.598527', 'mgs': 0, 'volt': 0.8691, 'depth': 1.08, 'time': 12, 'pitch': -11.66, 'roll': -2.07, 'pres': 178}
{'lipoC2': 7.28, 'lipoC3S1': 3.82, 'temp': 26.88, 'lipoC3S3': 11.54, 'lipoC3S2': 7.64, 'rot1': 18, 'rot0': 15, 'rot3': 0, 'rot2': 0, 'state': 'normal', 'yaw': 20.1, 'datetime': '2018-10-09 20:23:21.702102', 'mgs': 0, 'volt': 0.8643, 'depth': 1.004, 'time': 12, 'pitch': -12.56, 'roll': -3.27, 'pres': 177}
{'lipoC2': 7.27, 'lipoC3S1': 3.82, 'temp': 26.88, 'lipoC3S3': 11.54, 'lipoC3S2': 7.58, 'rot1': 18, 'rot0': 15, 'rot3': 0, 'rot2': 0, 'state': 'normal', 'yaw': 24.93, 'datetime': '2018-10-09 20:23:21.807285', 'mgs': 0, 'volt': 0.8643, 'depth': 1.004, 'time': 13, 'pitch': -13.79, 'roll': -5.54, 'pres': 177}
{'lipoC2': 7.26, 'lipoC3S1': 3.82, 'temp': 26.88, 'lipoC3S3': 11.54, 'lipoC3S2': 7.64, 'rot1': 18, 'rot0': 15, 'rot3': 0, 'rot2': 0, 'state': 'normal', 'yaw': 31.58, 'datetime': '2018-10-09 20:23:21.910846', 'mgs': 0, 'volt': 0.8594, 'depth': 0.928, 'time': 13, 'pitch': -15.37, 'roll': -9.1, 'pres': 176}
{'lipoC2': 7.27, 'lipoC3S1': 3.78, 'temp': 26.88, 'lipoC3S3': 11.54, 'lipoC3S2': 7.64, 'rot1': 18, 'rot0': 16, 'rot3': 0, 'rot2': 0, 'state': 'normal', 'yaw': 38.44, 'datetime': '2018-10-09 20:23:22.027784', 'mgs': 0, 'volt': 0.8545, 'depth': 0.851, 'time': 13, 'pitch': -16.84, 'roll': -12.8, 'pres': 175}
{'lipoC2': 7.27, 'lipoC3S1': 3.81, 'temp': 26.81, 'lipoC3S3': 11.47, 'lipoC3S2': 7.63, 'rot1': 19, 'rot0': 16, 'rot3': 0, 'rot2': 0, 'state': 'normal', 'yaw': 45.49, 'datetime': '2018-10-09 20:23:22.119138', 'mgs': 0, 'volt': 0.8496, 'depth': 0.775, 'time': 13, 'pitch': -18.27, 'roll': -16.28, 'pres': 174}
{'lipoC2': 7.28, 'lipoC3S1': 3.81, 'temp': 26.81, 'lipoC3S3': 11.52, 'lipoC3S2': 7.63, 'rot1': 20, 'rot0': 16, 'rot3': 0, 'rot2': 0, 'state': 'normal', 'yaw': 52.68, 'datetime': '2018-10-09 20:23:22.229116', 'mgs': 0, 'volt': 0.8643, 'depth': 1.004, 'time': 13, 'pitch': -19.34, 'roll': -19.07, 'pres': 177}
{'lipoC2': 7.27, 'lipoC3S1': 3.73, 'temp': 26.94, 'lipoC3S3': 11.52, 'lipoC3S2': 7.61, 'rot1': 20, 'rot0': 17, 'rot3': 0, 'rot2': 0, 'state': 'normal', 'yaw': 57.99, 'datetime': '2018-10-09 20:23:22.325876', 'mgs': 0, 'volt': 0.8447, 'depth': 0.699, 'time': 13, 'pitch': -19.61, 'roll': -20.1, 'pres': 173}
{'lipoC2': 7.28, 'lipoC3S1': 3.81, 'temp': 26.94, 'lipoC3S3': 11.51, 'lipoC3S2': 7.62, 'rot1': 22, 'rot0': 18, 'rot3': 0, 'rot2': 0, 'state': 'normal', 'yaw': 61.78, 'datetime': '2018-10-09 20:23:22.429827', 'mgs': 0, 'volt': 0.8643, 'depth': 1.004, 'time': 13, 'pitch': -19.05, 'roll': -19.47, 'pres': 177}
{'lipoC2': 7.28, 'lipoC3S1': 3.73, 'temp': 26.88, 'lipoC3S3': 11.51, 'lipoC3S2': 7.6, 'rot1': 23, 'rot0': 19, 'rot3': 0, 'rot2': 0, 'state': 'normal', 'yaw': 64.28, 'datetime': '2018-10-09 20:23:22.533606', 'mgs': 0, 'volt': 0.8496, 'depth': 0.775, 'time': 13, 'pitch': -17.8, 'roll': -17.21, 'pres': 174}
{'lipoC2': 7.27, 'lipoC3S1': 3.79, 'temp': 26.88, 'lipoC3S3': 11.5, 'lipoC3S2': 7.62, 'rot1': 24, 'rot0': 20, 'rot3': 0, 'rot2': 0, 'state': 'normal', 'yaw': 65.21, 'datetime': '2018-10-09 20:23:22.637768', 'mgs': 0, 'volt': 0.835, 'depth': 0.546, 'time': 13, 'pitch': -16.22, 'roll': -14.21, 'pres': 171}
{'lipoC2': 7.27, 'lipoC3S1': 3.8, 'temp': 26.88, 'lipoC3S3': 11.51, 'lipoC3S2': 7.52, 'rot1': 25, 'rot0': 21, 'rot3': 0, 'rot2': 0, 'state': 'normal', 'yaw': 65.03, 'datetime': '2018-10-09 20:23:22.741466', 'mgs': 0, 'volt': 0.8545, 'depth': 0.851, 'time': 13, 'pitch': -14.02, 'roll': -10.3, 'pres': 175}
{'lipoC2': 7.27, 'lipoC3S1': 3.81, 'temp': 26.88, 'lipoC3S3': 11.34, 'lipoC3S2': 7.61, 'rot1': 26, 'rot0': 22, 'rot3': 0, 'rot2': 0, 'state': 'normal', 'yaw': 64.05, 'datetime': '2018-10-09 20:23:22.845120', 'mgs': 0, 'volt': 0.8643, 'depth': 1.004, 'time': 14, 'pitch': -11.64, 'roll': -6.54, 'pres': 177}
{'lipoC2': 7.27, 'lipoC3S1': 3.72, 'temp': 26.88, 'lipoC3S3': 11.51, 'lipoC3S2': 7.58, 'rot1': 27, 'rot0': 23, 'rot3': 0, 'rot2': 0, 'state': 'normal', 'yaw': 62.52, 'datetime': '2018-10-09 20:23:22.950081', 'mgs': 0, 'volt': 0.8691, 'depth': 1.08, 'time': 14, 'pitch': -9.06, 'roll': -2.85, 'pres': 178}
{'lipoC2': 7.28, 'lipoC3S1': 3.81, 'temp': 26.81, 'lipoC3S3': 11.36, 'lipoC3S2': 7.6, 'rot1': 28, 'rot0': 24, 'rot3': 0, 'rot2': 0, 'state': 'normal', 'yaw': 60.34, 'datetime': '2018-10-09 20:23:23.060805', 'mgs': 0, 'volt': 0.8789, 'depth': 1.233, 'time': 14, 'pitch': -6.12, 'roll': 0.89, 'pres': 180}
{'lipoC2': 7.28, 'lipoC3S1': 3.81, 'temp': 26.81, 'lipoC3S3': 11.51, 'lipoC3S2': 7.62, 'rot1': 30, 'rot0': 25, 'rot3': 0, 'rot2': 0, 'state': 'normal', 'yaw': 58.01, 'datetime': '2018-10-09 20:23:23.165659', 'mgs': 0, 'volt': 0.9326, 'depth': 2.072, 'time': 14, 'pitch': -3.55, 'roll': 3.84, 'pres': 191}
{'lipoC2': 7.28, 'lipoC3S1': 3.81, 'temp': 26.94, 'lipoC3S3': 11.51, 'lipoC3S2': 7.62, 'rot1': 31, 'rot0': 26, 'rot3': 0, 'rot2': 0, 'state': 'normal', 'yaw': 55.37, 'datetime': '2018-10-09 20:23:23.269757', 'mgs': 0, 'volt': 0.918, 'depth': 1.843, 'time': 14, 'pitch': -1.25, 'roll': 6.23, 'pres': 188}
{'lipoC2': 7.28, 'lipoC3S1': 3.75, 'temp': 26.94, 'lipoC3S3': 11.51, 'lipoC3S2': 7.62, 'rot1': 32, 'rot0': 27, 'rot3': 0, 'rot2': 0, 'state': 'normal', 'yaw': 52.19, 'datetime': '2018-10-09 20:23:23.374044', 'mgs': 0, 'volt': 0.8936, 'depth': 1.462, 'time': 14, 'pitch': 0.84, 'roll': 8.15, 'pres': 183}
{'lipoC2': 7.28, 'lipoC3S1': 3.81, 'temp': 26.94, 'lipoC3S3': 11.48, 'lipoC3S2': 7.62, 'rot1': 33, 'rot0': 28, 'rot3': 0, 'rot2': 0, 'state': 'normal', 'yaw': 49.03, 'datetime': '2018-10-09 20:23:23.477420', 'mgs': 0, 'volt': 0.8936, 'depth': 1.462, 'time': 14, 'pitch': 2.32, 'roll': 9.2, 'pres': 183}
{'lipoC2': 7.27, 'lipoC3S1': 3.81, 'temp': 26.88, 'lipoC3S3': 11.51, 'lipoC3S2': 7.62, 'rot1': 34, 'rot0': 29, 'rot3': 0, 'rot2': 0, 'state': 'normal', 'yaw': 45.27, 'datetime': '2018-10-09 20:23:23.580883', 'mgs': 0, 'volt': 0.8936, 'depth': 1.462, 'time': 14, 'pitch': 3.46, 'roll': 9.59, 'pres': 183}
{'lipoC2': 7.28, 'lipoC3S1': 3.83, 'temp': 26.88, 'lipoC3S3': 11.52, 'lipoC3S2': 7.63, 'rot1': 34, 'rot0': 30, 'rot3': 0, 'rot2': 0, 'state': 'normal', 'yaw': 41.71, 'datetime': '2018-10-09 20:23:23.684560', 'mgs': 0, 'volt': 0.8936, 'depth': 1.462, 'time': 14, 'pitch': 4.01, 'roll': 9.29, 'pres': 183}
{'lipoC2': 7.28, 'lipoC3S1': 3.81, 'temp': 27.0, 'lipoC3S3': 11.52, 'lipoC3S2': 7.57, 'rot1': 35, 'rot0': 30, 'rot3': 0, 'rot2': 0, 'state': 'normal', 'yaw': 38.1, 'datetime': '2018-10-09 20:23:23.786178', 'mgs': 0, 'volt': 0.8936, 'depth': 1.462, 'time': 15, 'pitch': 4.12, 'roll': 8.45, 'pres': 183}
{'lipoC2': 7.28, 'lipoC3S1': 3.81, 'temp': 27.0, 'lipoC3S3': 11.52, 'lipoC3S2': 7.63, 'rot1': 36, 'rot0': 31, 'rot3': 0, 'rot2': 0, 'state': 'normal', 'yaw': 34.2, 'datetime': '2018-10-09 20:23:23.891888', 'mgs': 0, 'volt': 0.8887, 'depth': 1.385, 'time': 15, 'pitch': 3.76, 'roll': 7.04, 'pres': 182}
{'lipoC2': 7.28, 'lipoC3S1': 3.81, 'temp': 26.94, 'lipoC3S3': 11.52, 'lipoC3S2': 7.63, 'rot1': 37, 'rot0': 32, 'rot3': 0, 'rot2': 0, 'state': 'normal', 'yaw': 30.8, 'datetime': '2018-10-09 20:23:23.995505', 'mgs': 0, 'volt': 0.9082, 'depth': 1.691, 'time': 15, 'pitch': 3.09, 'roll': 5.45, 'pres': 186}
{'lipoC2': 7.28, 'lipoC3S1': 3.81, 'temp': 26.94, 'lipoC3S3': 11.5, 'lipoC3S2': 7.63, 'rot1': 37, 'rot0': 32, 'rot3': 0, 'rot2': 0, 'state': 'normal', 'yaw': 27.54, 'datetime': '2018-10-09 20:23:24.100477', 'mgs': 0, 'volt': 0.8838, 'depth': 1.309, 'time': 15, 'pitch': 2.16, 'roll': 3.74, 'pres': 181}
{'lipoC2': 7.28, 'lipoC3S1': 3.81, 'temp': 26.94, 'lipoC3S3': 11.54, 'lipoC3S2': 7.63, 'rot1': 37, 'rot0': 33, 'rot3': 0, 'rot2': 0, 'state': 'normal', 'yaw': 24.21, 'datetime': '2018-10-09 20:23:24.204147', 'mgs': 0, 'volt': 0.8789, 'depth': 1.233, 'time': 15, 'pitch': 0.89, 'roll': 1.86, 'pres': 180}
{'lipoC2': 7.27, 'lipoC3S1': 3.81, 'temp': 26.94, 'lipoC3S3': 11.54, 'lipoC3S2': 7.63, 'rot1': 38, 'rot0': 33, 'rot3': 0, 'rot2': 0, 'state': 'normal', 'yaw': 21.42, 'datetime': '2018-10-09 20:23:24.309114', 'mgs': 0, 'volt': 0.874, 'depth': 1.157, 'time': 15, 'pitch': -0.41, 'roll': 0.26, 'pres': 179}
{'lipoC2': 7.28, 'lipoC3S1': 3.82, 'temp': 26.94, 'lipoC3S3': 11.54, 'lipoC3S2': 7.64, 'rot1': 38, 'rot0': 33, 'rot3': 0, 'rot2': 0, 'state': 'normal', 'yaw': 18.6, 'datetime': '2018-10-09 20:23:24.413037', 'mgs': 0, 'volt': 0.8691, 'depth': 1.08, 'time': 15, 'pitch': -1.97, 'roll': -1.28, 'pres': 178}
{'lipoC2': 7.28, 'lipoC3S1': 3.82, 'temp': 26.94, 'lipoC3S3': 11.54, 'lipoC3S2': 7.64, 'rot1': 38, 'rot0': 33, 'rot3': 0, 'rot2': 0, 'state': 'normal', 'yaw': 16.29, 'datetime': '2018-10-09 20:23:24.516924', 'mgs': 0, 'volt': 0.8643, 'depth': 1.004, 'time': 15, 'pitch': -3.45, 'roll': -2.44, 'pres': 177}
{'lipoC2': 7.28, 'lipoC3S1': 3.81, 'temp': 26.94, 'lipoC3S3': 11.54, 'lipoC3S2': 7.64, 'rot1': 38, 'rot0': 33, 'rot3': 0, 'rot2': 0, 'state': 'normal', 'yaw': 14.19, 'datetime': '2018-10-09 20:23:24.621651', 'mgs': 0, 'volt': 0.8789, 'depth': 1.233, 'time': 15, 'pitch': -4.93, 'roll': -3.31, 'pres': 180}
{'lipoC2': 7.28, 'lipoC3S1': 3.82, 'temp': 26.94, 'lipoC3S3': 11.54, 'lipoC3S2': 7.64, 'rot1': 38, 'rot0': 33, 'rot3': 0, 'rot2': 0, 'state': 'normal', 'yaw': 12.08, 'datetime': '2018-10-09 20:23:24.725211', 'mgs': 0, 'volt': 0.8643, 'depth': 1.004, 'time': 15, 'pitch': -6.47, 'roll': -3.88, 'pres': 177}
{'lipoC2': 7.28, 'lipoC3S1': 3.82, 'temp': 26.94, 'lipoC3S3': 11.54, 'lipoC3S2': 7.64, 'rot1': 38, 'rot0': 33, 'rot3': 0, 'rot2': 0, 'state': 'normal', 'yaw': 10.3, 'datetime': '2018-10-09 20:23:24.828836', 'mgs': 0, 'volt': 0.8594, 'depth': 0.928, 'time': 16, 'pitch': -7.65, 'roll': -4.03, 'pres': 176}
{'lipoC2': 7.28, 'lipoC3S1': 3.82, 'temp': 26.94, 'lipoC3S3': 11.54, 'lipoC3S2': 7.64, 'rot1': 38, 'rot0': 33, 'rot3': 0, 'rot2': 0, 'state': 'normal', 'yaw': 8.6, 'datetime': '2018-10-09 20:23:24.932454', 'mgs': 0, 'volt': 0.8594, 'depth': 0.928, 'time': 16, 'pitch': -8.54, 'roll': -3.83, 'pres': 176}
{'lipoC2': 7.28, 'lipoC3S1': 3.82, 'temp': 26.94, 'lipoC3S3': 11.54, 'lipoC3S2': 7.64, 'rot1': 38, 'rot0': 33, 'rot3': 0, 'rot2': 0, 'state': 'normal', 'yaw': 6.82, 'datetime': '2018-10-09 20:23:25.036277', 'mgs': 0, 'volt': 0.8594, 'depth': 0.928, 'time': 16, 'pitch': -9.1, 'roll': -3.28, 'pres': 176}
{'lipoC2': 7.28, 'lipoC3S1': 3.82, 'temp': 26.94, 'lipoC3S3': 11.54, 'lipoC3S2': 7.64, 'rot1': 38, 'rot0': 33, 'rot3': 0, 'rot2': 0, 'state': 'normal', 'yaw': 5.25, 'datetime': '2018-10-09 20:23:25.139884', 'mgs': 0, 'volt': 0.8594, 'depth': 0.928, 'time': 16, 'pitch': -9.25, 'roll': -2.52, 'pres': 176}
{'lipoC2': 7.28, 'lipoC3S1': 3.82, 'temp': 26.94, 'lipoC3S3': 11.54, 'lipoC3S2': 7.64, 'rot1': 38, 'rot0': 33, 'rot3': 0, 'rot2': 0, 'state': 'normal', 'yaw': 3.76, 'datetime': '2018-10-09 20:23:25.243774', 'mgs': 0, 'volt': 0.8643, 'depth': 1.004, 'time': 16, 'pitch': -9.12, 'roll': -1.59, 'pres': 177}
{'lipoC2': 7.28, 'lipoC3S1': 3.82, 'temp': 26.94, 'lipoC3S3': 11.54, 'lipoC3S2': 7.64, 'rot1': 38, 'rot0': 33, 'rot3': 0, 'rot2': 0, 'state': 'normal', 'yaw': 2.2, 'datetime': '2018-10-09 20:23:25.347189', 'mgs': 0, 'volt': 0.8643, 'depth': 1.004, 'time': 16, 'pitch': -8.74, 'roll': -0.46, 'pres': 177}
{'lipoC2': 7.28, 'lipoC3S1': 3.82, 'temp': 26.94, 'lipoC3S3': 11.54, 'lipoC3S2': 7.64, 'rot1': 39, 'rot0': 33, 'rot3': 0, 'rot2': 0, 'state': 'normal', 'yaw': 0.8, 'datetime': '2018-10-09 20:23:25.450912', 'mgs': 0, 'volt': 0.8643, 'depth': 1.004, 'time': 16, 'pitch': -8.21, 'roll': 0.67, 'pres': 177}
{'lipoC2': 7.28, 'lipoC3S1': 3.81, 'temp': 26.94, 'lipoC3S3': 11.54, 'lipoC3S2': 7.63, 'rot1': 39, 'rot0': 33, 'rot3': 0, 'rot2': 0, 'state': 'normal', 'yaw': -1.1, 'datetime': '2018-10-09 20:23:25.555599', 'mgs': 0, 'volt': 0.8691, 'depth': 1.08, 'time': 16, 'pitch': -7.61, 'roll': 2.22, 'pres': 178}
{'lipoC2': 7.27, 'lipoC3S1': 3.82, 'temp': 26.94, 'lipoC3S3': 11.54, 'lipoC3S2': 7.64, 'rot1': 39, 'rot0': 34, 'rot3': 0, 'rot2': 0, 'state': 'normal', 'yaw': -3.93, 'datetime': '2018-10-09 20:23:25.659208', 'mgs': 0, 'volt': 0.8691, 'depth': 1.08, 'time': 16, 'pitch': -7.0, 'roll': 4.43, 'pres': 178}
{'lipoC2': 7.28, 'lipoC3S1': 3.82, 'temp': 26.94, 'lipoC3S3': 11.54, 'lipoC3S2': 7.62, 'rot1': 39, 'rot0': 34, 'rot3': 0, 'rot2': 0, 'state': 'normal', 'yaw': -7.11, 'datetime': '2018-10-09 20:23:25.764167', 'mgs': 0, 'volt': 0.874, 'depth': 1.157, 'time': 17, 'pitch': -6.71, 'roll': 6.73, 'pres': 179}
{'lipoC2': 7.28, 'lipoC3S1': 3.82, 'temp': 26.94, 'lipoC3S3': 11.54, 'lipoC3S2': 7.63, 'rot1': 39, 'rot0': 34, 'rot3': 0, 'rot2': 0, 'state': 'normal', 'yaw': -11.17, 'datetime': '2018-10-09 20:23:25.867792', 'mgs': 0, 'volt': 0.874, 'depth': 1.157, 'time': 17, 'pitch': -6.84, 'roll': 9.38, 'pres': 179}
{'lipoC2': 7.28, 'lipoC3S1': 3.82, 'temp': 26.88, 'lipoC3S3': 11.54, 'lipoC3S2': 7.63, 'rot1': 40, 'rot0': 34, 'rot3': 0, 'rot2': 0, 'state': 'normal', 'yaw': -15.25, 'datetime': '2018-10-09 20:23:25.971548', 'mgs': 0, 'volt': 0.8838, 'depth': 1.309, 'time': 17, 'pitch': -7.34, 'roll': 11.65, 'pres': 181}
{'lipoC2': 7.28, 'lipoC3S1': 3.81, 'temp': 26.88, 'lipoC3S3': 11.52, 'lipoC3S2': 7.63, 'rot1': 40, 'rot0': 35, 'rot3': 0, 'rot2': 0, 'state': 'normal', 'yaw': -19.47, 'datetime': '2018-10-09 20:23:26.076444', 'mgs': 0, 'volt': 0.8838, 'depth': 1.309, 'time': 17, 'pitch': -7.96, 'roll': 13.57, 'pres': 181}
{'lipoC2': 7.27, 'lipoC3S1': 3.81, 'temp': 26.94, 'lipoC3S3': 11.52, 'lipoC3S2': 7.63, 'rot1': 41, 'rot0': 35, 'rot3': 0, 'rot2': 0, 'state': 'normal', 'yaw': -24.31, 'datetime': '2018-10-09 20:23:26.180125', 'mgs': 0, 'volt': 0.8789, 'depth': 1.233, 'time': 17, 'pitch': -8.49, 'roll': 15.31, 'pres': 180}
{'lipoC2': 7.28, 'lipoC3S1': 3.81, 'temp': 26.94, 'lipoC3S3': 11.52, 'lipoC3S2': 7.63, 'rot1': 41, 'rot0': 36, 'rot3': 0, 'rot2': 0, 'state': 'normal', 'yaw': -28.95, 'datetime': '2018-10-09 20:23:26.283820', 'mgs': 0, 'volt': 0.8887, 'depth': 1.385, 'time': 17, 'pitch': -8.81, 'roll': 16.61, 'pres': 182}
{'lipoC2': 7.28, 'lipoC3S1': 3.81, 'temp': 26.94, 'lipoC3S3': 11.46, 'lipoC3S2': 7.62, 'rot1': 42, 'rot0': 36, 'rot3': 0, 'rot2': 0, 'state': 'normal', 'yaw': -32.74, 'datetime': '2018-10-09 20:23:26.387688', 'mgs': 0, 'volt': 0.8887, 'depth': 1.385, 'time': 17, 'pitch': -8.97, 'roll': 16.78, 'pres': 182}
{'lipoC2': 7.26, 'lipoC3S1': 3.81, 'temp': 26.94, 'lipoC3S3': 11.51, 'lipoC3S2': 7.62, 'rot1': 43, 'rot0': 37, 'rot3': 0, 'rot2': 0, 'state': 'normal', 'yaw': -35.73, 'datetime': '2018-10-09 20:23:26.491242', 'mgs': 0, 'volt': 0.8838, 'depth': 1.309, 'time': 17, 'pitch': -8.89, 'roll': 15.64, 'pres': 181}
{'lipoC2': 7.28, 'lipoC3S1': 3.79, 'temp': 26.94, 'lipoC3S3': 11.51, 'lipoC3S2': 7.62, 'rot1': 44, 'rot0': 38, 'rot3': 0, 'rot2': 0, 'state': 'normal', 'yaw': -37.43, 'datetime': '2018-10-09 20:23:26.594913', 'mgs': 0, 'volt': 0.8887, 'depth': 1.385, 'time': 17, 'pitch': -8.61, 'roll': 13.65, 'pres': 182}
{'lipoC2': 7.28, 'lipoC3S1': 3.81, 'temp': 26.94, 'lipoC3S3': 11.38, 'lipoC3S2': 7.61, 'rot1': 45, 'rot0': 39, 'rot3': 0, 'rot2': 0, 'state': 'normal', 'yaw': -38.29, 'datetime': '2018-10-09 20:23:26.698850', 'mgs': 0, 'volt': 0.8887, 'depth': 1.385, 'time': 17, 'pitch': -8.13, 'roll': 11.06, 'pres': 182}
{'lipoC2': 7.28, 'lipoC3S1': 3.81, 'temp': 26.94, 'lipoC3S3': 11.51, 'lipoC3S2': 7.62, 'rot1': 46, 'rot0': 40, 'rot3': 0, 'rot2': 0, 'state': 'normal', 'yaw': -38.39, 'datetime': '2018-10-09 20:23:26.802566', 'mgs': 0, 'volt': 0.918, 'depth': 1.843, 'time': 18, 'pitch': -7.28, 'roll': 7.86, 'pres': 188}
{'lipoC2': 7.28, 'lipoC3S1': 3.81, 'temp': 26.94, 'lipoC3S3': 11.43, 'lipoC3S2': 7.61, 'rot1': 47, 'rot0': 41, 'rot3': 0, 'rot2': 0, 'state': 'normal', 'yaw': -37.86, 'datetime': '2018-10-09 20:23:26.907399', 'mgs': 0, 'volt': 0.8887, 'depth': 1.385, 'time': 18, 'pitch': -6.26, 'roll': 4.93, 'pres': 182}
{'lipoC2': 7.26, 'lipoC3S1': 3.81, 'temp': 26.94, 'lipoC3S3': 11.5, 'lipoC3S2': 7.62, 'rot1': 47, 'rot0': 42, 'rot3': 0, 'rot2': 0, 'state': 'normal', 'yaw': -36.73, 'datetime': '2018-10-09 20:23:27.011111', 'mgs': 0, 'volt': 0.8984, 'depth': 1.538, 'time': 18, 'pitch': -4.94, 'roll': 1.92, 'pres': 184}
{'lipoC2': 7.28, 'lipoC3S1': 3.81, 'temp': 26.94, 'lipoC3S3': 11.47, 'lipoC3S2': 7.61, 'rot1': 48, 'rot0': 43, 'rot3': 0, 'rot2': 0, 'state': 'normal', 'yaw': -35.29, 'datetime': '2018-10-09 20:23:27.115183', 'mgs': 0, 'volt': 0.8887, 'depth': 1.385, 'time': 18, 'pitch': -3.66, 'roll': -0.52, 'pres': 182}
{'lipoC2': 7.28, 'lipoC3S1': 3.81, 'temp': 26.88, 'lipoC3S3': 11.51, 'lipoC3S2': 7.62, 'rot1': 49, 'rot0': 44, 'rot3': 0, 'rot2': 0, 'state': 'normal', 'yaw': -33.55, 'datetime': '2018-10-09 20:23:27.219919', 'mgs': 0, 'volt': 0.918, 'depth': 1.843, 'time': 18, 'pitch': -2.46, 'roll': -2.59, 'pres': 188}
