{'lipoC2': 7.33, 'lipoC3S1': 3.84, 'temp': 27.06, 'lipoC3S3': 11.61, 'lipoC3S2': 7.69, 'rot1': 0, 'rot0': 0, 'rot3': 0, 'rot2': 0, 'state': 'normal', 'yaw': 0.05, 'datetime': '2018-10-09 20:04:51.195606', 'mgs': 0, 'volt': 0.8301, 'depth': 0.47, 'time': 1, 'pitch': 3.41, 'roll': -3.53, 'pres': 170}
{'lipoC2': 7.33, 'lipoC3S1': 3.84, 'temp': 27.06, 'lipoC3S3': 11.61, 'lipoC3S2': 7.69, 'rot1': 0, 'rot0': 0, 'rot3': 0, 'rot2': 0, 'state': 'normal', 'yaw': 0.41, 'datetime': '2018-10-09 20:04:54.222827', 'mgs': 0, 'volt': 0.8252, 'depth': 0.394, 'time': 1, 'pitch': 3.09, 'roll': -3.58, 'pres': 169}
{'lipoC2': 7.33, 'lipoC3S1': 3.84, 'temp': 27.06, 'lipoC3S3': 11.61, 'lipoC3S2': 7.69, 'rot1': 0, 'rot0': 0, 'rot3': 0, 'rot2': 0, 'state': 'normal', 'yaw': 0.7, 'datetime': '2018-10-09 20:04:57.265016', 'mgs': 0, 'volt': 0.8252, 'depth': 0.394, 'time': 1, 'pitch': 2.86, 'roll': -3.51, 'pres': 169}
{'lipoC2': 7.33, 'lipoC3S1': 3.84, 'temp': 27.06, 'lipoC3S3': 11.61, 'lipoC3S2': 7.69, 'rot1': 0, 'rot0': 0, 'rot3': 0, 'rot2': 0, 'state': 'normal', 'yaw': 0.9, 'datetime': '2018-10-09 20:04:57.295273', 'mgs': 0, 'volt': 0.8252, 'depth': 0.394, 'time': 1, 'pitch': 2.62, 'roll': -3.24, 'pres': 169}
{'lipoC2': 7.33, 'lipoC3S1': 3.84, 'temp': 27.06, 'lipoC3S3': 11.61, 'lipoC3S2': 7.69, 'rot1': 0, 'rot0': 0, 'rot3': 0, 'rot2': 0, 'state': 'normal', 'yaw': 0.78, 'datetime': '2018-10-09 20:04:57.325258', 'mgs': 0, 'volt': 0.8252, 'depth': 0.394, 'time': 1, 'pitch': 2.36, 'roll': -2.78, 'pres': 169}
{'lipoC2': 7.33, 'lipoC3S1': 3.84, 'temp': 27.06, 'lipoC3S3': 11.63, 'lipoC3S2': 7.69, 'rot1': 0, 'rot0': 0, 'rot3': 0, 'rot2': 0, 'state': 'normal', 'yaw': 0.51, 'datetime': '2018-10-09 20:04:57.355271', 'mgs': 0, 'volt': 0.8301, 'depth': 0.47, 'time': 1, 'pitch': 2.06, 'roll': -2.22, 'pres': 170}
{'lipoC2': 7.33, 'lipoC3S1': 3.84, 'temp': 27.13, 'lipoC3S3': 11.61, 'lipoC3S2': 7.69, 'rot1': 0, 'rot0': 0, 'rot3': 0, 'rot2': 0, 'state': 'normal', 'yaw': 0.18, 'datetime': '2018-10-09 20:04:57.375392', 'mgs': 0, 'volt': 0.8301, 'depth': 0.47, 'time': 1, 'pitch': 1.72, 'roll': -1.68, 'pres': 170}
{'lipoC2': 7.33, 'lipoC3S1': 3.84, 'temp': 27.13, 'lipoC3S3': 11.61, 'lipoC3S2': 7.69, 'rot1': 0, 'rot0': 0, 'rot3': 0, 'rot2': 0, 'state': 'normal', 'yaw': -0.09, 'datetime': '2018-10-09 20:04:57.391295', 'mgs': 0, 'volt': 0.8301, 'depth': 0.47, 'time': 2, 'pitch': 1.46, 'roll': -1.29, 'pres': 170}
{'lipoC2': 7.33, 'lipoC3S1': 3.84, 'temp': 27.06, 'lipoC3S3': 11.61, 'lipoC3S2': 7.69, 'rot1': 0, 'rot0': 0, 'rot3': 0, 'rot2': 0, 'state': 'normal', 'yaw': -0.14, 'datetime': '2018-10-09 20:04:57.407109', 'mgs': 0, 'volt': 0.835, 'depth': 0.546, 'time': 2, 'pitch': 1.16, 'roll': -1.12, 'pres': 171}
{'lipoC2': 7.33, 'lipoC3S1': 3.84, 'temp': 27.06, 'lipoC3S3': 11.61, 'lipoC3S2': 7.69, 'rot1': 0, 'rot0': 0, 'rot3': 0, 'rot2': 0, 'state': 'normal', 'yaw': -0.08, 'datetime': '2018-10-09 20:04:57.423024', 'mgs': 0, 'volt': 0.835, 'depth': 0.546, 'time': 2, 'pitch': 0.76, 'roll': -1.1, 'pres': 171}
{'lipoC2': 7.33, 'lipoC3S1': 3.84, 'temp': 27.06, 'lipoC3S3': 11.61, 'lipoC3S2': 7.69, 'rot1': 0, 'rot0': 0, 'rot3': 0, 'rot2': 0, 'state': 'normal', 'yaw': 0.13, 'datetime': '2018-10-09 20:04:57.438884', 'mgs': 0, 'volt': 0.835, 'depth': 0.546, 'time': 2, 'pitch': 0.32, 'roll': -1.23, 'pres': 171}
{'lipoC2': 7.33, 'lipoC3S1': 3.84, 'temp': 27.06, 'lipoC3S3': 11.61, 'lipoC3S2': 7.69, 'rot1': 0, 'rot0': 0, 'rot3': 0, 'rot2': 0, 'state': 'normal', 'yaw': 0.32, 'datetime': '2018-10-09 20:04:57.454696', 'mgs': 0, 'volt': 0.835, 'depth': 0.546, 'time': 2, 'pitch': -0.1, 'roll': -1.4, 'pres': 171}
{'lipoC2': 7.32, 'lipoC3S1': 3.84, 'temp': 27.06, 'lipoC3S3': 11.61, 'lipoC3S2': 7.69, 'rot1': 0, 'rot0': 0, 'rot3': 0, 'rot2': 0, 'state': 'normal', 'yaw': 0.45, 'datetime': '2018-10-09 20:04:57.470465', 'mgs': 0, 'volt': 0.835, 'depth': 0.546, 'time': 2, 'pitch': -0.56, 'roll': -1.6, 'pres': 171}
{'lipoC2': 7.33, 'lipoC3S1': 3.84, 'temp': 27.06, 'lipoC3S3': 11.61, 'lipoC3S2': 7.69, 'rot1': 0, 'rot0': 0, 'rot3': 0, 'rot2': 0, 'state': 'normal', 'yaw': 0.49, 'datetime': '2018-10-09 20:04:57.486225', 'mgs': 0, 'volt': 0.8398, 'depth': 0.623, 'time': 2, 'pitch': -1.05, 'roll': -1.76, 'pres': 172}
{'lipoC2': 7.33, 'lipoC3S1': 3.84, 'temp': 27.06, 'lipoC3S3': 11.61, 'lipoC3S2': 7.69, 'rot1': 0, 'rot0': 0, 'rot3': 0, 'rot2': 0, 'state': 'normal', 'yaw': 0.5, 'datetime': '2018-10-09 20:04:57.502175', 'mgs': 0, 'volt': 0.8398, 'depth': 0.623, 'time': 2, 'pitch': -1.46, 'roll': -1.88, 'pres': 172}
{'lipoC2': 7.33, 'lipoC3S1': 3.84, 'temp': 27.06, 'lipoC3S3': 11.61, 'lipoC3S2': 7.69, 'rot1': 0, 'rot0': 0, 'rot3': 0, 'rot2': 0, 'state': 'normal', 'yaw': 0.46, 'datetime': '2018-10-09 20:04:57.518000', 'mgs': 0, 'volt': 0.8447, 'depth': 0.699, 'time': 2, 'pitch': -1.82, 'roll': -1.97, 'pres': 173}
{'lipoC2': 7.33, 'lipoC3S1': 3.84, 'temp': 27.06, 'lipoC3S3': 11.61, 'lipoC3S2': 7.69, 'rot1': 0, 'rot0': 0, 'rot3': 0, 'rot2': 0, 'state': 'normal', 'yaw': 0.3, 'datetime': '2018-10-09 20:04:57.533859', 'mgs': 0, 'volt': 0.8447, 'depth': 0.699, 'time': 3, 'pitch': -2.01, 'roll': -1.96, 'pres': 173}
{'lipoC2': 7.33, 'lipoC3S1': 3.84, 'temp': 27.06, 'lipoC3S3': 11.61, 'lipoC3S2': 7.69, 'rot1': 0, 'rot0': 0, 'rot3': 0, 'rot2': 0, 'state': 'normal', 'yaw': 0.02, 'datetime': '2018-10-09 20:04:57.549668', 'mgs': 0, 'volt': 0.8447, 'depth': 0.699, 'time': 3, 'pitch': -2.19, 'roll': -1.92, 'pres': 173}
{'lipoC2': 7.33, 'lipoC3S1': 3.84, 'temp': 27.13, 'lipoC3S3': 11.63, 'lipoC3S2': 7.69, 'rot1': 0, 'rot0': 0, 'rot3': 0, 'rot2': 0, 'state': 'normal', 'yaw': -0.31, 'datetime': '2018-10-09 20:04:57.565467', 'mgs': 0, 'volt': 0.8447, 'depth': 0.699, 'time': 3, 'pitch': -2.42, 'roll': -1.82, 'pres': 173}
{'lipoC2': 7.33, 'lipoC3S1': 3.84, 'temp': 27.13, 'lipoC3S3': 11.61, 'lipoC3S2': 7.69, 'rot1': 0, 'rot0': 0, 'rot3': 0, 'rot2': 0, 'state': 'normal', 'yaw': -0.61, 'datetime': '2018-10-09 20:04:57.581267', 'mgs': 0, 'volt': 0.8447, 'depth': 0.699, 'time': 3, 'pitch': -2.54, 'roll': -1.78, 'pres': 173}
{'lipoC2': 7.33, 'lipoC3S1': 3.84, 'temp': 27.06, 'lipoC3S3': 11.61, 'lipoC3S2': 7.69, 'rot1': 0, 'rot0': 0, 'rot3': 0, 'rot2': 0, 'state': 'normal', 'yaw': -0.83, 'datetime': '2018-10-09 20:04:57.597079', 'mgs': 0, 'volt': 0.8447, 'depth': 0.699, 'time': 3, 'pitch': -2.42, 'roll': -1.77, 'pres': 173}
{'lipoC2': 7.33, 'lipoC3S1': 3.85, 'temp': 27.06, 'lipoC3S3': 11.61, 'lipoC3S2': 7.69, 'rot1': 0, 'rot0': 0, 'rot3': 0, 'rot2': 0, 'state': 'normal', 'yaw': -0.96, 'datetime': '2018-10-09 20:04:57.612893', 'mgs': 0, 'volt': 0.8447, 'depth': 0.699, 'time': 3, 'pitch': -2.2, 'roll': -1.83, 'pres': 173}
{'lipoC2': 7.33, 'lipoC3S1': 3.84, 'temp': 27.0, 'lipoC3S3': 11.61, 'lipoC3S2': 7.69, 'rot1': 0, 'rot0': 0, 'rot3': 0, 'rot2': 0, 'state': 'normal', 'yaw': -1.05, 'datetime': '2018-10-09 20:04:57.628828', 'mgs': 0, 'volt': 0.8447, 'depth': 0.699, 'time': 3, 'pitch': -1.76, 'roll': -1.83, 'pres': 173}
{'lipoC2': 7.33, 'lipoC3S1': 3.84, 'temp': 27.0, 'lipoC3S3': 11.61, 'lipoC3S2': 7.69, 'rot1': 0, 'rot0': 0, 'rot3': 0, 'rot2': 0, 'state': 'normal', 'yaw': -1.02, 'datetime': '2018-10-09 20:04:57.644669', 'mgs': 0, 'volt': 0.8447, 'depth': 0.699, 'time': 3, 'pitch': -1.61, 'roll': -1.83, 'pres': 173}
{'lipoC2': 7.33, 'lipoC3S1': 3.84, 'temp': 27.0, 'lipoC3S3': 11.61, 'lipoC3S2': 7.69, 'rot1': 0, 'rot0': 0, 'rot3': 0, 'rot2': 0, 'state': 'normal', 'yaw': -0.94, 'datetime': '2018-10-09 20:04:57.660475', 'mgs': 0, 'volt': 0.8496, 'depth': 0.775, 'time': 3, 'pitch': -1.8, 'roll': -1.84, 'pres': 174}
{'lipoC2': 7.33, 'lipoC3S1': 3.84, 'temp': 27.06, 'lipoC3S3': 11.61, 'lipoC3S2': 7.69, 'rot1': 0, 'rot0': 0, 'rot3': 0, 'rot2': 0, 'state': 'normal', 'yaw': -0.93, 'datetime': '2018-10-09 20:04:57.676268', 'mgs': 0, 'volt': 0.8496, 'depth': 0.775, 'time': 3, 'pitch': -1.92, 'roll': -1.72, 'pres': 174}
{'lipoC2': 7.33, 'lipoC3S1': 3.84, 'temp': 27.06, 'lipoC3S3': 11.61, 'lipoC3S2': 7.69, 'rot1': 0, 'rot0': 0, 'rot3': 0, 'rot2': 0, 'state': 'normal', 'yaw': -0.84, 'datetime': '2018-10-09 20:04:57.692110', 'mgs': 0, 'volt': 0.8496, 'depth': 0.775, 'time': 4, 'pitch': -1.91, 'roll': -1.62, 'pres': 174}
{'lipoC2': 7.33, 'lipoC3S1': 3.84, 'temp': 27.06, 'lipoC3S3': 11.61, 'lipoC3S2': 7.69, 'rot1': 0, 'rot0': 0, 'rot3': 0, 'rot2': 0, 'state': 'normal', 'yaw': -0.68, 'datetime': '2018-10-09 20:04:57.707935', 'mgs': 0, 'volt': 0.8496, 'depth': 0.775, 'time': 4, 'pitch': -1.85, 'roll': -1.57, 'pres': 174}
{'lipoC2': 7.33, 'lipoC3S1': 3.84, 'temp': 27.06, 'lipoC3S3': 11.61, 'lipoC3S2': 7.69, 'rot1': 0, 'rot0': 0, 'rot3': 0, 'rot2': 0, 'state': 'normal', 'yaw': -0.51, 'datetime': '2018-10-09 20:04:57.723889', 'mgs': 0, 'volt': 0.8545, 'depth': 0.851, 'time': 4, 'pitch': -1.75, 'roll': -1.51, 'pres': 175}
{'lipoC2': 7.33, 'lipoC3S1': 3.84, 'temp': 27.0, 'lipoC3S3': 11.61, 'lipoC3S2': 7.69, 'rot1': 0, 'rot0': 0, 'rot3': 0, 'rot2': 0, 'state': 'normal', 'yaw': -0.32, 'datetime': '2018-10-09 20:04:57.739754', 'mgs': 0, 'volt': 0.8545, 'depth': 0.851, 'time': 4, 'pitch': -1.7, 'roll': -1.5, 'pres': 175}
{'lipoC2': 7.33, 'lipoC3S1': 3.84, 'temp': 27.0, 'lipoC3S3': 11.61, 'lipoC3S2': 7.69, 'rot1': 0, 'rot0': 0, 'rot3': 0, 'rot2': 0, 'state': 'normal', 'yaw': -0.17, 'datetime': '2018-10-09 20:04:57.755568', 'mgs': 0, 'volt': 0.8545, 'depth': 0.851, 'time': 4, 'pitch': -1.78, 'roll': -1.45, 'pres': 175}
{'lipoC2': 7.33, 'lipoC3S1': 3.84, 'temp': 27.0, 'lipoC3S3': 11.61, 'lipoC3S2': 7.69, 'rot1': 0, 'rot0': 0, 'rot3': 0, 'rot2': 0, 'state': 'normal', 'yaw': -0.12, 'datetime': '2018-10-09 20:04:57.771405', 'mgs': 0, 'volt': 0.8594, 'depth': 0.928, 'time': 4, 'pitch': -1.99, 'roll': -1.28, 'pres': 176}
{'lipoC2': 7.33, 'lipoC3S1': 3.84, 'temp': 27.0, 'lipoC3S3': 11.63, 'lipoC3S2': 7.69, 'rot1': 0, 'rot0': 0, 'rot3': 0, 'rot2': 0, 'state': 'normal', 'yaw': -0.12, 'datetime': '2018-10-09 20:04:57.787212', 'mgs': 0, 'volt': 0.8594, 'depth': 0.928, 'time': 4, 'pitch': -2.02, 'roll': -1.09, 'pres': 176}
{'lipoC2': 7.33, 'lipoC3S1': 3.84, 'temp': 27.0, 'lipoC3S3': 11.61, 'lipoC3S2': 7.69, 'rot1': 0, 'rot0': 0, 'rot3': 0, 'rot2': 0, 'state': 'normal', 'yaw': -0.12, 'datetime': '2018-10-09 20:04:57.803025', 'mgs': 0, 'volt': 0.8594, 'depth': 0.928, 'time': 4, 'pitch': -2.01, 'roll': -0.94, 'pres': 176}
{'lipoC2': 7.33, 'lipoC3S1': 3.84, 'temp': 27.06, 'lipoC3S3': 11.61, 'lipoC3S2': 7.69, 'rot1': 0, 'rot0': 0, 'rot3': 0, 'rot2': 0, 'state': 'normal', 'yaw': -0.12, 'datetime': '2018-10-09 20:04:57.818813', 'mgs': 0, 'volt': 0.8594, 'depth': 0.928, 'time': 4, 'pitch': -2.03, 'roll': -0.82, 'pres': 176}
{'lipoC2': 7.33, 'lipoC3S1': 3.84, 'temp': 27.06, 'lipoC3S3': 11.61, 'lipoC3S2': 7.69, 'rot1': 0, 'rot0': 0, 'rot3': 0, 'rot2': 0, 'state': 'normal', 'yaw': -0.22, 'datetime': '2018-10-09 20:04:57.834627', 'mgs': 0, 'volt': 0.8594, 'depth': 0.928, 'time': 4, 'pitch': -2.22, 'roll': -0.68, 'pres': 176}
{'lipoC2': 7.33, 'lipoC3S1': 3.84, 'temp': 27.06, 'lipoC3S3': 11.61, 'lipoC3S2': 7.69, 'rot1': 0, 'rot0': 0, 'rot3': 0, 'rot2': 0, 'state': 'normal', 'yaw': -0.35, 'datetime': '2018-10-09 20:04:57.850450', 'mgs': 0, 'volt': 0.8643, 'depth': 1.004, 'time': 5, 'pitch': -2.54, 'roll': -0.57, 'pres': 177}
{'lipoC2': 7.33, 'lipoC3S1': 3.84, 'temp': 27.06, 'lipoC3S3': 11.63, 'lipoC3S2': 7.69, 'rot1': 0, 'rot0': 0, 'rot3': 0, 'rot2': 0, 'state': 'normal', 'yaw': -0.41, 'datetime': '2018-10-09 20:04:57.866235', 'mgs': 0, 'volt': 0.8643, 'depth': 1.004, 'time': 5, 'pitch': -2.83, 'roll': -0.56, 'pres': 177}
{'lipoC2': 7.33, 'lipoC3S1': 3.84, 'temp': 27.06, 'lipoC3S3': 11.61, 'lipoC3S2': 7.69, 'rot1': 0, 'rot0': 0, 'rot3': 0, 'rot2': 0, 'state': 'normal', 'yaw': -0.41, 'datetime': '2018-10-09 20:04:57.882053', 'mgs': 0, 'volt': 0.8643, 'depth': 1.004, 'time': 5, 'pitch': -3.02, 'roll': -0.55, 'pres': 177}
{'lipoC2': 7.33, 'lipoC3S1': 3.84, 'temp': 27.06, 'lipoC3S3': 11.61, 'lipoC3S2': 7.69, 'rot1': 0, 'rot0': 0, 'rot3': 0, 'rot2': 0, 'state': 'normal', 'yaw': -0.41, 'datetime': '2018-10-09 20:04:57.897839', 'mgs': 0, 'volt': 0.8643, 'depth': 1.004, 'time': 5, 'pitch': -3.14, 'roll': -0.57, 'pres': 177}
{'lipoC2': 7.33, 'lipoC3S1': 3.84, 'temp': 27.06, 'lipoC3S3': 11.61, 'lipoC3S2': 7.69, 'rot1': 0, 'rot0': 0, 'rot3': 0, 'rot2': 0, 'state': 'normal', 'yaw': -0.41, 'datetime': '2018-10-09 20:04:57.913646', 'mgs': 0, 'volt': 0.8643, 'depth': 1.004, 'time': 5, 'pitch': -3.36, 'roll': -0.65, 'pres': 177}
{'lipoC2': 7.33, 'lipoC3S1': 3.84, 'temp': 27.06, 'lipoC3S3': 11.61, 'lipoC3S2': 7.69, 'rot1': 0, 'rot0': 0, 'rot3': 0, 'rot2': 0, 'state': 'normal', 'yaw': -0.41, 'datetime': '2018-10-09 20:04:57.929644', 'mgs': 0, 'volt': 0.8691, 'depth': 1.08, 'time': 5, 'pitch': -3.68, 'roll': -0.79, 'pres': 178}
{'lipoC2': 7.33, 'lipoC3S1': 3.84, 'temp': 27.06, 'lipoC3S3': 11.61, 'lipoC3S2': 7.69, 'rot1': 0, 'rot0': 0, 'rot3': 0, 'rot2': 0, 'state': 'normal', 'yaw': -0.4, 'datetime': '2018-10-09 20:04:57.945496', 'mgs': 0, 'volt': 0.8691, 'depth': 1.08, 'time': 5, 'pitch': -3.94, 'roll': -0.94, 'pres': 178}
{'lipoC2': 7.33, 'lipoC3S1': 3.84, 'temp': 27.06, 'lipoC3S3': 11.61, 'lipoC3S2': 7.7, 'rot1': 0, 'rot0': 0, 'rot3': 0, 'rot2': 0, 'state': 'normal', 'yaw': -0.4, 'datetime': '2018-10-09 20:04:57.961300', 'mgs': 0, 'volt': 0.8691, 'depth': 1.08, 'time': 5, 'pitch': -4.18, 'roll': -1.09, 'pres': 178}
{'lipoC2': 7.33, 'lipoC3S1': 3.84, 'temp': 27.06, 'lipoC3S3': 11.61, 'lipoC3S2': 7.69, 'rot1': 0, 'rot0': 0, 'rot3': 0, 'rot2': 0, 'state': 'normal', 'yaw': 0.03, 'datetime': '2018-10-09 20:04:57.977095', 'mgs': 0, 'volt': 0.874, 'depth': 1.157, 'time': 1, 'pitch': -5.14, 'roll': -0.4, 'pres': 179}
{'lipoC2': 7.33, 'lipoC3S1': 3.84, 'temp': 27.06, 'lipoC3S3': 11.61, 'lipoC3S2': 7.7, 'rot1': 0, 'rot0': 0, 'rot3': 0, 'rot2': 0, 'state': 'normal', 'yaw': 0.28, 'datetime': '2018-10-09 20:04:57.992911', 'mgs': 0, 'volt': 0.874, 'depth': 1.157, 'time': 1, 'pitch': -5.16, 'roll': -0.48, 'pres': 179}
{'lipoC2': 7.33, 'lipoC3S1': 3.85, 'temp': 27.06, 'lipoC3S3': 11.63, 'lipoC3S2': 7.7, 'rot1': 0, 'rot0': 0, 'rot3': 0, 'rot2': 0, 'state': 'normal', 'yaw': 0.54, 'datetime': '2018-10-09 20:04:58.008674', 'mgs': 0, 'volt': 0.8789, 'depth': 1.233, 'time': 1, 'pitch': -5.12, 'roll': -0.6, 'pres': 180}
{'lipoC2': 7.33, 'lipoC3S1': 3.85, 'temp': 27.06, 'lipoC3S3': 11.63, 'lipoC3S2': 7.7, 'rot1': 0, 'rot0': 0, 'rot3': 0, 'rot2': 0, 'state': 'normal', 'yaw': 0.79, 'datetime': '2018-10-09 20:04:58.024461', 'mgs': 0, 'volt': 0.8789, 'depth': 1.233, 'time': 1, 'pitch': -4.95, 'roll': -0.74, 'pres': 180}
{'lipoC2': 7.33, 'lipoC3S1': 3.85, 'temp': 27.06, 'lipoC3S3': 11.63, 'lipoC3S2': 7.7, 'rot1': 0, 'rot0': 0, 'rot3': 0, 'rot2': 0, 'state': 'normal', 'yaw': 1.07, 'datetime': '2018-10-09 20:04:58.040359', 'mgs': 0, 'volt': 0.874, 'depth': 1.157, 'time': 1, 'pitch': -4.66, 'roll': -0.94, 'pres': 179}
{'lipoC2': 7.33, 'lipoC3S1': 3.85, 'temp': 27.06, 'lipoC3S3': 11.63, 'lipoC3S2': 7.7, 'rot1': 0, 'rot0': 0, 'rot3': 0, 'rot2': 0, 'state': 'normal', 'yaw': 1.3, 'datetime': '2018-10-09 20:04:58.056236', 'mgs': 0, 'volt': 0.8789, 'depth': 1.233, 'time': 1, 'pitch': -4.35, 'roll': -1.12, 'pres': 180}
{'lipoC2': 7.33, 'lipoC3S1': 3.85, 'temp': 27.06, 'lipoC3S3': 11.63, 'lipoC3S2': 7.7, 'rot1': 0, 'rot0': 0, 'rot3': 0, 'rot2': 0, 'state': 'normal', 'yaw': 1.52, 'datetime': '2018-10-09 20:04:58.072067', 'mgs': 0, 'volt': 0.8789, 'depth': 1.233, 'time': 1, 'pitch': -4.0, 'roll': -1.3, 'pres': 180}
{'lipoC2': 7.33, 'lipoC3S1': 3.85, 'temp': 27.06, 'lipoC3S3': 11.61, 'lipoC3S2': 7.69, 'rot1': 0, 'rot0': 0, 'rot3': 0, 'rot2': 0, 'state': 'normal', 'yaw': 1.7, 'datetime': '2018-10-09 20:04:58.087876', 'mgs': 0, 'volt': 0.8789, 'depth': 1.233, 'time': 1, 'pitch': -3.78, 'roll': -1.43, 'pres': 180}
{'lipoC2': 7.33, 'lipoC3S1': 3.84, 'temp': 27.06, 'lipoC3S3': 11.63, 'lipoC3S2': 7.7, 'rot1': 0, 'rot0': 0, 'rot3': 0, 'rot2': 0, 'state': 'normal', 'yaw': 1.81, 'datetime': '2018-10-09 20:04:58.103714', 'mgs': 0, 'volt': 0.8789, 'depth': 1.233, 'time': 2, 'pitch': -3.7, 'roll': -1.44, 'pres': 180}
{'lipoC2': 7.33, 'lipoC3S1': 3.84, 'temp': 27.06, 'lipoC3S3': 11.61, 'lipoC3S2': 7.69, 'rot1': 0, 'rot0': 0, 'rot3': 0, 'rot2': 0, 'state': 'normal', 'yaw': 1.87, 'datetime': '2018-10-09 20:04:58.119505', 'mgs': 0, 'volt': 0.8789, 'depth': 1.233, 'time': 2, 'pitch': -3.7, 'roll': -1.41, 'pres': 180}
{'lipoC2': 7.33, 'lipoC3S1': 3.84, 'temp': 27.06, 'lipoC3S3': 11.61, 'lipoC3S2': 7.69, 'rot1': 0, 'rot0': 0, 'rot3': 0, 'rot2': 0, 'state': 'normal', 'yaw': 1.87, 'datetime': '2018-10-09 20:04:58.135355', 'mgs': 0, 'volt': 0.8789, 'depth': 1.233, 'time': 2, 'pitch': -3.77, 'roll': -1.31, 'pres': 180}
{'lipoC2': 7.33, 'lipoC3S1': 3.84, 'temp': 27.06, 'lipoC3S3': 11.63, 'lipoC3S2': 7.69, 'rot1': 0, 'rot0': 0, 'rot3': 0, 'rot2': 0, 'state': 'normal', 'yaw': 1.88, 'datetime': '2018-10-09 20:04:58.151319', 'mgs': 0, 'volt': 0.8789, 'depth': 1.233, 'time': 2, 'pitch': -4.0, 'roll': -1.2, 'pres': 180}
{'lipoC2': 7.33, 'lipoC3S1': 3.85, 'temp': 27.06, 'lipoC3S3': 11.63, 'lipoC3S2': 7.7, 'rot1': 0, 'rot0': 0, 'rot3': 0, 'rot2': 0, 'state': 'normal', 'yaw': 1.88, 'datetime': '2018-10-09 20:04:58.167095', 'mgs': 0, 'volt': 0.8789, 'depth': 1.233, 'time': 2, 'pitch': -4.32, 'roll': -1.08, 'pres': 180}
{'lipoC2': 7.33, 'lipoC3S1': 3.85, 'temp': 27.06, 'lipoC3S3': 11.63, 'lipoC3S2': 7.7, 'rot1': 0, 'rot0': 0, 'rot3': 0, 'rot2': 0, 'state': 'normal', 'yaw': 1.89, 'datetime': '2018-10-09 20:04:58.182896', 'mgs': 0, 'volt': 0.8789, 'depth': 1.233, 'time': 2, 'pitch': -4.65, 'roll': -0.95, 'pres': 180}
{'lipoC2': 7.33, 'lipoC3S1': 3.85, 'temp': 27.06, 'lipoC3S3': 11.63, 'lipoC3S2': 7.7, 'rot1': 0, 'rot0': 0, 'rot3': 0, 'rot2': 0, 'state': 'normal', 'yaw': 1.89, 'datetime': '2018-10-09 20:04:58.198659', 'mgs': 0, 'volt': 0.8789, 'depth': 1.233, 'time': 2, 'pitch': -4.81, 'roll': -0.84, 'pres': 180}
{'lipoC2': 7.33, 'lipoC3S1': 3.85, 'temp': 27.06, 'lipoC3S3': 11.63, 'lipoC3S2': 7.7, 'rot1': 0, 'rot0': 0, 'rot3': 0, 'rot2': 0, 'state': 'normal', 'yaw': 1.89, 'datetime': '2018-10-09 20:04:58.214415', 'mgs': 0, 'volt': 0.8789, 'depth': 1.233, 'time': 2, 'pitch': -4.85, 'roll': -0.71, 'pres': 180}
{'lipoC2': 7.33, 'lipoC3S1': 3.85, 'temp': 27.06, 'lipoC3S3': 11.63, 'lipoC3S2': 7.7, 'rot1': 0, 'rot0': 0, 'rot3': 0, 'rot2': 0, 'state': 'normal', 'yaw': 1.8, 'datetime': '2018-10-09 20:04:58.230296', 'mgs': 0, 'volt': 0.8789, 'depth': 1.233, 'time': 2, 'pitch': -4.78, 'roll': -0.57, 'pres': 180}
{'lipoC2': 7.32, 'lipoC3S1': 3.75, 'temp': 27.06, 'lipoC3S3': 11.43, 'lipoC3S2': 7.54, 'rot1': 0, 'rot0': 0, 'rot3': 0, 'rot2': 0, 'state': 'normal', 'yaw': 1.68, 'datetime': '2018-10-09 20:04:58.246126', 'mgs': 0, 'volt': 0.8789, 'depth': 1.233, 'time': 3, 'pitch': -4.63, 'roll': -0.46, 'pres': 180}
{'lipoC2': 7.33, 'lipoC3S1': 3.8, 'temp': 27.06, 'lipoC3S3': 11.54, 'lipoC3S2': 7.62, 'rot1': 0, 'rot0': 0, 'rot3': 1, 'rot2': 1, 'state': 'normal', 'yaw': 1.52, 'datetime': '2018-10-09 20:04:58.261935', 'mgs': 0, 'volt': 0.8789, 'depth': 1.233, 'time': 3, 'pitch': -4.35, 'roll': -0.31, 'pres': 180}
{'lipoC2': 7.32, 'lipoC3S1': 3.81, 'temp': 27.06, 'lipoC3S3': 11.56, 'lipoC3S2': 7.64, 'rot1': 0, 'rot0': 0, 'rot3': 2, 'rot2': 1, 'state': 'normal', 'yaw': 1.31, 'datetime': '2018-10-09 20:04:58.277726', 'mgs': 0, 'volt': 0.8984, 'depth': 1.538, 'time': 3, 'pitch': -3.69, 'roll': -0.03, 'pres': 184}
{'lipoC2': 7.32, 'lipoC3S1': 3.81, 'temp': 27.06, 'lipoC3S3': 11.5, 'lipoC3S2': 7.65, 'rot1': 0, 'rot0': 0, 'rot3': 3, 'rot2': 2, 'state': 'normal', 'yaw': 1.07, 'datetime': '2018-10-09 20:04:58.293511', 'mgs': 0, 'volt': 0.8936, 'depth': 1.462, 'time': 3, 'pitch': -2.87, 'roll': 0.33, 'pres': 183}
{'lipoC2': 7.32, 'lipoC3S1': 3.82, 'temp': 27.06, 'lipoC3S3': 11.5, 'lipoC3S2': 7.6, 'rot1': 0, 'rot0': 0, 'rot3': 4, 'rot2': 3, 'state': 'normal', 'yaw': 0.84, 'datetime': '2018-10-09 20:04:58.309271', 'mgs': 0, 'volt': 0.8838, 'depth': 1.309, 'time': 3, 'pitch': -1.89, 'roll': 0.72, 'pres': 181}
{'lipoC2': 7.32, 'lipoC3S1': 3.81, 'temp': 27.06, 'lipoC3S3': 11.52, 'lipoC3S2': 7.62, 'rot1': 0, 'rot0': 0, 'rot3': 5, 'rot2': 4, 'state': 'normal', 'yaw': 0.59, 'datetime': '2018-10-09 20:04:58.325041', 'mgs': 0, 'volt': 0.874, 'depth': 1.157, 'time': 3, 'pitch': -0.75, 'roll': 1.15, 'pres': 179}
{'lipoC2': 7.33, 'lipoC3S1': 3.8, 'temp': 27.06, 'lipoC3S3': 11.55, 'lipoC3S2': 7.63, 'rot1': 0, 'rot0': 0, 'rot3': 6, 'rot2': 5, 'state': 'normal', 'yaw': 0.34, 'datetime': '2018-10-09 20:04:58.340883', 'mgs': 0, 'volt': 0.8887, 'depth': 1.385, 'time': 3, 'pitch': 0.25, 'roll': 1.47, 'pres': 182}
{'lipoC2': 7.32, 'lipoC3S1': 3.81, 'temp': 27.06, 'lipoC3S3': 11.55, 'lipoC3S2': 7.66, 'rot1': 0, 'rot0': 0, 'rot3': 7, 'rot2': 5, 'state': 'normal', 'yaw': 0.12, 'datetime': '2018-10-09 20:04:58.356818', 'mgs': 0, 'volt': 0.8887, 'depth': 1.385, 'time': 3, 'pitch': 1.11, 'roll': 1.66, 'pres': 182}
{'lipoC2': 7.32, 'lipoC3S1': 3.8, 'temp': 27.06, 'lipoC3S3': 11.56, 'lipoC3S2': 7.64, 'rot1': 0, 'rot0': 0, 'rot3': 8, 'rot2': 6, 'state': 'normal', 'yaw': -0.11, 'datetime': '2018-10-09 20:04:58.372605', 'mgs': 0, 'volt': 0.874, 'depth': 1.157, 'time': 3, 'pitch': 1.8, 'roll': 1.76, 'pres': 179}
{'lipoC2': 7.32, 'lipoC3S1': 3.82, 'temp': 27.0, 'lipoC3S3': 11.5, 'lipoC3S2': 7.65, 'rot1': 0, 'rot0': 0, 'rot3': 9, 'rot2': 7, 'state': 'normal', 'yaw': -0.39, 'datetime': '2018-10-09 20:04:58.388376', 'mgs': 0, 'volt': 0.874, 'depth': 1.157, 'time': 3, 'pitch': 2.34, 'roll': 1.76, 'pres': 179}
{'lipoC2': 7.32, 'lipoC3S1': 3.81, 'temp': 27.0, 'lipoC3S3': 11.55, 'lipoC3S2': 7.65, 'rot1': 0, 'rot0': 0, 'rot3': 10, 'rot2': 8, 'state': 'normal', 'yaw': -0.71, 'datetime': '2018-10-09 20:04:58.404226', 'mgs': 0, 'volt': 0.874, 'depth': 1.157, 'time': 4, 'pitch': 2.73, 'roll': 1.74, 'pres': 179}
{'lipoC2': 7.32, 'lipoC3S1': 3.81, 'temp': 27.0, 'lipoC3S3': 11.48, 'lipoC3S2': 7.65, 'rot1': 0, 'rot0': 0, 'rot3': 11, 'rot2': 9, 'state': 'normal', 'yaw': -1.04, 'datetime': '2018-10-09 20:04:58.420048', 'mgs': 0, 'volt': 0.8691, 'depth': 1.08, 'time': 4, 'pitch': 3.08, 'roll': 1.72, 'pres': 178}
{'lipoC2': 7.32, 'lipoC3S1': 3.82, 'temp': 27.0, 'lipoC3S3': 11.5, 'lipoC3S2': 7.65, 'rot1': 0, 'rot0': 0, 'rot3': 12, 'rot2': 9, 'state': 'normal', 'yaw': -1.35, 'datetime': '2018-10-09 20:04:58.436035', 'mgs': 0, 'volt': 0.8594, 'depth': 0.928, 'time': 4, 'pitch': 3.3, 'roll': 1.66, 'pres': 176}
{'lipoC2': 7.33, 'lipoC3S1': 3.8, 'temp': 27.06, 'lipoC3S3': 11.56, 'lipoC3S2': 7.64, 'rot1': 0, 'rot0': 0, 'rot3': 13, 'rot2': 10, 'state': 'normal', 'yaw': -1.64, 'datetime': '2018-10-09 20:04:58.452038', 'mgs': 0, 'volt': 0.8496, 'depth': 0.775, 'time': 4, 'pitch': 3.36, 'roll': 1.44, 'pres': 174}
{'lipoC2': 7.33, 'lipoC3S1': 3.8, 'temp': 27.06, 'lipoC3S3': 11.55, 'lipoC3S2': 7.63, 'rot1': 0, 'rot0': 0, 'rot3': 14, 'rot2': 11, 'state': 'normal', 'yaw': -1.86, 'datetime': '2018-10-09 20:04:58.467952', 'mgs': 0, 'volt': 0.8594, 'depth': 0.928, 'time': 4, 'pitch': 3.22, 'roll': 0.99, 'pres': 176}
{'lipoC2': 7.32, 'lipoC3S1': 3.8, 'temp': 27.06, 'lipoC3S3': 11.54, 'lipoC3S2': 7.62, 'rot1': 0, 'rot0': 0, 'rot3': 15, 'rot2': 12, 'state': 'normal', 'yaw': -1.95, 'datetime': '2018-10-09 20:04:58.483856', 'mgs': 0, 'volt': 0.835, 'depth': 0.546, 'time': 4, 'pitch': 2.93, 'roll': 0.42, 'pres': 171}
{'lipoC2': 7.32, 'lipoC3S1': 3.83, 'temp': 27.0, 'lipoC3S3': 11.52, 'lipoC3S2': 7.62, 'rot1': 0, 'rot0': 0, 'rot3': 16, 'rot2': 13, 'state': 'normal', 'yaw': -1.96, 'datetime': '2018-10-09 20:04:58.499729', 'mgs': 0, 'volt': 0.8301, 'depth': 0.47, 'time': 4, 'pitch': 2.49, 'roll': -0.17, 'pres': 170}
{'lipoC2': 7.32, 'lipoC3S1': 3.83, 'temp': 27.0, 'lipoC3S3': 11.52, 'lipoC3S2': 7.62, 'rot1': 0, 'rot0': 0, 'rot3': 17, 'rot2': 13, 'state': 'normal', 'yaw': -1.94, 'datetime': '2018-10-09 20:04:58.515604', 'mgs': 0, 'volt': 0.8301, 'depth': 0.47, 'time': 4, 'pitch': 1.89, 'roll': -0.64, 'pres': 170}
{'lipoC2': 7.32, 'lipoC3S1': 3.82, 'temp': 27.0, 'lipoC3S3': 11.51, 'lipoC3S2': 7.65, 'rot1': 0, 'rot0': 0, 'rot3': 18, 'rot2': 14, 'state': 'normal', 'yaw': -1.94, 'datetime': '2018-10-09 20:04:58.531497', 'mgs': 0, 'volt': 0.835, 'depth': 0.546, 'time': 4, 'pitch': 1.26, 'roll': -0.8, 'pres': 171}
{'lipoC2': 7.32, 'lipoC3S1': 3.82, 'temp': 27.0, 'lipoC3S3': 11.56, 'lipoC3S2': 7.66, 'rot1': 0, 'rot0': 0, 'rot3': 19, 'rot2': 15, 'state': 'normal', 'yaw': -1.93, 'datetime': '2018-10-09 20:04:58.547388', 'mgs': 0, 'volt': 0.835, 'depth': 0.546, 'time': 4, 'pitch': 0.62, 'roll': -0.8, 'pres': 171}
{'lipoC2': 7.33, 'lipoC3S1': 3.82, 'temp': 27.0, 'lipoC3S3': 11.58, 'lipoC3S2': 7.65, 'rot1': 0, 'rot0': 0, 'rot3': 21, 'rot2': 16, 'state': 'normal', 'yaw': -1.99, 'datetime': '2018-10-09 20:04:58.563274', 'mgs': 0, 'volt': 0.8301, 'depth': 0.47, 'time': 5, 'pitch': 0.07, 'roll': -0.65, 'pres': 170}
{'lipoC2': 7.33, 'lipoC3S1': 3.81, 'temp': 27.0, 'lipoC3S3': 11.56, 'lipoC3S2': 7.64, 'rot1': 0, 'rot0': 0, 'rot3': 22, 'rot2': 17, 'state': 'normal', 'yaw': -2.06, 'datetime': '2018-10-09 20:04:58.579258', 'mgs': 0, 'volt': 0.8301, 'depth': 0.47, 'time': 5, 'pitch': -0.21, 'roll': -0.46, 'pres': 170}
{'lipoC2': 7.32, 'lipoC3S1': 3.83, 'temp': 27.0, 'lipoC3S3': 11.54, 'lipoC3S2': 7.63, 'rot1': 0, 'rot0': 0, 'rot3': 23, 'rot2': 18, 'state': 'normal', 'yaw': -2.16, 'datetime': '2018-10-09 20:04:58.595148', 'mgs': 0, 'volt': 0.8203, 'depth': 0.317, 'time': 5, 'pitch': -0.32, 'roll': -0.25, 'pres': 168}
{'lipoC2': 7.32, 'lipoC3S1': 3.83, 'temp': 27.0, 'lipoC3S3': 11.52, 'lipoC3S2': 7.61, 'rot1': 0, 'rot0': 0, 'rot3': 24, 'rot2': 19, 'state': 'normal', 'yaw': -2.28, 'datetime': '2018-10-09 20:04:58.611383', 'mgs': 0, 'volt': 0.8252, 'depth': 0.394, 'time': 5, 'pitch': -0.21, 'roll': -0.1, 'pres': 169}
{'lipoC2': 7.32, 'lipoC3S1': 3.82, 'temp': 27.0, 'lipoC3S3': 11.51, 'lipoC3S2': 7.65, 'rot1': 0, 'rot0': 0, 'rot3': 25, 'rot2': 20, 'state': 'normal', 'yaw': -2.37, 'datetime': '2018-10-09 20:04:58.627362', 'mgs': 0, 'volt': 0.8301, 'depth': 0.47, 'time': 5, 'pitch': -0.02, 'roll': -0.04, 'pres': 170}
{'lipoC2': 7.33, 'lipoC3S1': 3.81, 'temp': 27.0, 'lipoC3S3': 11.54, 'lipoC3S2': 7.63, 'rot1': 0, 'rot0': 0, 'rot3': 26, 'rot2': 21, 'state': 'normal', 'yaw': -2.44, 'datetime': '2018-10-09 20:04:58.643278', 'mgs': 0, 'volt': 0.8154, 'depth': 0.241, 'time': 5, 'pitch': 0.15, 'roll': -0.04, 'pres': 167}
{'lipoC2': 7.32, 'lipoC3S1': 3.8, 'temp': 27.0, 'lipoC3S3': 11.54, 'lipoC3S2': 7.61, 'rot1': 0, 'rot0': 0, 'rot3': 28, 'rot2': 22, 'state': 'normal', 'yaw': -2.52, 'datetime': '2018-10-09 20:04:58.659175', 'mgs': 0, 'volt': 0.8154, 'depth': 0.241, 'time': 5, 'pitch': 0.25, 'roll': -0.16, 'pres': 167}
{'lipoC2': 7.32, 'lipoC3S1': 3.82, 'temp': 27.0, 'lipoC3S3': 11.52, 'lipoC3S2': 7.65, 'rot1': 0, 'rot0': 0, 'rot3': 29, 'rot2': 23, 'state': 'normal', 'yaw': -2.57, 'datetime': '2018-10-09 20:04:58.674540', 'mgs': 0, 'volt': 0.8301, 'depth': 0.47, 'time': 5, 'pitch': 0.26, 'roll': -0.36, 'pres': 170}
{'lipoC2': 7.33, 'lipoC3S1': 3.8, 'temp': 27.0, 'lipoC3S3': 11.56, 'lipoC3S2': 7.64, 'rot1': 0, 'rot0': 0, 'rot3': 30, 'rot2': 23, 'state': 'normal', 'yaw': -2.6, 'datetime': '2018-10-09 20:04:58.689875', 'mgs': 0, 'volt': 0.835, 'depth': 0.546, 'time': 5, 'pitch': 0.25, 'roll': -0.6, 'pres': 171}
{'lipoC2': 7.33, 'lipoC3S1': 3.8, 'temp': 27.0, 'lipoC3S3': 11.55, 'lipoC3S2': 7.63, 'rot1': 0, 'rot0': 0, 'rot3': 31, 'rot2': 24, 'state': 'normal', 'yaw': -2.66, 'datetime': '2018-10-09 20:04:58.705253', 'mgs': 0, 'volt': 0.8057, 'depth': 0.089, 'time': 6, 'pitch': 0.3, 'roll': -0.81, 'pres': 165}
{'lipoC2': 7.32, 'lipoC3S1': 3.8, 'temp': 27.06, 'lipoC3S3': 11.54, 'lipoC3S2': 7.62, 'rot1': 0, 'rot0': 0, 'rot3': 32, 'rot2': 25, 'state': 'normal', 'yaw': -2.71, 'datetime': '2018-10-09 20:04:58.720618', 'mgs': 0, 'volt': 0.8203, 'depth': 0.317, 'time': 6, 'pitch': 0.42, 'roll': -0.95, 'pres': 168}
{'lipoC2': 7.32, 'lipoC3S1': 3.82, 'temp': 27.06, 'lipoC3S3': 11.51, 'lipoC3S2': 7.65, 'rot1': 0, 'rot0': 0, 'rot3': 33, 'rot2': 26, 'state': 'normal', 'yaw': -2.71, 'datetime': '2018-10-09 20:04:58.736003', 'mgs': 0, 'volt': 0.8252, 'depth': 0.394, 'time': 6, 'pitch': 0.56, 'roll': -1.06, 'pres': 169}
{'lipoC2': 7.32, 'lipoC3S1': 3.82, 'temp': 27.0, 'lipoC3S3': 11.54, 'lipoC3S2': 7.65, 'rot1': 0, 'rot0': 0, 'rot3': 34, 'rot2': 27, 'state': 'normal', 'yaw': -2.7, 'datetime': '2018-10-09 20:04:58.751360', 'mgs': 0, 'volt': 0.8252, 'depth': 0.394, 'time': 6, 'pitch': 0.72, 'roll': -1.07, 'pres': 169}
{'lipoC2': 7.32, 'lipoC3S1': 3.8, 'temp': 27.0, 'lipoC3S3': 11.55, 'lipoC3S2': 7.64, 'rot1': 1, 'rot0': 0, 'rot3': 35, 'rot2': 28, 'state': 'normal', 'yaw': -2.65, 'datetime': '2018-10-09 20:04:58.766689', 'mgs': 0, 'volt': 0.8301, 'depth': 0.47, 'time': 6, 'pitch': 0.84, 'roll': -1.06, 'pres': 170}
{'lipoC2': 7.32, 'lipoC3S1': 3.79, 'temp': 27.0, 'lipoC3S3': 11.52, 'lipoC3S2': 7.65, 'rot1': 1, 'rot0': 1, 'rot3': 37, 'rot2': 29, 'state': 'normal', 'yaw': -2.56, 'datetime': '2018-10-09 20:04:58.782076', 'mgs': 0, 'volt': 0.8252, 'depth': 0.394, 'time': 6, 'pitch': 0.93, 'roll': -1.06, 'pres': 169}
{'lipoC2': 7.32, 'lipoC3S1': 3.81, 'temp': 27.0, 'lipoC3S3': 11.56, 'lipoC3S2': 7.65, 'rot1': 1, 'rot0': 1, 'rot3': 38, 'rot2': 30, 'state': 'normal', 'yaw': -2.44, 'datetime': '2018-10-09 20:04:58.797527', 'mgs': 0, 'volt': 0.8301, 'depth': 0.47, 'time': 6, 'pitch': 0.96, 'roll': -1.06, 'pres': 170}
{'lipoC2': 7.32, 'lipoC3S1': 3.8, 'temp': 27.0, 'lipoC3S3': 11.55, 'lipoC3S2': 7.63, 'rot1': 1, 'rot0': 1, 'rot3': 39, 'rot2': 31, 'state': 'normal', 'yaw': -2.3, 'datetime': '2018-10-09 20:04:58.812862', 'mgs': 0, 'volt': 0.835, 'depth': 0.546, 'time': 6, 'pitch': 0.92, 'roll': -1.05, 'pres': 171}
{'lipoC2': 7.32, 'lipoC3S1': 3.8, 'temp': 27.0, 'lipoC3S3': 11.52, 'lipoC3S2': 7.62, 'rot1': 2, 'rot0': 2, 'rot3': 40, 'rot2': 32, 'state': 'normal', 'yaw': -2.08, 'datetime': '2018-10-09 20:04:58.828208', 'mgs': 0, 'volt': 0.8203, 'depth': 0.317, 'time': 6, 'pitch': 0.91, 'roll': -1.04, 'pres': 168}
{'lipoC2': 7.32, 'lipoC3S1': 3.82, 'temp': 27.0, 'lipoC3S3': 11.52, 'lipoC3S2': 7.61, 'rot1': 2, 'rot0': 2, 'rot3': 41, 'rot2': 33, 'state': 'normal', 'yaw': -1.86, 'datetime': '2018-10-09 20:04:58.843601', 'mgs': 0, 'volt': 0.8203, 'depth': 0.317, 'time': 6, 'pitch': 0.88, 'roll': -0.97, 'pres': 168}
{'lipoC2': 7.32, 'lipoC3S1': 3.81, 'temp': 26.94, 'lipoC3S3': 11.56, 'lipoC3S2': 7.64, 'rot1': 2, 'rot0': 2, 'rot3': 42, 'rot2': 34, 'state': 'normal', 'yaw': -1.64, 'datetime': '2018-10-09 20:04:58.858952', 'mgs': 0, 'volt': 0.835, 'depth': 0.546, 'time': 7, 'pitch': 0.92, 'roll': -0.85, 'pres': 171}
{'lipoC2': 7.32, 'lipoC3S1': 3.81, 'temp': 26.94, 'lipoC3S3': 11.55, 'lipoC3S2': 7.63, 'rot1': 2, 'rot0': 2, 'rot3': 43, 'rot2': 34, 'state': 'normal', 'yaw': -1.4, 'datetime': '2018-10-09 20:04:58.874294', 'mgs': 0, 'volt': 0.835, 'depth': 0.546, 'time': 7, 'pitch': 0.91, 'roll': -0.66, 'pres': 171}
{'lipoC2': 7.3, 'lipoC3S1': 3.79, 'temp': 27.0, 'lipoC3S3': 11.54, 'lipoC3S2': 7.62, 'rot1': 2, 'rot0': 2, 'rot3': 44, 'rot2': 35, 'state': 'normal', 'yaw': -1.13, 'datetime': '2018-10-09 20:04:58.889596', 'mgs': 0, 'volt': 0.8203, 'depth': 0.317, 'time': 7, 'pitch': 0.86, 'roll': -0.53, 'pres': 168}
{'lipoC2': 7.3, 'lipoC3S1': 3.8, 'temp': 27.0, 'lipoC3S3': 11.55, 'lipoC3S2': 7.63, 'rot1': 3, 'rot0': 3, 'rot3': 46, 'rot2': 36, 'state': 'normal', 'yaw': -0.83, 'datetime': '2018-10-09 20:04:58.904932', 'mgs': 0, 'volt': 0.8398, 'depth': 0.623, 'time': 7, 'pitch': 0.85, 'roll': -0.48, 'pres': 172}
{'lipoC2': 7.32, 'lipoC3S1': 3.81, 'temp': 27.0, 'lipoC3S3': 11.54, 'lipoC3S2': 7.62, 'rot1': 3, 'rot0': 3, 'rot3': 47, 'rot2': 37, 'state': 'normal', 'yaw': -0.45, 'datetime': '2018-10-09 20:04:58.920209', 'mgs': 0, 'volt': 0.835, 'depth': 0.546, 'time': 7, 'pitch': 0.82, 'roll': -0.47, 'pres': 171}
{'lipoC2': 7.32, 'lipoC3S1': 3.79, 'temp': 26.94, 'lipoC3S3': 11.52, 'lipoC3S2': 7.61, 'rot1': 3, 'rot0': 3, 'rot3': 48, 'rot2': 38, 'state': 'normal', 'yaw': -0.06, 'datetime': '2018-10-09 20:04:58.935647', 'mgs': 0, 'volt': 0.8203, 'depth': 0.317, 'time': 7, 'pitch': 0.79, 'roll': -0.57, 'pres': 168}
{'lipoC2': 7.32, 'lipoC3S1': 3.82, 'temp': 26.94, 'lipoC3S3': 11.5, 'lipoC3S2': 7.6, 'rot1': 3, 'rot0': 3, 'rot3': 49, 'rot2': 39, 'state': 'normal', 'yaw': 0.35, 'datetime': '2018-10-09 20:04:58.951067', 'mgs': 0, 'volt': 0.8252, 'depth': 0.394, 'time': 7, 'pitch': 0.78, 'roll': -0.72, 'pres': 169}
{'lipoC2': 7.32, 'lipoC3S1': 3.82, 'temp': 27.0, 'lipoC3S3': 11.5, 'lipoC3S2': 7.64, 'rot1': 4, 'rot0': 4, 'rot3': 50, 'rot2': 40, 'state': 'normal', 'yaw': 0.83, 'datetime': '2018-10-09 20:04:59.053816', 'mgs': 0, 'volt': 0.8301, 'depth': 0.47, 'time': 7, 'pitch': 0.77, 'roll': -0.91, 'pres': 170}
{'lipoC2': 7.32, 'lipoC3S1': 3.81, 'temp': 27.0, 'lipoC3S3': 11.55, 'lipoC3S2': 7.65, 'rot1': 4, 'rot0': 4, 'rot3': 51, 'rot2': 41, 'state': 'normal', 'yaw': 1.27, 'datetime': '2018-10-09 20:04:59.157354', 'mgs': 0, 'volt': 0.835, 'depth': 0.546, 'time': 7, 'pitch': 0.77, 'roll': -1.07, 'pres': 171}
{'lipoC2': 7.32, 'lipoC3S1': 3.81, 'temp': 27.0, 'lipoC3S3': 11.54, 'lipoC3S2': 7.63, 'rot1': 4, 'rot0': 4, 'rot3': 52, 'rot2': 42, 'state': 'normal', 'yaw': 1.74, 'datetime': '2018-10-09 20:04:59.261129', 'mgs': 0, 'volt': 0.8154, 'depth': 0.241, 'time': 7, 'pitch': 0.75, 'roll': -1.21, 'pres': 167}
{'lipoC2': 7.32, 'lipoC3S1': 3.8, 'temp': 27.0, 'lipoC3S3': 11.54, 'lipoC3S2': 7.61, 'rot1': 4, 'rot0': 4, 'rot3': 53, 'rot2': 43, 'state': 'normal', 'yaw': 2.26, 'datetime': '2018-10-09 20:04:59.364672', 'mgs': 0, 'volt': 0.8154, 'depth': 0.241, 'time': 8, 'pitch': 0.71, 'roll': -1.29, 'pres': 167}
{'lipoC2': 7.32, 'lipoC3S1': 3.83, 'temp': 27.0, 'lipoC3S3': 11.52, 'lipoC3S2': 7.63, 'rot1': 5, 'rot0': 4, 'rot3': 55, 'rot2': 44, 'state': 'normal', 'yaw': 2.75, 'datetime': '2018-10-09 20:04:59.468222', 'mgs': 0, 'volt': 0.8398, 'depth': 0.623, 'time': 8, 'pitch': 0.66, 'roll': -1.28, 'pres': 172}
{'lipoC2': 7.33, 'lipoC3S1': 3.8, 'temp': 27.0, 'lipoC3S3': 11.55, 'lipoC3S2': 7.62, 'rot1': 5, 'rot0': 5, 'rot3': 56, 'rot2': 45, 'state': 'normal', 'yaw': 3.24, 'datetime': '2018-10-09 20:04:59.578981', 'mgs': 0, 'volt': 0.8203, 'depth': 0.317, 'time': 8, 'pitch': 0.72, 'roll': -1.22, 'pres': 168}
{'lipoC2': 7.32, 'lipoC3S1': 3.79, 'temp': 27.0, 'lipoC3S3': 11.51, 'lipoC3S2': 7.61, 'rot1': 5, 'rot0': 5, 'rot3': 57, 'rot2': 45, 'state': 'normal', 'yaw': 3.8, 'datetime': '2018-10-09 20:04:59.682471', 'mgs': 0, 'volt': 0.8203, 'depth': 0.317, 'time': 8, 'pitch': 0.87, 'roll': -1.07, 'pres': 168}
{'lipoC2': 7.32, 'lipoC3S1': 3.81, 'temp': 27.0, 'lipoC3S3': 11.55, 'lipoC3S2': 7.61, 'rot1': 5, 'rot0': 5, 'rot3': 58, 'rot2': 46, 'state': 'normal', 'yaw': 4.31, 'datetime': '2018-10-09 20:04:59.801414', 'mgs': 0, 'volt': 0.835, 'depth': 0.546, 'time': 8, 'pitch': 1.01, 'roll': -0.94, 'pres': 171}
{'lipoC2': 7.32, 'lipoC3S1': 3.8, 'temp': 27.0, 'lipoC3S3': 11.56, 'lipoC3S2': 7.63, 'rot1': 5, 'rot0': 5, 'rot3': 59, 'rot2': 47, 'state': 'normal', 'yaw': 4.86, 'datetime': '2018-10-09 20:04:59.884383', 'mgs': 0, 'volt': 0.8301, 'depth': 0.47, 'time': 8, 'pitch': 1.12, 'roll': -0.81, 'pres': 170}
{'lipoC2': 7.32, 'lipoC3S1': 3.81, 'temp': 26.94, 'lipoC3S3': 11.55, 'lipoC3S2': 7.63, 'rot1': 5, 'rot0': 5, 'rot3': 60, 'rot2': 48, 'state': 'normal', 'yaw': 5.35, 'datetime': '2018-10-09 20:04:59.999869', 'mgs': 0, 'volt': 0.8398, 'depth': 0.623, 'time': 8, 'pitch': 1.14, 'roll': -0.75, 'pres': 172}
{'lipoC2': 7.32, 'lipoC3S1': 3.82, 'temp': 26.94, 'lipoC3S3': 11.5, 'lipoC3S2': 7.64, 'rot1': 6, 'rot0': 5, 'rot3': 61, 'rot2': 49, 'state': 'normal', 'yaw': 5.85, 'datetime': '2018-10-09 20:05:00.092788', 'mgs': 0, 'volt': 0.835, 'depth': 0.546, 'time': 8, 'pitch': 1.11, 'roll': -0.72, 'pres': 171}
{'lipoC2': 7.32, 'lipoC3S1': 3.81, 'temp': 26.94, 'lipoC3S3': 11.51, 'lipoC3S2': 7.65, 'rot1': 6, 'rot0': 5, 'rot3': 62, 'rot2': 50, 'state': 'normal', 'yaw': 6.37, 'datetime': '2018-10-09 20:05:00.196605', 'mgs': 0, 'volt': 0.8301, 'depth': 0.47, 'time': 8, 'pitch': 1.04, 'roll': -0.69, 'pres': 170}
{'lipoC2': 7.32, 'lipoC3S1': 3.81, 'temp': 27.0, 'lipoC3S3': 11.55, 'lipoC3S2': 7.64, 'rot1': 6, 'rot0': 6, 'rot3': 64, 'rot2': 51, 'state': 'normal', 'yaw': 6.88, 'datetime': '2018-10-09 20:05:00.299919', 'mgs': 0, 'volt': 0.835, 'depth': 0.546, 'time': 9, 'pitch': 0.91, 'roll': -0.66, 'pres': 171}
{'lipoC2': 7.32, 'lipoC3S1': 3.81, 'temp': 27.0, 'lipoC3S3': 11.56, 'lipoC3S2': 7.63, 'rot1': 6, 'rot0': 6, 'rot3': 65, 'rot2': 52, 'state': 'normal', 'yaw': 7.41, 'datetime': '2018-10-09 20:05:00.417094', 'mgs': 0, 'volt': 0.8301, 'depth': 0.47, 'time': 9, 'pitch': 0.87, 'roll': -0.68, 'pres': 170}
{'lipoC2': 7.32, 'lipoC3S1': 3.8, 'temp': 26.94, 'lipoC3S3': 11.54, 'lipoC3S2': 7.61, 'rot1': 6, 'rot0': 6, 'rot3': 66, 'rot2': 53, 'state': 'normal', 'yaw': 7.96, 'datetime': '2018-10-09 20:05:00.507063', 'mgs': 0, 'volt': 0.8203, 'depth': 0.317, 'time': 9, 'pitch': 0.87, 'roll': -0.68, 'pres': 168}
{'lipoC2': 7.32, 'lipoC3S1': 3.81, 'temp': 26.94, 'lipoC3S3': 11.52, 'lipoC3S2': 7.61, 'rot1': 6, 'rot0': 6, 'rot3': 67, 'rot2': 54, 'state': 'normal', 'yaw': 8.42, 'datetime': '2018-10-09 20:05:00.610710', 'mgs': 0, 'volt': 0.8154, 'depth': 0.241, 'time': 9, 'pitch': 0.87, 'roll': -0.67, 'pres': 167}
{'lipoC2': 7.32, 'lipoC3S1': 3.82, 'temp': 26.94, 'lipoC3S3': 11.52, 'lipoC3S2': 7.61, 'rot1': 6, 'rot0': 6, 'rot3': 68, 'rot2': 55, 'state': 'normal', 'yaw': 8.93, 'datetime': '2018-10-09 20:05:00.714177', 'mgs': 0, 'volt': 0.8252, 'depth': 0.394, 'time': 9, 'pitch': 0.97, 'roll': -0.67, 'pres': 169}
{'lipoC2': 7.32, 'lipoC3S1': 3.82, 'temp': 26.94, 'lipoC3S3': 11.51, 'lipoC3S2': 7.65, 'rot1': 6, 'rot0': 6, 'rot3': 69, 'rot2': 56, 'state': 'normal', 'yaw': 9.5, 'datetime': '2018-10-09 20:05:00.817739', 'mgs': 0, 'volt': 0.8252, 'depth': 0.394, 'time': 9, 'pitch': 1.05, 'roll': -0.66, 'pres': 169}
{'lipoC2': 7.32, 'lipoC3S1': 3.81, 'temp': 26.94, 'lipoC3S3': 11.5, 'lipoC3S2': 7.64, 'rot1': 7, 'rot0': 6, 'rot3': 70, 'rot2': 57, 'state': 'normal', 'yaw': 9.97, 'datetime': '2018-10-09 20:05:00.921297', 'mgs': 0, 'volt': 0.835, 'depth': 0.546, 'time': 9, 'pitch': 1.04, 'roll': -0.64, 'pres': 171}
{'lipoC2': 7.32, 'lipoC3S1': 3.8, 'temp': 27.0, 'lipoC3S3': 11.54, 'lipoC3S2': 7.62, 'rot1': 7, 'rot0': 6, 'rot3': 71, 'rot2': 58, 'state': 'normal', 'yaw': 10.46, 'datetime': '2018-10-09 20:05:01.025249', 'mgs': 0, 'volt': 0.8203, 'depth': 0.317, 'time': 9, 'pitch': 1.01, 'roll': -0.66, 'pres': 168}
{'lipoC2': 7.32, 'lipoC3S1': 3.8, 'temp': 27.0, 'lipoC3S3': 11.52, 'lipoC3S2': 7.62, 'rot1': 7, 'rot0': 6, 'rot3': 73, 'rot2': 58, 'state': 'normal', 'yaw': 10.97, 'datetime': '2018-10-09 20:05:01.128810', 'mgs': 0, 'volt': 0.835, 'depth': 0.546, 'time': 9, 'pitch': 0.97, 'roll': -0.65, 'pres': 171}
{'lipoC2': 7.32, 'lipoC3S1': 3.82, 'temp': 27.0, 'lipoC3S3': 11.51, 'lipoC3S2': 7.6, 'rot1': 7, 'rot0': 6, 'rot3': 74, 'rot2': 59, 'state': 'normal', 'yaw': 11.37, 'datetime': '2018-10-09 20:05:01.232361', 'mgs': 0, 'volt': 0.8301, 'depth': 0.47, 'time': 9, 'pitch': 0.85, 'roll': -0.65, 'pres': 170}
{'lipoC2': 7.32, 'lipoC3S1': 3.82, 'temp': 27.0, 'lipoC3S3': 11.51, 'lipoC3S2': 7.65, 'rot1': 7, 'rot0': 6, 'rot3': 75, 'rot2': 60, 'state': 'normal', 'yaw': 11.74, 'datetime': '2018-10-09 20:05:01.341157', 'mgs': 0, 'volt': 0.8301, 'depth': 0.47, 'time': 10, 'pitch': 0.74, 'roll': -0.64, 'pres': 170}
{'lipoC2': 7.33, 'lipoC3S1': 3.8, 'temp': 27.0, 'lipoC3S3': 11.55, 'lipoC3S2': 7.63, 'rot1': 7, 'rot0': 6, 'rot3': 76, 'rot2': 61, 'state': 'normal', 'yaw': 12.2, 'datetime': '2018-10-09 20:05:01.447282', 'mgs': 0, 'volt': 0.835, 'depth': 0.546, 'time': 10, 'pitch': 0.69, 'roll': -0.6, 'pres': 171}
{'lipoC2': 7.32, 'lipoC3S1': 3.82, 'temp': 27.0, 'lipoC3S3': 11.55, 'lipoC3S2': 7.66, 'rot1': 7, 'rot0': 6, 'rot3': 77, 'rot2': 62, 'state': 'normal', 'yaw': 12.58, 'datetime': '2018-10-09 20:05:01.551420', 'mgs': 0, 'volt': 0.835, 'depth': 0.546, 'time': 10, 'pitch': 0.67, 'roll': -0.49, 'pres': 171}
{'lipoC2': 7.32, 'lipoC3S1': 3.82, 'temp': 27.0, 'lipoC3S3': 11.51, 'lipoC3S2': 7.61, 'rot1': 7, 'rot0': 6, 'rot3': 78, 'rot2': 63, 'state': 'normal', 'yaw': 12.96, 'datetime': '2018-10-09 20:05:01.655492', 'mgs': 0, 'volt': 0.8252, 'depth': 0.394, 'time': 10, 'pitch': 0.72, 'roll': -0.41, 'pres': 169}
{'lipoC2': 7.32, 'lipoC3S1': 3.79, 'temp': 27.0, 'lipoC3S3': 11.43, 'lipoC3S2': 7.61, 'rot1': 7, 'rot0': 6, 'rot3': 80, 'rot2': 64, 'state': 'normal', 'yaw': 13.36, 'datetime': '2018-10-09 20:05:01.759078', 'mgs': 0, 'volt': 0.8496, 'depth': 0.775, 'time': 10, 'pitch': 0.78, 'roll': -0.41, 'pres': 174}
{'lipoC2': 7.33, 'lipoC3S1': 3.79, 'temp': 27.0, 'lipoC3S3': 11.44, 'lipoC3S2': 7.43, 'rot1': 7, 'rot0': 6, 'rot3': 80, 'rot2': 65, 'state': 'normal', 'yaw': 13.76, 'datetime': '2018-10-09 20:05:01.862896', 'mgs': 0, 'volt': 0.8496, 'depth': 0.775, 'time': 10, 'pitch': 0.68, 'roll': -0.41, 'pres': 174}
{'lipoC2': 7.3, 'lipoC3S1': 3.77, 'temp': 27.0, 'lipoC3S3': 11.34, 'lipoC3S2': 7.54, 'rot1': 8, 'rot0': 8, 'rot3': 82, 'rot2': 66, 'state': 'normal', 'yaw': 13.8, 'datetime': '2018-10-09 20:05:01.966585', 'mgs': 0, 'volt': 0.8252, 'depth': 0.394, 'time': 10, 'pitch': 1.13, 'roll': -0.29, 'pres': 169}
{'lipoC2': 7.3, 'lipoC3S1': 3.81, 'temp': 27.0, 'lipoC3S3': 11.42, 'lipoC3S2': 7.55, 'rot1': 9, 'rot0': 9, 'rot3': 83, 'rot2': 67, 'state': 'normal', 'yaw': 13.46, 'datetime': '2018-10-09 20:05:02.070198', 'mgs': 0, 'volt': 0.8887, 'depth': 1.385, 'time': 10, 'pitch': 2.14, 'roll': -0.17, 'pres': 182}
{'lipoC2': 7.32, 'lipoC3S1': 3.7, 'temp': 27.0, 'lipoC3S3': 11.48, 'lipoC3S2': 7.55, 'rot1': 10, 'rot0': 11, 'rot3': 84, 'rot2': 68, 'state': 'normal', 'yaw': 12.78, 'datetime': '2018-10-09 20:05:02.174340', 'mgs': 0, 'volt': 0.8496, 'depth': 0.775, 'time': 10, 'pitch': 3.23, 'roll': 0.06, 'pres': 174}
{'lipoC2': 7.3, 'lipoC3S1': 3.8, 'temp': 27.0, 'lipoC3S3': 11.4, 'lipoC3S2': 7.57, 'rot1': 11, 'rot0': 12, 'rot3': 85, 'rot2': 68, 'state': 'normal', 'yaw': 11.72, 'datetime': '2018-10-09 20:05:02.278274', 'mgs': 0, 'volt': 0.8887, 'depth': 1.385, 'time': 10, 'pitch': 4.12, 'roll': 0.33, 'pres': 182}
{'lipoC2': 7.33, 'lipoC3S1': 3.77, 'temp': 27.0, 'lipoC3S3': 11.4, 'lipoC3S2': 7.53, 'rot1': 12, 'rot0': 13, 'rot3': 86, 'rot2': 69, 'state': 'normal', 'yaw': 10.53, 'datetime': '2018-10-09 20:05:02.382275', 'mgs': 0, 'volt': 0.8496, 'depth': 0.775, 'time': 11, 'pitch': 4.73, 'roll': 0.5, 'pres': 174}
{'lipoC2': 7.32, 'lipoC3S1': 3.78, 'temp': 27.0, 'lipoC3S3': 11.3, 'lipoC3S2': 7.55, 'rot1': 13, 'rot0': 15, 'rot3': 87, 'rot2': 70, 'state': 'normal', 'yaw': 9.17, 'datetime': '2018-10-09 20:05:02.486794', 'mgs': 0, 'volt': 0.8496, 'depth': 0.775, 'time': 11, 'pitch': 5.27, 'roll': 0.62, 'pres': 174}
{'lipoC2': 7.33, 'lipoC3S1': 3.67, 'temp': 27.0, 'lipoC3S3': 11.5, 'lipoC3S2': 7.54, 'rot1': 15, 'rot0': 16, 'rot3': 87, 'rot2': 71, 'state': 'normal', 'yaw': 7.65, 'datetime': '2018-10-09 20:05:02.586228', 'mgs': 0, 'volt': 0.8691, 'depth': 1.08, 'time': 11, 'pitch': 6.0, 'roll': 0.64, 'pres': 178}
{'lipoC2': 7.32, 'lipoC3S1': 3.71, 'temp': 27.0, 'lipoC3S3': 11.47, 'lipoC3S2': 7.58, 'rot1': 16, 'rot0': 18, 'rot3': 88, 'rot2': 71, 'state': 'normal', 'yaw': 6.26, 'datetime': '2018-10-09 20:05:02.690150', 'mgs': 0, 'volt': 0.874, 'depth': 1.157, 'time': 11, 'pitch': 6.78, 'roll': 0.46, 'pres': 179}
{'lipoC2': 7.3, 'lipoC3S1': 3.8, 'temp': 27.0, 'lipoC3S3': 11.39, 'lipoC3S2': 7.53, 'rot1': 17, 'rot0': 19, 'rot3': 89, 'rot2': 72, 'state': 'normal', 'yaw': 4.75, 'datetime': '2018-10-09 20:05:02.794180', 'mgs': 0, 'volt': 0.8887, 'depth': 1.385, 'time': 11, 'pitch': 7.63, 'roll': 0.13, 'pres': 182}
{'lipoC2': 7.32, 'lipoC3S1': 3.76, 'temp': 27.0, 'lipoC3S3': 11.42, 'lipoC3S2': 7.43, 'rot1': 18, 'rot0': 21, 'rot3': 90, 'rot2': 73, 'state': 'normal', 'yaw': 3.47, 'datetime': '2018-10-09 20:05:02.898155', 'mgs': 0, 'volt': 0.8838, 'depth': 1.309, 'time': 11, 'pitch': 8.36, 'roll': -0.24, 'pres': 181}
{'lipoC2': 7.32, 'lipoC3S1': 3.72, 'temp': 27.0, 'lipoC3S3': 11.47, 'lipoC3S2': 7.6, 'rot1': 20, 'rot0': 22, 'rot3': 91, 'rot2': 73, 'state': 'normal', 'yaw': 2.28, 'datetime': '2018-10-09 20:05:03.003215', 'mgs': 0, 'volt': 0.874, 'depth': 1.157, 'time': 11, 'pitch': 8.92, 'roll': -0.55, 'pres': 179}
{'lipoC2': 7.3, 'lipoC3S1': 3.8, 'temp': 27.0, 'lipoC3S3': 11.42, 'lipoC3S2': 7.53, 'rot1': 21, 'rot0': 23, 'rot3': 92, 'rot2': 74, 'state': 'normal', 'yaw': 1.04, 'datetime': '2018-10-09 20:05:03.107235', 'mgs': 0, 'volt': 0.8838, 'depth': 1.309, 'time': 11, 'pitch': 9.33, 'roll': -0.86, 'pres': 181}
{'lipoC2': 7.32, 'lipoC3S1': 3.78, 'temp': 27.0, 'lipoC3S3': 11.46, 'lipoC3S2': 7.43, 'rot1': 22, 'rot0': 25, 'rot3': 93, 'rot2': 75, 'state': 'normal', 'yaw': 0.0, 'datetime': '2018-10-09 20:05:03.211269', 'mgs': 0, 'volt': 0.8838, 'depth': 1.309, 'time': 11, 'pitch': 9.47, 'roll': -1.15, 'pres': 181}
{'lipoC2': 7.32, 'lipoC3S1': 3.77, 'temp': 27.0, 'lipoC3S3': 11.43, 'lipoC3S2': 7.6, 'rot1': 23, 'rot0': 26, 'rot3': 94, 'rot2': 76, 'state': 'normal', 'yaw': -1.01, 'datetime': '2018-10-09 20:05:03.315226', 'mgs': 0, 'volt': 0.957, 'depth': 2.454, 'time': 12, 'pitch': 9.45, 'roll': -1.41, 'pres': 196}
{'lipoC2': 7.32, 'lipoC3S1': 3.77, 'temp': 27.0, 'lipoC3S3': 11.23, 'lipoC3S2': 7.54, 'rot1': 25, 'rot0': 28, 'rot3': 95, 'rot2': 76, 'state': 'normal', 'yaw': -1.88, 'datetime': '2018-10-09 20:05:03.419269', 'mgs': 0, 'volt': 0.8789, 'depth': 1.233, 'time': 12, 'pitch': 9.33, 'roll': -1.63, 'pres': 180}
{'lipoC2': 7.33, 'lipoC3S1': 3.64, 'temp': 27.0, 'lipoC3S3': 11.48, 'lipoC3S2': 7.49, 'rot1': 26, 'rot0': 29, 'rot3': 96, 'rot2': 77, 'state': 'normal', 'yaw': -2.7, 'datetime': '2018-10-09 20:05:03.523273', 'mgs': 0, 'volt': 0.9082, 'depth': 1.691, 'time': 12, 'pitch': 9.13, 'roll': -1.8, 'pres': 186}
{'lipoC2': 7.29, 'lipoC3S1': 3.8, 'temp': 27.0, 'lipoC3S3': 11.39, 'lipoC3S2': 7.59, 'rot1': 27, 'rot0': 30, 'rot3': 96, 'rot2': 78, 'state': 'normal', 'yaw': -3.51, 'datetime': '2018-10-09 20:05:03.628903', 'mgs': 0, 'volt': 0.9473, 'depth': 2.301, 'time': 12, 'pitch': 8.87, 'roll': -1.93, 'pres': 194}
{'lipoC2': 7.32, 'lipoC3S1': 3.76, 'temp': 27.0, 'lipoC3S3': 11.29, 'lipoC3S2': 7.58, 'rot1': 29, 'rot0': 32, 'rot3': 97, 'rot2': 78, 'state': 'normal', 'yaw': -4.17, 'datetime': '2018-10-09 20:05:03.736220', 'mgs': 0, 'volt': 0.8887, 'depth': 1.385, 'time': 12, 'pitch': 8.6, 'roll': -1.94, 'pres': 182}
{'lipoC2': 7.32, 'lipoC3S1': 3.82, 'temp': 27.0, 'lipoC3S3': 11.27, 'lipoC3S2': 7.52, 'rot1': 30, 'rot0': 33, 'rot3': 98, 'rot2': 79, 'state': 'normal', 'yaw': -4.78, 'datetime': '2018-10-09 20:05:03.841682', 'mgs': 0, 'volt': 0.8936, 'depth': 1.462, 'time': 12, 'pitch': 8.24, 'roll': -1.93, 'pres': 183}
{'lipoC2': 7.33, 'lipoC3S1': 3.73, 'temp': 27.0, 'lipoC3S3': 11.47, 'lipoC3S2': 7.53, 'rot1': 31, 'rot0': 35, 'rot3': 99, 'rot2': 80, 'state': 'normal', 'yaw': -5.35, 'datetime': '2018-10-09 20:05:03.945585', 'mgs': 0, 'volt': 0.9033, 'depth': 1.614, 'time': 12, 'pitch': 7.78, 'roll': -1.95, 'pres': 185}
{'lipoC2': 7.33, 'lipoC3S1': 3.74, 'temp': 27.0, 'lipoC3S3': 11.47, 'lipoC3S2': 7.53, 'rot1': 33, 'rot0': 36, 'rot3': 100, 'rot2': 80, 'state': 'normal', 'yaw': -5.78, 'datetime': '2018-10-09 20:05:04.051084', 'mgs': 0, 'volt': 0.918, 'depth': 1.843, 'time': 12, 'pitch': 7.35, 'roll': -2.01, 'pres': 188}
{'lipoC2': 7.32, 'lipoC3S1': 3.79, 'temp': 27.0, 'lipoC3S3': 11.39, 'lipoC3S2': 7.59, 'rot1': 34, 'rot0': 37, 'rot3': 101, 'rot2': 81, 'state': 'normal', 'yaw': -6.1, 'datetime': '2018-10-09 20:05:04.155226', 'mgs': 0, 'volt': 0.9717, 'depth': 2.682, 'time': 12, 'pitch': 6.75, 'roll': -2.15, 'pres': 199}
{'lipoC2': 7.3, 'lipoC3S1': 3.81, 'temp': 27.0, 'lipoC3S3': 11.39, 'lipoC3S2': 7.59, 'rot1': 35, 'rot0': 39, 'rot3': 101, 'rot2': 82, 'state': 'normal', 'yaw': -6.28, 'datetime': '2018-10-09 20:05:04.260336', 'mgs': 0, 'volt': 0.918, 'depth': 1.843, 'time': 12, 'pitch': 6.24, 'roll': -2.32, 'pres': 188}
{'lipoC2': 7.33, 'lipoC3S1': 3.8, 'temp': 27.0, 'lipoC3S3': 11.38, 'lipoC3S2': 7.41, 'rot1': 37, 'rot0': 40, 'rot3': 102, 'rot2': 82, 'state': 'normal', 'yaw': -6.36, 'datetime': '2018-10-09 20:05:04.364453', 'mgs': 0, 'volt': 0.9082, 'depth': 1.691, 'time': 13, 'pitch': 5.8, 'roll': -2.38, 'pres': 186}
{'lipoC2': 7.33, 'lipoC3S1': 3.69, 'temp': 27.0, 'lipoC3S3': 11.48, 'lipoC3S2': 7.58, 'rot1': 38, 'rot0': 41, 'rot3': 103, 'rot2': 83, 'state': 'normal', 'yaw': -6.28, 'datetime': '2018-10-09 20:05:04.468647', 'mgs': 0, 'volt': 0.9326, 'depth': 2.072, 'time': 13, 'pitch': 5.51, 'roll': -2.35, 'pres': 191}
{'lipoC2': 7.33, 'lipoC3S1': 3.7, 'temp': 27.0, 'lipoC3S3': 11.48, 'lipoC3S2': 7.59, 'rot1': 39, 'rot0': 43, 'rot3': 103, 'rot2': 84, 'state': 'normal', 'yaw': -6.07, 'datetime': '2018-10-09 20:05:04.572892', 'mgs': 0, 'volt': 0.9375, 'depth': 2.148, 'time': 13, 'pitch': 5.31, 'roll': -2.26, 'pres': 192}
{'lipoC2': 7.29, 'lipoC3S1': 3.81, 'temp': 27.0, 'lipoC3S3': 11.4, 'lipoC3S2': 7.59, 'rot1': 41, 'rot0': 44, 'rot3': 104, 'rot2': 84, 'state': 'normal', 'yaw': -5.8, 'datetime': '2018-10-09 20:05:04.677045', 'mgs': 0, 'volt': 0.9717, 'depth': 2.682, 'time': 13, 'pitch': 5.16, 'roll': -2.17, 'pres': 199}
{'lipoC2': 7.32, 'lipoC3S1': 3.8, 'temp': 27.0, 'lipoC3S3': 11.18, 'lipoC3S2': 7.53, 'rot1': 42, 'rot0': 46, 'rot3': 105, 'rot2': 85, 'state': 'normal', 'yaw': -5.53, 'datetime': '2018-10-09 20:05:04.781132', 'mgs': 0, 'volt': 0.9229, 'depth': 1.92, 'time': 13, 'pitch': 5.1, 'roll': -2.11, 'pres': 189}
{'lipoC2': 7.33, 'lipoC3S1': 3.69, 'temp': 27.0, 'lipoC3S3': 11.51, 'lipoC3S2': 7.47, 'rot1': 43, 'rot0': 47, 'rot3': 106, 'rot2': 86, 'state': 'normal', 'yaw': -5.18, 'datetime': '2018-10-09 20:05:04.885282', 'mgs': 0, 'volt': 0.9229, 'depth': 1.92, 'time': 13, 'pitch': 5.06, 'roll': -2.06, 'pres': 189}
{'lipoC2': 7.32, 'lipoC3S1': 3.75, 'temp': 27.0, 'lipoC3S3': 11.47, 'lipoC3S2': 7.6, 'rot1': 44, 'rot0': 48, 'rot3': 106, 'rot2': 86, 'state': 'normal', 'yaw': -4.82, 'datetime': '2018-10-09 20:05:04.989403', 'mgs': 0, 'volt': 0.9766, 'depth': 2.759, 'time': 13, 'pitch': 5.02, 'roll': -2.0, 'pres': 200}
{'lipoC2': 7.33, 'lipoC3S1': 3.76, 'temp': 27.0, 'lipoC3S3': 11.42, 'lipoC3S2': 7.42, 'rot1': 46, 'rot0': 50, 'rot3': 107, 'rot2': 87, 'state': 'normal', 'yaw': -4.37, 'datetime': '2018-10-09 20:05:05.094213', 'mgs': 0, 'volt': 0.9375, 'depth': 2.148, 'time': 13, 'pitch': 5.07, 'roll': -1.89, 'pres': 192}
{'lipoC2': 7.33, 'lipoC3S1': 3.7, 'temp': 27.0, 'lipoC3S3': 11.47, 'lipoC3S2': 7.59, 'rot1': 47, 'rot0': 51, 'rot3': 108, 'rot2': 88, 'state': 'normal', 'yaw': -3.88, 'datetime': '2018-10-09 20:05:05.198513', 'mgs': 0, 'volt': 0.9619, 'depth': 2.53, 'time': 13, 'pitch': 5.2, 'roll': -1.79, 'pres': 197}
{'lipoC2': 7.33, 'lipoC3S1': 3.65, 'temp': 27.0, 'lipoC3S3': 11.47, 'lipoC3S2': 7.53, 'rot1': 48, 'rot0': 52, 'rot3': 109, 'rot2': 88, 'state': 'normal', 'yaw': -3.48, 'datetime': '2018-10-09 20:05:05.303653', 'mgs': 0, 'volt': 0.9668, 'depth': 2.606, 'time': 14, 'pitch': 5.4, 'roll': -1.74, 'pres': 198}
{'lipoC2': 7.32, 'lipoC3S1': 3.8, 'temp': 27.0, 'lipoC3S3': 11.46, 'lipoC3S2': 7.59, 'rot1': 50, 'rot0': 54, 'rot3': 110, 'rot2': 89, 'state': 'normal', 'yaw': -3.1, 'datetime': '2018-10-09 20:05:05.407751', 'mgs': 0, 'volt': 1.0156, 'depth': 3.369, 'time': 14, 'pitch': 5.75, 'roll': -1.7, 'pres': 208}
{'lipoC2': 7.3, 'lipoC3S1': 3.81, 'temp': 27.0, 'lipoC3S3': 11.47, 'lipoC3S2': 7.61, 'rot1': 51, 'rot0': 55, 'rot3': 110, 'rot2': 89, 'state': 'normal', 'yaw': -2.79, 'datetime': '2018-10-09 20:05:05.512918', 'mgs': 0, 'volt': 0.9863, 'depth': 2.911, 'time': 14, 'pitch': 6.21, 'roll': -1.67, 'pres': 202}
{'lipoC2': 7.33, 'lipoC3S1': 3.81, 'temp': 27.0, 'lipoC3S3': 11.36, 'lipoC3S2': 7.68, 'rot1': 52, 'rot0': 57, 'rot3': 110, 'rot2': 89, 'state': 'normal', 'yaw': -2.51, 'datetime': '2018-10-09 20:05:05.617058', 'mgs': 0, 'volt': 0.957, 'depth': 2.454, 'time': 14, 'pitch': 6.86, 'roll': -1.63, 'pres': 196}
{'lipoC2': 7.33, 'lipoC3S1': 3.71, 'temp': 27.0, 'lipoC3S3': 11.51, 'lipoC3S2': 7.53, 'rot1': 53, 'rot0': 58, 'rot3': 110, 'rot2': 89, 'state': 'normal', 'yaw': -2.3, 'datetime': '2018-10-09 20:05:05.721249', 'mgs': 0, 'volt': 0.957, 'depth': 2.454, 'time': 14, 'pitch': 7.54, 'roll': -1.6, 'pres': 196}
{'lipoC2': 7.32, 'lipoC3S1': 3.75, 'temp': 27.0, 'lipoC3S3': 11.46, 'lipoC3S2': 7.59, 'rot1': 55, 'rot0': 59, 'rot3': 110, 'rot2': 90, 'state': 'normal', 'yaw': -2.13, 'datetime': '2018-10-09 20:05:05.825284', 'mgs': 0, 'volt': 1.0596, 'depth': 4.056, 'time': 14, 'pitch': 8.2, 'roll': -1.56, 'pres': 217}
{'lipoC2': 7.3, 'lipoC3S1': 3.8, 'temp': 27.0, 'lipoC3S3': 11.42, 'lipoC3S2': 7.58, 'rot1': 56, 'rot0': 61, 'rot3': 111, 'rot2': 90, 'state': 'normal', 'yaw': -1.95, 'datetime': '2018-10-09 20:05:05.929353', 'mgs': 0, 'volt': 0.9814, 'depth': 2.835, 'time': 14, 'pitch': 8.74, 'roll': -1.55, 'pres': 201}
{'lipoC2': 7.32, 'lipoC3S1': 3.76, 'temp': 27.0, 'lipoC3S3': 11.35, 'lipoC3S2': 7.4, 'rot1': 57, 'rot0': 62, 'rot3': 112, 'rot2': 91, 'state': 'normal', 'yaw': -1.81, 'datetime': '2018-10-09 20:05:06.033522', 'mgs': 0, 'volt': 0.9668, 'depth': 2.606, 'time': 14, 'pitch': 9.13, 'roll': -1.59, 'pres': 198}
{'lipoC2': 7.33, 'lipoC3S1': 3.76, 'temp': 27.06, 'lipoC3S3': 11.44, 'lipoC3S2': 7.43, 'rot1': 59, 'rot0': 64, 'rot3': 112, 'rot2': 91, 'state': 'normal', 'yaw': -1.77, 'datetime': '2018-10-09 20:05:06.137913', 'mgs': 0, 'volt': 0.9668, 'depth': 2.606, 'time': 14, 'pitch': 9.46, 'roll': -1.69, 'pres': 198}
{'lipoC2': 7.32, 'lipoC3S1': 3.72, 'temp': 27.06, 'lipoC3S3': 11.47, 'lipoC3S2': 7.6, 'rot1': 60, 'rot0': 65, 'rot3': 113, 'rot2': 92, 'state': 'normal', 'yaw': -1.78, 'datetime': '2018-10-09 20:05:06.241971', 'mgs': 0, 'volt': 0.9863, 'depth': 2.911, 'time': 14, 'pitch': 9.73, 'roll': -1.81, 'pres': 202}
{'lipoC2': 7.33, 'lipoC3S1': 3.79, 'temp': 27.0, 'lipoC3S3': 11.35, 'lipoC3S2': 7.37, 'rot1': 61, 'rot0': 66, 'rot3': 114, 'rot2': 92, 'state': 'normal', 'yaw': -1.78, 'datetime': '2018-10-09 20:05:06.346754', 'mgs': 0, 'volt': 0.9717, 'depth': 2.682, 'time': 15, 'pitch': 9.87, 'roll': -1.88, 'pres': 199}
{'lipoC2': 7.33, 'lipoC3S1': 3.64, 'temp': 27.0, 'lipoC3S3': 11.47, 'lipoC3S2': 7.51, 'rot1': 63, 'rot0': 68, 'rot3': 114, 'rot2': 93, 'state': 'normal', 'yaw': -1.78, 'datetime': '2018-10-09 20:05:06.450796', 'mgs': 0, 'volt': 0.9766, 'depth': 2.759, 'time': 15, 'pitch': 9.98, 'roll': -1.91, 'pres': 200}
{'lipoC2': 7.33, 'lipoC3S1': 3.75, 'temp': 27.06, 'lipoC3S3': 11.47, 'lipoC3S2': 7.55, 'rot1': 64, 'rot0': 69, 'rot3': 115, 'rot2': 94, 'state': 'normal', 'yaw': -1.79, 'datetime': '2018-10-09 20:05:06.556051', 'mgs': 0, 'volt': 0.9961, 'depth': 3.064, 'time': 15, 'pitch': 10.03, 'roll': -1.93, 'pres': 204}
{'lipoC2': 7.32, 'lipoC3S1': 3.81, 'temp': 27.06, 'lipoC3S3': 11.46, 'lipoC3S2': 7.59, 'rot1': 65, 'rot0': 71, 'rot3': 116, 'rot2': 94, 'state': 'normal', 'yaw': -1.72, 'datetime': '2018-10-09 20:05:06.660389', 'mgs': 0, 'volt': 1.0449, 'depth': 3.827, 'time': 15, 'pitch': 10.08, 'roll': -1.98, 'pres': 214}
{'lipoC2': 7.3, 'lipoC3S1': 3.8, 'temp': 27.06, 'lipoC3S3': 11.14, 'lipoC3S2': 7.56, 'rot1': 66, 'rot0': 72, 'rot3': 116, 'rot2': 95, 'state': 'normal', 'yaw': -1.62, 'datetime': '2018-10-09 20:05:06.764275', 'mgs': 0, 'volt': 0.9766, 'depth': 2.759, 'time': 15, 'pitch': 10.04, 'roll': -1.99, 'pres': 200}
{'lipoC2': 7.29, 'lipoC3S1': 3.8, 'temp': 27.06, 'lipoC3S3': 11.43, 'lipoC3S2': 7.58, 'rot1': 68, 'rot0': 74, 'rot3': 117, 'rot2': 96, 'state': 'normal', 'yaw': -1.5, 'datetime': '2018-10-09 20:05:06.869736', 'mgs': 0, 'volt': 1.0205, 'depth': 3.445, 'time': 15, 'pitch': 10.15, 'roll': -1.98, 'pres': 209}
{'lipoC2': 7.32, 'lipoC3S1': 3.8, 'temp': 27.06, 'lipoC3S3': 11.27, 'lipoC3S2': 7.52, 'rot1': 69, 'rot0': 75, 'rot3': 117, 'rot2': 96, 'state': 'normal', 'yaw': -1.43, 'datetime': '2018-10-09 20:05:06.973929', 'mgs': 0, 'volt': 0.9717, 'depth': 2.682, 'time': 15, 'pitch': 10.51, 'roll': -1.94, 'pres': 199}
{'lipoC2': 7.33, 'lipoC3S1': 3.63, 'temp': 27.0, 'lipoC3S3': 11.47, 'lipoC3S2': 7.43, 'rot1': 70, 'rot0': 76, 'rot3': 117, 'rot2': 97, 'state': 'normal', 'yaw': -1.46, 'datetime': '2018-10-09 20:05:07.078021', 'mgs': 0, 'volt': 0.9766, 'depth': 2.759, 'time': 15, 'pitch': 10.91, 'roll': -1.93, 'pres': 200}
{'lipoC2': 7.33, 'lipoC3S1': 3.74, 'temp': 27.0, 'lipoC3S3': 11.46, 'lipoC3S2': 7.59, 'rot1': 72, 'rot0': 78, 'rot3': 117, 'rot2': 98, 'state': 'normal', 'yaw': -1.48, 'datetime': '2018-10-09 20:05:07.182144', 'mgs': 0, 'volt': 1.0596, 'depth': 4.056, 'time': 15, 'pitch': 11.17, 'roll': -1.97, 'pres': 217}
{'lipoC2': 7.29, 'lipoC3S1': 3.8, 'temp': 27.0, 'lipoC3S3': 11.36, 'lipoC3S2': 7.58, 'rot1': 73, 'rot0': 80, 'rot3': 118, 'rot2': 98, 'state': 'normal', 'yaw': -1.53, 'datetime': '2018-10-09 20:05:07.286242', 'mgs': 0, 'volt': 1.0059, 'depth': 3.217, 'time': 15, 'pitch': 11.16, 'roll': -2.01, 'pres': 206}
{'lipoC2': 7.32, 'lipoC3S1': 3.79, 'temp': 27.0, 'lipoC3S3': 11.43, 'lipoC3S2': 7.43, 'rot1': 74, 'rot0': 81, 'rot3': 118, 'rot2': 99, 'state': 'normal', 'yaw': -1.6, 'datetime': '2018-10-09 20:05:07.391210', 'mgs': 0, 'volt': 0.9717, 'depth': 2.682, 'time': 16, 'pitch': 11.13, 'roll': -2.01, 'pres': 199}
{'lipoC2': 7.32, 'lipoC3S1': 3.72, 'temp': 27.0, 'lipoC3S3': 11.47, 'lipoC3S2': 7.6, 'rot1': 75, 'rot0': 82, 'rot3': 119, 'rot2': 100, 'state': 'normal', 'yaw': -1.71, 'datetime': '2018-10-09 20:05:07.495635', 'mgs': 0, 'volt': 0.9668, 'depth': 2.606, 'time': 16, 'pitch': 11.08, 'roll': -2.03, 'pres': 198}
{'lipoC2': 7.32, 'lipoC3S1': 3.63, 'temp': 27.06, 'lipoC3S3': 11.48, 'lipoC3S2': 7.45, 'rot1': 77, 'rot0': 84, 'rot3': 120, 'rot2': 100, 'state': 'normal', 'yaw': -1.79, 'datetime': '2018-10-09 20:05:07.601006', 'mgs': 0, 'volt': 0.9668, 'depth': 2.606, 'time': 16, 'pitch': 10.98, 'roll': -2.03, 'pres': 198}
{'lipoC2': 7.32, 'lipoC3S1': 3.68, 'temp': 27.06, 'lipoC3S3': 11.47, 'lipoC3S2': 7.58, 'rot1': 78, 'rot0': 85, 'rot3': 120, 'rot2': 101, 'state': 'normal', 'yaw': -1.9, 'datetime': '2018-10-09 20:05:07.705156', 'mgs': 0, 'volt': 0.9961, 'depth': 3.064, 'time': 16, 'pitch': 10.79, 'roll': -2.04, 'pres': 204}
{'lipoC2': 7.33, 'lipoC3S1': 3.79, 'temp': 27.0, 'lipoC3S3': 11.46, 'lipoC3S2': 7.43, 'rot1': 79, 'rot0': 87, 'rot3': 121, 'rot2': 101, 'state': 'normal', 'yaw': -2.0, 'datetime': '2018-10-09 20:05:07.810748', 'mgs': 0, 'volt': 0.9619, 'depth': 2.53, 'time': 16, 'pitch': 10.59, 'roll': -2.05, 'pres': 197}
{'lipoC2': 7.32, 'lipoC3S1': 3.68, 'temp': 27.0, 'lipoC3S3': 11.47, 'lipoC3S2': 7.54, 'rot1': 80, 'rot0': 88, 'rot3': 122, 'rot2': 102, 'state': 'normal', 'yaw': -2.2, 'datetime': '2018-10-09 20:05:07.914898', 'mgs': 0, 'volt': 0.9912, 'depth': 2.988, 'time': 16, 'pitch': 10.3, 'roll': -2.06, 'pres': 203}
{'lipoC2': 7.32, 'lipoC3S1': 3.79, 'temp': 27.0, 'lipoC3S3': 11.48, 'lipoC3S2': 7.46, 'rot1': 82, 'rot0': 90, 'rot3': 122, 'rot2': 102, 'state': 'normal', 'yaw': -2.38, 'datetime': '2018-10-09 20:05:08.020368', 'mgs': 0, 'volt': 0.9619, 'depth': 2.53, 'time': 16, 'pitch': 9.96, 'roll': -2.0, 'pres': 197}
{'lipoC2': 7.32, 'lipoC3S1': 3.68, 'temp': 27.0, 'lipoC3S3': 11.47, 'lipoC3S2': 7.54, 'rot1': 83, 'rot0': 91, 'rot3': 123, 'rot2': 103, 'state': 'normal', 'yaw': -2.59, 'datetime': '2018-10-09 20:05:08.126922', 'mgs': 0, 'volt': 0.9668, 'depth': 2.606, 'time': 16, 'pitch': 9.55, 'roll': -1.88, 'pres': 198}
{'lipoC2': 7.33, 'lipoC3S1': 3.74, 'temp': 27.06, 'lipoC3S3': 11.46, 'lipoC3S2': 7.6, 'rot1': 84, 'rot0': 93, 'rot3': 123, 'rot2': 104, 'state': 'normal', 'yaw': -2.76, 'datetime': '2018-10-09 20:05:08.229042', 'mgs': 0, 'volt': 1.0693, 'depth': 4.208, 'time': 16, 'pitch': 9.17, 'roll': -1.73, 'pres': 219}
{'lipoC2': 7.32, 'lipoC3S1': 3.8, 'temp': 27.06, 'lipoC3S3': 11.44, 'lipoC3S2': 7.58, 'rot1': 86, 'rot0': 94, 'rot3': 124, 'rot2': 104, 'state': 'normal', 'yaw': -2.9, 'datetime': '2018-10-09 20:05:08.333287', 'mgs': 0, 'volt': 1.04, 'depth': 3.751, 'time': 17, 'pitch': 8.74, 'roll': -1.6, 'pres': 213}
{'lipoC2': 7.29, 'lipoC3S1': 3.8, 'temp': 27.06, 'lipoC3S3': 11.35, 'lipoC3S2': 7.58, 'rot1': 87, 'rot0': 95, 'rot3': 125, 'rot2': 105, 'state': 'normal', 'yaw': -3.02, 'datetime': '2018-10-09 20:05:08.437422', 'mgs': 0, 'volt': 0.9912, 'depth': 2.988, 'time': 17, 'pitch': 8.43, 'roll': -1.41, 'pres': 203}
