{'lipoC2': 7.72, 'lipoC3S1': 3.84, 'temp': 28.69, 'lipoC3S3': 11.61, 'lipoC3S2': 7.68, 'rot1': 0, 'rot0': 0, 'rot3': 0, 'rot2': 0, 'state': 'normal', 'yaw': -0.19, 'datetime': '2018-10-05 20:12:16.449384', 'mgs': 0, 'volt': 0.8008, 'depth': 0.012, 'time': 1, 'pitch': -19.98, 'roll': 1.13, 'pres': 164}
{'lipoC2': 7.72, 'lipoC3S1': 3.84, 'temp': 28.69, 'lipoC3S3': 11.61, 'lipoC3S2': 7.68, 'rot1': 0, 'rot0': 0, 'rot3': 0, 'rot2': 0, 'state': 'normal', 'yaw': -0.33, 'datetime': '2018-10-05 20:12:16.473432', 'mgs': 0, 'volt': 0.8008, 'depth': 0.012, 'time': 1, 'pitch': -19.8, 'roll': 1.54, 'pres': 164}
{'lipoC2': 7.72, 'lipoC3S1': 3.84, 'temp': 28.69, 'lipoC3S3': 11.61, 'lipoC3S2': 7.68, 'rot1': 0, 'rot0': 0, 'rot3': 0, 'rot2': 0, 'state': 'normal', 'yaw': -0.45, 'datetime': '2018-10-05 20:12:16.499509', 'mgs': 0, 'volt': 0.8057, 'depth': 0.089, 'time': 1, 'pitch': -19.65, 'roll': 1.88, 'pres': 165}
{'lipoC2': 7.72, 'lipoC3S1': 3.84, 'temp': 28.69, 'lipoC3S3': 11.61, 'lipoC3S2': 7.68, 'rot1': 0, 'rot0': 0, 'rot3': 0, 'rot2': 0, 'state': 'normal', 'yaw': -0.52, 'datetime': '2018-10-05 20:12:16.522770', 'mgs': 0, 'volt': 0.8057, 'depth': 0.089, 'time': 1, 'pitch': -19.27, 'roll': 2.11, 'pres': 165}
{'lipoC2': 7.72, 'lipoC3S1': 3.84, 'temp': 28.69, 'lipoC3S3': 11.6, 'lipoC3S2': 7.68, 'rot1': 0, 'rot0': 0, 'rot3': 0, 'rot2': 0, 'state': 'normal', 'yaw': -0.5, 'datetime': '2018-10-05 20:12:16.545902', 'mgs': 0, 'volt': 0.8057, 'depth': 0.089, 'time': 1, 'pitch': -18.76, 'roll': 2.27, 'pres': 165}
{'lipoC2': 7.72, 'lipoC3S1': 3.84, 'temp': 28.69, 'lipoC3S3': 11.6, 'lipoC3S2': 7.68, 'rot1': 0, 'rot0': 0, 'rot3': 0, 'rot2': 0, 'state': 'normal', 'yaw': -0.31, 'datetime': '2018-10-05 20:12:16.568759', 'mgs': 0, 'volt': 0.8057, 'depth': 0.089, 'time': 1, 'pitch': -18.3, 'roll': 2.33, 'pres': 165}
{'lipoC2': 7.72, 'lipoC3S1': 3.84, 'temp': 28.69, 'lipoC3S3': 11.61, 'lipoC3S2': 7.68, 'rot1': 0, 'rot0': 0, 'rot3': 0, 'rot2': 0, 'state': 'normal', 'yaw': -0.09, 'datetime': '2018-10-05 20:12:16.579286', 'mgs': 0, 'volt': 0.8057, 'depth': 0.089, 'time': 2, 'pitch': -18.09, 'roll': 2.29, 'pres': 165}
{'lipoC2': 7.72, 'lipoC3S1': 3.84, 'temp': 28.69, 'lipoC3S3': 11.61, 'lipoC3S2': 7.68, 'rot1': 0, 'rot0': 0, 'rot3': 0, 'rot2': 0, 'state': 'normal', 'yaw': 0.17, 'datetime': '2018-10-05 20:12:16.590043', 'mgs': 0, 'volt': 0.8057, 'depth': 0.089, 'time': 2, 'pitch': -18.29, 'roll': 2.16, 'pres': 165}
{'lipoC2': 7.72, 'lipoC3S1': 3.84, 'temp': 28.69, 'lipoC3S3': 11.61, 'lipoC3S2': 7.68, 'rot1': 0, 'rot0': 0, 'rot3': 0, 'rot2': 0, 'state': 'normal', 'yaw': 0.44, 'datetime': '2018-10-05 20:12:16.599928', 'mgs': 0, 'volt': 0.8057, 'depth': 0.089, 'time': 2, 'pitch': -18.68, 'roll': 1.91, 'pres': 165}
{'lipoC2': 7.72, 'lipoC3S1': 3.84, 'temp': 28.69, 'lipoC3S3': 11.61, 'lipoC3S2': 7.68, 'rot1': 0, 'rot0': 0, 'rot3': 0, 'rot2': 0, 'state': 'normal', 'yaw': 0.75, 'datetime': '2018-10-05 20:12:16.609824', 'mgs': 0, 'volt': 0.8057, 'depth': 0.089, 'time': 2, 'pitch': -19.05, 'roll': 1.58, 'pres': 165}
{'lipoC2': 7.72, 'lipoC3S1': 3.84, 'temp': 28.69, 'lipoC3S3': 11.6, 'lipoC3S2': 7.68, 'rot1': 0, 'rot0': 0, 'rot3': 0, 'rot2': 0, 'state': 'normal', 'yaw': 1.11, 'datetime': '2018-10-05 20:12:16.619585', 'mgs': 0, 'volt': 0.8057, 'depth': 0.089, 'time': 2, 'pitch': -19.39, 'roll': 1.19, 'pres': 165}
{'lipoC2': 7.72, 'lipoC3S1': 3.84, 'temp': 28.69, 'lipoC3S3': 11.61, 'lipoC3S2': 7.68, 'rot1': 0, 'rot0': 0, 'rot3': 0, 'rot2': 0, 'state': 'normal', 'yaw': 1.39, 'datetime': '2018-10-05 20:12:16.629462', 'mgs': 0, 'volt': 0.8057, 'depth': 0.089, 'time': 2, 'pitch': -19.63, 'roll': 0.92, 'pres': 165}
{'lipoC2': 7.72, 'lipoC3S1': 3.84, 'temp': 28.69, 'lipoC3S3': 11.61, 'lipoC3S2': 7.69, 'rot1': 0, 'rot0': 0, 'rot3': 0, 'rot2': 0, 'state': 'normal', 'yaw': 1.59, 'datetime': '2018-10-05 20:12:16.697563', 'mgs': 0, 'volt': 0.8105, 'depth': 0.165, 'time': 2, 'pitch': -19.64, 'roll': 0.71, 'pres': 166}
{'lipoC2': 7.72, 'lipoC3S1': 3.84, 'temp': 28.69, 'lipoC3S3': 11.61, 'lipoC3S2': 7.68, 'rot1': 0, 'rot0': 0, 'rot3': 0, 'rot2': 0, 'state': 'normal', 'yaw': 1.68, 'datetime': '2018-10-05 20:12:16.800885', 'mgs': 0, 'volt': 0.8057, 'depth': 0.089, 'time': 2, 'pitch': -19.55, 'roll': 0.58, 'pres': 165}
{'lipoC2': 7.72, 'lipoC3S1': 3.84, 'temp': 28.69, 'lipoC3S3': 11.6, 'lipoC3S2': 7.68, 'rot1': 0, 'rot0': 0, 'rot3': 0, 'rot2': 0, 'state': 'normal', 'yaw': 1.68, 'datetime': '2018-10-05 20:12:16.904230', 'mgs': 0, 'volt': 0.8105, 'depth': 0.165, 'time': 2, 'pitch': -19.6, 'roll': 0.49, 'pres': 166}
{'lipoC2': 7.72, 'lipoC3S1': 3.84, 'temp': 28.69, 'lipoC3S3': 11.6, 'lipoC3S2': 7.68, 'rot1': 0, 'rot0': 0, 'rot3': 0, 'rot2': 0, 'state': 'normal', 'yaw': 1.64, 'datetime': '2018-10-05 20:12:17.007570', 'mgs': 0, 'volt': 0.8057, 'depth': 0.089, 'time': 3, 'pitch': -19.8, 'roll': 0.48, 'pres': 165}
{'lipoC2': 7.72, 'lipoC3S1': 3.84, 'temp': 28.69, 'lipoC3S3': 11.61, 'lipoC3S2': 7.68, 'rot1': 0, 'rot0': 0, 'rot3': 0, 'rot2': 0, 'state': 'normal', 'yaw': 1.43, 'datetime': '2018-10-05 20:12:17.110846', 'mgs': 0, 'volt': 0.8057, 'depth': 0.089, 'time': 3, 'pitch': -20.28, 'roll': 0.63, 'pres': 165}
{'lipoC2': 7.72, 'lipoC3S1': 3.84, 'temp': 28.63, 'lipoC3S3': 11.61, 'lipoC3S2': 7.68, 'rot1': 0, 'rot0': 0, 'rot3': 0, 'rot2': 0, 'state': 'normal', 'yaw': 1.09, 'datetime': '2018-10-05 20:12:17.214238', 'mgs': 0, 'volt': 0.8105, 'depth': 0.165, 'time': 3, 'pitch': -20.84, 'roll': 0.95, 'pres': 166}
{'lipoC2': 7.72, 'lipoC3S1': 3.84, 'temp': 28.63, 'lipoC3S3': 11.61, 'lipoC3S2': 7.68, 'rot1': 0, 'rot0': 0, 'rot3': 0, 'rot2': 0, 'state': 'normal', 'yaw': 0.68, 'datetime': '2018-10-05 20:12:17.321377', 'mgs': 0, 'volt': 0.8057, 'depth': 0.089, 'time': 3, 'pitch': -21.35, 'roll': 1.41, 'pres': 165}
{'lipoC2': 7.72, 'lipoC3S1': 3.84, 'temp': 28.69, 'lipoC3S3': 11.61, 'lipoC3S2': 7.69, 'rot1': 0, 'rot0': 0, 'rot3': 0, 'rot2': 0, 'state': 'normal', 'yaw': 0.16, 'datetime': '2018-10-05 20:12:17.424909', 'mgs': 0, 'volt': 0.8057, 'depth': 0.089, 'time': 3, 'pitch': -21.86, 'roll': 1.91, 'pres': 165}
{'lipoC2': 7.72, 'lipoC3S1': 3.84, 'temp': 28.69, 'lipoC3S3': 11.61, 'lipoC3S2': 7.68, 'rot1': 0, 'rot0': 0, 'rot3': 0, 'rot2': 0, 'state': 'normal', 'yaw': -0.53, 'datetime': '2018-10-05 20:12:17.528256', 'mgs': 0, 'volt': 0.8105, 'depth': 0.165, 'time': 3, 'pitch': -22.47, 'roll': 2.46, 'pres': 166}
{'lipoC2': 7.72, 'lipoC3S1': 3.84, 'temp': 28.69, 'lipoC3S3': 11.61, 'lipoC3S2': 7.68, 'rot1': 0, 'rot0': 0, 'rot3': 0, 'rot2': 0, 'state': 'normal', 'yaw': -1.24, 'datetime': '2018-10-05 20:12:17.631536', 'mgs': 0, 'volt': 0.8105, 'depth': 0.165, 'time': 3, 'pitch': -22.94, 'roll': 2.89, 'pres': 166}
{'lipoC2': 7.72, 'lipoC3S1': 3.84, 'temp': 28.69, 'lipoC3S3': 11.61, 'lipoC3S2': 7.68, 'rot1': 0, 'rot0': 0, 'rot3': 0, 'rot2': 0, 'state': 'normal', 'yaw': -1.62, 'datetime': '2018-10-05 20:12:17.735554', 'mgs': 0, 'volt': 0.8105, 'depth': 0.165, 'time': 3, 'pitch': -23.15, 'roll': 2.92, 'pres': 166}
{'lipoC2': 7.72, 'lipoC3S1': 3.84, 'temp': 28.69, 'lipoC3S3': 11.61, 'lipoC3S2': 7.68, 'rot1': 0, 'rot0': 0, 'rot3': 0, 'rot2': 0, 'state': 'normal', 'yaw': -1.86, 'datetime': '2018-10-05 20:12:17.839072', 'mgs': 0, 'volt': 0.8154, 'depth': 0.241, 'time': 3, 'pitch': -23.5, 'roll': 2.76, 'pres': 167}
{'lipoC2': 7.72, 'lipoC3S1': 3.84, 'temp': 28.69, 'lipoC3S3': 11.61, 'lipoC3S2': 7.68, 'rot1': 0, 'rot0': 0, 'rot3': 0, 'rot2': 0, 'state': 'normal', 'yaw': -2.12, 'datetime': '2018-10-05 20:12:17.943531', 'mgs': 0, 'volt': 0.8154, 'depth': 0.241, 'time': 3, 'pitch': -23.32, 'roll': 2.66, 'pres': 167}
{'lipoC2': 7.72, 'lipoC3S1': 3.84, 'temp': 28.69, 'lipoC3S3': 11.61, 'lipoC3S2': 7.68, 'rot1': 0, 'rot0': 0, 'rot3': 0, 'rot2': 0, 'state': 'normal', 'yaw': -2.14, 'datetime': '2018-10-05 20:12:18.047066', 'mgs': 0, 'volt': 0.8154, 'depth': 0.241, 'time': 4, 'pitch': -22.09, 'roll': 2.35, 'pres': 167}
{'lipoC2': 7.72, 'lipoC3S1': 3.84, 'temp': 28.69, 'lipoC3S3': 11.61, 'lipoC3S2': 7.69, 'rot1': 0, 'rot0': 0, 'rot3': 0, 'rot2': 0, 'state': 'normal', 'yaw': -2.33, 'datetime': '2018-10-05 20:12:18.150415', 'mgs': 0, 'volt': 0.8105, 'depth': 0.165, 'time': 4, 'pitch': -21.0, 'roll': 2.08, 'pres': 166}
{'lipoC2': 7.72, 'lipoC3S1': 3.84, 'temp': 28.69, 'lipoC3S3': 11.61, 'lipoC3S2': 7.68, 'rot1': 0, 'rot0': 0, 'rot3': 0, 'rot2': 0, 'state': 'normal', 'yaw': -2.73, 'datetime': '2018-10-05 20:12:18.255288', 'mgs': 0, 'volt': 0.8154, 'depth': 0.241, 'time': 4, 'pitch': -20.74, 'roll': 1.81, 'pres': 167}
{'lipoC2': 7.72, 'lipoC3S1': 3.84, 'temp': 28.69, 'lipoC3S3': 11.61, 'lipoC3S2': 7.69, 'rot1': 0, 'rot0': 0, 'rot3': 0, 'rot2': 0, 'state': 'normal', 'yaw': -3.31, 'datetime': '2018-10-05 20:12:18.358584', 'mgs': 0, 'volt': 0.8154, 'depth': 0.241, 'time': 4, 'pitch': -20.97, 'roll': 1.45, 'pres': 167}
{'lipoC2': 7.72, 'lipoC3S1': 3.84, 'temp': 28.69, 'lipoC3S3': 11.61, 'lipoC3S2': 7.68, 'rot1': 0, 'rot0': 0, 'rot3': 0, 'rot2': 0, 'state': 'normal', 'yaw': -3.71, 'datetime': '2018-10-05 20:12:18.461640', 'mgs': 0, 'volt': 0.8154, 'depth': 0.241, 'time': 4, 'pitch': -21.11, 'roll': 0.96, 'pres': 167}
{'lipoC2': 7.72, 'lipoC3S1': 3.84, 'temp': 28.69, 'lipoC3S3': 11.61, 'lipoC3S2': 7.68, 'rot1': 0, 'rot0': 0, 'rot3': 0, 'rot2': 0, 'state': 'normal', 'yaw': -4.01, 'datetime': '2018-10-05 20:12:18.564903', 'mgs': 0, 'volt': 0.8154, 'depth': 0.241, 'time': 4, 'pitch': -21.04, 'roll': 0.4, 'pres': 167}
{'lipoC2': 7.72, 'lipoC3S1': 3.84, 'temp': 28.69, 'lipoC3S3': 11.61, 'lipoC3S2': 7.68, 'rot1': 0, 'rot0': 0, 'rot3': 0, 'rot2': 0, 'state': 'normal', 'yaw': -4.41, 'datetime': '2018-10-05 20:12:18.668455', 'mgs': 0, 'volt': 0.8154, 'depth': 0.241, 'time': 4, 'pitch': -21.2, 'roll': -0.13, 'pres': 167}
{'lipoC2': 7.72, 'lipoC3S1': 3.84, 'temp': 28.69, 'lipoC3S3': 11.61, 'lipoC3S2': 7.68, 'rot1': 0, 'rot0': 0, 'rot3': 0, 'rot2': 0, 'state': 'normal', 'yaw': -5.06, 'datetime': '2018-10-05 20:12:18.772159', 'mgs': 0, 'volt': 0.8105, 'depth': 0.165, 'time': 4, 'pitch': -21.92, 'roll': -0.27, 'pres': 166}
{'lipoC2': 7.72, 'lipoC3S1': 3.84, 'temp': 28.69, 'lipoC3S3': 11.61, 'lipoC3S2': 7.69, 'rot1': 0, 'rot0': 0, 'rot3': 0, 'rot2': 0, 'state': 'normal', 'yaw': -5.82, 'datetime': '2018-10-05 20:12:18.875145', 'mgs': 0, 'volt': 0.8105, 'depth': 0.165, 'time': 4, 'pitch': -22.89, 'roll': -0.21, 'pres': 166}
{'lipoC2': 7.72, 'lipoC3S1': 3.84, 'temp': 28.69, 'lipoC3S3': 11.6, 'lipoC3S2': 7.69, 'rot1': 0, 'rot0': 0, 'rot3': 0, 'rot2': 0, 'state': 'normal', 'yaw': -6.27, 'datetime': '2018-10-05 20:12:18.978651', 'mgs': 0, 'volt': 0.8105, 'depth': 0.165, 'time': 4, 'pitch': -23.18, 'roll': -0.37, 'pres': 166}
{'lipoC2': 7.72, 'lipoC3S1': 3.84, 'temp': 28.69, 'lipoC3S3': 11.61, 'lipoC3S2': 7.68, 'rot1': 0, 'rot0': 0, 'rot3': 0, 'rot2': 0, 'state': 'normal', 'yaw': -6.55, 'datetime': '2018-10-05 20:12:19.082198', 'mgs': 0, 'volt': 0.8105, 'depth': 0.165, 'time': 5, 'pitch': -22.86, 'roll': -0.73, 'pres': 166}
{'lipoC2': 7.72, 'lipoC3S1': 3.84, 'temp': 28.69, 'lipoC3S3': 11.61, 'lipoC3S2': 7.68, 'rot1': 0, 'rot0': 0, 'rot3': 0, 'rot2': 0, 'state': 'normal', 'yaw': -6.57, 'datetime': '2018-10-05 20:12:19.185411', 'mgs': 0, 'volt': 0.8105, 'depth': 0.165, 'time': 5, 'pitch': -22.47, 'roll': -1.24, 'pres': 166}
{'lipoC2': 7.72, 'lipoC3S1': 3.84, 'temp': 28.69, 'lipoC3S3': 11.61, 'lipoC3S2': 7.68, 'rot1': 0, 'rot0': 0, 'rot3': 0, 'rot2': 0, 'state': 'normal', 'yaw': -6.49, 'datetime': '2018-10-05 20:12:19.289596', 'mgs': 0, 'volt': 0.8105, 'depth': 0.165, 'time': 5, 'pitch': -22.05, 'roll': -1.8, 'pres': 166}
{'lipoC2': 7.72, 'lipoC3S1': 3.84, 'temp': 28.69, 'lipoC3S3': 11.61, 'lipoC3S2': 7.68, 'rot1': 0, 'rot0': 0, 'rot3': 0, 'rot2': 0, 'state': 'normal', 'yaw': -6.29, 'datetime': '2018-10-05 20:12:19.392959', 'mgs': 0, 'volt': 0.8105, 'depth': 0.165, 'time': 5, 'pitch': -21.44, 'roll': -2.39, 'pres': 166}
{'lipoC2': 7.72, 'lipoC3S1': 3.84, 'temp': 28.69, 'lipoC3S3': 11.61, 'lipoC3S2': 7.69, 'rot1': 0, 'rot0': 0, 'rot3': 0, 'rot2': 0, 'state': 'normal', 'yaw': -6.1, 'datetime': '2018-10-05 20:12:19.497393', 'mgs': 0, 'volt': 0.8105, 'depth': 0.165, 'time': 5, 'pitch': -21.04, 'roll': -2.76, 'pres': 166}
{'lipoC2': 7.72, 'lipoC3S1': 3.84, 'temp': 28.69, 'lipoC3S3': 11.61, 'lipoC3S2': 7.69, 'rot1': 0, 'rot0': 0, 'rot3': 0, 'rot2': 0, 'state': 'normal', 'yaw': -5.91, 'datetime': '2018-10-05 20:12:19.601248', 'mgs': 0, 'volt': 0.8154, 'depth': 0.241, 'time': 5, 'pitch': -20.24, 'roll': -2.91, 'pres': 167}
{'lipoC2': 7.72, 'lipoC3S1': 3.84, 'temp': 28.69, 'lipoC3S3': 11.61, 'lipoC3S2': 7.69, 'rot1': 0, 'rot0': 0, 'rot3': 0, 'rot2': 0, 'state': 'normal', 'yaw': -5.83, 'datetime': '2018-10-05 20:12:19.704199', 'mgs': 0, 'volt': 0.8154, 'depth': 0.241, 'time': 5, 'pitch': -18.99, 'roll': -2.75, 'pres': 167}
{'lipoC2': 7.72, 'lipoC3S1': 3.84, 'temp': 28.69, 'lipoC3S3': 11.61, 'lipoC3S2': 7.68, 'rot1': 0, 'rot0': 0, 'rot3': 0, 'rot2': 0, 'state': 'normal', 'yaw': -5.63, 'datetime': '2018-10-05 20:12:19.808980', 'mgs': 0, 'volt': 0.8154, 'depth': 0.241, 'time': 5, 'pitch': -17.57, 'roll': -2.54, 'pres': 167}
{'lipoC2': 7.72, 'lipoC3S1': 3.84, 'temp': 28.69, 'lipoC3S3': 11.61, 'lipoC3S2': 7.68, 'rot1': 0, 'rot0': 0, 'rot3': 0, 'rot2': 0, 'state': 'normal', 'yaw': -5.4, 'datetime': '2018-10-05 20:12:19.912240', 'mgs': 0, 'volt': 0.8203, 'depth': 0.317, 'time': 5, 'pitch': -16.56, 'roll': -2.12, 'pres': 168}
{'lipoC2': 7.72, 'lipoC3S1': 3.84, 'temp': 28.69, 'lipoC3S3': 11.61, 'lipoC3S2': 7.68, 'rot1': 0, 'rot0': 0, 'rot3': 0, 'rot2': 0, 'state': 'normal', 'yaw': -5.26, 'datetime': '2018-10-05 20:12:20.015532', 'mgs': 0, 'volt': 0.8203, 'depth': 0.317, 'time': 6, 'pitch': -16.46, 'roll': -1.54, 'pres': 168}
{'lipoC2': 7.72, 'lipoC3S1': 3.84, 'temp': 28.69, 'lipoC3S3': 11.61, 'lipoC3S2': 7.69, 'rot1': 0, 'rot0': 0, 'rot3': 0, 'rot2': 0, 'state': 'normal', 'yaw': -5.02, 'datetime': '2018-10-05 20:12:20.118954', 'mgs': 0, 'volt': 0.8252, 'depth': 0.394, 'time': 6, 'pitch': -16.88, 'roll': -0.95, 'pres': 169}
{'lipoC2': 7.72, 'lipoC3S1': 3.84, 'temp': 28.69, 'lipoC3S3': 11.61, 'lipoC3S2': 7.69, 'rot1': 0, 'rot0': 0, 'rot3': 0, 'rot2': 0, 'state': 'normal', 'yaw': -4.39, 'datetime': '2018-10-05 20:12:20.222796', 'mgs': 0, 'volt': 0.8252, 'depth': 0.394, 'time': 6, 'pitch': -17.25, 'roll': -0.53, 'pres': 169}
{'lipoC2': 7.72, 'lipoC3S1': 3.84, 'temp': 28.63, 'lipoC3S3': 11.61, 'lipoC3S2': 7.69, 'rot1': 0, 'rot0': 0, 'rot3': 0, 'rot2': 0, 'state': 'normal', 'yaw': -3.45, 'datetime': '2018-10-05 20:12:20.325577', 'mgs': 0, 'volt': 0.8252, 'depth': 0.394, 'time': 6, 'pitch': -17.45, 'roll': -0.43, 'pres': 169}
{'lipoC2': 7.72, 'lipoC3S1': 3.84, 'temp': 28.63, 'lipoC3S3': 11.61, 'lipoC3S2': 7.69, 'rot1': 0, 'rot0': 0, 'rot3': 0, 'rot2': 0, 'state': 'normal', 'yaw': -2.42, 'datetime': '2018-10-05 20:12:20.429120', 'mgs': 0, 'volt': 0.8252, 'depth': 0.394, 'time': 6, 'pitch': -17.47, 'roll': -0.38, 'pres': 169}
{'lipoC2': 7.72, 'lipoC3S1': 3.84, 'temp': 28.69, 'lipoC3S3': 11.61, 'lipoC3S2': 7.69, 'rot1': 0, 'rot0': 0, 'rot3': 0, 'rot2': 0, 'state': 'normal', 'yaw': -1.7, 'datetime': '2018-10-05 20:12:20.532440', 'mgs': 0, 'volt': 0.8301, 'depth': 0.47, 'time': 6, 'pitch': -17.35, 'roll': -0.11, 'pres': 170}
{'lipoC2': 7.72, 'lipoC3S1': 3.84, 'temp': 28.69, 'lipoC3S3': 11.61, 'lipoC3S2': 7.69, 'rot1': 0, 'rot0': 0, 'rot3': 0, 'rot2': 0, 'state': 'normal', 'yaw': -1.65, 'datetime': '2018-10-05 20:12:20.635916', 'mgs': 0, 'volt': 0.8301, 'depth': 0.47, 'time': 6, 'pitch': -16.99, 'roll': 0.72, 'pres': 170}
{'lipoC2': 7.72, 'lipoC3S1': 3.84, 'temp': 28.69, 'lipoC3S3': 11.61, 'lipoC3S2': 7.69, 'rot1': 0, 'rot0': 0, 'rot3': 0, 'rot2': 0, 'state': 'normal', 'yaw': -2.15, 'datetime': '2018-10-05 20:12:20.741193', 'mgs': 0, 'volt': 0.835, 'depth': 0.546, 'time': 6, 'pitch': -16.53, 'roll': 1.85, 'pres': 171}
{'lipoC2': 7.72, 'lipoC3S1': 3.84, 'temp': 28.69, 'lipoC3S3': 11.61, 'lipoC3S2': 7.69, 'rot1': 0, 'rot0': 0, 'rot3': 0, 'rot2': 0, 'state': 'normal', 'yaw': -2.68, 'datetime': '2018-10-05 20:12:20.849997', 'mgs': 0, 'volt': 0.835, 'depth': 0.546, 'time': 6, 'pitch': -15.95, 'roll': 2.91, 'pres': 171}
{'lipoC2': 7.72, 'lipoC3S1': 3.84, 'temp': 28.69, 'lipoC3S3': 11.61, 'lipoC3S2': 7.69, 'rot1': 0, 'rot0': 0, 'rot3': 0, 'rot2': 0, 'state': 'normal', 'yaw': -2.85, 'datetime': '2018-10-05 20:12:20.953331', 'mgs': 0, 'volt': 0.835, 'depth': 0.546, 'time': 6, 'pitch': -15.71, 'roll': 3.54, 'pres': 171}
{'lipoC2': 7.72, 'lipoC3S1': 3.84, 'temp': 28.69, 'lipoC3S3': 11.61, 'lipoC3S2': 7.69, 'rot1': 0, 'rot0': 0, 'rot3': 0, 'rot2': 0, 'state': 'normal', 'yaw': -2.4, 'datetime': '2018-10-05 20:12:21.057947', 'mgs': 0, 'volt': 0.835, 'depth': 0.546, 'time': 7, 'pitch': -16.37, 'roll': 3.35, 'pres': 171}
{'lipoC2': 7.72, 'lipoC3S1': 3.84, 'temp': 28.69, 'lipoC3S3': 11.61, 'lipoC3S2': 7.69, 'rot1': 0, 'rot0': 0, 'rot3': 0, 'rot2': 0, 'state': 'normal', 'yaw': -1.69, 'datetime': '2018-10-05 20:12:21.161344', 'mgs': 0, 'volt': 0.8301, 'depth': 0.47, 'time': 7, 'pitch': -17.73, 'roll': 2.65, 'pres': 170}
{'lipoC2': 7.72, 'lipoC3S1': 3.84, 'temp': 28.63, 'lipoC3S3': 11.61, 'lipoC3S2': 7.69, 'rot1': 0, 'rot0': 0, 'rot3': 0, 'rot2': 0, 'state': 'normal', 'yaw': -1.39, 'datetime': '2018-10-05 20:12:21.264676', 'mgs': 0, 'volt': 0.8301, 'depth': 0.47, 'time': 7, 'pitch': -18.81, 'roll': 2.05, 'pres': 170}
{'lipoC2': 7.72, 'lipoC3S1': 3.84, 'temp': 28.63, 'lipoC3S3': 11.61, 'lipoC3S2': 7.68, 'rot1': 0, 'rot0': 0, 'rot3': 0, 'rot2': 0, 'state': 'normal', 'yaw': -1.7, 'datetime': '2018-10-05 20:12:21.369411', 'mgs': 0, 'volt': 0.8301, 'depth': 0.47, 'time': 7, 'pitch': -19.35, 'roll': 1.84, 'pres': 170}
{'lipoC2': 7.72, 'lipoC3S1': 3.84, 'temp': 28.63, 'lipoC3S3': 11.61, 'lipoC3S2': 7.69, 'rot1': 0, 'rot0': 0, 'rot3': 0, 'rot2': 0, 'state': 'normal', 'yaw': -2.17, 'datetime': '2018-10-05 20:12:21.472586', 'mgs': 0, 'volt': 0.8301, 'depth': 0.47, 'time': 7, 'pitch': -19.31, 'roll': 1.62, 'pres': 170}
{'lipoC2': 7.72, 'lipoC3S1': 3.84, 'temp': 28.69, 'lipoC3S3': 11.61, 'lipoC3S2': 7.69, 'rot1': 0, 'rot0': 0, 'rot3': 0, 'rot2': 0, 'state': 'normal', 'yaw': -1.96, 'datetime': '2018-10-05 20:12:21.575815', 'mgs': 0, 'volt': 0.8301, 'depth': 0.47, 'time': 7, 'pitch': -19.02, 'roll': 0.82, 'pres': 170}
{'lipoC2': 7.72, 'lipoC3S1': 3.84, 'temp': 28.69, 'lipoC3S3': 11.61, 'lipoC3S2': 7.69, 'rot1': 0, 'rot0': 0, 'rot3': 0, 'rot2': 0, 'state': 'normal', 'yaw': -1.26, 'datetime': '2018-10-05 20:12:21.679231', 'mgs': 0, 'volt': 0.8301, 'depth': 0.47, 'time': 7, 'pitch': -18.89, 'roll': -0.41, 'pres': 170}
{'lipoC2': 7.72, 'lipoC3S1': 3.84, 'temp': 28.63, 'lipoC3S3': 11.61, 'lipoC3S2': 7.68, 'rot1': 0, 'rot0': 0, 'rot3': 0, 'rot2': 0, 'state': 'normal', 'yaw': -0.76, 'datetime': '2018-10-05 20:12:21.782886', 'mgs': 0, 'volt': 0.8301, 'depth': 0.47, 'time': 7, 'pitch': -19.02, 'roll': -1.47, 'pres': 170}
{'lipoC2': 7.72, 'lipoC3S1': 3.84, 'temp': 28.63, 'lipoC3S3': 11.61, 'lipoC3S2': 7.69, 'rot1': 0, 'rot0': 0, 'rot3': 0, 'rot2': 0, 'state': 'normal', 'yaw': -1.11, 'datetime': '2018-10-05 20:12:21.886022', 'mgs': 0, 'volt': 0.8252, 'depth': 0.394, 'time': 7, 'pitch': -19.25, 'roll': -1.68, 'pres': 169}
{'lipoC2': 7.72, 'lipoC3S1': 3.84, 'temp': 28.63, 'lipoC3S3': 11.61, 'lipoC3S2': 7.69, 'rot1': 0, 'rot0': 0, 'rot3': 0, 'rot2': 0, 'state': 'normal', 'yaw': -2.11, 'datetime': '2018-10-05 20:12:21.989311', 'mgs': 0, 'volt': 0.8301, 'depth': 0.47, 'time': 7, 'pitch': -19.45, 'roll': -1.27, 'pres': 170}
{'lipoC2': 7.72, 'lipoC3S1': 3.84, 'temp': 28.69, 'lipoC3S3': 11.61, 'lipoC3S2': 7.69, 'rot1': 0, 'rot0': 0, 'rot3': 0, 'rot2': 0, 'state': 'normal', 'yaw': -3.04, 'datetime': '2018-10-05 20:12:22.094470', 'mgs': 0, 'volt': 0.8301, 'depth': 0.47, 'time': 8, 'pitch': -19.51, 'roll': -0.9, 'pres': 170}
{'lipoC2': 7.72, 'lipoC3S1': 3.84, 'temp': 28.69, 'lipoC3S3': 11.61, 'lipoC3S2': 7.69, 'rot1': 0, 'rot0': 0, 'rot3': 0, 'rot2': 0, 'state': 'normal', 'yaw': -3.32, 'datetime': '2018-10-05 20:12:22.185861', 'mgs': 0, 'volt': 0.8301, 'depth': 0.47, 'time': 8, 'pitch': -19.78, 'roll': -1.08, 'pres': 170}
{'lipoC2': 7.72, 'lipoC3S1': 3.84, 'temp': 28.63, 'lipoC3S3': 11.61, 'lipoC3S2': 7.68, 'rot1': 0, 'rot0': 0, 'rot3': 0, 'rot2': 0, 'state': 'normal', 'yaw': -2.97, 'datetime': '2018-10-05 20:12:22.289436', 'mgs': 0, 'volt': 0.8301, 'depth': 0.47, 'time': 8, 'pitch': -20.41, 'roll': -1.76, 'pres': 170}
{'lipoC2': 7.72, 'lipoC3S1': 3.84, 'temp': 28.63, 'lipoC3S3': 11.61, 'lipoC3S2': 7.69, 'rot1': 0, 'rot0': 0, 'rot3': 0, 'rot2': 0, 'state': 'normal', 'yaw': -2.63, 'datetime': '2018-10-05 20:12:22.393505', 'mgs': 0, 'volt': 0.8301, 'depth': 0.47, 'time': 8, 'pitch': -20.98, 'roll': -2.36, 'pres': 170}
{'lipoC2': 7.72, 'lipoC3S1': 3.84, 'temp': 28.63, 'lipoC3S3': 11.61, 'lipoC3S2': 7.68, 'rot1': 0, 'rot0': 0, 'rot3': 0, 'rot2': 0, 'state': 'normal', 'yaw': -2.82, 'datetime': '2018-10-05 20:12:22.496847', 'mgs': 0, 'volt': 0.8301, 'depth': 0.47, 'time': 8, 'pitch': -20.93, 'roll': -2.44, 'pres': 170}
{'lipoC2': 7.72, 'lipoC3S1': 3.84, 'temp': 28.63, 'lipoC3S3': 11.61, 'lipoC3S2': 7.69, 'rot1': 0, 'rot0': 0, 'rot3': 0, 'rot2': 0, 'state': 'normal', 'yaw': -3.09, 'datetime': '2018-10-05 20:12:22.601457', 'mgs': 0, 'volt': 0.8301, 'depth': 0.47, 'time': 8, 'pitch': -20.53, 'roll': -2.31, 'pres': 170}
{'lipoC2': 7.72, 'lipoC3S1': 3.84, 'temp': 28.63, 'lipoC3S3': 11.61, 'lipoC3S2': 7.69, 'rot1': 0, 'rot0': 0, 'rot3': 0, 'rot2': 0, 'state': 'normal', 'yaw': -2.85, 'datetime': '2018-10-05 20:12:22.704819', 'mgs': 0, 'volt': 0.8301, 'depth': 0.47, 'time': 8, 'pitch': -20.39, 'roll': -2.44, 'pres': 170}
{'lipoC2': 7.72, 'lipoC3S1': 3.84, 'temp': 28.63, 'lipoC3S3': 11.61, 'lipoC3S2': 7.69, 'rot1': 0, 'rot0': 0, 'rot3': 0, 'rot2': 0, 'state': 'normal', 'yaw': -2.39, 'datetime': '2018-10-05 20:12:22.808119', 'mgs': 0, 'volt': 0.8301, 'depth': 0.47, 'time': 8, 'pitch': -20.45, 'roll': -2.64, 'pres': 170}
{'lipoC2': 7.72, 'lipoC3S1': 3.84, 'temp': 28.63, 'lipoC3S3': 11.61, 'lipoC3S2': 7.69, 'rot1': 0, 'rot0': 0, 'rot3': 0, 'rot2': 0, 'state': 'normal', 'yaw': -2.15, 'datetime': '2018-10-05 20:12:22.923060', 'mgs': 0, 'volt': 0.8301, 'depth': 0.47, 'time': 8, 'pitch': -20.62, 'roll': -2.52, 'pres': 170}
{'lipoC2': 7.72, 'lipoC3S1': 3.84, 'temp': 28.63, 'lipoC3S3': 11.61, 'lipoC3S2': 7.68, 'rot1': 0, 'rot0': 0, 'rot3': 0, 'rot2': 0, 'state': 'normal', 'yaw': -2.31, 'datetime': '2018-10-05 20:12:23.026354', 'mgs': 0, 'volt': 0.8301, 'depth': 0.47, 'time': 9, 'pitch': -20.74, 'roll': -1.87, 'pres': 170}
{'lipoC2': 7.72, 'lipoC3S1': 3.84, 'temp': 28.63, 'lipoC3S3': 11.61, 'lipoC3S2': 7.69, 'rot1': 0, 'rot0': 0, 'rot3': 0, 'rot2': 0, 'state': 'normal', 'yaw': -2.75, 'datetime': '2018-10-05 20:12:23.130504', 'mgs': 0, 'volt': 0.8301, 'depth': 0.47, 'time': 9, 'pitch': -20.57, 'roll': -0.95, 'pres': 170}
{'lipoC2': 7.72, 'lipoC3S1': 3.84, 'temp': 28.63, 'lipoC3S3': 11.61, 'lipoC3S2': 7.69, 'rot1': 0, 'rot0': 0, 'rot3': 0, 'rot2': 0, 'state': 'normal', 'yaw': -3.05, 'datetime': '2018-10-05 20:12:23.233283', 'mgs': 0, 'volt': 0.8301, 'depth': 0.47, 'time': 9, 'pitch': -20.13, 'roll': -0.13, 'pres': 170}
{'lipoC2': 7.72, 'lipoC3S1': 3.84, 'temp': 28.63, 'lipoC3S3': 11.61, 'lipoC3S2': 7.69, 'rot1': 0, 'rot0': 0, 'rot3': 0, 'rot2': 0, 'state': 'normal', 'yaw': -2.73, 'datetime': '2018-10-05 20:12:23.336646', 'mgs': 0, 'volt': 0.835, 'depth': 0.546, 'time': 9, 'pitch': -19.86, 'roll': 0.19, 'pres': 171}
{'lipoC2': 7.72, 'lipoC3S1': 3.84, 'temp': 28.63, 'lipoC3S3': 11.61, 'lipoC3S2': 7.69, 'rot1': 0, 'rot0': 0, 'rot3': 0, 'rot2': 0, 'state': 'normal', 'yaw': -1.79, 'datetime': '2018-10-05 20:12:23.439781', 'mgs': 0, 'volt': 0.8301, 'depth': 0.47, 'time': 9, 'pitch': -20.07, 'roll': -0.13, 'pres': 170}
{'lipoC2': 7.72, 'lipoC3S1': 3.84, 'temp': 28.69, 'lipoC3S3': 11.61, 'lipoC3S2': 7.69, 'rot1': 0, 'rot0': 0, 'rot3': 0, 'rot2': 0, 'state': 'normal', 'yaw': -0.65, 'datetime': '2018-10-05 20:12:23.543193', 'mgs': 0, 'volt': 0.835, 'depth': 0.546, 'time': 9, 'pitch': -20.59, 'roll': -0.66, 'pres': 171}
{'lipoC2': 7.72, 'lipoC3S1': 3.84, 'temp': 28.69, 'lipoC3S3': 11.61, 'lipoC3S2': 7.69, 'rot1': 0, 'rot0': 0, 'rot3': 0, 'rot2': 0, 'state': 'normal', 'yaw': 0.34, 'datetime': '2018-10-05 20:12:23.646643', 'mgs': 0, 'volt': 0.835, 'depth': 0.546, 'time': 9, 'pitch': -21.05, 'roll': -1.07, 'pres': 171}
{'lipoC2': 7.72, 'lipoC3S1': 3.84, 'temp': 28.69, 'lipoC3S3': 11.61, 'lipoC3S2': 7.69, 'rot1': 0, 'rot0': 0, 'rot3': 0, 'rot2': 0, 'state': 'normal', 'yaw': 0.67, 'datetime': '2018-10-05 20:12:23.750099', 'mgs': 0, 'volt': 0.835, 'depth': 0.546, 'time': 9, 'pitch': -21.15, 'roll': -0.86, 'pres': 171}
{'lipoC2': 7.72, 'lipoC3S1': 3.84, 'temp': 28.69, 'lipoC3S3': 11.61, 'lipoC3S2': 7.69, 'rot1': 0, 'rot0': 0, 'rot3': 0, 'rot2': 0, 'state': 'normal', 'yaw': 0.3, 'datetime': '2018-10-05 20:12:23.853256', 'mgs': 0, 'volt': 0.835, 'depth': 0.546, 'time': 9, 'pitch': -20.86, 'roll': -0.08, 'pres': 171}
{'lipoC2': 7.72, 'lipoC3S1': 3.84, 'temp': 28.69, 'lipoC3S3': 11.61, 'lipoC3S2': 7.69, 'rot1': 0, 'rot0': 0, 'rot3': 0, 'rot2': 0, 'state': 'normal', 'yaw': -0.18, 'datetime': '2018-10-05 20:12:23.957533', 'mgs': 0, 'volt': 0.835, 'depth': 0.546, 'time': 9, 'pitch': -20.55, 'roll': 0.76, 'pres': 171}
{'lipoC2': 7.72, 'lipoC3S1': 3.84, 'temp': 28.69, 'lipoC3S3': 11.61, 'lipoC3S2': 7.69, 'rot1': 0, 'rot0': 0, 'rot3': 0, 'rot2': 0, 'state': 'normal', 'yaw': -0.15, 'datetime': '2018-10-05 20:12:24.060881', 'mgs': 0, 'volt': 0.835, 'depth': 0.546, 'time': 10, 'pitch': -20.54, 'roll': 1.11, 'pres': 171}
{'lipoC2': 7.72, 'lipoC3S1': 3.84, 'temp': 28.69, 'lipoC3S3': 11.61, 'lipoC3S2': 7.69, 'rot1': 0, 'rot0': 0, 'rot3': 0, 'rot2': 0, 'state': 'normal', 'yaw': 0.39, 'datetime': '2018-10-05 20:12:24.165582', 'mgs': 0, 'volt': 0.835, 'depth': 0.546, 'time': 10, 'pitch': -20.81, 'roll': 0.88, 'pres': 171}
{'lipoC2': 7.72, 'lipoC3S1': 3.84, 'temp': 28.69, 'lipoC3S3': 11.61, 'lipoC3S2': 7.69, 'rot1': 0, 'rot0': 0, 'rot3': 0, 'rot2': 0, 'state': 'normal', 'yaw': 1.05, 'datetime': '2018-10-05 20:12:24.269242', 'mgs': 0, 'volt': 0.8301, 'depth': 0.47, 'time': 10, 'pitch': -20.84, 'roll': 0.53, 'pres': 170}
{'lipoC2': 7.72, 'lipoC3S1': 3.84, 'temp': 28.69, 'lipoC3S3': 11.61, 'lipoC3S2': 7.69, 'rot1': 0, 'rot0': 0, 'rot3': 0, 'rot2': 0, 'state': 'normal', 'yaw': 1.25, 'datetime': '2018-10-05 20:12:24.372500', 'mgs': 0, 'volt': 0.8301, 'depth': 0.47, 'time': 10, 'pitch': -20.5, 'roll': 0.51, 'pres': 170}
{'lipoC2': 7.72, 'lipoC3S1': 3.84, 'temp': 28.63, 'lipoC3S3': 11.61, 'lipoC3S2': 7.69, 'rot1': 0, 'rot0': 0, 'rot3': 0, 'rot2': 0, 'state': 'normal', 'yaw': 1.01, 'datetime': '2018-10-05 20:12:24.477344', 'mgs': 0, 'volt': 0.8301, 'depth': 0.47, 'time': 10, 'pitch': -20.21, 'roll': 0.85, 'pres': 170}
{'lipoC2': 7.72, 'lipoC3S1': 3.84, 'temp': 28.63, 'lipoC3S3': 11.61, 'lipoC3S2': 7.69, 'rot1': 0, 'rot0': 0, 'rot3': 0, 'rot2': 0, 'state': 'normal', 'yaw': 0.65, 'datetime': '2018-10-05 20:12:24.580648', 'mgs': 0, 'volt': 0.8301, 'depth': 0.47, 'time': 10, 'pitch': -20.32, 'roll': 1.23, 'pres': 170}
{'lipoC2': 7.72, 'lipoC3S1': 3.84, 'temp': 28.63, 'lipoC3S3': 11.61, 'lipoC3S2': 7.69, 'rot1': 0, 'rot0': 0, 'rot3': 0, 'rot2': 0, 'state': 'normal', 'yaw': 0.61, 'datetime': '2018-10-05 20:12:24.684118', 'mgs': 0, 'volt': 0.8301, 'depth': 0.47, 'time': 10, 'pitch': -20.68, 'roll': 1.28, 'pres': 170}
{'lipoC2': 7.72, 'lipoC3S1': 3.84, 'temp': 28.63, 'lipoC3S3': 11.61, 'lipoC3S2': 7.69, 'rot1': 0, 'rot0': 0, 'rot3': 0, 'rot2': 0, 'state': 'normal', 'yaw': 0.87, 'datetime': '2018-10-05 20:12:24.783487', 'mgs': 0, 'volt': 0.8252, 'depth': 0.394, 'time': 10, 'pitch': -20.93, 'roll': 1.03, 'pres': 169}
{'lipoC2': 7.72, 'lipoC3S1': 3.84, 'temp': 28.63, 'lipoC3S3': 11.61, 'lipoC3S2': 7.69, 'rot1': 0, 'rot0': 0, 'rot3': 0, 'rot2': 0, 'state': 'normal', 'yaw': 1.14, 'datetime': '2018-10-05 20:12:24.887141', 'mgs': 0, 'volt': 0.8252, 'depth': 0.394, 'time': 10, 'pitch': -20.82, 'roll': 0.71, 'pres': 169}
{'lipoC2': 7.72, 'lipoC3S1': 3.84, 'temp': 28.63, 'lipoC3S3': 11.61, 'lipoC3S2': 7.68, 'rot1': 0, 'rot0': 0, 'rot3': 0, 'rot2': 0, 'state': 'normal', 'yaw': 1.16, 'datetime': '2018-10-05 20:12:24.990608', 'mgs': 0, 'volt': 0.8252, 'depth': 0.394, 'time': 10, 'pitch': -20.53, 'roll': 0.6, 'pres': 169}
{'lipoC2': 7.72, 'lipoC3S1': 3.84, 'temp': 28.63, 'lipoC3S3': 11.61, 'lipoC3S2': 7.69, 'rot1': 0, 'rot0': 0, 'rot3': 0, 'rot2': 0, 'state': 'normal', 'yaw': 1.1, 'datetime': '2018-10-05 20:12:25.093975', 'mgs': 0, 'volt': 0.8301, 'depth': 0.47, 'time': 11, 'pitch': -20.28, 'roll': 0.52, 'pres': 170}
{'lipoC2': 7.72, 'lipoC3S1': 3.84, 'temp': 28.69, 'lipoC3S3': 11.61, 'lipoC3S2': 7.69, 'rot1': 0, 'rot0': 0, 'rot3': 0, 'rot2': 0, 'state': 'normal', 'yaw': 1.18, 'datetime': '2018-10-05 20:12:25.197489', 'mgs': 0, 'volt': 0.8301, 'depth': 0.47, 'time': 11, 'pitch': -20.17, 'roll': 0.26, 'pres': 170}
{'lipoC2': 7.72, 'lipoC3S1': 3.84, 'temp': 28.69, 'lipoC3S3': 11.61, 'lipoC3S2': 7.69, 'rot1': 0, 'rot0': 0, 'rot3': 0, 'rot2': 0, 'state': 'normal', 'yaw': 1.38, 'datetime': '2018-10-05 20:12:25.300962', 'mgs': 0, 'volt': 0.8252, 'depth': 0.394, 'time': 11, 'pitch': -20.2, 'roll': -0.12, 'pres': 169}
{'lipoC2': 7.72, 'lipoC3S1': 3.84, 'temp': 28.63, 'lipoC3S3': 11.61, 'lipoC3S2': 7.69, 'rot1': 0, 'rot0': 0, 'rot3': 0, 'rot2': 0, 'state': 'normal', 'yaw': 1.55, 'datetime': '2018-10-05 20:12:25.405676', 'mgs': 0, 'volt': 0.8252, 'depth': 0.394, 'time': 11, 'pitch': -20.36, 'roll': -0.44, 'pres': 169}
{'lipoC2': 7.72, 'lipoC3S1': 3.84, 'temp': 28.63, 'lipoC3S3': 11.61, 'lipoC3S2': 7.69, 'rot1': 0, 'rot0': 0, 'rot3': 0, 'rot2': 0, 'state': 'normal', 'yaw': 1.59, 'datetime': '2018-10-05 20:12:25.509194', 'mgs': 0, 'volt': 0.8252, 'depth': 0.394, 'time': 11, 'pitch': -20.64, 'roll': -0.64, 'pres': 169}
{'lipoC2': 7.72, 'lipoC3S1': 3.84, 'temp': 28.63, 'lipoC3S3': 11.61, 'lipoC3S2': 7.69, 'rot1': 0, 'rot0': 0, 'rot3': 0, 'rot2': 0, 'state': 'normal', 'yaw': 1.56, 'datetime': '2018-10-05 20:12:25.612946', 'mgs': 0, 'volt': 0.8203, 'depth': 0.317, 'time': 11, 'pitch': -20.76, 'roll': -0.64, 'pres': 168}
{'lipoC2': 7.72, 'lipoC3S1': 3.84, 'temp': 28.63, 'lipoC3S3': 11.61, 'lipoC3S2': 7.69, 'rot1': 0, 'rot0': 0, 'rot3': 0, 'rot2': 0, 'state': 'normal', 'yaw': 1.52, 'datetime': '2018-10-05 20:12:25.717646', 'mgs': 0, 'volt': 0.8252, 'depth': 0.394, 'time': 11, 'pitch': -20.73, 'roll': -0.62, 'pres': 169}
{'lipoC2': 7.72, 'lipoC3S1': 3.84, 'temp': 28.63, 'lipoC3S3': 11.61, 'lipoC3S2': 7.69, 'rot1': 0, 'rot0': 0, 'rot3': 0, 'rot2': 0, 'state': 'normal', 'yaw': 1.51, 'datetime': '2018-10-05 20:12:25.821083', 'mgs': 0, 'volt': 0.8203, 'depth': 0.317, 'time': 11, 'pitch': -20.55, 'roll': -0.62, 'pres': 168}
{'lipoC2': 7.72, 'lipoC3S1': 3.84, 'temp': 28.69, 'lipoC3S3': 11.61, 'lipoC3S2': 7.69, 'rot1': 0, 'rot0': 0, 'rot3': 0, 'rot2': 0, 'state': 'normal', 'yaw': 1.51, 'datetime': '2018-10-05 20:12:25.925763', 'mgs': 0, 'volt': 0.8203, 'depth': 0.317, 'time': 11, 'pitch': -20.33, 'roll': -0.62, 'pres': 168}
{'lipoC2': 7.72, 'lipoC3S1': 3.84, 'temp': 28.69, 'lipoC3S3': 11.61, 'lipoC3S2': 7.69, 'rot1': 0, 'rot0': 0, 'rot3': 0, 'rot2': 0, 'state': 'normal', 'yaw': 1.52, 'datetime': '2018-10-05 20:12:26.029823', 'mgs': 0, 'volt': 0.8203, 'depth': 0.317, 'time': 12, 'pitch': -20.17, 'roll': -0.62, 'pres': 168}
{'lipoC2': 7.72, 'lipoC3S1': 3.84, 'temp': 28.69, 'lipoC3S3': 11.61, 'lipoC3S2': 7.69, 'rot1': 0, 'rot0': 0, 'rot3': 0, 'rot2': 0, 'state': 'normal', 'yaw': 1.53, 'datetime': '2018-10-05 20:12:26.133199', 'mgs': 0, 'volt': 0.8203, 'depth': 0.317, 'time': 12, 'pitch': -20.15, 'roll': -0.6, 'pres': 168}
{'lipoC2': 7.72, 'lipoC3S1': 3.84, 'temp': 28.69, 'lipoC3S3': 11.61, 'lipoC3S2': 7.69, 'rot1': 0, 'rot0': 0, 'rot3': 0, 'rot2': 0, 'state': 'normal', 'yaw': 1.64, 'datetime': '2018-10-05 20:12:26.236857', 'mgs': 0, 'volt': 0.8203, 'depth': 0.317, 'time': 12, 'pitch': -20.17, 'roll': -0.61, 'pres': 168}
{'lipoC2': 7.72, 'lipoC3S1': 3.84, 'temp': 28.69, 'lipoC3S3': 11.61, 'lipoC3S2': 7.69, 'rot1': 0, 'rot0': 0, 'rot3': 0, 'rot2': 0, 'state': 'normal', 'yaw': 1.82, 'datetime': '2018-10-05 20:12:26.340465', 'mgs': 0, 'volt': 0.8203, 'depth': 0.317, 'time': 12, 'pitch': -20.17, 'roll': -0.62, 'pres': 168}
{'lipoC2': 7.72, 'lipoC3S1': 3.84, 'temp': 28.69, 'lipoC3S3': 11.61, 'lipoC3S2': 7.69, 'rot1': 0, 'rot0': 0, 'rot3': 0, 'rot2': 0, 'state': 'normal', 'yaw': 1.95, 'datetime': '2018-10-05 20:12:26.443742', 'mgs': 0, 'volt': 0.8203, 'depth': 0.317, 'time': 12, 'pitch': -20.17, 'roll': -0.56, 'pres': 168}
{'lipoC2': 7.72, 'lipoC3S1': 3.84, 'temp': 28.69, 'lipoC3S3': 11.61, 'lipoC3S2': 7.69, 'rot1': 0, 'rot0': 0, 'rot3': 0, 'rot2': 0, 'state': 'normal', 'yaw': 2.05, 'datetime': '2018-10-05 20:12:26.547222', 'mgs': 0, 'volt': 0.8203, 'depth': 0.317, 'time': 12, 'pitch': -20.09, 'roll': -0.44, 'pres': 168}
{'lipoC2': 7.72, 'lipoC3S1': 3.84, 'temp': 28.63, 'lipoC3S3': 11.61, 'lipoC3S2': 7.69, 'rot1': 0, 'rot0': 0, 'rot3': 0, 'rot2': 0, 'state': 'normal', 'yaw': 2.19, 'datetime': '2018-10-05 20:12:26.650788', 'mgs': 0, 'volt': 0.8203, 'depth': 0.317, 'time': 12, 'pitch': -19.87, 'roll': -0.28, 'pres': 168}
{'lipoC2': 7.72, 'lipoC3S1': 3.84, 'temp': 28.63, 'lipoC3S3': 11.61, 'lipoC3S2': 7.69, 'rot1': 0, 'rot0': 0, 'rot3': 0, 'rot2': 0, 'state': 'normal', 'yaw': 2.34, 'datetime': '2018-10-05 20:12:26.754286', 'mgs': 0, 'volt': 0.8203, 'depth': 0.317, 'time': 12, 'pitch': -19.89, 'roll': -0.1, 'pres': 168}
{'lipoC2': 7.72, 'lipoC3S1': 3.84, 'temp': 28.63, 'lipoC3S3': 11.61, 'lipoC3S2': 7.69, 'rot1': 0, 'rot0': 0, 'rot3': 0, 'rot2': 0, 'state': 'normal', 'yaw': 2.51, 'datetime': '2018-10-05 20:12:26.858554', 'mgs': 0, 'volt': 0.8203, 'depth': 0.317, 'time': 12, 'pitch': -20.07, 'roll': 0.04, 'pres': 168}
{'lipoC2': 7.72, 'lipoC3S1': 3.84, 'temp': 28.63, 'lipoC3S3': 11.61, 'lipoC3S2': 7.69, 'rot1': 0, 'rot0': 0, 'rot3': 0, 'rot2': 0, 'state': 'normal', 'yaw': 2.8, 'datetime': '2018-10-05 20:12:26.962139', 'mgs': 0, 'volt': 0.8203, 'depth': 0.317, 'time': 12, 'pitch': -20.03, 'roll': 0.08, 'pres': 168}
{'lipoC2': 7.72, 'lipoC3S1': 3.84, 'temp': 28.63, 'lipoC3S3': 11.61, 'lipoC3S2': 7.69, 'rot1': 0, 'rot0': 0, 'rot3': 0, 'rot2': 0, 'state': 'normal', 'yaw': 3.04, 'datetime': '2018-10-05 20:12:27.065491', 'mgs': 0, 'volt': 0.8203, 'depth': 0.317, 'time': 13, 'pitch': -19.9, 'roll': 0.08, 'pres': 168}
{'lipoC2': 7.72, 'lipoC3S1': 3.84, 'temp': 28.63, 'lipoC3S3': 11.61, 'lipoC3S2': 7.69, 'rot1': 0, 'rot0': 0, 'rot3': 0, 'rot2': 0, 'state': 'normal', 'yaw': 3.22, 'datetime': '2018-10-05 20:12:27.170523', 'mgs': 0, 'volt': 0.8154, 'depth': 0.241, 'time': 13, 'pitch': -19.9, 'roll': 0.07, 'pres': 167}
{'lipoC2': 7.72, 'lipoC3S1': 3.84, 'temp': 28.63, 'lipoC3S3': 11.61, 'lipoC3S2': 7.69, 'rot1': 0, 'rot0': 0, 'rot3': 0, 'rot2': 0, 'state': 'normal', 'yaw': 3.37, 'datetime': '2018-10-05 20:12:27.273834', 'mgs': 0, 'volt': 0.8154, 'depth': 0.241, 'time': 13, 'pitch': -20.07, 'roll': 0.04, 'pres': 167}
{'lipoC2': 7.72, 'lipoC3S1': 3.84, 'temp': 28.63, 'lipoC3S3': 11.61, 'lipoC3S2': 7.69, 'rot1': 0, 'rot0': 0, 'rot3': 0, 'rot2': 0, 'state': 'normal', 'yaw': 3.56, 'datetime': '2018-10-05 20:12:27.377699', 'mgs': 0, 'volt': 0.8154, 'depth': 0.241, 'time': 13, 'pitch': -20.16, 'roll': -0.04, 'pres': 167}
{'lipoC2': 7.72, 'lipoC3S1': 3.84, 'temp': 28.63, 'lipoC3S3': 11.61, 'lipoC3S2': 7.69, 'rot1': 0, 'rot0': 0, 'rot3': 0, 'rot2': 0, 'state': 'normal', 'yaw': 3.75, 'datetime': '2018-10-05 20:12:27.482598', 'mgs': 0, 'volt': 0.8154, 'depth': 0.241, 'time': 13, 'pitch': -19.98, 'roll': -0.1, 'pres': 167}
{'lipoC2': 7.72, 'lipoC3S1': 3.84, 'temp': 28.63, 'lipoC3S3': 11.61, 'lipoC3S2': 7.69, 'rot1': 0, 'rot0': 0, 'rot3': 0, 'rot2': 0, 'state': 'normal', 'yaw': 3.82, 'datetime': '2018-10-05 20:12:27.585999', 'mgs': 0, 'volt': 0.8154, 'depth': 0.241, 'time': 13, 'pitch': -19.62, 'roll': -0.06, 'pres': 167}
{'lipoC2': 7.72, 'lipoC3S1': 3.84, 'temp': 28.63, 'lipoC3S3': 11.61, 'lipoC3S2': 7.69, 'rot1': 0, 'rot0': 0, 'rot3': 0, 'rot2': 0, 'state': 'normal', 'yaw': 3.77, 'datetime': '2018-10-05 20:12:27.689480', 'mgs': 0, 'volt': 0.8154, 'depth': 0.241, 'time': 13, 'pitch': -19.42, 'roll': 0.08, 'pres': 167}
{'lipoC2': 7.72, 'lipoC3S1': 3.84, 'temp': 28.63, 'lipoC3S3': 11.61, 'lipoC3S2': 7.69, 'rot1': 0, 'rot0': 0, 'rot3': 0, 'rot2': 0, 'state': 'normal', 'yaw': 3.66, 'datetime': '2018-10-05 20:12:27.793298', 'mgs': 0, 'volt': 0.8154, 'depth': 0.241, 'time': 13, 'pitch': -19.48, 'roll': 0.23, 'pres': 167}
{'lipoC2': 7.72, 'lipoC3S1': 3.84, 'temp': 28.63, 'lipoC3S3': 11.61, 'lipoC3S2': 7.69, 'rot1': 0, 'rot0': 0, 'rot3': 0, 'rot2': 0, 'state': 'normal', 'yaw': 3.64, 'datetime': '2018-10-05 20:12:27.896625', 'mgs': 0, 'volt': 0.8154, 'depth': 0.241, 'time': 13, 'pitch': -19.67, 'roll': 0.25, 'pres': 167}
{'lipoC2': 7.72, 'lipoC3S1': 3.84, 'temp': 28.63, 'lipoC3S3': 11.61, 'lipoC3S2': 7.69, 'rot1': 0, 'rot0': 0, 'rot3': 0, 'rot2': 0, 'state': 'normal', 'yaw': 3.7, 'datetime': '2018-10-05 20:12:28.001293', 'mgs': 0, 'volt': 0.8154, 'depth': 0.241, 'time': 13, 'pitch': -19.74, 'roll': 0.16, 'pres': 167}
{'lipoC2': 7.72, 'lipoC3S1': 3.84, 'temp': 28.63, 'lipoC3S3': 11.61, 'lipoC3S2': 7.69, 'rot1': 0, 'rot0': 0, 'rot3': 0, 'rot2': 0, 'state': 'normal', 'yaw': 3.79, 'datetime': '2018-10-05 20:12:28.104932', 'mgs': 0, 'volt': 0.8154, 'depth': 0.241, 'time': 14, 'pitch': -19.7, 'roll': -0.0, 'pres': 167}
{'lipoC2': 7.72, 'lipoC3S1': 3.84, 'temp': 28.63, 'lipoC3S3': 11.61, 'lipoC3S2': 7.69, 'rot1': 0, 'rot0': 0, 'rot3': 0, 'rot2': 0, 'state': 'normal', 'yaw': 3.89, 'datetime': '2018-10-05 20:12:28.208494', 'mgs': 0, 'volt': 0.8154, 'depth': 0.241, 'time': 14, 'pitch': -19.52, 'roll': -0.22, 'pres': 167}
{'lipoC2': 7.72, 'lipoC3S1': 3.84, 'temp': 28.63, 'lipoC3S3': 11.61, 'lipoC3S2': 7.69, 'rot1': 0, 'rot0': 0, 'rot3': 0, 'rot2': 0, 'state': 'normal', 'yaw': 3.97, 'datetime': '2018-10-05 20:12:28.313135', 'mgs': 0, 'volt': 0.8154, 'depth': 0.241, 'time': 14, 'pitch': -19.47, 'roll': -0.42, 'pres': 167}
{'lipoC2': 7.72, 'lipoC3S1': 3.84, 'temp': 28.63, 'lipoC3S3': 11.61, 'lipoC3S2': 7.69, 'rot1': 0, 'rot0': 0, 'rot3': 0, 'rot2': 0, 'state': 'normal', 'yaw': 4.05, 'datetime': '2018-10-05 20:12:28.416590', 'mgs': 0, 'volt': 0.8154, 'depth': 0.241, 'time': 14, 'pitch': -19.47, 'roll': -0.63, 'pres': 167}
{'lipoC2': 7.72, 'lipoC3S1': 3.84, 'temp': 28.63, 'lipoC3S3': 11.61, 'lipoC3S2': 7.69, 'rot1': 0, 'rot0': 0, 'rot3': 0, 'rot2': 0, 'state': 'normal', 'yaw': 4.2, 'datetime': '2018-10-05 20:12:28.520485', 'mgs': 0, 'volt': 0.8154, 'depth': 0.241, 'time': 14, 'pitch': -19.42, 'roll': -0.82, 'pres': 167}
{'lipoC2': 7.72, 'lipoC3S1': 3.84, 'temp': 28.63, 'lipoC3S3': 11.61, 'lipoC3S2': 7.69, 'rot1': 0, 'rot0': 0, 'rot3': 0, 'rot2': 0, 'state': 'normal', 'yaw': 4.34, 'datetime': '2018-10-05 20:12:28.624824', 'mgs': 0, 'volt': 0.8154, 'depth': 0.241, 'time': 14, 'pitch': -19.27, 'roll': -0.96, 'pres': 167}
{'lipoC2': 7.72, 'lipoC3S1': 3.84, 'temp': 28.63, 'lipoC3S3': 11.61, 'lipoC3S2': 7.69, 'rot1': 0, 'rot0': 0, 'rot3': 0, 'rot2': 0, 'state': 'normal', 'yaw': 4.46, 'datetime': '2018-10-05 20:12:28.728240', 'mgs': 0, 'volt': 0.8154, 'depth': 0.241, 'time': 14, 'pitch': -19.12, 'roll': -1.0, 'pres': 167}
{'lipoC2': 7.72, 'lipoC3S1': 3.84, 'temp': 28.63, 'lipoC3S3': 11.61, 'lipoC3S2': 7.69, 'rot1': 0, 'rot0': 0, 'rot3': 0, 'rot2': 0, 'state': 'normal', 'yaw': 4.53, 'datetime': '2018-10-05 20:12:28.832826', 'mgs': 0, 'volt': 0.8154, 'depth': 0.241, 'time': 14, 'pitch': -19.16, 'roll': -1.03, 'pres': 167}
{'lipoC2': 7.72, 'lipoC3S1': 3.84, 'temp': 28.63, 'lipoC3S3': 11.61, 'lipoC3S2': 7.69, 'rot1': 0, 'rot0': 0, 'rot3': 0, 'rot2': 0, 'state': 'normal', 'yaw': 4.63, 'datetime': '2018-10-05 20:12:28.937052', 'mgs': 0, 'volt': 0.8154, 'depth': 0.241, 'time': 14, 'pitch': -19.39, 'roll': -1.06, 'pres': 167}
{'lipoC2': 7.72, 'lipoC3S1': 3.84, 'temp': 28.63, 'lipoC3S3': 11.61, 'lipoC3S2': 7.69, 'rot1': 0, 'rot0': 0, 'rot3': 0, 'rot2': 0, 'state': 'normal', 'yaw': 4.72, 'datetime': '2018-10-05 20:12:29.040472', 'mgs': 0, 'volt': 0.8154, 'depth': 0.241, 'time': 15, 'pitch': -19.71, 'roll': -1.09, 'pres': 167}
{'lipoC2': 7.72, 'lipoC3S1': 3.84, 'temp': 28.63, 'lipoC3S3': 11.61, 'lipoC3S2': 7.69, 'rot1': 0, 'rot0': 0, 'rot3': 0, 'rot2': 0, 'state': 'normal', 'yaw': 4.81, 'datetime': '2018-10-05 20:12:29.143826', 'mgs': 0, 'volt': 0.8154, 'depth': 0.241, 'time': 15, 'pitch': -19.76, 'roll': -1.04, 'pres': 167}
{'lipoC2': 7.72, 'lipoC3S1': 3.84, 'temp': 28.63, 'lipoC3S3': 11.61, 'lipoC3S2': 7.69, 'rot1': 0, 'rot0': 0, 'rot3': 0, 'rot2': 0, 'state': 'normal', 'yaw': 4.92, 'datetime': '2018-10-05 20:12:29.247881', 'mgs': 0, 'volt': 0.8154, 'depth': 0.241, 'time': 15, 'pitch': -19.63, 'roll': -0.94, 'pres': 167}
{'lipoC2': 7.72, 'lipoC3S1': 3.84, 'temp': 28.63, 'lipoC3S3': 11.61, 'lipoC3S2': 7.69, 'rot1': 0, 'rot0': 0, 'rot3': 0, 'rot2': 0, 'state': 'normal', 'yaw': 5.06, 'datetime': '2018-10-05 20:12:29.350951', 'mgs': 0, 'volt': 0.8154, 'depth': 0.241, 'time': 15, 'pitch': -19.54, 'roll': -0.77, 'pres': 167}
{'lipoC2': 7.72, 'lipoC3S1': 3.84, 'temp': 28.63, 'lipoC3S3': 11.61, 'lipoC3S2': 7.69, 'rot1': 0, 'rot0': 0, 'rot3': 0, 'rot2': 0, 'state': 'normal', 'yaw': 5.13, 'datetime': '2018-10-05 20:12:29.454412', 'mgs': 0, 'volt': 0.8154, 'depth': 0.241, 'time': 15, 'pitch': -19.55, 'roll': -0.5, 'pres': 167}
{'lipoC2': 7.72, 'lipoC3S1': 3.84, 'temp': 28.63, 'lipoC3S3': 11.61, 'lipoC3S2': 7.69, 'rot1': 0, 'rot0': 0, 'rot3': 0, 'rot2': 0, 'state': 'normal', 'yaw': 5.13, 'datetime': '2018-10-05 20:12:29.558121', 'mgs': 0, 'volt': 0.8154, 'depth': 0.241, 'time': 15, 'pitch': -19.55, 'roll': -0.17, 'pres': 167}
{'lipoC2': 7.72, 'lipoC3S1': 3.84, 'temp': 28.63, 'lipoC3S3': 11.61, 'lipoC3S2': 7.69, 'rot1': 0, 'rot0': 0, 'rot3': 0, 'rot2': 0, 'state': 'normal', 'yaw': 5.12, 'datetime': '2018-10-05 20:12:29.663078', 'mgs': 0, 'volt': 0.8154, 'depth': 0.241, 'time': 15, 'pitch': -19.6, 'roll': 0.23, 'pres': 167}
{'lipoC2': 7.72, 'lipoC3S1': 3.84, 'temp': 28.63, 'lipoC3S3': 11.61, 'lipoC3S2': 7.69, 'rot1': 0, 'rot0': 0, 'rot3': 0, 'rot2': 0, 'state': 'normal', 'yaw': 5.08, 'datetime': '2018-10-05 20:12:29.764413', 'mgs': 0, 'volt': 0.8203, 'depth': 0.317, 'time': 15, 'pitch': -19.77, 'roll': 0.57, 'pres': 168}
{'lipoC2': 7.72, 'lipoC3S1': 3.84, 'temp': 28.63, 'lipoC3S3': 11.61, 'lipoC3S2': 7.69, 'rot1': 0, 'rot0': 0, 'rot3': 0, 'rot2': 0, 'state': 'normal', 'yaw': 5.07, 'datetime': '2018-10-05 20:12:29.869273', 'mgs': 0, 'volt': 0.8203, 'depth': 0.317, 'time': 15, 'pitch': -19.91, 'roll': 0.82, 'pres': 168}
{'lipoC2': 7.72, 'lipoC3S1': 3.84, 'temp': 28.63, 'lipoC3S3': 11.61, 'lipoC3S2': 7.69, 'rot1': 0, 'rot0': 0, 'rot3': 0, 'rot2': 0, 'state': 'normal', 'yaw': 5.05, 'datetime': '2018-10-05 20:12:29.972689', 'mgs': 0, 'volt': 0.8203, 'depth': 0.317, 'time': 15, 'pitch': -19.95, 'roll': 1.0, 'pres': 168}
{'lipoC2': 7.72, 'lipoC3S1': 3.84, 'temp': 28.69, 'lipoC3S3': 11.61, 'lipoC3S2': 7.69, 'rot1': 0, 'rot0': 0, 'rot3': 0, 'rot2': 0, 'state': 'normal', 'yaw': 4.98, 'datetime': '2018-10-05 20:12:30.077391', 'mgs': 0, 'volt': 0.8203, 'depth': 0.317, 'time': 16, 'pitch': -19.95, 'roll': 1.08, 'pres': 168}
{'lipoC2': 7.72, 'lipoC3S1': 3.84, 'temp': 28.69, 'lipoC3S3': 11.61, 'lipoC3S2': 7.69, 'rot1': 0, 'rot0': 0, 'rot3': 0, 'rot2': 0, 'state': 'normal', 'yaw': 4.98, 'datetime': '2018-10-05 20:12:30.180910', 'mgs': 0, 'volt': 0.8252, 'depth': 0.394, 'time': 16, 'pitch': -19.86, 'roll': 0.98, 'pres': 169}
{'lipoC2': 7.72, 'lipoC3S1': 3.84, 'temp': 28.63, 'lipoC3S3': 11.61, 'lipoC3S2': 7.69, 'rot1': 0, 'rot0': 0, 'rot3': 0, 'rot2': 0, 'state': 'normal', 'yaw': 4.98, 'datetime': '2018-10-05 20:12:30.284359', 'mgs': 0, 'volt': 0.8252, 'depth': 0.394, 'time': 16, 'pitch': -19.82, 'roll': 0.72, 'pres': 169}
{'lipoC2': 7.72, 'lipoC3S1': 3.84, 'temp': 28.63, 'lipoC3S3': 11.61, 'lipoC3S2': 7.69, 'rot1': 0, 'rot0': 0, 'rot3': 0, 'rot2': 0, 'state': 'normal', 'yaw': 4.96, 'datetime': '2018-10-05 20:12:30.389019', 'mgs': 0, 'volt': 0.8203, 'depth': 0.317, 'time': 16, 'pitch': -19.89, 'roll': 0.37, 'pres': 168}
{'lipoC2': 7.72, 'lipoC3S1': 3.84, 'temp': 28.63, 'lipoC3S3': 11.61, 'lipoC3S2': 7.69, 'rot1': 0, 'rot0': 0, 'rot3': 0, 'rot2': 0, 'state': 'normal', 'yaw': 4.78, 'datetime': '2018-10-05 20:12:30.492528', 'mgs': 0, 'volt': 0.8252, 'depth': 0.394, 'time': 16, 'pitch': -20.05, 'roll': -0.0, 'pres': 169}
{'lipoC2': 7.72, 'lipoC3S1': 3.84, 'temp': 28.63, 'lipoC3S3': 11.61, 'lipoC3S2': 7.69, 'rot1': 0, 'rot0': 0, 'rot3': 0, 'rot2': 0, 'state': 'normal', 'yaw': 4.53, 'datetime': '2018-10-05 20:12:30.595818', 'mgs': 0, 'volt': 0.8203, 'depth': 0.317, 'time': 16, 'pitch': -20.17, 'roll': -0.32, 'pres': 168}
{'lipoC2': 7.72, 'lipoC3S1': 3.84, 'temp': 28.63, 'lipoC3S3': 11.61, 'lipoC3S2': 7.69, 'rot1': 0, 'rot0': 0, 'rot3': 0, 'rot2': 0, 'state': 'normal', 'yaw': 4.32, 'datetime': '2018-10-05 20:12:30.699362', 'mgs': 0, 'volt': 0.8203, 'depth': 0.317, 'time': 16, 'pitch': -20.22, 'roll': -0.71, 'pres': 168}
{'lipoC2': 7.72, 'lipoC3S1': 3.84, 'temp': 28.69, 'lipoC3S3': 11.61, 'lipoC3S2': 7.69, 'rot1': 0, 'rot0': 0, 'rot3': 0, 'rot2': 0, 'state': 'normal', 'yaw': 4.17, 'datetime': '2018-10-05 20:12:30.802934', 'mgs': 0, 'volt': 0.8203, 'depth': 0.317, 'time': 16, 'pitch': -20.24, 'roll': -1.29, 'pres': 168}
{'lipoC2': 7.72, 'lipoC3S1': 3.84, 'temp': 28.69, 'lipoC3S3': 11.61, 'lipoC3S2': 7.69, 'rot1': 0, 'rot0': 0, 'rot3': 0, 'rot2': 0, 'state': 'normal', 'yaw': 4.11, 'datetime': '2018-10-05 20:12:30.906139', 'mgs': 0, 'volt': 0.8203, 'depth': 0.317, 'time': 16, 'pitch': -20.14, 'roll': -1.92, 'pres': 168}
{'lipoC2': 7.72, 'lipoC3S1': 3.84, 'temp': 28.63, 'lipoC3S3': 11.61, 'lipoC3S2': 7.69, 'rot1': 0, 'rot0': 0, 'rot3': 0, 'rot2': 0, 'state': 'normal', 'yaw': 4.16, 'datetime': '2018-10-05 20:12:31.009639', 'mgs': 0, 'volt': 0.8203, 'depth': 0.317, 'time': 16, 'pitch': -19.79, 'roll': -2.61, 'pres': 168}
{'lipoC2': 7.72, 'lipoC3S1': 3.84, 'temp': 28.63, 'lipoC3S3': 11.61, 'lipoC3S2': 7.69, 'rot1': 0, 'rot0': 0, 'rot3': 0, 'rot2': 0, 'state': 'normal', 'yaw': 4.24, 'datetime': '2018-10-05 20:12:31.113055', 'mgs': 0, 'volt': 0.8203, 'depth': 0.317, 'time': 17, 'pitch': -19.37, 'roll': -3.22, 'pres': 168}
{'lipoC2': 7.72, 'lipoC3S1': 3.84, 'temp': 28.56, 'lipoC3S3': 11.61, 'lipoC3S2': 7.69, 'rot1': 0, 'rot0': 0, 'rot3': 0, 'rot2': 0, 'state': 'normal', 'yaw': 4.13, 'datetime': '2018-10-05 20:12:31.216477', 'mgs': 0, 'volt': 0.8203, 'depth': 0.317, 'time': 17, 'pitch': -19.25, 'roll': -3.37, 'pres': 168}
{'lipoC2': 7.72, 'lipoC3S1': 3.84, 'temp': 28.56, 'lipoC3S3': 11.61, 'lipoC3S2': 7.69, 'rot1': 0, 'rot0': 0, 'rot3': 0, 'rot2': 0, 'state': 'normal', 'yaw': 3.74, 'datetime': '2018-10-05 20:12:31.321425', 'mgs': 0, 'volt': 0.8203, 'depth': 0.317, 'time': 17, 'pitch': -19.32, 'roll': -3.03, 'pres': 168}
{'lipoC2': 7.72, 'lipoC3S1': 3.84, 'temp': 28.56, 'lipoC3S3': 11.61, 'lipoC3S2': 7.69, 'rot1': 0, 'rot0': 0, 'rot3': 0, 'rot2': 0, 'state': 'normal', 'yaw': 3.34, 'datetime': '2018-10-05 20:12:31.424667', 'mgs': 0, 'volt': 0.8252, 'depth': 0.394, 'time': 17, 'pitch': -19.54, 'roll': -2.4, 'pres': 169}
{'lipoC2': 7.72, 'lipoC3S1': 3.84, 'temp': 28.63, 'lipoC3S3': 11.61, 'lipoC3S2': 7.69, 'rot1': 0, 'rot0': 0, 'rot3': 0, 'rot2': 0, 'state': 'normal', 'yaw': 3.35, 'datetime': '2018-10-05 20:12:31.528955', 'mgs': 0, 'volt': 0.8252, 'depth': 0.394, 'time': 17, 'pitch': -19.58, 'roll': -1.97, 'pres': 169}
{'lipoC2': 7.72, 'lipoC3S1': 3.84, 'temp': 28.63, 'lipoC3S3': 11.61, 'lipoC3S2': 7.69, 'rot1': 0, 'rot0': 0, 'rot3': 0, 'rot2': 0, 'state': 'normal', 'yaw': 3.62, 'datetime': '2018-10-05 20:12:31.633219', 'mgs': 0, 'volt': 0.8252, 'depth': 0.394, 'time': 17, 'pitch': -19.53, 'roll': -1.64, 'pres': 169}
{'lipoC2': 7.72, 'lipoC3S1': 3.84, 'temp': 28.69, 'lipoC3S3': 11.61, 'lipoC3S2': 7.69, 'rot1': 0, 'rot0': 0, 'rot3': 0, 'rot2': 0, 'state': 'normal', 'yaw': 3.88, 'datetime': '2018-10-05 20:12:31.736699', 'mgs': 0, 'volt': 0.8252, 'depth': 0.394, 'time': 17, 'pitch': -19.18, 'roll': -1.15, 'pres': 169}
{'lipoC2': 7.72, 'lipoC3S1': 3.84, 'temp': 28.69, 'lipoC3S3': 11.61, 'lipoC3S2': 7.69, 'rot1': 0, 'rot0': 0, 'rot3': 0, 'rot2': 0, 'state': 'normal', 'yaw': 4.08, 'datetime': '2018-10-05 20:12:31.841457', 'mgs': 0, 'volt': 0.8252, 'depth': 0.394, 'time': 17, 'pitch': -19.1, 'roll': -0.6, 'pres': 169}
{'lipoC2': 7.72, 'lipoC3S1': 3.84, 'temp': 28.63, 'lipoC3S3': 11.61, 'lipoC3S2': 7.69, 'rot1': 0, 'rot0': 0, 'rot3': 0, 'rot2': 0, 'state': 'normal', 'yaw': 4.08, 'datetime': '2018-10-05 20:12:31.944889', 'mgs': 0, 'volt': 0.8301, 'depth': 0.47, 'time': 17, 'pitch': -19.66, 'roll': 0.17, 'pres': 170}
{'lipoC2': 7.72, 'lipoC3S1': 3.84, 'temp': 28.63, 'lipoC3S3': 11.61, 'lipoC3S2': 7.69, 'rot1': 0, 'rot0': 0, 'rot3': 0, 'rot2': 0, 'state': 'normal', 'yaw': 4.14, 'datetime': '2018-10-05 20:12:32.048342', 'mgs': 0, 'volt': 0.8301, 'depth': 0.47, 'time': 18, 'pitch': -20.46, 'roll': 0.82, 'pres': 170}
{'lipoC2': 7.72, 'lipoC3S1': 3.84, 'temp': 28.63, 'lipoC3S3': 11.61, 'lipoC3S2': 7.69, 'rot1': 0, 'rot0': 0, 'rot3': 0, 'rot2': 0, 'state': 'normal', 'yaw': 4.27, 'datetime': '2018-10-05 20:12:32.151783', 'mgs': 0, 'volt': 0.8301, 'depth': 0.47, 'time': 18, 'pitch': -21.03, 'roll': 1.35, 'pres': 170}
{'lipoC2': 7.72, 'lipoC3S1': 3.84, 'temp': 28.63, 'lipoC3S3': 11.61, 'lipoC3S2': 7.69, 'rot1': 0, 'rot0': 0, 'rot3': 0, 'rot2': 0, 'state': 'normal', 'yaw': 4.39, 'datetime': '2018-10-05 20:12:32.255397', 'mgs': 0, 'volt': 0.8301, 'depth': 0.47, 'time': 18, 'pitch': -21.05, 'roll': 1.8, 'pres': 170}
{'lipoC2': 7.72, 'lipoC3S1': 3.84, 'temp': 28.63, 'lipoC3S3': 11.61, 'lipoC3S2': 7.69, 'rot1': 0, 'rot0': 0, 'rot3': 0, 'rot2': 0, 'state': 'normal', 'yaw': 4.46, 'datetime': '2018-10-05 20:12:32.358726', 'mgs': 0, 'volt': 0.8301, 'depth': 0.47, 'time': 18, 'pitch': -20.69, 'roll': 2.2, 'pres': 170}
{'lipoC2': 7.72, 'lipoC3S1': 3.84, 'temp': 28.63, 'lipoC3S3': 11.61, 'lipoC3S2': 7.69, 'rot1': 0, 'rot0': 0, 'rot3': 0, 'rot2': 0, 'state': 'normal', 'yaw': 4.47, 'datetime': '2018-10-05 20:12:32.462126', 'mgs': 0, 'volt': 0.8301, 'depth': 0.47, 'time': 18, 'pitch': -20.52, 'roll': 2.46, 'pres': 170}
{'lipoC2': 7.72, 'lipoC3S1': 3.84, 'temp': 28.63, 'lipoC3S3': 11.61, 'lipoC3S2': 7.69, 'rot1': 0, 'rot0': 0, 'rot3': 0, 'rot2': 0, 'state': 'normal', 'yaw': 4.47, 'datetime': '2018-10-05 20:12:32.565687', 'mgs': 0, 'volt': 0.8301, 'depth': 0.47, 'time': 18, 'pitch': -20.59, 'roll': 2.53, 'pres': 170}
{'lipoC2': 7.72, 'lipoC3S1': 3.84, 'temp': 28.63, 'lipoC3S3': 11.61, 'lipoC3S2': 7.69, 'rot1': 0, 'rot0': 0, 'rot3': 0, 'rot2': 0, 'state': 'normal', 'yaw': 4.46, 'datetime': '2018-10-05 20:12:32.669203', 'mgs': 0, 'volt': 0.8301, 'depth': 0.47, 'time': 18, 'pitch': -20.7, 'roll': 2.43, 'pres': 170}
{'lipoC2': 7.72, 'lipoC3S1': 3.84, 'temp': 28.63, 'lipoC3S3': 11.61, 'lipoC3S2': 7.69, 'rot1': 0, 'rot0': 0, 'rot3': 0, 'rot2': 0, 'state': 'normal', 'yaw': 4.36, 'datetime': '2018-10-05 20:12:32.773224', 'mgs': 0, 'volt': 0.8301, 'depth': 0.47, 'time': 18, 'pitch': -20.6, 'roll': 2.25, 'pres': 170}
{'lipoC2': 7.72, 'lipoC3S1': 3.84, 'temp': 28.63, 'lipoC3S3': 11.61, 'lipoC3S2': 7.69, 'rot1': 0, 'rot0': 0, 'rot3': 0, 'rot2': 0, 'state': 'normal', 'yaw': 4.06, 'datetime': '2018-10-05 20:12:32.876861', 'mgs': 0, 'volt': 0.8252, 'depth': 0.394, 'time': 18, 'pitch': -20.42, 'roll': 2.0, 'pres': 169}
{'lipoC2': 7.72, 'lipoC3S1': 3.84, 'temp': 28.63, 'lipoC3S3': 11.61, 'lipoC3S2': 7.69, 'rot1': 0, 'rot0': 0, 'rot3': 0, 'rot2': 0, 'state': 'normal', 'yaw': 3.83, 'datetime': '2018-10-05 20:12:32.980317', 'mgs': 0, 'volt': 0.8301, 'depth': 0.47, 'time': 18, 'pitch': -20.5, 'roll': 1.56, 'pres': 170}
{'lipoC2': 7.72, 'lipoC3S1': 3.84, 'temp': 28.63, 'lipoC3S3': 11.61, 'lipoC3S2': 7.69, 'rot1': 0, 'rot0': 0, 'rot3': 0, 'rot2': 0, 'state': 'normal', 'yaw': 3.76, 'datetime': '2018-10-05 20:12:33.085072', 'mgs': 0, 'volt': 0.8252, 'depth': 0.394, 'time': 19, 'pitch': -20.8, 'roll': 0.89, 'pres': 169}
{'lipoC2': 7.72, 'lipoC3S1': 3.84, 'temp': 28.63, 'lipoC3S3': 11.61, 'lipoC3S2': 7.69, 'rot1': 0, 'rot0': 0, 'rot3': 0, 'rot2': 0, 'state': 'normal', 'yaw': 3.63, 'datetime': '2018-10-05 20:12:33.186806', 'mgs': 1, 'volt': 0.8252, 'depth': 0.394, 'time': 19, 'pitch': -21.13, 'roll': 0.14, 'pres': 169}
{'lipoC2': 7.72, 'lipoC3S1': 3.84, 'temp': 28.69, 'lipoC3S3': 11.61, 'lipoC3S2': 7.69, 'rot1': 0, 'rot0': 0, 'rot3': 0, 'rot2': 0, 'state': 'normal', 'yaw': 0.0, 'datetime': '2018-10-05 20:12:39.218546', 'mgs': 0, 'volt': 0.835, 'depth': 0.546, 'time': 1, 'pitch': -20.73, 'roll': 0.82, 'pres': 171}
{'lipoC2': 7.72, 'lipoC3S1': 3.84, 'temp': 28.69, 'lipoC3S3': 11.61, 'lipoC3S2': 7.69, 'rot1': 0, 'rot0': 0, 'rot3': 0, 'rot2': 0, 'state': 'normal', 'yaw': 0.23, 'datetime': '2018-10-05 20:12:42.262896', 'mgs': 0, 'volt': 0.8301, 'depth': 0.47, 'time': 1, 'pitch': -20.81, 'roll': 1.32, 'pres': 170}
{'lipoC2': 7.72, 'lipoC3S1': 3.84, 'temp': 28.63, 'lipoC3S3': 11.61, 'lipoC3S2': 7.69, 'rot1': 0, 'rot0': 0, 'rot3': 0, 'rot2': 0, 'state': 'normal', 'yaw': 0.53, 'datetime': '2018-10-05 20:12:42.300566', 'mgs': 0, 'volt': 0.835, 'depth': 0.546, 'time': 1, 'pitch': -21.09, 'roll': 1.63, 'pres': 171}
{'lipoC2': 7.72, 'lipoC3S1': 3.84, 'temp': 28.63, 'lipoC3S3': 11.61, 'lipoC3S2': 7.69, 'rot1': 0, 'rot0': 0, 'rot3': 0, 'rot2': 0, 'state': 'normal', 'yaw': 0.75, 'datetime': '2018-10-05 20:12:42.314811', 'mgs': 0, 'volt': 0.835, 'depth': 0.546, 'time': 1, 'pitch': -21.24, 'roll': 1.96, 'pres': 171}
{'lipoC2': 7.72, 'lipoC3S1': 3.84, 'temp': 28.63, 'lipoC3S3': 11.63, 'lipoC3S2': 7.69, 'rot1': 0, 'rot0': 0, 'rot3': 0, 'rot2': 0, 'state': 'normal', 'yaw': 0.77, 'datetime': '2018-10-05 20:12:42.331929', 'mgs': 0, 'volt': 0.835, 'depth': 0.546, 'time': 1, 'pitch': -21.12, 'roll': 2.47, 'pres': 171}
{'lipoC2': 7.72, 'lipoC3S1': 3.84, 'temp': 28.63, 'lipoC3S3': 11.61, 'lipoC3S2': 7.69, 'rot1': 0, 'rot0': 0, 'rot3': 0, 'rot2': 0, 'state': 'normal', 'yaw': 0.61, 'datetime': '2018-10-05 20:12:42.348425', 'mgs': 0, 'volt': 0.835, 'depth': 0.546, 'time': 1, 'pitch': -20.8, 'roll': 2.99, 'pres': 171}
{'lipoC2': 7.72, 'lipoC3S1': 3.84, 'temp': 28.63, 'lipoC3S3': 11.61, 'lipoC3S2': 7.69, 'rot1': 0, 'rot0': 0, 'rot3': 0, 'rot2': 0, 'state': 'normal', 'yaw': 0.58, 'datetime': '2018-10-05 20:12:42.358706', 'mgs': 0, 'volt': 0.835, 'depth': 0.546, 'time': 1, 'pitch': -20.46, 'roll': 3.29, 'pres': 171}
{'lipoC2': 7.72, 'lipoC3S1': 3.84, 'temp': 28.63, 'lipoC3S3': 11.61, 'lipoC3S2': 7.69, 'rot1': 0, 'rot0': 0, 'rot3': 0, 'rot2': 0, 'state': 'normal', 'yaw': 0.8, 'datetime': '2018-10-05 20:12:42.374935', 'mgs': 0, 'volt': 0.835, 'depth': 0.546, 'time': 1, 'pitch': -20.29, 'roll': 3.23, 'pres': 171}
{'lipoC2': 7.72, 'lipoC3S1': 3.84, 'temp': 28.63, 'lipoC3S3': 11.61, 'lipoC3S2': 7.69, 'rot1': 0, 'rot0': 0, 'rot3': 0, 'rot2': 0, 'state': 'normal', 'yaw': 1.07, 'datetime': '2018-10-05 20:12:42.391359', 'mgs': 0, 'volt': 0.835, 'depth': 0.546, 'time': 2, 'pitch': -20.34, 'roll': 2.96, 'pres': 171}
{'lipoC2': 7.72, 'lipoC3S1': 3.84, 'temp': 28.63, 'lipoC3S3': 11.61, 'lipoC3S2': 7.69, 'rot1': 0, 'rot0': 0, 'rot3': 0, 'rot2': 0, 'state': 'normal', 'yaw': 1.08, 'datetime': '2018-10-05 20:12:42.401532', 'mgs': 0, 'volt': 0.835, 'depth': 0.546, 'time': 2, 'pitch': -20.59, 'roll': 2.77, 'pres': 171}
{'lipoC2': 7.72, 'lipoC3S1': 3.84, 'temp': 28.63, 'lipoC3S3': 11.61, 'lipoC3S2': 7.69, 'rot1': 0, 'rot0': 0, 'rot3': 0, 'rot2': 0, 'state': 'normal', 'yaw': 0.82, 'datetime': '2018-10-05 20:12:42.418310', 'mgs': 0, 'volt': 0.835, 'depth': 0.546, 'time': 2, 'pitch': -20.81, 'roll': 2.7, 'pres': 171}
{'lipoC2': 7.72, 'lipoC3S1': 3.84, 'temp': 28.63, 'lipoC3S3': 11.61, 'lipoC3S2': 7.69, 'rot1': 0, 'rot0': 0, 'rot3': 0, 'rot2': 0, 'state': 'normal', 'yaw': 0.52, 'datetime': '2018-10-05 20:12:42.437243', 'mgs': 0, 'volt': 0.835, 'depth': 0.546, 'time': 2, 'pitch': -20.75, 'roll': 2.61, 'pres': 171}
{'lipoC2': 7.72, 'lipoC3S1': 3.84, 'temp': 28.63, 'lipoC3S3': 11.63, 'lipoC3S2': 7.69, 'rot1': 0, 'rot0': 0, 'rot3': 0, 'rot2': 0, 'state': 'normal', 'yaw': 0.45, 'datetime': '2018-10-05 20:12:42.447421', 'mgs': 0, 'volt': 0.8398, 'depth': 0.623, 'time': 2, 'pitch': -20.42, 'roll': 2.29, 'pres': 172}
{'lipoC2': 7.72, 'lipoC3S1': 3.84, 'temp': 28.63, 'lipoC3S3': 11.61, 'lipoC3S2': 7.69, 'rot1': 0, 'rot0': 0, 'rot3': 0, 'rot2': 0, 'state': 'normal', 'yaw': 0.69, 'datetime': '2018-10-05 20:12:42.463702', 'mgs': 0, 'volt': 0.835, 'depth': 0.546, 'time': 2, 'pitch': -19.96, 'roll': 1.59, 'pres': 171}
{'lipoC2': 7.72, 'lipoC3S1': 3.84, 'temp': 28.63, 'lipoC3S3': 11.63, 'lipoC3S2': 7.69, 'rot1': 0, 'rot0': 0, 'rot3': 0, 'rot2': 0, 'state': 'normal', 'yaw': 1.05, 'datetime': '2018-10-05 20:12:42.479857', 'mgs': 0, 'volt': 0.835, 'depth': 0.546, 'time': 2, 'pitch': -19.71, 'roll': 0.81, 'pres': 171}
{'lipoC2': 7.72, 'lipoC3S1': 3.84, 'temp': 28.63, 'lipoC3S3': 11.63, 'lipoC3S2': 7.69, 'rot1': 0, 'rot0': 0, 'rot3': 0, 'rot2': 0, 'state': 'normal', 'yaw': 1.2, 'datetime': '2018-10-05 20:12:42.490002', 'mgs': 0, 'volt': 0.835, 'depth': 0.546, 'time': 2, 'pitch': -19.68, 'roll': 0.22, 'pres': 171}
{'lipoC2': 7.72, 'lipoC3S1': 3.84, 'temp': 28.56, 'lipoC3S3': 11.63, 'lipoC3S2': 7.69, 'rot1': 0, 'rot0': 0, 'rot3': 0, 'rot2': 0, 'state': 'normal', 'yaw': 0.98, 'datetime': '2018-10-05 20:12:42.509520', 'mgs': 0, 'volt': 0.835, 'depth': 0.546, 'time': 2, 'pitch': -19.84, 'roll': 0.0, 'pres': 171}
{'lipoC2': 7.72, 'lipoC3S1': 3.84, 'temp': 28.56, 'lipoC3S3': 11.61, 'lipoC3S2': 7.69, 'rot1': 0, 'rot0': 0, 'rot3': 0, 'rot2': 0, 'state': 'normal', 'yaw': 0.54, 'datetime': '2018-10-05 20:12:42.527119', 'mgs': 0, 'volt': 0.8301, 'depth': 0.47, 'time': 3, 'pitch': -20.08, 'roll': 0.11, 'pres': 170}
{'lipoC2': 7.72, 'lipoC3S1': 3.84, 'temp': 28.56, 'lipoC3S3': 11.61, 'lipoC3S2': 7.69, 'rot1': 0, 'rot0': 0, 'rot3': 0, 'rot2': 0, 'state': 'normal', 'yaw': 0.17, 'datetime': '2018-10-05 20:12:42.539364', 'mgs': 0, 'volt': 0.8301, 'depth': 0.47, 'time': 3, 'pitch': -20.29, 'roll': 0.24, 'pres': 170}
{'lipoC2': 7.72, 'lipoC3S1': 3.84, 'temp': 28.63, 'lipoC3S3': 11.61, 'lipoC3S2': 7.69, 'rot1': 0, 'rot0': 0, 'rot3': 0, 'rot2': 0, 'state': 'normal', 'yaw': 0.09, 'datetime': '2018-10-05 20:12:42.555576', 'mgs': 0, 'volt': 0.8301, 'depth': 0.47, 'time': 3, 'pitch': -20.35, 'roll': 0.2, 'pres': 170}
{'lipoC2': 7.72, 'lipoC3S1': 3.84, 'temp': 28.63, 'lipoC3S3': 11.61, 'lipoC3S2': 7.69, 'rot1': 0, 'rot0': 0, 'rot3': 0, 'rot2': 0, 'state': 'normal', 'yaw': 0.26, 'datetime': '2018-10-05 20:12:42.571865', 'mgs': 0, 'volt': 0.835, 'depth': 0.546, 'time': 3, 'pitch': -20.22, 'roll': 0.02, 'pres': 171}
{'lipoC2': 7.72, 'lipoC3S1': 3.84, 'temp': 28.63, 'lipoC3S3': 11.61, 'lipoC3S2': 7.69, 'rot1': 0, 'rot0': 0, 'rot3': 0, 'rot2': 0, 'state': 'normal', 'yaw': 0.47, 'datetime': '2018-10-05 20:12:42.582037', 'mgs': 0, 'volt': 0.835, 'depth': 0.546, 'time': 3, 'pitch': -19.95, 'roll': -0.14, 'pres': 171}
{'lipoC2': 7.72, 'lipoC3S1': 3.84, 'temp': 28.63, 'lipoC3S3': 11.61, 'lipoC3S2': 7.69, 'rot1': 0, 'rot0': 0, 'rot3': 0, 'rot2': 0, 'state': 'normal', 'yaw': 0.56, 'datetime': '2018-10-05 20:12:42.598173', 'mgs': 0, 'volt': 0.8301, 'depth': 0.47, 'time': 3, 'pitch': -19.66, 'roll': -0.11, 'pres': 170}
{'lipoC2': 7.72, 'lipoC3S1': 3.84, 'temp': 28.63, 'lipoC3S3': 11.61, 'lipoC3S2': 7.69, 'rot1': 0, 'rot0': 0, 'rot3': 0, 'rot2': 0, 'state': 'normal', 'yaw': 0.53, 'datetime': '2018-10-05 20:12:42.614334', 'mgs': 0, 'volt': 0.835, 'depth': 0.546, 'time': 3, 'pitch': -19.56, 'roll': 0.12, 'pres': 171}
{'lipoC2': 7.72, 'lipoC3S1': 3.84, 'temp': 28.63, 'lipoC3S3': 11.61, 'lipoC3S2': 7.69, 'rot1': 0, 'rot0': 0, 'rot3': 0, 'rot2': 0, 'state': 'normal', 'yaw': 0.44, 'datetime': '2018-10-05 20:12:42.625705', 'mgs': 0, 'volt': 0.835, 'depth': 0.546, 'time': 3, 'pitch': -19.65, 'roll': 0.48, 'pres': 171}
{'lipoC2': 7.72, 'lipoC3S1': 3.84, 'temp': 28.63, 'lipoC3S3': 11.63, 'lipoC3S2': 7.69, 'rot1': 0, 'rot0': 0, 'rot3': 0, 'rot2': 0, 'state': 'normal', 'yaw': 0.39, 'datetime': '2018-10-05 20:12:42.643549', 'mgs': 0, 'volt': 0.835, 'depth': 0.546, 'time': 3, 'pitch': -19.9, 'roll': 0.91, 'pres': 171}
