{'lipoC2': 7.72, 'lipoC3S1': 3.84, 'temp': 28.63, 'lipoC3S3': 11.61, 'lipoC3S2': 7.69, 'rot1': 267, 'rot0': 281, 'rot3': 198, 'rot2': 158, 'state': 'normal', 'yaw': 23.35, 'datetime': '2018-10-05 20:14:05.514653', 'mgs': 0, 'volt': 0.8203, 'depth': 0.317, 'time': 87, 'pitch': -27.32, 'roll': -0.3, 'pres': 168}
{'lipoC2': 7.72, 'lipoC3S1': 3.84, 'temp': 28.56, 'lipoC3S3': 11.61, 'lipoC3S2': 7.68, 'rot1': 267, 'rot0': 281, 'rot3': 198, 'rot2': 158, 'state': 'normal', 'yaw': 23.36, 'datetime': '2018-10-05 20:14:05.538779', 'mgs': 0, 'volt': 0.8252, 'depth': 0.394, 'time': 87, 'pitch': -27.39, 'roll': -0.42, 'pres': 169}
{'lipoC2': 7.72, 'lipoC3S1': 3.84, 'temp': 28.56, 'lipoC3S3': 11.6, 'lipoC3S2': 7.68, 'rot1': 267, 'rot0': 281, 'rot3': 198, 'rot2': 158, 'state': 'normal', 'yaw': 23.36, 'datetime': '2018-10-05 20:14:05.562950', 'mgs': 0, 'volt': 0.8203, 'depth': 0.317, 'time': 87, 'pitch': -27.5, 'roll': -0.48, 'pres': 168}
{'lipoC2': 7.72, 'lipoC3S1': 3.84, 'temp': 28.63, 'lipoC3S3': 11.61, 'lipoC3S2': 7.68, 'rot1': 267, 'rot0': 281, 'rot3': 198, 'rot2': 158, 'state': 'normal', 'yaw': 23.36, 'datetime': '2018-10-05 20:14:05.587024', 'mgs': 0, 'volt': 0.8252, 'depth': 0.394, 'time': 87, 'pitch': -27.59, 'roll': -0.48, 'pres': 169}
{'lipoC2': 7.72, 'lipoC3S1': 3.84, 'temp': 28.63, 'lipoC3S3': 11.61, 'lipoC3S2': 7.69, 'rot1': 267, 'rot0': 281, 'rot3': 198, 'rot2': 158, 'state': 'normal', 'yaw': 23.36, 'datetime': '2018-10-05 20:14:05.602942', 'mgs': 0, 'volt': 0.8203, 'depth': 0.317, 'time': 87, 'pitch': -27.61, 'roll': -0.47, 'pres': 168}
{'lipoC2': 7.72, 'lipoC3S1': 3.84, 'temp': 28.63, 'lipoC3S3': 11.61, 'lipoC3S2': 7.68, 'rot1': 267, 'rot0': 281, 'rot3': 198, 'rot2': 158, 'state': 'normal', 'yaw': 23.3, 'datetime': '2018-10-05 20:14:05.613207', 'mgs': 0, 'volt': 0.8203, 'depth': 0.317, 'time': 87, 'pitch': -27.61, 'roll': -0.34, 'pres': 168}
{'lipoC2': 7.72, 'lipoC3S1': 3.84, 'temp': 28.63, 'lipoC3S3': 11.61, 'lipoC3S2': 7.68, 'rot1': 267, 'rot0': 281, 'rot3': 198, 'rot2': 158, 'state': 'normal', 'yaw': 23.19, 'datetime': '2018-10-05 20:14:05.623548', 'mgs': 0, 'volt': 0.8252, 'depth': 0.394, 'time': 87, 'pitch': -27.62, 'roll': -0.16, 'pres': 169}
{'lipoC2': 7.72, 'lipoC3S1': 3.84, 'temp': 28.63, 'lipoC3S3': 11.61, 'lipoC3S2': 7.69, 'rot1': 267, 'rot0': 281, 'rot3': 198, 'rot2': 158, 'state': 'normal', 'yaw': 23.13, 'datetime': '2018-10-05 20:14:05.633974', 'mgs': 0, 'volt': 0.8203, 'depth': 0.317, 'time': 88, 'pitch': -27.62, 'roll': -0.04, 'pres': 168}
{'lipoC2': 7.72, 'lipoC3S1': 3.84, 'temp': 28.56, 'lipoC3S3': 11.6, 'lipoC3S2': 7.68, 'rot1': 267, 'rot0': 281, 'rot3': 198, 'rot2': 158, 'state': 'normal', 'yaw': 23.13, 'datetime': '2018-10-05 20:14:05.644363', 'mgs': 0, 'volt': 0.8203, 'depth': 0.317, 'time': 88, 'pitch': -27.62, 'roll': -0.03, 'pres': 168}
{'lipoC2': 7.71, 'lipoC3S1': 3.84, 'temp': 28.56, 'lipoC3S3': 11.6, 'lipoC3S2': 7.68, 'rot1': 267, 'rot0': 281, 'rot3': 198, 'rot2': 158, 'state': 'normal', 'yaw': 23.13, 'datetime': '2018-10-05 20:14:05.654808', 'mgs': 0, 'volt': 0.8203, 'depth': 0.317, 'time': 88, 'pitch': -27.61, 'roll': -0.07, 'pres': 168}
{'lipoC2': 7.71, 'lipoC3S1': 3.84, 'temp': 28.63, 'lipoC3S3': 11.6, 'lipoC3S2': 7.68, 'rot1': 267, 'rot0': 281, 'rot3': 198, 'rot2': 158, 'state': 'normal', 'yaw': 23.13, 'datetime': '2018-10-05 20:14:05.665122', 'mgs': 0, 'volt': 0.8252, 'depth': 0.394, 'time': 88, 'pitch': -27.68, 'roll': -0.22, 'pres': 169}
{'lipoC2': 7.72, 'lipoC3S1': 3.84, 'temp': 28.63, 'lipoC3S3': 11.6, 'lipoC3S2': 7.68, 'rot1': 267, 'rot0': 281, 'rot3': 198, 'rot2': 158, 'state': 'normal', 'yaw': 23.13, 'datetime': '2018-10-05 20:14:05.675587', 'mgs': 0, 'volt': 0.8252, 'depth': 0.394, 'time': 88, 'pitch': -27.81, 'roll': -0.38, 'pres': 169}
{'lipoC2': 7.72, 'lipoC3S1': 3.84, 'temp': 28.63, 'lipoC3S3': 11.6, 'lipoC3S2': 7.68, 'rot1': 267, 'rot0': 281, 'rot3': 198, 'rot2': 158, 'state': 'normal', 'yaw': 23.13, 'datetime': '2018-10-05 20:14:05.685976', 'mgs': 0, 'volt': 0.8203, 'depth': 0.317, 'time': 88, 'pitch': -27.95, 'roll': -0.48, 'pres': 168}
{'lipoC2': 7.72, 'lipoC3S1': 3.84, 'temp': 28.63, 'lipoC3S3': 11.6, 'lipoC3S2': 7.68, 'rot1': 267, 'rot0': 281, 'rot3': 198, 'rot2': 158, 'state': 'normal', 'yaw': 23.13, 'datetime': '2018-10-05 20:14:05.696389', 'mgs': 0, 'volt': 0.8203, 'depth': 0.317, 'time': 88, 'pitch': -28.04, 'roll': -0.46, 'pres': 168}
{'lipoC2': 7.72, 'lipoC3S1': 3.84, 'temp': 28.63, 'lipoC3S3': 11.6, 'lipoC3S2': 7.68, 'rot1': 267, 'rot0': 281, 'rot3': 198, 'rot2': 158, 'state': 'normal', 'yaw': 23.13, 'datetime': '2018-10-05 20:14:05.706928', 'mgs': 0, 'volt': 0.8203, 'depth': 0.317, 'time': 88, 'pitch': -28.03, 'roll': -0.32, 'pres': 168}
{'lipoC2': 7.72, 'lipoC3S1': 3.84, 'temp': 28.56, 'lipoC3S3': 11.6, 'lipoC3S2': 7.68, 'rot1': 267, 'rot0': 281, 'rot3': 198, 'rot2': 158, 'state': 'normal', 'yaw': 23.13, 'datetime': '2018-10-05 20:14:05.717503', 'mgs': 0, 'volt': 0.8203, 'depth': 0.317, 'time': 88, 'pitch': -28.03, 'roll': -0.12, 'pres': 168}
{'lipoC2': 7.72, 'lipoC3S1': 3.84, 'temp': 28.56, 'lipoC3S3': 11.6, 'lipoC3S2': 7.68, 'rot1': 267, 'rot0': 281, 'rot3': 198, 'rot2': 158, 'state': 'normal', 'yaw': 23.13, 'datetime': '2018-10-05 20:14:05.727901', 'mgs': 0, 'volt': 0.8252, 'depth': 0.394, 'time': 88, 'pitch': -28.03, 'roll': 0.02, 'pres': 169}
{'lipoC2': 7.71, 'lipoC3S1': 3.84, 'temp': 28.63, 'lipoC3S3': 11.6, 'lipoC3S2': 7.68, 'rot1': 267, 'rot0': 281, 'rot3': 198, 'rot2': 158, 'state': 'normal', 'yaw': 23.13, 'datetime': '2018-10-05 20:14:05.738327', 'mgs': 0, 'volt': 0.8252, 'depth': 0.394, 'time': 89, 'pitch': -27.99, 'roll': 0.07, 'pres': 169}
{'lipoC2': 7.72, 'lipoC3S1': 3.84, 'temp': 28.63, 'lipoC3S3': 11.6, 'lipoC3S2': 7.68, 'rot1': 267, 'rot0': 281, 'rot3': 198, 'rot2': 158, 'state': 'normal', 'yaw': 23.13, 'datetime': '2018-10-05 20:14:05.748718', 'mgs': 0, 'volt': 0.8252, 'depth': 0.394, 'time': 89, 'pitch': -28.01, 'roll': 0.06, 'pres': 169}
{'lipoC2': 7.71, 'lipoC3S1': 3.84, 'temp': 28.63, 'lipoC3S3': 11.6, 'lipoC3S2': 7.68, 'rot1': 267, 'rot0': 281, 'rot3': 198, 'rot2': 158, 'state': 'normal', 'yaw': 23.13, 'datetime': '2018-10-05 20:14:05.759080', 'mgs': 0, 'volt': 0.8252, 'depth': 0.394, 'time': 89, 'pitch': -28.02, 'roll': 0.0, 'pres': 169}
{'lipoC2': 7.72, 'lipoC3S1': 3.84, 'temp': 28.56, 'lipoC3S3': 11.6, 'lipoC3S2': 7.68, 'rot1': 267, 'rot0': 281, 'rot3': 198, 'rot2': 158, 'state': 'normal', 'yaw': 23.13, 'datetime': '2018-10-05 20:14:05.769425', 'mgs': 0, 'volt': 0.8252, 'depth': 0.394, 'time': 89, 'pitch': -28.08, 'roll': -0.04, 'pres': 169}
{'lipoC2': 7.72, 'lipoC3S1': 3.84, 'temp': 28.56, 'lipoC3S3': 11.6, 'lipoC3S2': 7.68, 'rot1': 267, 'rot0': 281, 'rot3': 198, 'rot2': 158, 'state': 'normal', 'yaw': 23.13, 'datetime': '2018-10-05 20:14:05.779791', 'mgs': 0, 'volt': 0.8252, 'depth': 0.394, 'time': 89, 'pitch': -28.08, 'roll': -0.08, 'pres': 169}
{'lipoC2': 7.72, 'lipoC3S1': 3.84, 'temp': 28.56, 'lipoC3S3': 11.6, 'lipoC3S2': 7.68, 'rot1': 267, 'rot0': 281, 'rot3': 198, 'rot2': 158, 'state': 'normal', 'yaw': 23.13, 'datetime': '2018-10-05 20:14:05.790179', 'mgs': 0, 'volt': 0.8252, 'depth': 0.394, 'time': 89, 'pitch': -28.08, 'roll': -0.08, 'pres': 169}
{'lipoC2': 7.72, 'lipoC3S1': 3.84, 'temp': 28.56, 'lipoC3S3': 11.6, 'lipoC3S2': 7.68, 'rot1': 267, 'rot0': 281, 'rot3': 198, 'rot2': 158, 'state': 'normal', 'yaw': 23.04, 'datetime': '2018-10-05 20:14:05.800553', 'mgs': 0, 'volt': 0.8252, 'depth': 0.394, 'time': 89, 'pitch': -28.09, 'roll': -0.04, 'pres': 169}
{'lipoC2': 7.72, 'lipoC3S1': 3.84, 'temp': 28.63, 'lipoC3S3': 11.6, 'lipoC3S2': 7.68, 'rot1': 267, 'rot0': 281, 'rot3': 198, 'rot2': 158, 'state': 'normal', 'yaw': 23.0, 'datetime': '2018-10-05 20:14:05.810964', 'mgs': 0, 'volt': 0.8252, 'depth': 0.394, 'time': 89, 'pitch': -28.1, 'roll': -0.02, 'pres': 169}
{'lipoC2': 7.71, 'lipoC3S1': 3.84, 'temp': 28.63, 'lipoC3S3': 11.6, 'lipoC3S2': 7.68, 'rot1': 267, 'rot0': 281, 'rot3': 198, 'rot2': 158, 'state': 'normal', 'yaw': 23.01, 'datetime': '2018-10-05 20:14:05.821330', 'mgs': 0, 'volt': 0.8252, 'depth': 0.394, 'time': 89, 'pitch': -28.14, 'roll': -0.02, 'pres': 169}
{'lipoC2': 7.72, 'lipoC3S1': 3.84, 'temp': 28.63, 'lipoC3S3': 11.6, 'lipoC3S2': 7.68, 'rot1': 267, 'rot0': 281, 'rot3': 198, 'rot2': 158, 'state': 'normal', 'yaw': 23.0, 'datetime': '2018-10-05 20:14:05.831728', 'mgs': 0, 'volt': 0.8252, 'depth': 0.394, 'time': 90, 'pitch': -28.23, 'roll': -0.02, 'pres': 169}
{'lipoC2': 7.72, 'lipoC3S1': 3.84, 'temp': 28.56, 'lipoC3S3': 11.6, 'lipoC3S2': 7.68, 'rot1': 267, 'rot0': 281, 'rot3': 198, 'rot2': 158, 'state': 'normal', 'yaw': 23.0, 'datetime': '2018-10-05 20:14:05.842240', 'mgs': 0, 'volt': 0.8252, 'depth': 0.394, 'time': 90, 'pitch': -28.23, 'roll': -0.02, 'pres': 169}
{'lipoC2': 7.72, 'lipoC3S1': 3.84, 'temp': 28.56, 'lipoC3S3': 11.6, 'lipoC3S2': 7.68, 'rot1': 267, 'rot0': 281, 'rot3': 198, 'rot2': 158, 'state': 'normal', 'yaw': 23.0, 'datetime': '2018-10-05 20:14:05.852624', 'mgs': 0, 'volt': 0.8252, 'depth': 0.394, 'time': 90, 'pitch': -28.2, 'roll': -0.02, 'pres': 169}
{'lipoC2': 7.72, 'lipoC3S1': 3.84, 'temp': 28.5, 'lipoC3S3': 11.6, 'lipoC3S2': 7.68, 'rot1': 267, 'rot0': 281, 'rot3': 198, 'rot2': 158, 'state': 'normal', 'yaw': 23.0, 'datetime': '2018-10-05 20:14:05.862986', 'mgs': 0, 'volt': 0.8252, 'depth': 0.394, 'time': 90, 'pitch': -28.08, 'roll': -0.02, 'pres': 169}
{'lipoC2': 7.71, 'lipoC3S1': 3.84, 'temp': 28.5, 'lipoC3S3': 11.6, 'lipoC3S2': 7.68, 'rot1': 267, 'rot0': 281, 'rot3': 198, 'rot2': 158, 'state': 'normal', 'yaw': 23.0, 'datetime': '2018-10-05 20:14:05.873345', 'mgs': 0, 'volt': 0.8252, 'depth': 0.394, 'time': 90, 'pitch': -27.97, 'roll': -0.02, 'pres': 169}
{'lipoC2': 7.72, 'lipoC3S1': 3.84, 'temp': 28.56, 'lipoC3S3': 11.6, 'lipoC3S2': 7.68, 'rot1': 267, 'rot0': 281, 'rot3': 198, 'rot2': 158, 'state': 'normal', 'yaw': 23.0, 'datetime': '2018-10-05 20:14:05.883696', 'mgs': 0, 'volt': 0.8252, 'depth': 0.394, 'time': 90, 'pitch': -27.93, 'roll': 0.02, 'pres': 169}
{'lipoC2': 7.72, 'lipoC3S1': 3.84, 'temp': 28.56, 'lipoC3S3': 11.6, 'lipoC3S2': 7.68, 'rot1': 267, 'rot0': 281, 'rot3': 198, 'rot2': 158, 'state': 'normal', 'yaw': 23.0, 'datetime': '2018-10-05 20:14:05.894118', 'mgs': 0, 'volt': 0.8252, 'depth': 0.394, 'time': 90, 'pitch': -28.0, 'roll': 0.04, 'pres': 169}
{'lipoC2': 7.71, 'lipoC3S1': 3.84, 'temp': 28.56, 'lipoC3S3': 11.6, 'lipoC3S2': 7.68, 'rot1': 267, 'rot0': 281, 'rot3': 198, 'rot2': 158, 'state': 'normal', 'yaw': 23.0, 'datetime': '2018-10-05 20:14:05.904489', 'mgs': 0, 'volt': 0.8203, 'depth': 0.317, 'time': 90, 'pitch': -28.16, 'roll': 0.04, 'pres': 168}
{'lipoC2': 7.72, 'lipoC3S1': 3.84, 'temp': 28.56, 'lipoC3S3': 11.6, 'lipoC3S2': 7.68, 'rot1': 267, 'rot0': 281, 'rot3': 198, 'rot2': 158, 'state': 'normal', 'yaw': 23.0, 'datetime': '2018-10-05 20:14:05.914572', 'mgs': 0, 'volt': 0.8252, 'depth': 0.394, 'time': 90, 'pitch': -28.28, 'roll': 0.05, 'pres': 169}
{'lipoC2': 7.72, 'lipoC3S1': 3.84, 'temp': 28.56, 'lipoC3S3': 11.6, 'lipoC3S2': 7.68, 'rot1': 267, 'rot0': 281, 'rot3': 198, 'rot2': 158, 'state': 'normal', 'yaw': 23.0, 'datetime': '2018-10-05 20:14:05.924391', 'mgs': 0, 'volt': 0.8252, 'depth': 0.394, 'time': 90, 'pitch': -28.33, 'roll': -0.05, 'pres': 169}
{'lipoC2': 7.72, 'lipoC3S1': 3.84, 'temp': 28.56, 'lipoC3S3': 11.6, 'lipoC3S2': 7.68, 'rot1': 267, 'rot0': 281, 'rot3': 198, 'rot2': 158, 'state': 'normal', 'yaw': 23.0, 'datetime': '2018-10-05 20:14:05.934227', 'mgs': 0, 'volt': 0.8252, 'depth': 0.394, 'time': 91, 'pitch': -28.3, 'roll': -0.15, 'pres': 169}
{'lipoC2': 7.72, 'lipoC3S1': 3.84, 'temp': 28.56, 'lipoC3S3': 11.6, 'lipoC3S2': 7.68, 'rot1': 267, 'rot0': 281, 'rot3': 198, 'rot2': 158, 'state': 'normal', 'yaw': 23.0, 'datetime': '2018-10-05 20:14:05.944064', 'mgs': 0, 'volt': 0.8252, 'depth': 0.394, 'time': 91, 'pitch': -28.19, 'roll': -0.2, 'pres': 169}
{'lipoC2': 7.71, 'lipoC3S1': 3.84, 'temp': 28.56, 'lipoC3S3': 11.6, 'lipoC3S2': 7.68, 'rot1': 267, 'rot0': 281, 'rot3': 198, 'rot2': 158, 'state': 'normal', 'yaw': 23.0, 'datetime': '2018-10-05 20:14:05.953916', 'mgs': 0, 'volt': 0.8252, 'depth': 0.394, 'time': 91, 'pitch': -28.06, 'roll': -0.19, 'pres': 169}
{'lipoC2': 7.72, 'lipoC3S1': 3.84, 'temp': 28.56, 'lipoC3S3': 11.6, 'lipoC3S2': 7.68, 'rot1': 267, 'rot0': 281, 'rot3': 198, 'rot2': 158, 'state': 'normal', 'yaw': 23.0, 'datetime': '2018-10-05 20:14:05.963740', 'mgs': 0, 'volt': 0.8252, 'depth': 0.394, 'time': 91, 'pitch': -27.99, 'roll': -0.08, 'pres': 169}
{'lipoC2': 7.71, 'lipoC3S1': 3.84, 'temp': 28.56, 'lipoC3S3': 11.6, 'lipoC3S2': 7.68, 'rot1': 267, 'rot0': 281, 'rot3': 198, 'rot2': 158, 'state': 'normal', 'yaw': 23.0, 'datetime': '2018-10-05 20:14:05.973678', 'mgs': 0, 'volt': 0.8252, 'depth': 0.394, 'time': 91, 'pitch': -27.99, 'roll': 0.08, 'pres': 169}
{'lipoC2': 7.71, 'lipoC3S1': 3.84, 'temp': 28.5, 'lipoC3S3': 11.6, 'lipoC3S2': 7.68, 'rot1': 267, 'rot0': 281, 'rot3': 198, 'rot2': 158, 'state': 'normal', 'yaw': 22.99, 'datetime': '2018-10-05 20:14:05.983481', 'mgs': 0, 'volt': 0.8203, 'depth': 0.317, 'time': 91, 'pitch': -28.04, 'roll': 0.22, 'pres': 168}
{'lipoC2': 7.71, 'lipoC3S1': 3.84, 'temp': 28.5, 'lipoC3S3': 11.6, 'lipoC3S2': 7.68, 'rot1': 267, 'rot0': 281, 'rot3': 198, 'rot2': 158, 'state': 'normal', 'yaw': 22.94, 'datetime': '2018-10-05 20:14:05.993253', 'mgs': 0, 'volt': 0.8203, 'depth': 0.317, 'time': 91, 'pitch': -28.13, 'roll': 0.33, 'pres': 168}
{'lipoC2': 7.72, 'lipoC3S1': 3.84, 'temp': 28.56, 'lipoC3S3': 11.6, 'lipoC3S2': 7.68, 'rot1': 267, 'rot0': 281, 'rot3': 198, 'rot2': 158, 'state': 'normal', 'yaw': 22.91, 'datetime': '2018-10-05 20:14:06.003044', 'mgs': 0, 'volt': 0.8203, 'depth': 0.317, 'time': 91, 'pitch': -28.21, 'roll': 0.35, 'pres': 168}
{'lipoC2': 7.72, 'lipoC3S1': 3.84, 'temp': 28.56, 'lipoC3S3': 11.6, 'lipoC3S2': 7.68, 'rot1': 267, 'rot0': 281, 'rot3': 198, 'rot2': 158, 'state': 'normal', 'yaw': 22.92, 'datetime': '2018-10-05 20:14:06.012963', 'mgs': 0, 'volt': 0.8203, 'depth': 0.317, 'time': 91, 'pitch': -28.21, 'roll': 0.34, 'pres': 168}
{'lipoC2': 7.72, 'lipoC3S1': 3.84, 'temp': 28.56, 'lipoC3S3': 11.6, 'lipoC3S2': 7.68, 'rot1': 267, 'rot0': 281, 'rot3': 198, 'rot2': 158, 'state': 'normal', 'yaw': 22.91, 'datetime': '2018-10-05 20:14:06.022804', 'mgs': 0, 'volt': 0.8203, 'depth': 0.317, 'time': 91, 'pitch': -28.19, 'roll': 0.27, 'pres': 168}
{'lipoC2': 7.71, 'lipoC3S1': 3.84, 'temp': 28.56, 'lipoC3S3': 11.6, 'lipoC3S2': 7.68, 'rot1': 267, 'rot0': 281, 'rot3': 198, 'rot2': 158, 'state': 'normal', 'yaw': 22.91, 'datetime': '2018-10-05 20:14:06.032644', 'mgs': 0, 'volt': 0.8203, 'depth': 0.317, 'time': 92, 'pitch': -28.12, 'roll': 0.25, 'pres': 168}
{'lipoC2': 7.71, 'lipoC3S1': 3.84, 'temp': 28.56, 'lipoC3S3': 11.6, 'lipoC3S2': 7.68, 'rot1': 267, 'rot0': 281, 'rot3': 198, 'rot2': 158, 'state': 'normal', 'yaw': 22.92, 'datetime': '2018-10-05 20:14:06.042489', 'mgs': 0, 'volt': 0.8252, 'depth': 0.394, 'time': 92, 'pitch': -28.03, 'roll': 0.25, 'pres': 169}
{'lipoC2': 7.71, 'lipoC3S1': 3.84, 'temp': 28.56, 'lipoC3S3': 11.6, 'lipoC3S2': 7.68, 'rot1': 267, 'rot0': 281, 'rot3': 198, 'rot2': 158, 'state': 'normal', 'yaw': 22.92, 'datetime': '2018-10-05 20:14:06.052271', 'mgs': 0, 'volt': 0.8203, 'depth': 0.317, 'time': 92, 'pitch': -28.0, 'roll': 0.25, 'pres': 168}
{'lipoC2': 7.71, 'lipoC3S1': 3.84, 'temp': 28.56, 'lipoC3S3': 11.6, 'lipoC3S2': 7.68, 'rot1': 267, 'rot0': 281, 'rot3': 198, 'rot2': 158, 'state': 'normal', 'yaw': 22.91, 'datetime': '2018-10-05 20:14:06.062075', 'mgs': 0, 'volt': 0.8203, 'depth': 0.317, 'time': 92, 'pitch': -27.99, 'roll': 0.26, 'pres': 168}
{'lipoC2': 7.71, 'lipoC3S1': 3.84, 'temp': 28.63, 'lipoC3S3': 11.6, 'lipoC3S2': 7.68, 'rot1': 267, 'rot0': 281, 'rot3': 198, 'rot2': 158, 'state': 'normal', 'yaw': 22.91, 'datetime': '2018-10-05 20:14:06.071961', 'mgs': 0, 'volt': 0.8203, 'depth': 0.317, 'time': 92, 'pitch': -27.98, 'roll': 0.29, 'pres': 168}
{'lipoC2': 7.71, 'lipoC3S1': 3.84, 'temp': 28.63, 'lipoC3S3': 11.6, 'lipoC3S2': 7.68, 'rot1': 267, 'rot0': 281, 'rot3': 198, 'rot2': 158, 'state': 'normal', 'yaw': 22.93, 'datetime': '2018-10-05 20:14:06.081768', 'mgs': 0, 'volt': 0.8203, 'depth': 0.317, 'time': 92, 'pitch': -27.98, 'roll': 0.34, 'pres': 168}
{'lipoC2': 7.71, 'lipoC3S1': 3.84, 'temp': 28.63, 'lipoC3S3': 11.6, 'lipoC3S2': 7.68, 'rot1': 267, 'rot0': 281, 'rot3': 198, 'rot2': 158, 'state': 'normal', 'yaw': 22.99, 'datetime': '2018-10-05 20:14:06.149404', 'mgs': 0, 'volt': 0.8203, 'depth': 0.317, 'time': 92, 'pitch': -27.97, 'roll': 0.34, 'pres': 168}
{'lipoC2': 7.72, 'lipoC3S1': 3.84, 'temp': 28.63, 'lipoC3S3': 11.6, 'lipoC3S2': 7.68, 'rot1': 267, 'rot0': 281, 'rot3': 198, 'rot2': 158, 'state': 'normal', 'yaw': 23.0, 'datetime': '2018-10-05 20:14:06.253681', 'mgs': 0, 'volt': 0.8203, 'depth': 0.317, 'time': 92, 'pitch': -27.97, 'roll': 0.36, 'pres': 168}
{'lipoC2': 7.71, 'lipoC3S1': 3.84, 'temp': 28.56, 'lipoC3S3': 11.6, 'lipoC3S2': 7.68, 'rot1': 267, 'rot0': 281, 'rot3': 198, 'rot2': 158, 'state': 'normal', 'yaw': 23.01, 'datetime': '2018-10-05 20:14:06.358626', 'mgs': 0, 'volt': 0.8252, 'depth': 0.394, 'time': 92, 'pitch': -27.97, 'roll': 0.35, 'pres': 169}
{'lipoC2': 7.71, 'lipoC3S1': 3.84, 'temp': 28.56, 'lipoC3S3': 11.6, 'lipoC3S2': 7.68, 'rot1': 267, 'rot0': 281, 'rot3': 198, 'rot2': 158, 'state': 'normal', 'yaw': 23.05, 'datetime': '2018-10-05 20:14:06.463687', 'mgs': 0, 'volt': 0.8203, 'depth': 0.317, 'time': 93, 'pitch': -27.97, 'roll': 0.34, 'pres': 168}
{'lipoC2': 7.72, 'lipoC3S1': 3.84, 'temp': 28.56, 'lipoC3S3': 11.6, 'lipoC3S2': 7.68, 'rot1': 267, 'rot0': 281, 'rot3': 198, 'rot2': 158, 'state': 'normal', 'yaw': 23.05, 'datetime': '2018-10-05 20:14:06.567860', 'mgs': 0, 'volt': 0.8203, 'depth': 0.317, 'time': 93, 'pitch': -27.97, 'roll': 0.34, 'pres': 168}
{'lipoC2': 7.72, 'lipoC3S1': 3.84, 'temp': 28.56, 'lipoC3S3': 11.6, 'lipoC3S2': 7.68, 'rot1': 267, 'rot0': 281, 'rot3': 198, 'rot2': 158, 'state': 'normal', 'yaw': 23.05, 'datetime': '2018-10-05 20:14:06.673402', 'mgs': 0, 'volt': 0.8203, 'depth': 0.317, 'time': 93, 'pitch': -27.97, 'roll': 0.35, 'pres': 168}
{'lipoC2': 7.72, 'lipoC3S1': 3.84, 'temp': 28.56, 'lipoC3S3': 11.6, 'lipoC3S2': 7.68, 'rot1': 267, 'rot0': 281, 'rot3': 198, 'rot2': 158, 'state': 'normal', 'yaw': 23.05, 'datetime': '2018-10-05 20:14:06.777597', 'mgs': 0, 'volt': 0.8252, 'depth': 0.394, 'time': 93, 'pitch': -27.97, 'roll': 0.36, 'pres': 169}
{'lipoC2': 7.72, 'lipoC3S1': 3.84, 'temp': 28.63, 'lipoC3S3': 11.6, 'lipoC3S2': 7.68, 'rot1': 267, 'rot0': 281, 'rot3': 198, 'rot2': 158, 'state': 'normal', 'yaw': 23.05, 'datetime': '2018-10-05 20:14:06.883130', 'mgs': 0, 'volt': 0.8252, 'depth': 0.394, 'time': 93, 'pitch': -27.97, 'roll': 0.36, 'pres': 169}
{'lipoC2': 7.71, 'lipoC3S1': 3.84, 'temp': 28.63, 'lipoC3S3': 11.6, 'lipoC3S2': 7.68, 'rot1': 267, 'rot0': 281, 'rot3': 198, 'rot2': 158, 'state': 'normal', 'yaw': 23.02, 'datetime': '2018-10-05 20:14:06.987338', 'mgs': 0, 'volt': 0.8203, 'depth': 0.317, 'time': 93, 'pitch': -27.89, 'roll': 0.37, 'pres': 168}
{'lipoC2': 7.72, 'lipoC3S1': 3.84, 'temp': 28.56, 'lipoC3S3': 11.6, 'lipoC3S2': 7.68, 'rot1': 267, 'rot0': 281, 'rot3': 198, 'rot2': 158, 'state': 'normal', 'yaw': 23.02, 'datetime': '2018-10-05 20:14:07.102075', 'mgs': 0, 'volt': 0.8252, 'depth': 0.394, 'time': 93, 'pitch': -27.84, 'roll': 0.31, 'pres': 169}
{'lipoC2': 7.72, 'lipoC3S1': 3.84, 'temp': 28.56, 'lipoC3S3': 11.6, 'lipoC3S2': 7.68, 'rot1': 267, 'rot0': 281, 'rot3': 198, 'rot2': 158, 'state': 'normal', 'yaw': 23.03, 'datetime': '2018-10-05 20:14:07.207622', 'mgs': 0, 'volt': 0.8252, 'depth': 0.394, 'time': 93, 'pitch': -27.85, 'roll': 0.23, 'pres': 169}
{'lipoC2': 7.71, 'lipoC3S1': 3.84, 'temp': 28.56, 'lipoC3S3': 11.6, 'lipoC3S2': 7.68, 'rot1': 267, 'rot0': 281, 'rot3': 198, 'rot2': 158, 'state': 'normal', 'yaw': 23.02, 'datetime': '2018-10-05 20:14:07.311154', 'mgs': 0, 'volt': 0.8203, 'depth': 0.317, 'time': 93, 'pitch': -27.93, 'roll': 0.23, 'pres': 168}
{'lipoC2': 7.72, 'lipoC3S1': 3.84, 'temp': 28.56, 'lipoC3S3': 11.6, 'lipoC3S2': 7.68, 'rot1': 267, 'rot0': 281, 'rot3': 198, 'rot2': 158, 'state': 'normal', 'yaw': 23.02, 'datetime': '2018-10-05 20:14:07.416524', 'mgs': 0, 'volt': 0.8203, 'depth': 0.317, 'time': 93, 'pitch': -28.05, 'roll': 0.25, 'pres': 168}
{'lipoC2': 7.72, 'lipoC3S1': 3.84, 'temp': 28.56, 'lipoC3S3': 11.6, 'lipoC3S2': 7.68, 'rot1': 267, 'rot0': 281, 'rot3': 198, 'rot2': 158, 'state': 'normal', 'yaw': 23.02, 'datetime': '2018-10-05 20:14:07.521014', 'mgs': 0, 'volt': 0.8252, 'depth': 0.394, 'time': 94, 'pitch': -28.12, 'roll': 0.31, 'pres': 169}
{'lipoC2': 7.72, 'lipoC3S1': 3.84, 'temp': 28.56, 'lipoC3S3': 11.6, 'lipoC3S2': 7.68, 'rot1': 267, 'rot0': 281, 'rot3': 198, 'rot2': 158, 'state': 'normal', 'yaw': 23.02, 'datetime': '2018-10-05 20:14:07.624401', 'mgs': 0, 'volt': 0.8203, 'depth': 0.317, 'time': 94, 'pitch': -28.12, 'roll': 0.39, 'pres': 168}
{'lipoC2': 7.71, 'lipoC3S1': 3.84, 'temp': 28.56, 'lipoC3S3': 11.6, 'lipoC3S2': 7.68, 'rot1': 267, 'rot0': 281, 'rot3': 198, 'rot2': 158, 'state': 'normal', 'yaw': 23.03, 'datetime': '2018-10-05 20:14:07.730306', 'mgs': 0, 'volt': 0.8203, 'depth': 0.317, 'time': 94, 'pitch': -28.07, 'roll': 0.41, 'pres': 168}
{'lipoC2': 7.72, 'lipoC3S1': 3.84, 'temp': 28.56, 'lipoC3S3': 11.6, 'lipoC3S2': 7.68, 'rot1': 267, 'rot0': 281, 'rot3': 198, 'rot2': 158, 'state': 'normal', 'yaw': 23.06, 'datetime': '2018-10-05 20:14:07.835881', 'mgs': 0, 'volt': 0.8203, 'depth': 0.317, 'time': 94, 'pitch': -28.01, 'roll': 0.4, 'pres': 168}
{'lipoC2': 7.72, 'lipoC3S1': 3.84, 'temp': 28.56, 'lipoC3S3': 11.6, 'lipoC3S2': 7.68, 'rot1': 267, 'rot0': 281, 'rot3': 198, 'rot2': 158, 'state': 'normal', 'yaw': 23.15, 'datetime': '2018-10-05 20:14:07.940099', 'mgs': 0, 'volt': 0.8203, 'depth': 0.317, 'time': 94, 'pitch': -27.95, 'roll': 0.35, 'pres': 168}
{'lipoC2': 7.71, 'lipoC3S1': 3.84, 'temp': 28.56, 'lipoC3S3': 11.6, 'lipoC3S2': 7.68, 'rot1': 267, 'rot0': 281, 'rot3': 198, 'rot2': 158, 'state': 'normal', 'yaw': 23.15, 'datetime': '2018-10-05 20:14:08.045543', 'mgs': 0, 'volt': 0.8203, 'depth': 0.317, 'time': 94, 'pitch': -27.99, 'roll': 0.34, 'pres': 168}
{'lipoC2': 7.71, 'lipoC3S1': 3.84, 'temp': 28.56, 'lipoC3S3': 11.6, 'lipoC3S2': 7.68, 'rot1': 267, 'rot0': 281, 'rot3': 198, 'rot2': 158, 'state': 'normal', 'yaw': 23.15, 'datetime': '2018-10-05 20:14:08.144360', 'mgs': 0, 'volt': 0.8203, 'depth': 0.317, 'time': 94, 'pitch': -28.08, 'roll': 0.34, 'pres': 168}
{'lipoC2': 7.71, 'lipoC3S1': 3.84, 'temp': 28.56, 'lipoC3S3': 11.6, 'lipoC3S2': 7.68, 'rot1': 267, 'rot0': 281, 'rot3': 198, 'rot2': 158, 'state': 'normal', 'yaw': 23.16, 'datetime': '2018-10-05 20:14:08.249922', 'mgs': 0, 'volt': 0.8203, 'depth': 0.317, 'time': 94, 'pitch': -28.2, 'roll': 0.34, 'pres': 168}
{'lipoC2': 7.72, 'lipoC3S1': 3.84, 'temp': 28.56, 'lipoC3S3': 11.6, 'lipoC3S2': 7.68, 'rot1': 267, 'rot0': 281, 'rot3': 198, 'rot2': 158, 'state': 'normal', 'yaw': 23.15, 'datetime': '2018-10-05 20:14:08.354917', 'mgs': 0, 'volt': 0.8252, 'depth': 0.394, 'time': 94, 'pitch': -28.24, 'roll': 0.34, 'pres': 169}
{'lipoC2': 7.71, 'lipoC3S1': 3.84, 'temp': 28.56, 'lipoC3S3': 11.6, 'lipoC3S2': 7.68, 'rot1': 267, 'rot0': 281, 'rot3': 198, 'rot2': 158, 'state': 'normal', 'yaw': 23.15, 'datetime': '2018-10-05 20:14:08.459174', 'mgs': 0, 'volt': 0.8203, 'depth': 0.317, 'time': 95, 'pitch': -28.25, 'roll': 0.37, 'pres': 168}
{'lipoC2': 7.72, 'lipoC3S1': 3.84, 'temp': 28.56, 'lipoC3S3': 11.6, 'lipoC3S2': 7.68, 'rot1': 267, 'rot0': 281, 'rot3': 198, 'rot2': 158, 'state': 'normal', 'yaw': 23.16, 'datetime': '2018-10-05 20:14:08.564649', 'mgs': 0, 'volt': 0.8203, 'depth': 0.317, 'time': 95, 'pitch': -28.24, 'roll': 0.44, 'pres': 168}
{'lipoC2': 7.71, 'lipoC3S1': 3.84, 'temp': 28.56, 'lipoC3S3': 11.6, 'lipoC3S2': 7.68, 'rot1': 267, 'rot0': 281, 'rot3': 198, 'rot2': 158, 'state': 'normal', 'yaw': 23.13, 'datetime': '2018-10-05 20:14:08.668854', 'mgs': 0, 'volt': 0.8252, 'depth': 0.394, 'time': 95, 'pitch': -28.25, 'roll': 0.52, 'pres': 169}
{'lipoC2': 7.71, 'lipoC3S1': 3.84, 'temp': 28.56, 'lipoC3S3': 11.6, 'lipoC3S2': 7.68, 'rot1': 267, 'rot0': 281, 'rot3': 198, 'rot2': 158, 'state': 'normal', 'yaw': 23.13, 'datetime': '2018-10-05 20:14:08.774371', 'mgs': 0, 'volt': 0.8203, 'depth': 0.317, 'time': 95, 'pitch': -28.25, 'roll': 0.53, 'pres': 168}
{'lipoC2': 7.72, 'lipoC3S1': 3.84, 'temp': 28.56, 'lipoC3S3': 11.6, 'lipoC3S2': 7.68, 'rot1': 267, 'rot0': 281, 'rot3': 198, 'rot2': 158, 'state': 'normal', 'yaw': 23.13, 'datetime': '2018-10-05 20:14:08.878510', 'mgs': 0, 'volt': 0.8203, 'depth': 0.317, 'time': 95, 'pitch': -28.29, 'roll': 0.52, 'pres': 168}
{'lipoC2': 7.71, 'lipoC3S1': 3.84, 'temp': 28.56, 'lipoC3S3': 11.6, 'lipoC3S2': 7.68, 'rot1': 267, 'rot0': 281, 'rot3': 198, 'rot2': 158, 'state': 'normal', 'yaw': 23.13, 'datetime': '2018-10-05 20:14:08.984075', 'mgs': 0, 'volt': 0.8203, 'depth': 0.317, 'time': 95, 'pitch': -28.34, 'roll': 0.44, 'pres': 168}
{'lipoC2': 7.71, 'lipoC3S1': 3.84, 'temp': 28.56, 'lipoC3S3': 11.6, 'lipoC3S2': 7.68, 'rot1': 267, 'rot0': 281, 'rot3': 198, 'rot2': 158, 'state': 'normal', 'yaw': 23.13, 'datetime': '2018-10-05 20:14:09.088345', 'mgs': 0, 'volt': 0.8203, 'depth': 0.317, 'time': 95, 'pitch': -28.34, 'roll': 0.35, 'pres': 168}
{'lipoC2': 7.72, 'lipoC3S1': 3.84, 'temp': 28.56, 'lipoC3S3': 11.6, 'lipoC3S2': 7.68, 'rot1': 267, 'rot0': 281, 'rot3': 198, 'rot2': 158, 'state': 'normal', 'yaw': 23.14, 'datetime': '2018-10-05 20:14:09.193729', 'mgs': 0, 'volt': 0.8203, 'depth': 0.317, 'time': 95, 'pitch': -28.35, 'roll': 0.33, 'pres': 168}
{'lipoC2': 7.72, 'lipoC3S1': 3.84, 'temp': 28.5, 'lipoC3S3': 11.6, 'lipoC3S2': 7.68, 'rot1': 267, 'rot0': 281, 'rot3': 198, 'rot2': 158, 'state': 'normal', 'yaw': 23.13, 'datetime': '2018-10-05 20:14:09.298093', 'mgs': 0, 'volt': 0.8203, 'depth': 0.317, 'time': 95, 'pitch': -28.35, 'roll': 0.33, 'pres': 168}
{'lipoC2': 7.71, 'lipoC3S1': 3.84, 'temp': 28.5, 'lipoC3S3': 11.6, 'lipoC3S2': 7.68, 'rot1': 267, 'rot0': 281, 'rot3': 198, 'rot2': 158, 'state': 'normal', 'yaw': 23.13, 'datetime': '2018-10-05 20:14:09.402359', 'mgs': 0, 'volt': 0.8203, 'depth': 0.317, 'time': 95, 'pitch': -28.35, 'roll': 0.42, 'pres': 168}
{'lipoC2': 7.72, 'lipoC3S1': 3.84, 'temp': 28.56, 'lipoC3S3': 11.6, 'lipoC3S2': 7.68, 'rot1': 267, 'rot0': 281, 'rot3': 198, 'rot2': 158, 'state': 'normal', 'yaw': 23.14, 'datetime': '2018-10-05 20:14:09.507604', 'mgs': 0, 'volt': 0.8252, 'depth': 0.394, 'time': 96, 'pitch': -28.34, 'roll': 0.44, 'pres': 169}
{'lipoC2': 7.71, 'lipoC3S1': 3.84, 'temp': 28.56, 'lipoC3S3': 11.6, 'lipoC3S2': 7.68, 'rot1': 267, 'rot0': 281, 'rot3': 198, 'rot2': 158, 'state': 'normal', 'yaw': 23.23, 'datetime': '2018-10-05 20:14:09.614516', 'mgs': 0, 'volt': 0.8252, 'depth': 0.394, 'time': 96, 'pitch': -28.38, 'roll': 0.39, 'pres': 169}
{'lipoC2': 7.72, 'lipoC3S1': 3.84, 'temp': 28.56, 'lipoC3S3': 11.6, 'lipoC3S2': 7.68, 'rot1': 267, 'rot0': 281, 'rot3': 198, 'rot2': 158, 'state': 'normal', 'yaw': 23.31, 'datetime': '2018-10-05 20:14:09.717391', 'mgs': 0, 'volt': 0.8203, 'depth': 0.317, 'time': 96, 'pitch': -28.38, 'roll': 0.36, 'pres': 168}
{'lipoC2': 7.71, 'lipoC3S1': 3.84, 'temp': 28.56, 'lipoC3S3': 11.6, 'lipoC3S2': 7.68, 'rot1': 267, 'rot0': 281, 'rot3': 198, 'rot2': 158, 'state': 'normal', 'yaw': 23.4, 'datetime': '2018-10-05 20:14:09.821602', 'mgs': 0, 'volt': 0.8203, 'depth': 0.317, 'time': 96, 'pitch': -28.41, 'roll': 0.31, 'pres': 168}
{'lipoC2': 7.72, 'lipoC3S1': 3.84, 'temp': 28.56, 'lipoC3S3': 11.6, 'lipoC3S2': 7.68, 'rot1': 267, 'rot0': 281, 'rot3': 198, 'rot2': 158, 'state': 'normal', 'yaw': 23.5, 'datetime': '2018-10-05 20:14:09.927119', 'mgs': 0, 'volt': 0.8252, 'depth': 0.394, 'time': 96, 'pitch': -28.41, 'roll': 0.27, 'pres': 169}
{'lipoC2': 7.72, 'lipoC3S1': 3.84, 'temp': 28.56, 'lipoC3S3': 11.6, 'lipoC3S2': 7.68, 'rot1': 267, 'rot0': 281, 'rot3': 198, 'rot2': 158, 'state': 'normal', 'yaw': 23.5, 'datetime': '2018-10-05 20:14:10.031278', 'mgs': 0, 'volt': 0.8252, 'depth': 0.394, 'time': 96, 'pitch': -28.42, 'roll': 0.35, 'pres': 169}
{'lipoC2': 7.72, 'lipoC3S1': 3.84, 'temp': 28.56, 'lipoC3S3': 11.6, 'lipoC3S2': 7.68, 'rot1': 267, 'rot0': 281, 'rot3': 198, 'rot2': 158, 'state': 'normal', 'yaw': 23.5, 'datetime': '2018-10-05 20:14:10.136742', 'mgs': 0, 'volt': 0.8252, 'depth': 0.394, 'time': 96, 'pitch': -28.33, 'roll': 0.44, 'pres': 169}
{'lipoC2': 7.71, 'lipoC3S1': 3.84, 'temp': 28.56, 'lipoC3S3': 11.6, 'lipoC3S2': 7.68, 'rot1': 267, 'rot0': 281, 'rot3': 198, 'rot2': 158, 'state': 'normal', 'yaw': 23.49, 'datetime': '2018-10-05 20:14:10.240989', 'mgs': 0, 'volt': 0.8203, 'depth': 0.317, 'time': 96, 'pitch': -28.26, 'roll': 0.5, 'pres': 168}
{'lipoC2': 7.71, 'lipoC3S1': 3.84, 'temp': 28.56, 'lipoC3S3': 11.6, 'lipoC3S2': 7.68, 'rot1': 267, 'rot0': 281, 'rot3': 198, 'rot2': 158, 'state': 'normal', 'yaw': 23.49, 'datetime': '2018-10-05 20:14:10.346046', 'mgs': 0, 'volt': 0.8252, 'depth': 0.394, 'time': 96, 'pitch': -28.26, 'roll': 0.5, 'pres': 169}
{'lipoC2': 7.72, 'lipoC3S1': 3.84, 'temp': 28.56, 'lipoC3S3': 11.6, 'lipoC3S2': 7.68, 'rot1': 267, 'rot0': 281, 'rot3': 198, 'rot2': 158, 'state': 'normal', 'yaw': 23.5, 'datetime': '2018-10-05 20:14:10.450829', 'mgs': 0, 'volt': 0.8252, 'depth': 0.394, 'time': 97, 'pitch': -28.34, 'roll': 0.51, 'pres': 169}
{'lipoC2': 7.72, 'lipoC3S1': 3.84, 'temp': 28.56, 'lipoC3S3': 11.6, 'lipoC3S2': 7.68, 'rot1': 267, 'rot0': 281, 'rot3': 198, 'rot2': 158, 'state': 'normal', 'yaw': 23.5, 'datetime': '2018-10-05 20:14:10.555061', 'mgs': 0, 'volt': 0.8252, 'depth': 0.394, 'time': 97, 'pitch': -28.52, 'roll': 0.48, 'pres': 169}
{'lipoC2': 7.71, 'lipoC3S1': 3.84, 'temp': 28.56, 'lipoC3S3': 11.6, 'lipoC3S2': 7.68, 'rot1': 267, 'rot0': 281, 'rot3': 198, 'rot2': 158, 'state': 'normal', 'yaw': 23.49, 'datetime': '2018-10-05 20:14:10.660481', 'mgs': 0, 'volt': 0.8252, 'depth': 0.394, 'time': 97, 'pitch': -28.62, 'roll': 0.46, 'pres': 169}
{'lipoC2': 7.71, 'lipoC3S1': 3.84, 'temp': 28.56, 'lipoC3S3': 11.6, 'lipoC3S2': 7.68, 'rot1': 267, 'rot0': 281, 'rot3': 198, 'rot2': 158, 'state': 'normal', 'yaw': 23.49, 'datetime': '2018-10-05 20:14:10.764752', 'mgs': 0, 'volt': 0.8252, 'depth': 0.394, 'time': 97, 'pitch': -28.64, 'roll': 0.46, 'pres': 169}
{'lipoC2': 7.71, 'lipoC3S1': 3.84, 'temp': 28.56, 'lipoC3S3': 11.6, 'lipoC3S2': 7.68, 'rot1': 267, 'rot0': 281, 'rot3': 198, 'rot2': 158, 'state': 'normal', 'yaw': 23.49, 'datetime': '2018-10-05 20:14:10.870285', 'mgs': 0, 'volt': 0.8252, 'depth': 0.394, 'time': 97, 'pitch': -28.64, 'roll': 0.46, 'pres': 169}
{'lipoC2': 7.72, 'lipoC3S1': 3.84, 'temp': 28.56, 'lipoC3S3': 11.6, 'lipoC3S2': 7.68, 'rot1': 267, 'rot0': 281, 'rot3': 198, 'rot2': 158, 'state': 'normal', 'yaw': 23.49, 'datetime': '2018-10-05 20:14:10.974454', 'mgs': 0, 'volt': 0.8252, 'depth': 0.394, 'time': 97, 'pitch': -28.54, 'roll': 0.46, 'pres': 169}
{'lipoC2': 7.71, 'lipoC3S1': 3.84, 'temp': 28.56, 'lipoC3S3': 11.6, 'lipoC3S2': 7.68, 'rot1': 267, 'rot0': 281, 'rot3': 198, 'rot2': 158, 'state': 'normal', 'yaw': 23.5, 'datetime': '2018-10-05 20:14:11.079949', 'mgs': 0, 'volt': 0.8252, 'depth': 0.394, 'time': 97, 'pitch': -28.44, 'roll': 0.46, 'pres': 169}
{'lipoC2': 7.71, 'lipoC3S1': 3.84, 'temp': 28.56, 'lipoC3S3': 11.6, 'lipoC3S2': 7.68, 'rot1': 267, 'rot0': 281, 'rot3': 198, 'rot2': 158, 'state': 'normal', 'yaw': 23.5, 'datetime': '2018-10-05 20:14:11.184368', 'mgs': 0, 'volt': 0.8252, 'depth': 0.394, 'time': 97, 'pitch': -28.3, 'roll': 0.46, 'pres': 169}
{'lipoC2': 7.72, 'lipoC3S1': 3.84, 'temp': 28.56, 'lipoC3S3': 11.6, 'lipoC3S2': 7.68, 'rot1': 267, 'rot0': 281, 'rot3': 198, 'rot2': 158, 'state': 'normal', 'yaw': 23.49, 'datetime': '2018-10-05 20:14:11.289727', 'mgs': 0, 'volt': 0.8203, 'depth': 0.317, 'time': 97, 'pitch': -28.32, 'roll': 0.46, 'pres': 168}
{'lipoC2': 7.71, 'lipoC3S1': 3.84, 'temp': 28.56, 'lipoC3S3': 11.6, 'lipoC3S2': 7.68, 'rot1': 267, 'rot0': 281, 'rot3': 198, 'rot2': 158, 'state': 'normal', 'yaw': 23.51, 'datetime': '2018-10-05 20:14:11.394214', 'mgs': 0, 'volt': 0.8203, 'depth': 0.317, 'time': 97, 'pitch': -28.41, 'roll': 0.46, 'pres': 168}
{'lipoC2': 7.71, 'lipoC3S1': 3.84, 'temp': 28.56, 'lipoC3S3': 11.6, 'lipoC3S2': 7.68, 'rot1': 267, 'rot0': 281, 'rot3': 198, 'rot2': 158, 'state': 'normal', 'yaw': 23.53, 'datetime': '2018-10-05 20:14:11.499442', 'mgs': 0, 'volt': 0.8252, 'depth': 0.394, 'time': 98, 'pitch': -28.56, 'roll': 0.44, 'pres': 169}
{'lipoC2': 7.71, 'lipoC3S1': 3.84, 'temp': 28.56, 'lipoC3S3': 11.6, 'lipoC3S2': 7.68, 'rot1': 267, 'rot0': 281, 'rot3': 198, 'rot2': 158, 'state': 'normal', 'yaw': 23.53, 'datetime': '2018-10-05 20:14:11.604038', 'mgs': 0, 'volt': 0.8203, 'depth': 0.317, 'time': 98, 'pitch': -28.65, 'roll': 0.44, 'pres': 168}
{'lipoC2': 7.71, 'lipoC3S1': 3.84, 'temp': 28.56, 'lipoC3S3': 11.6, 'lipoC3S2': 7.68, 'rot1': 267, 'rot0': 281, 'rot3': 198, 'rot2': 158, 'state': 'normal', 'yaw': 23.53, 'datetime': '2018-10-05 20:14:11.708301', 'mgs': 0, 'volt': 0.8203, 'depth': 0.317, 'time': 98, 'pitch': -28.65, 'roll': 0.44, 'pres': 168}
{'lipoC2': 7.71, 'lipoC3S1': 3.84, 'temp': 28.56, 'lipoC3S3': 11.6, 'lipoC3S2': 7.68, 'rot1': 267, 'rot0': 281, 'rot3': 198, 'rot2': 158, 'state': 'normal', 'yaw': 23.59, 'datetime': '2018-10-05 20:14:11.812584', 'mgs': 0, 'volt': 0.8252, 'depth': 0.394, 'time': 98, 'pitch': -28.6, 'roll': 0.41, 'pres': 169}
{'lipoC2': 7.71, 'lipoC3S1': 3.84, 'temp': 28.56, 'lipoC3S3': 11.6, 'lipoC3S2': 7.68, 'rot1': 267, 'rot0': 281, 'rot3': 198, 'rot2': 158, 'state': 'normal', 'yaw': 23.63, 'datetime': '2018-10-05 20:14:11.916724', 'mgs': 0, 'volt': 0.8252, 'depth': 0.394, 'time': 98, 'pitch': -28.49, 'roll': 0.39, 'pres': 169}
{'lipoC2': 7.71, 'lipoC3S1': 3.84, 'temp': 28.56, 'lipoC3S3': 11.6, 'lipoC3S2': 7.68, 'rot1': 267, 'rot0': 281, 'rot3': 198, 'rot2': 158, 'state': 'normal', 'yaw': 23.63, 'datetime': '2018-10-05 20:14:12.022189', 'mgs': 0, 'volt': 0.8203, 'depth': 0.317, 'time': 98, 'pitch': -28.47, 'roll': 0.39, 'pres': 168}
{'lipoC2': 7.71, 'lipoC3S1': 3.84, 'temp': 28.56, 'lipoC3S3': 11.6, 'lipoC3S2': 7.68, 'rot1': 267, 'rot0': 281, 'rot3': 198, 'rot2': 158, 'state': 'normal', 'yaw': 23.63, 'datetime': '2018-10-05 20:14:12.126344', 'mgs': 0, 'volt': 0.8203, 'depth': 0.317, 'time': 98, 'pitch': -28.49, 'roll': 0.42, 'pres': 168}
{'lipoC2': 7.71, 'lipoC3S1': 3.84, 'temp': 28.56, 'lipoC3S3': 11.6, 'lipoC3S2': 7.68, 'rot1': 267, 'rot0': 281, 'rot3': 198, 'rot2': 158, 'state': 'normal', 'yaw': 23.63, 'datetime': '2018-10-05 20:14:12.231947', 'mgs': 0, 'volt': 0.8203, 'depth': 0.317, 'time': 98, 'pitch': -28.57, 'roll': 0.44, 'pres': 168}
{'lipoC2': 7.72, 'lipoC3S1': 3.84, 'temp': 28.56, 'lipoC3S3': 11.6, 'lipoC3S2': 7.68, 'rot1': 267, 'rot0': 281, 'rot3': 198, 'rot2': 158, 'state': 'normal', 'yaw': 23.63, 'datetime': '2018-10-05 20:14:12.336378', 'mgs': 0, 'volt': 0.8203, 'depth': 0.317, 'time': 98, 'pitch': -28.57, 'roll': 0.45, 'pres': 168}
{'lipoC2': 7.71, 'lipoC3S1': 3.84, 'temp': 28.56, 'lipoC3S3': 11.6, 'lipoC3S2': 7.68, 'rot1': 267, 'rot0': 281, 'rot3': 198, 'rot2': 158, 'state': 'normal', 'yaw': 23.63, 'datetime': '2018-10-05 20:14:12.441469', 'mgs': 0, 'volt': 0.8203, 'depth': 0.317, 'time': 98, 'pitch': -28.57, 'roll': 0.45, 'pres': 168}
{'lipoC2': 7.71, 'lipoC3S1': 3.84, 'temp': 28.56, 'lipoC3S3': 11.6, 'lipoC3S2': 7.68, 'rot1': 267, 'rot0': 281, 'rot3': 198, 'rot2': 158, 'state': 'normal', 'yaw': 23.63, 'datetime': '2018-10-05 20:14:12.546187', 'mgs': 0, 'volt': 0.8203, 'depth': 0.317, 'time': 99, 'pitch': -28.44, 'roll': 0.44, 'pres': 168}
{'lipoC2': 7.72, 'lipoC3S1': 3.84, 'temp': 28.56, 'lipoC3S3': 11.6, 'lipoC3S2': 7.68, 'rot1': 267, 'rot0': 281, 'rot3': 198, 'rot2': 158, 'state': 'normal', 'yaw': 23.63, 'datetime': '2018-10-05 20:14:12.650875', 'mgs': 0, 'volt': 0.8203, 'depth': 0.317, 'time': 99, 'pitch': -28.32, 'roll': 0.4, 'pres': 168}
{'lipoC2': 7.72, 'lipoC3S1': 3.84, 'temp': 28.5, 'lipoC3S3': 11.6, 'lipoC3S2': 7.68, 'rot1': 267, 'rot0': 281, 'rot3': 198, 'rot2': 158, 'state': 'normal', 'yaw': 23.63, 'datetime': '2018-10-05 20:14:12.756132', 'mgs': 0, 'volt': 0.8203, 'depth': 0.317, 'time': 99, 'pitch': -28.25, 'roll': 0.41, 'pres': 168}
{'lipoC2': 7.71, 'lipoC3S1': 3.84, 'temp': 28.5, 'lipoC3S3': 11.6, 'lipoC3S2': 7.68, 'rot1': 267, 'rot0': 281, 'rot3': 198, 'rot2': 158, 'state': 'normal', 'yaw': 23.63, 'datetime': '2018-10-05 20:14:12.860367', 'mgs': 0, 'volt': 0.8203, 'depth': 0.317, 'time': 99, 'pitch': -28.3, 'roll': 0.4, 'pres': 168}
{'lipoC2': 7.71, 'lipoC3S1': 3.84, 'temp': 28.56, 'lipoC3S3': 11.6, 'lipoC3S2': 7.68, 'rot1': 267, 'rot0': 281, 'rot3': 198, 'rot2': 158, 'state': 'normal', 'yaw': 23.63, 'datetime': '2018-10-05 20:14:12.964855', 'mgs': 0, 'volt': 0.8252, 'depth': 0.394, 'time': 99, 'pitch': -28.41, 'roll': 0.43, 'pres': 169}
{'lipoC2': 7.71, 'lipoC3S1': 3.84, 'temp': 28.56, 'lipoC3S3': 11.6, 'lipoC3S2': 7.68, 'rot1': 267, 'rot0': 281, 'rot3': 198, 'rot2': 158, 'state': 'normal', 'yaw': 23.63, 'datetime': '2018-10-05 20:14:13.069048', 'mgs': 0, 'volt': 0.8203, 'depth': 0.317, 'time': 99, 'pitch': -28.5, 'roll': 0.54, 'pres': 168}
{'lipoC2': 7.72, 'lipoC3S1': 3.84, 'temp': 28.5, 'lipoC3S3': 11.61, 'lipoC3S2': 7.68, 'rot1': 267, 'rot0': 281, 'rot3': 198, 'rot2': 158, 'state': 'normal', 'yaw': 23.63, 'datetime': '2018-10-05 20:14:13.174171', 'mgs': 0, 'volt': 0.8203, 'depth': 0.317, 'time': 99, 'pitch': -28.52, 'roll': 0.63, 'pres': 168}
{'lipoC2': 7.71, 'lipoC3S1': 3.84, 'temp': 28.5, 'lipoC3S3': 11.6, 'lipoC3S2': 7.68, 'rot1': 267, 'rot0': 281, 'rot3': 198, 'rot2': 158, 'state': 'normal', 'yaw': 23.63, 'datetime': '2018-10-05 20:14:13.278365', 'mgs': 0, 'volt': 0.8203, 'depth': 0.317, 'time': 99, 'pitch': -28.48, 'roll': 0.65, 'pres': 168}
{'lipoC2': 7.72, 'lipoC3S1': 3.84, 'temp': 28.56, 'lipoC3S3': 11.6, 'lipoC3S2': 7.68, 'rot1': 267, 'rot0': 281, 'rot3': 198, 'rot2': 158, 'state': 'normal', 'yaw': 23.69, 'datetime': '2018-10-05 20:14:13.382567', 'mgs': 0, 'volt': 0.8203, 'depth': 0.317, 'time': 99, 'pitch': -28.36, 'roll': 0.63, 'pres': 168}
{'lipoC2': 7.71, 'lipoC3S1': 3.84, 'temp': 28.56, 'lipoC3S3': 11.6, 'lipoC3S2': 7.68, 'rot1': 267, 'rot0': 281, 'rot3': 198, 'rot2': 158, 'state': 'normal', 'yaw': 23.72, 'datetime': '2018-10-05 20:14:13.488130', 'mgs': 0, 'volt': 0.8203, 'depth': 0.317, 'time': 100, 'pitch': -28.23, 'roll': 0.61, 'pres': 168}
{'lipoC2': 7.71, 'lipoC3S1': 3.84, 'temp': 28.56, 'lipoC3S3': 11.6, 'lipoC3S2': 7.68, 'rot1': 267, 'rot0': 281, 'rot3': 198, 'rot2': 158, 'state': 'normal', 'yaw': 23.76, 'datetime': '2018-10-05 20:14:13.592503', 'mgs': 0, 'volt': 0.8203, 'depth': 0.317, 'time': 100, 'pitch': -28.15, 'roll': 0.57, 'pres': 168}
{'lipoC2': 7.71, 'lipoC3S1': 3.84, 'temp': 28.56, 'lipoC3S3': 11.6, 'lipoC3S2': 7.68, 'rot1': 267, 'rot0': 281, 'rot3': 198, 'rot2': 158, 'state': 'normal', 'yaw': 23.86, 'datetime': '2018-10-05 20:14:13.698120', 'mgs': 0, 'volt': 0.8203, 'depth': 0.317, 'time': 100, 'pitch': -28.16, 'roll': 0.45, 'pres': 168}
{'lipoC2': 7.71, 'lipoC3S1': 3.84, 'temp': 28.56, 'lipoC3S3': 11.6, 'lipoC3S2': 7.68, 'rot1': 267, 'rot0': 281, 'rot3': 198, 'rot2': 158, 'state': 'normal', 'yaw': 23.88, 'datetime': '2018-10-05 20:14:13.802395', 'mgs': 0, 'volt': 0.8252, 'depth': 0.394, 'time': 100, 'pitch': -28.21, 'roll': 0.41, 'pres': 169}
{'lipoC2': 7.71, 'lipoC3S1': 3.84, 'temp': 28.56, 'lipoC3S3': 11.6, 'lipoC3S2': 7.68, 'rot1': 267, 'rot0': 281, 'rot3': 198, 'rot2': 158, 'state': 'normal', 'yaw': 23.88, 'datetime': '2018-10-05 20:14:13.911573', 'mgs': 0, 'volt': 0.8203, 'depth': 0.317, 'time': 100, 'pitch': -28.26, 'roll': 0.41, 'pres': 168}
{'lipoC2': 7.71, 'lipoC3S1': 3.84, 'temp': 28.56, 'lipoC3S3': 11.6, 'lipoC3S2': 7.68, 'rot1': 267, 'rot0': 281, 'rot3': 198, 'rot2': 158, 'state': 'normal', 'yaw': 23.88, 'datetime': '2018-10-05 20:14:14.012624', 'mgs': 0, 'volt': 0.8252, 'depth': 0.394, 'time': 100, 'pitch': -28.26, 'roll': 0.49, 'pres': 169}
{'lipoC2': 7.71, 'lipoC3S1': 3.84, 'temp': 28.5, 'lipoC3S3': 11.6, 'lipoC3S2': 7.68, 'rot1': 267, 'rot0': 281, 'rot3': 198, 'rot2': 158, 'state': 'normal', 'yaw': 23.87, 'datetime': '2018-10-05 20:14:14.116955', 'mgs': 0, 'volt': 0.8252, 'depth': 0.394, 'time': 100, 'pitch': -28.26, 'roll': 0.57, 'pres': 169}
{'lipoC2': 7.72, 'lipoC3S1': 3.84, 'temp': 28.5, 'lipoC3S3': 11.6, 'lipoC3S2': 7.68, 'rot1': 267, 'rot0': 281, 'rot3': 198, 'rot2': 158, 'state': 'normal', 'yaw': 23.82, 'datetime': '2018-10-05 20:14:14.221137', 'mgs': 0, 'volt': 0.8252, 'depth': 0.394, 'time': 100, 'pitch': -28.27, 'roll': 0.63, 'pres': 169}
{'lipoC2': 7.72, 'lipoC3S1': 3.84, 'temp': 28.5, 'lipoC3S3': 11.6, 'lipoC3S2': 7.68, 'rot1': 267, 'rot0': 281, 'rot3': 198, 'rot2': 158, 'state': 'normal', 'yaw': 23.82, 'datetime': '2018-10-05 20:14:14.325724', 'mgs': 0, 'volt': 0.8203, 'depth': 0.317, 'time': 100, 'pitch': -28.34, 'roll': 0.63, 'pres': 168}
{'lipoC2': 7.72, 'lipoC3S1': 3.84, 'temp': 28.5, 'lipoC3S3': 11.6, 'lipoC3S2': 7.68, 'rot1': 267, 'rot0': 281, 'rot3': 198, 'rot2': 158, 'state': 'normal', 'yaw': 23.81, 'datetime': '2018-10-05 20:14:14.430941', 'mgs': 0, 'volt': 0.8252, 'depth': 0.394, 'time': 100, 'pitch': -28.39, 'roll': 0.63, 'pres': 169}
{'lipoC2': 7.72, 'lipoC3S1': 3.84, 'temp': 28.5, 'lipoC3S3': 11.6, 'lipoC3S2': 7.68, 'rot1': 267, 'rot0': 281, 'rot3': 198, 'rot2': 158, 'state': 'normal', 'yaw': 23.91, 'datetime': '2018-10-05 20:14:14.535280', 'mgs': 0, 'volt': 0.8203, 'depth': 0.317, 'time': 101, 'pitch': -28.21, 'roll': 0.58, 'pres': 168}
{'lipoC2': 7.72, 'lipoC3S1': 3.84, 'temp': 28.56, 'lipoC3S3': 11.6, 'lipoC3S2': 7.68, 'rot1': 267, 'rot0': 281, 'rot3': 198, 'rot2': 158, 'state': 'normal', 'yaw': 23.95, 'datetime': '2018-10-05 20:14:14.640964', 'mgs': 0, 'volt': 0.8252, 'depth': 0.394, 'time': 101, 'pitch': -28.57, 'roll': 0.58, 'pres': 169}
{'lipoC2': 7.71, 'lipoC3S1': 3.84, 'temp': 28.56, 'lipoC3S3': 11.6, 'lipoC3S2': 7.68, 'rot1': 267, 'rot0': 281, 'rot3': 198, 'rot2': 158, 'state': 'normal', 'yaw': 23.77, 'datetime': '2018-10-05 20:14:14.745310', 'mgs': 0, 'volt': 0.8252, 'depth': 0.394, 'time': 101, 'pitch': -28.84, 'roll': 0.82, 'pres': 169}
{'lipoC2': 7.71, 'lipoC3S1': 3.84, 'temp': 28.56, 'lipoC3S3': 11.6, 'lipoC3S2': 7.68, 'rot1': 267, 'rot0': 281, 'rot3': 198, 'rot2': 158, 'state': 'normal', 'yaw': 23.54, 'datetime': '2018-10-05 20:14:14.850862', 'mgs': 0, 'volt': 0.8252, 'depth': 0.394, 'time': 101, 'pitch': -28.58, 'roll': 1.14, 'pres': 169}
{'lipoC2': 7.72, 'lipoC3S1': 3.84, 'temp': 28.56, 'lipoC3S3': 11.6, 'lipoC3S2': 7.68, 'rot1': 267, 'rot0': 281, 'rot3': 198, 'rot2': 158, 'state': 'normal', 'yaw': 23.38, 'datetime': '2018-10-05 20:14:14.955191', 'mgs': 0, 'volt': 0.8252, 'depth': 0.394, 'time': 101, 'pitch': -28.44, 'roll': 1.37, 'pres': 169}
{'lipoC2': 7.71, 'lipoC3S1': 3.84, 'temp': 28.56, 'lipoC3S3': 11.6, 'lipoC3S2': 7.68, 'rot1': 267, 'rot0': 281, 'rot3': 198, 'rot2': 158, 'state': 'normal', 'yaw': 23.53, 'datetime': '2018-10-05 20:14:15.060791', 'mgs': 0, 'volt': 0.8252, 'depth': 0.394, 'time': 101, 'pitch': -28.63, 'roll': 1.3, 'pres': 169}
{'lipoC2': 7.71, 'lipoC3S1': 3.84, 'temp': 28.5, 'lipoC3S3': 11.6, 'lipoC3S2': 7.68, 'rot1': 267, 'rot0': 281, 'rot3': 198, 'rot2': 158, 'state': 'normal', 'yaw': 23.55, 'datetime': '2018-10-05 20:14:15.165153', 'mgs': 0, 'volt': 0.8252, 'depth': 0.394, 'time': 101, 'pitch': -29.03, 'roll': 1.39, 'pres': 169}
{'lipoC2': 7.72, 'lipoC3S1': 3.84, 'temp': 28.5, 'lipoC3S3': 11.6, 'lipoC3S2': 7.68, 'rot1': 267, 'rot0': 281, 'rot3': 198, 'rot2': 158, 'state': 'normal', 'yaw': 23.46, 'datetime': '2018-10-05 20:14:15.269473', 'mgs': 0, 'volt': 0.8252, 'depth': 0.394, 'time': 101, 'pitch': -29.23, 'roll': 1.71, 'pres': 169}
{'lipoC2': 7.72, 'lipoC3S1': 3.84, 'temp': 28.5, 'lipoC3S3': 11.6, 'lipoC3S2': 7.68, 'rot1': 267, 'rot0': 281, 'rot3': 198, 'rot2': 158, 'state': 'normal', 'yaw': 23.22, 'datetime': '2018-10-05 20:14:15.373955', 'mgs': 0, 'volt': 0.8252, 'depth': 0.394, 'time': 101, 'pitch': -29.3, 'roll': 2.25, 'pres': 169}
{'lipoC2': 7.72, 'lipoC3S1': 3.84, 'temp': 28.5, 'lipoC3S3': 11.6, 'lipoC3S2': 7.68, 'rot1': 267, 'rot0': 281, 'rot3': 198, 'rot2': 158, 'state': 'normal', 'yaw': 22.83, 'datetime': '2018-10-05 20:14:15.478335', 'mgs': 0, 'volt': 0.8252, 'depth': 0.394, 'time': 102, 'pitch': -29.44, 'roll': 2.97, 'pres': 169}
{'lipoC2': 7.71, 'lipoC3S1': 3.84, 'temp': 28.56, 'lipoC3S3': 11.6, 'lipoC3S2': 7.68, 'rot1': 267, 'rot0': 281, 'rot3': 198, 'rot2': 158, 'state': 'normal', 'yaw': 22.52, 'datetime': '2018-10-05 20:14:15.582671', 'mgs': 0, 'volt': 0.8252, 'depth': 0.394, 'time': 102, 'pitch': -29.44, 'roll': 3.55, 'pres': 169}
{'lipoC2': 7.71, 'lipoC3S1': 3.84, 'temp': 28.56, 'lipoC3S3': 11.6, 'lipoC3S2': 7.68, 'rot1': 267, 'rot0': 281, 'rot3': 198, 'rot2': 158, 'state': 'normal', 'yaw': 22.33, 'datetime': '2018-10-05 20:14:15.687115', 'mgs': 0, 'volt': 0.8252, 'depth': 0.394, 'time': 102, 'pitch': -29.12, 'roll': 4.0, 'pres': 169}
{'lipoC2': 7.72, 'lipoC3S1': 3.84, 'temp': 28.56, 'lipoC3S3': 11.6, 'lipoC3S2': 7.68, 'rot1': 267, 'rot0': 281, 'rot3': 198, 'rot2': 158, 'state': 'normal', 'yaw': 22.33, 'datetime': '2018-10-05 20:14:15.792610', 'mgs': 0, 'volt': 0.8252, 'depth': 0.394, 'time': 102, 'pitch': -28.91, 'roll': 4.21, 'pres': 169}
{'lipoC2': 7.72, 'lipoC3S1': 3.84, 'temp': 28.5, 'lipoC3S3': 11.6, 'lipoC3S2': 7.68, 'rot1': 267, 'rot0': 281, 'rot3': 198, 'rot2': 158, 'state': 'normal', 'yaw': 22.42, 'datetime': '2018-10-05 20:14:15.896971', 'mgs': 0, 'volt': 0.8252, 'depth': 0.394, 'time': 102, 'pitch': -28.9, 'roll': 4.37, 'pres': 169}
{'lipoC2': 7.71, 'lipoC3S1': 3.84, 'temp': 28.5, 'lipoC3S3': 11.6, 'lipoC3S2': 7.68, 'rot1': 267, 'rot0': 281, 'rot3': 198, 'rot2': 158, 'state': 'normal', 'yaw': 22.36, 'datetime': '2018-10-05 20:14:16.002598', 'mgs': 0, 'volt': 0.8252, 'depth': 0.394, 'time': 102, 'pitch': -28.92, 'roll': 4.69, 'pres': 169}
{'lipoC2': 7.71, 'lipoC3S1': 3.84, 'temp': 28.56, 'lipoC3S3': 11.6, 'lipoC3S2': 7.68, 'rot1': 267, 'rot0': 281, 'rot3': 198, 'rot2': 158, 'state': 'normal', 'yaw': 22.02, 'datetime': '2018-10-05 20:14:16.106902', 'mgs': 0, 'volt': 0.8252, 'depth': 0.394, 'time': 102, 'pitch': -28.83, 'roll': 5.31, 'pres': 169}
{'lipoC2': 7.71, 'lipoC3S1': 3.84, 'temp': 28.56, 'lipoC3S3': 11.6, 'lipoC3S2': 7.68, 'rot1': 267, 'rot0': 281, 'rot3': 198, 'rot2': 158, 'state': 'normal', 'yaw': 21.6, 'datetime': '2018-10-05 20:14:16.212454', 'mgs': 0, 'volt': 0.8252, 'depth': 0.394, 'time': 102, 'pitch': -28.6, 'roll': 5.91, 'pres': 169}
{'lipoC2': 7.71, 'lipoC3S1': 3.84, 'temp': 28.56, 'lipoC3S3': 11.6, 'lipoC3S2': 7.68, 'rot1': 267, 'rot0': 281, 'rot3': 198, 'rot2': 158, 'state': 'normal', 'yaw': 21.21, 'datetime': '2018-10-05 20:14:16.316802', 'mgs': 0, 'volt': 0.8252, 'depth': 0.394, 'time': 102, 'pitch': -28.23, 'roll': 6.31, 'pres': 169}
{'lipoC2': 7.71, 'lipoC3S1': 3.84, 'temp': 28.56, 'lipoC3S3': 11.6, 'lipoC3S2': 7.68, 'rot1': 267, 'rot0': 281, 'rot3': 198, 'rot2': 158, 'state': 'normal', 'yaw': 20.88, 'datetime': '2018-10-05 20:14:16.421141', 'mgs': 0, 'volt': 0.8252, 'depth': 0.394, 'time': 102, 'pitch': -27.99, 'roll': 6.38, 'pres': 169}
{'lipoC2': 7.71, 'lipoC3S1': 3.84, 'temp': 28.56, 'lipoC3S3': 11.6, 'lipoC3S2': 7.68, 'rot1': 267, 'rot0': 281, 'rot3': 198, 'rot2': 158, 'state': 'normal', 'yaw': 20.45, 'datetime': '2018-10-05 20:14:16.525635', 'mgs': 0, 'volt': 0.8252, 'depth': 0.394, 'time': 103, 'pitch': -27.95, 'roll': 6.29, 'pres': 169}
{'lipoC2': 7.72, 'lipoC3S1': 3.84, 'temp': 28.5, 'lipoC3S3': 11.6, 'lipoC3S2': 7.68, 'rot1': 267, 'rot0': 281, 'rot3': 198, 'rot2': 158, 'state': 'normal', 'yaw': 19.92, 'datetime': '2018-10-05 20:14:16.629864', 'mgs': 0, 'volt': 0.8252, 'depth': 0.394, 'time': 103, 'pitch': -27.89, 'roll': 6.04, 'pres': 169}
{'lipoC2': 7.72, 'lipoC3S1': 3.84, 'temp': 28.5, 'lipoC3S3': 11.6, 'lipoC3S2': 7.68, 'rot1': 267, 'rot0': 281, 'rot3': 198, 'rot2': 158, 'state': 'normal', 'yaw': 19.39, 'datetime': '2018-10-05 20:14:16.734224', 'mgs': 0, 'volt': 0.8252, 'depth': 0.394, 'time': 103, 'pitch': -27.85, 'roll': 5.75, 'pres': 169}
{'lipoC2': 7.71, 'lipoC3S1': 3.84, 'temp': 28.56, 'lipoC3S3': 11.6, 'lipoC3S2': 7.68, 'rot1': 267, 'rot0': 281, 'rot3': 198, 'rot2': 158, 'state': 'normal', 'yaw': 18.8, 'datetime': '2018-10-05 20:14:16.838532', 'mgs': 0, 'volt': 0.8203, 'depth': 0.317, 'time': 103, 'pitch': -27.72, 'roll': 5.4, 'pres': 168}
{'lipoC2': 7.71, 'lipoC3S1': 3.84, 'temp': 28.56, 'lipoC3S3': 11.6, 'lipoC3S2': 7.68, 'rot1': 267, 'rot0': 281, 'rot3': 198, 'rot2': 158, 'state': 'normal', 'yaw': 18.29, 'datetime': '2018-10-05 20:14:16.942865', 'mgs': 0, 'volt': 0.8203, 'depth': 0.317, 'time': 103, 'pitch': -27.55, 'roll': 5.05, 'pres': 168}
{'lipoC2': 7.71, 'lipoC3S1': 3.84, 'temp': 28.5, 'lipoC3S3': 11.6, 'lipoC3S2': 7.68, 'rot1': 267, 'rot0': 281, 'rot3': 198, 'rot2': 158, 'state': 'normal', 'yaw': 17.7, 'datetime': '2018-10-05 20:14:17.047970', 'mgs': 0, 'volt': 0.8203, 'depth': 0.317, 'time': 103, 'pitch': -27.39, 'roll': 4.77, 'pres': 168}
{'lipoC2': 7.71, 'lipoC3S1': 3.84, 'temp': 28.5, 'lipoC3S3': 11.6, 'lipoC3S2': 7.68, 'rot1': 267, 'rot0': 281, 'rot3': 198, 'rot2': 158, 'state': 'normal', 'yaw': 16.9, 'datetime': '2018-10-05 20:14:17.152431', 'mgs': 0, 'volt': 0.8203, 'depth': 0.317, 'time': 103, 'pitch': -27.23, 'roll': 4.52, 'pres': 168}
{'lipoC2': 7.71, 'lipoC3S1': 3.84, 'temp': 28.5, 'lipoC3S3': 11.6, 'lipoC3S2': 7.68, 'rot1': 267, 'rot0': 281, 'rot3': 198, 'rot2': 158, 'state': 'normal', 'yaw': 16.22, 'datetime': '2018-10-05 20:14:17.257948', 'mgs': 0, 'volt': 0.8203, 'depth': 0.317, 'time': 103, 'pitch': -27.23, 'roll': 4.25, 'pres': 168}
{'lipoC2': 7.71, 'lipoC3S1': 3.84, 'temp': 28.5, 'lipoC3S3': 11.6, 'lipoC3S2': 7.68, 'rot1': 267, 'rot0': 281, 'rot3': 198, 'rot2': 158, 'state': 'normal', 'yaw': 15.6, 'datetime': '2018-10-05 20:14:17.362317', 'mgs': 0, 'volt': 0.8203, 'depth': 0.317, 'time': 103, 'pitch': -27.28, 'roll': 3.88, 'pres': 168}
{'lipoC2': 7.72, 'lipoC3S1': 3.84, 'temp': 28.5, 'lipoC3S3': 11.6, 'lipoC3S2': 7.68, 'rot1': 267, 'rot0': 281, 'rot3': 198, 'rot2': 158, 'state': 'normal', 'yaw': 15.03, 'datetime': '2018-10-05 20:14:17.467893', 'mgs': 0, 'volt': 0.8203, 'depth': 0.317, 'time': 104, 'pitch': -27.2, 'roll': 3.66, 'pres': 168}
{'lipoC2': 7.72, 'lipoC3S1': 3.84, 'temp': 28.5, 'lipoC3S3': 11.6, 'lipoC3S2': 7.68, 'rot1': 267, 'rot0': 281, 'rot3': 198, 'rot2': 158, 'state': 'normal', 'yaw': 14.39, 'datetime': '2018-10-05 20:14:17.572134', 'mgs': 0, 'volt': 0.8203, 'depth': 0.317, 'time': 104, 'pitch': -27.1, 'roll': 3.57, 'pres': 168}
{'lipoC2': 7.71, 'lipoC3S1': 3.84, 'temp': 28.5, 'lipoC3S3': 11.6, 'lipoC3S2': 7.68, 'rot1': 267, 'rot0': 281, 'rot3': 198, 'rot2': 158, 'state': 'normal', 'yaw': 13.76, 'datetime': '2018-10-05 20:14:17.676483', 'mgs': 0, 'volt': 0.8203, 'depth': 0.317, 'time': 104, 'pitch': -27.06, 'roll': 3.68, 'pres': 168}
{'lipoC2': 7.72, 'lipoC3S1': 3.84, 'temp': 28.56, 'lipoC3S3': 11.6, 'lipoC3S2': 7.68, 'rot1': 267, 'rot0': 281, 'rot3': 198, 'rot2': 158, 'state': 'normal', 'yaw': 13.03, 'datetime': '2018-10-05 20:14:17.780878', 'mgs': 0, 'volt': 0.8203, 'depth': 0.317, 'time': 104, 'pitch': -26.91, 'roll': 4.03, 'pres': 168}
{'lipoC2': 7.71, 'lipoC3S1': 3.84, 'temp': 28.56, 'lipoC3S3': 11.6, 'lipoC3S2': 7.68, 'rot1': 267, 'rot0': 281, 'rot3': 198, 'rot2': 158, 'state': 'normal', 'yaw': 12.47, 'datetime': '2018-10-05 20:14:17.885134', 'mgs': 0, 'volt': 0.8203, 'depth': 0.317, 'time': 104, 'pitch': -26.66, 'roll': 4.4, 'pres': 168}
{'lipoC2': 7.72, 'lipoC3S1': 3.84, 'temp': 28.56, 'lipoC3S3': 11.6, 'lipoC3S2': 7.68, 'rot1': 267, 'rot0': 281, 'rot3': 198, 'rot2': 158, 'state': 'normal', 'yaw': 11.94, 'datetime': '2018-10-05 20:14:17.989484', 'mgs': 0, 'volt': 0.8203, 'depth': 0.317, 'time': 104, 'pitch': -26.55, 'roll': 4.83, 'pres': 168}
{'lipoC2': 7.71, 'lipoC3S1': 3.84, 'temp': 28.56, 'lipoC3S3': 11.61, 'lipoC3S2': 7.68, 'rot1': 267, 'rot0': 281, 'rot3': 198, 'rot2': 158, 'state': 'normal', 'yaw': 11.33, 'datetime': '2018-10-05 20:14:18.093772', 'mgs': 0, 'volt': 0.8203, 'depth': 0.317, 'time': 104, 'pitch': -26.69, 'roll': 5.33, 'pres': 168}
{'lipoC2': 7.71, 'lipoC3S1': 3.84, 'temp': 28.56, 'lipoC3S3': 11.6, 'lipoC3S2': 7.68, 'rot1': 267, 'rot0': 281, 'rot3': 198, 'rot2': 158, 'state': 'normal', 'yaw': 10.84, 'datetime': '2018-10-05 20:14:18.199351', 'mgs': 0, 'volt': 0.8203, 'depth': 0.317, 'time': 104, 'pitch': -26.82, 'roll': 5.74, 'pres': 168}
{'lipoC2': 7.71, 'lipoC3S1': 3.84, 'temp': 28.5, 'lipoC3S3': 11.6, 'lipoC3S2': 7.68, 'rot1': 267, 'rot0': 281, 'rot3': 198, 'rot2': 158, 'state': 'normal', 'yaw': 10.46, 'datetime': '2018-10-05 20:14:18.303725', 'mgs': 0, 'volt': 0.8203, 'depth': 0.317, 'time': 104, 'pitch': -26.78, 'roll': 6.01, 'pres': 168}
{'lipoC2': 7.71, 'lipoC3S1': 3.84, 'temp': 28.5, 'lipoC3S3': 11.6, 'lipoC3S2': 7.68, 'rot1': 267, 'rot0': 281, 'rot3': 198, 'rot2': 158, 'state': 'normal', 'yaw': 10.29, 'datetime': '2018-10-05 20:14:18.409302', 'mgs': 0, 'volt': 0.8203, 'depth': 0.317, 'time': 104, 'pitch': -26.68, 'roll': 6.09, 'pres': 168}
{'lipoC2': 7.71, 'lipoC3S1': 3.84, 'temp': 28.56, 'lipoC3S3': 11.6, 'lipoC3S2': 7.68, 'rot1': 267, 'rot0': 281, 'rot3': 198, 'rot2': 158, 'state': 'normal', 'yaw': 10.24, 'datetime': '2018-10-05 20:14:18.513675', 'mgs': 0, 'volt': 0.8203, 'depth': 0.317, 'time': 105, 'pitch': -26.68, 'roll': 6.01, 'pres': 168}
{'lipoC2': 7.71, 'lipoC3S1': 3.84, 'temp': 28.56, 'lipoC3S3': 11.6, 'lipoC3S2': 7.68, 'rot1': 267, 'rot0': 281, 'rot3': 198, 'rot2': 158, 'state': 'normal', 'yaw': 10.01, 'datetime': '2018-10-05 20:14:18.619394', 'mgs': 0, 'volt': 0.8203, 'depth': 0.317, 'time': 105, 'pitch': -26.89, 'roll': 6.04, 'pres': 168}
{'lipoC2': 7.71, 'lipoC3S1': 3.84, 'temp': 28.5, 'lipoC3S3': 11.61, 'lipoC3S2': 7.68, 'rot1': 267, 'rot0': 281, 'rot3': 198, 'rot2': 158, 'state': 'normal', 'yaw': 9.38, 'datetime': '2018-10-05 20:14:18.723604', 'mgs': 0, 'volt': 0.8203, 'depth': 0.317, 'time': 105, 'pitch': -26.87, 'roll': 6.32, 'pres': 168}
{'lipoC2': 7.72, 'lipoC3S1': 3.84, 'temp': 28.5, 'lipoC3S3': 11.6, 'lipoC3S2': 7.68, 'rot1': 267, 'rot0': 281, 'rot3': 198, 'rot2': 158, 'state': 'normal', 'yaw': 8.99, 'datetime': '2018-10-05 20:14:18.827894', 'mgs': 0, 'volt': 0.8203, 'depth': 0.317, 'time': 105, 'pitch': -26.62, 'roll': 6.44, 'pres': 168}
{'lipoC2': 7.71, 'lipoC3S1': 3.84, 'temp': 28.5, 'lipoC3S3': 11.6, 'lipoC3S2': 7.68, 'rot1': 267, 'rot0': 281, 'rot3': 198, 'rot2': 158, 'state': 'normal', 'yaw': 8.67, 'datetime': '2018-10-05 20:14:18.928593', 'mgs': 0, 'volt': 0.8203, 'depth': 0.317, 'time': 105, 'pitch': -26.81, 'roll': 6.48, 'pres': 168}
{'lipoC2': 7.71, 'lipoC3S1': 3.84, 'temp': 28.56, 'lipoC3S3': 11.6, 'lipoC3S2': 7.68, 'rot1': 267, 'rot0': 281, 'rot3': 198, 'rot2': 158, 'state': 'normal', 'yaw': 8.19, 'datetime': '2018-10-05 20:14:19.035455', 'mgs': 0, 'volt': 0.8203, 'depth': 0.317, 'time': 105, 'pitch': -27.29, 'roll': 6.56, 'pres': 168}
{'lipoC2': 7.71, 'lipoC3S1': 3.84, 'temp': 28.56, 'lipoC3S3': 11.61, 'lipoC3S2': 7.68, 'rot1': 267, 'rot0': 281, 'rot3': 198, 'rot2': 158, 'state': 'normal', 'yaw': 7.77, 'datetime': '2018-10-05 20:14:19.141228', 'mgs': 0, 'volt': 0.8252, 'depth': 0.394, 'time': 105, 'pitch': -27.22, 'roll': 6.59, 'pres': 169}
{'lipoC2': 7.71, 'lipoC3S1': 3.84, 'temp': 28.5, 'lipoC3S3': 11.6, 'lipoC3S2': 7.68, 'rot1': 267, 'rot0': 281, 'rot3': 198, 'rot2': 158, 'state': 'normal', 'yaw': 7.22, 'datetime': '2018-10-05 20:14:19.245588', 'mgs': 0, 'volt': 0.8252, 'depth': 0.394, 'time': 105, 'pitch': -26.77, 'roll': 6.64, 'pres': 169}
{'lipoC2': 7.71, 'lipoC3S1': 3.84, 'temp': 28.5, 'lipoC3S3': 11.6, 'lipoC3S2': 7.68, 'rot1': 267, 'rot0': 281, 'rot3': 198, 'rot2': 158, 'state': 'normal', 'yaw': 6.58, 'datetime': '2018-10-05 20:14:19.350106', 'mgs': 0, 'volt': 0.8203, 'depth': 0.317, 'time': 105, 'pitch': -26.84, 'roll': 6.72, 'pres': 168}
{'lipoC2': 7.71, 'lipoC3S1': 3.84, 'temp': 28.56, 'lipoC3S3': 11.6, 'lipoC3S2': 7.68, 'rot1': 267, 'rot0': 281, 'rot3': 198, 'rot2': 158, 'state': 'normal', 'yaw': 5.99, 'datetime': '2018-10-05 20:14:19.454661', 'mgs': 0, 'volt': 0.8252, 'depth': 0.394, 'time': 105, 'pitch': -27.2, 'roll': 6.66, 'pres': 169}
{'lipoC2': 7.71, 'lipoC3S1': 3.84, 'temp': 28.56, 'lipoC3S3': 11.6, 'lipoC3S2': 7.68, 'rot1': 267, 'rot0': 281, 'rot3': 198, 'rot2': 158, 'state': 'normal', 'yaw': 5.64, 'datetime': '2018-10-05 20:14:19.559400', 'mgs': 0, 'volt': 0.8252, 'depth': 0.394, 'time': 106, 'pitch': -27.2, 'roll': 6.46, 'pres': 169}
{'lipoC2': 7.71, 'lipoC3S1': 3.84, 'temp': 28.56, 'lipoC3S3': 11.6, 'lipoC3S2': 7.68, 'rot1': 267, 'rot0': 281, 'rot3': 198, 'rot2': 158, 'state': 'normal', 'yaw': 5.27, 'datetime': '2018-10-05 20:14:19.664653', 'mgs': 0, 'volt': 0.8252, 'depth': 0.394, 'time': 106, 'pitch': -27.13, 'roll': 6.33, 'pres': 169}
{'lipoC2': 7.71, 'lipoC3S1': 3.84, 'temp': 28.5, 'lipoC3S3': 11.6, 'lipoC3S2': 7.68, 'rot1': 267, 'rot0': 281, 'rot3': 198, 'rot2': 158, 'state': 'normal', 'yaw': 4.76, 'datetime': '2018-10-05 20:14:19.768905', 'mgs': 0, 'volt': 0.8203, 'depth': 0.317, 'time': 106, 'pitch': -27.16, 'roll': 6.35, 'pres': 168}
{'lipoC2': 7.71, 'lipoC3S1': 3.84, 'temp': 28.5, 'lipoC3S3': 11.6, 'lipoC3S2': 7.68, 'rot1': 267, 'rot0': 281, 'rot3': 198, 'rot2': 158, 'state': 'normal', 'yaw': 4.32, 'datetime': '2018-10-05 20:14:19.874501', 'mgs': 0, 'volt': 0.8252, 'depth': 0.394, 'time': 106, 'pitch': -27.15, 'roll': 6.39, 'pres': 169}
{'lipoC2': 7.71, 'lipoC3S1': 3.84, 'temp': 28.56, 'lipoC3S3': 11.6, 'lipoC3S2': 7.68, 'rot1': 267, 'rot0': 281, 'rot3': 198, 'rot2': 158, 'state': 'normal', 'yaw': 3.97, 'datetime': '2018-10-05 20:14:19.978859', 'mgs': 0, 'volt': 0.8203, 'depth': 0.317, 'time': 106, 'pitch': -27.05, 'roll': 6.32, 'pres': 168}
{'lipoC2': 7.71, 'lipoC3S1': 3.84, 'temp': 28.56, 'lipoC3S3': 11.6, 'lipoC3S2': 7.68, 'rot1': 267, 'rot0': 281, 'rot3': 198, 'rot2': 158, 'state': 'normal', 'yaw': 3.74, 'datetime': '2018-10-05 20:14:20.083156', 'mgs': 0, 'volt': 0.8203, 'depth': 0.317, 'time': 106, 'pitch': -27.0, 'roll': 6.21, 'pres': 168}
{'lipoC2': 7.71, 'lipoC3S1': 3.84, 'temp': 28.56, 'lipoC3S3': 11.6, 'lipoC3S2': 7.68, 'rot1': 267, 'rot0': 281, 'rot3': 198, 'rot2': 158, 'state': 'normal', 'yaw': 3.5, 'datetime': '2018-10-05 20:14:20.187720', 'mgs': 0, 'volt': 0.8203, 'depth': 0.317, 'time': 106, 'pitch': -26.97, 'roll': 6.1, 'pres': 168}
{'lipoC2': 7.71, 'lipoC3S1': 3.84, 'temp': 28.56, 'lipoC3S3': 11.6, 'lipoC3S2': 7.68, 'rot1': 267, 'rot0': 281, 'rot3': 198, 'rot2': 158, 'state': 'normal', 'yaw': 3.3, 'datetime': '2018-10-05 20:14:20.291798', 'mgs': 0, 'volt': 0.8252, 'depth': 0.394, 'time': 106, 'pitch': -26.95, 'roll': 6.05, 'pres': 169}
{'lipoC2': 7.71, 'lipoC3S1': 3.84, 'temp': 28.56, 'lipoC3S3': 11.6, 'lipoC3S2': 7.68, 'rot1': 267, 'rot0': 281, 'rot3': 198, 'rot2': 158, 'state': 'normal', 'yaw': 3.05, 'datetime': '2018-10-05 20:14:20.396242', 'mgs': 0, 'volt': 0.8252, 'depth': 0.394, 'time': 106, 'pitch': -26.99, 'roll': 6.1, 'pres': 169}
{'lipoC2': 7.71, 'lipoC3S1': 3.84, 'temp': 28.5, 'lipoC3S3': 11.6, 'lipoC3S2': 7.68, 'rot1': 267, 'rot0': 281, 'rot3': 198, 'rot2': 158, 'state': 'normal', 'yaw': 2.77, 'datetime': '2018-10-05 20:14:20.500650', 'mgs': 0, 'volt': 0.8252, 'depth': 0.394, 'time': 107, 'pitch': -27.17, 'roll': 6.24, 'pres': 169}
{'lipoC2': 7.71, 'lipoC3S1': 3.84, 'temp': 28.5, 'lipoC3S3': 11.61, 'lipoC3S2': 7.68, 'rot1': 267, 'rot0': 281, 'rot3': 198, 'rot2': 158, 'state': 'normal', 'yaw': 2.51, 'datetime': '2018-10-05 20:14:20.606199', 'mgs': 0, 'volt': 0.8252, 'depth': 0.394, 'time': 107, 'pitch': -27.35, 'roll': 6.36, 'pres': 169}
{'lipoC2': 7.71, 'lipoC3S1': 3.84, 'temp': 28.56, 'lipoC3S3': 11.61, 'lipoC3S2': 7.68, 'rot1': 267, 'rot0': 281, 'rot3': 198, 'rot2': 158, 'state': 'normal', 'yaw': 2.21, 'datetime': '2018-10-05 20:14:20.710525', 'mgs': 0, 'volt': 0.8252, 'depth': 0.394, 'time': 107, 'pitch': -27.44, 'roll': 6.55, 'pres': 169}
