{'lipoC2': 0.0, 'lipoC3S1': 3.96, 'temp': 26.13, 'lipoC3S3': 11.97, 'lipoC3S2': 7.91, 'rot1': 185, 'rot0': 190, 'rot3': 76, 'rot2': 71, 'state': 'normal', 'yaw': 176.7, 'datetime': '2018-10-03 17:17:31.401554', 'mgs': 1, 'volt': 0.874, 'depth': 1.157, 'time': 96, 'pitch': -9.75, 'roll': 2.49, 'pres': 179}
{'lipoC2': 0.0, 'lipoC3S1': 3.95, 'temp': 26.19, 'lipoC3S3': 11.97, 'lipoC3S2': 7.91, 'rot1': 0, 'rot0': 0, 'rot3': 0, 'rot2': 0, 'state': 'normal', 'yaw': 0.0, 'datetime': '2018-10-03 17:17:37.434515', 'mgs': 1, 'volt': 0.8936, 'depth': 1.462, 'time': 1, 'pitch': -8.25, 'roll': -0.07, 'pres': 183}
{'lipoC2': 0.0, 'lipoC3S1': 3.95, 'temp': 26.19, 'lipoC3S3': 11.97, 'lipoC3S2': 7.91, 'rot1': 0, 'rot0': 0, 'rot3': 0, 'rot2': 0, 'state': 'normal', 'yaw': -0.0, 'datetime': '2018-10-03 17:17:37.464848', 'mgs': 1, 'volt': 0.8936, 'depth': 1.462, 'time': 1, 'pitch': -7.88, 'roll': 0.13, 'pres': 183}
{'lipoC2': 0.0, 'lipoC3S1': 3.96, 'temp': 26.13, 'lipoC3S3': 11.97, 'lipoC3S2': 7.9, 'rot1': 0, 'rot0': 0, 'rot3': 0, 'rot2': 0, 'state': 'normal', 'yaw': -0.02, 'datetime': '2018-10-03 17:17:37.495366', 'mgs': 1, 'volt': 0.8984, 'depth': 1.538, 'time': 1, 'pitch': -7.56, 'roll': 0.39, 'pres': 184}
{'lipoC2': 0.0, 'lipoC3S1': 3.96, 'temp': 26.13, 'lipoC3S3': 11.97, 'lipoC3S2': 7.9, 'rot1': 0, 'rot0': 0, 'rot3': 0, 'rot2': 0, 'state': 'normal', 'yaw': -0.02, 'datetime': '2018-10-03 17:17:37.525616', 'mgs': 1, 'volt': 0.8984, 'depth': 1.538, 'time': 1, 'pitch': -7.29, 'roll': 0.7, 'pres': 184}
{'lipoC2': 0.0, 'lipoC3S1': 3.96, 'temp': 26.13, 'lipoC3S3': 11.97, 'lipoC3S2': 7.91, 'rot1': 0, 'rot0': 0, 'rot3': 0, 'rot2': 0, 'state': 'normal', 'yaw': -0.01, 'datetime': '2018-10-03 17:17:37.542185', 'mgs': 1, 'volt': 0.8984, 'depth': 1.538, 'time': 1, 'pitch': -7.13, 'roll': 1.02, 'pres': 184}
{'lipoC2': 0.0, 'lipoC3S1': 3.96, 'temp': 26.19, 'lipoC3S3': 11.97, 'lipoC3S2': 7.9, 'rot1': 0, 'rot0': 0, 'rot3': 0, 'rot2': 0, 'state': 'normal', 'yaw': -0.01, 'datetime': '2018-10-03 17:17:37.557949', 'mgs': 1, 'volt': 0.9033, 'depth': 1.614, 'time': 1, 'pitch': -7.09, 'roll': 1.37, 'pres': 185}
{'lipoC2': 0.0, 'lipoC3S1': 3.95, 'temp': 26.13, 'lipoC3S3': 11.97, 'lipoC3S2': 7.9, 'rot1': 0, 'rot0': 0, 'rot3': 0, 'rot2': 0, 'state': 'normal', 'yaw': 0.0, 'datetime': '2018-10-03 17:17:37.573925', 'mgs': 1, 'volt': 0.9277, 'depth': 1.996, 'time': 1, 'pitch': -8.39, 'roll': 0.64, 'pres': 190}
{'lipoC2': 0.0, 'lipoC3S1': 3.95, 'temp': 26.13, 'lipoC3S3': 11.97, 'lipoC3S2': 7.9, 'rot1': 0, 'rot0': 0, 'rot3': 0, 'rot2': 0, 'state': 'normal', 'yaw': 0.0, 'datetime': '2018-10-03 17:17:37.589794', 'mgs': 1, 'volt': 0.9326, 'depth': 2.072, 'time': 1, 'pitch': -8.35, 'roll': 0.39, 'pres': 191}
{'lipoC2': 0.0, 'lipoC3S1': 3.96, 'temp': 26.13, 'lipoC3S3': 11.97, 'lipoC3S2': 7.91, 'rot1': 0, 'rot0': 0, 'rot3': 0, 'rot2': 0, 'state': 'normal', 'yaw': 0.01, 'datetime': '2018-10-03 17:17:37.605770', 'mgs': 1, 'volt': 0.9326, 'depth': 2.072, 'time': 1, 'pitch': -8.3, 'roll': 0.21, 'pres': 191}
{'lipoC2': 0.0, 'lipoC3S1': 3.96, 'temp': 26.13, 'lipoC3S3': 11.97, 'lipoC3S2': 7.91, 'rot1': 0, 'rot0': 0, 'rot3': 0, 'rot2': 0, 'state': 'normal', 'yaw': 0.01, 'datetime': '2018-10-03 17:17:37.621568', 'mgs': 1, 'volt': 0.9375, 'depth': 2.148, 'time': 1, 'pitch': -8.22, 'roll': 0.05, 'pres': 192}
{'lipoC2': 0.0, 'lipoC3S1': 3.96, 'temp': 26.13, 'lipoC3S3': 11.97, 'lipoC3S2': 7.91, 'rot1': 0, 'rot0': 0, 'rot3': 0, 'rot2': 0, 'state': 'normal', 'yaw': 0.01, 'datetime': '2018-10-03 17:17:37.637605', 'mgs': 1, 'volt': 0.9375, 'depth': 2.148, 'time': 1, 'pitch': -8.08, 'roll': -0.09, 'pres': 192}
{'lipoC2': 0.0, 'lipoC3S1': 3.96, 'temp': 26.19, 'lipoC3S3': 11.97, 'lipoC3S2': 7.91, 'rot1': 0, 'rot0': 0, 'rot3': 0, 'rot2': 0, 'state': 'normal', 'yaw': 0.01, 'datetime': '2018-10-03 17:17:37.653377', 'mgs': 1, 'volt': 0.9424, 'depth': 2.225, 'time': 1, 'pitch': -7.87, 'roll': -0.15, 'pres': 193}
{'lipoC2': 0.0, 'lipoC3S1': 3.96, 'temp': 26.19, 'lipoC3S3': 11.97, 'lipoC3S2': 7.91, 'rot1': 0, 'rot0': 0, 'rot3': 0, 'rot2': 0, 'state': 'normal', 'yaw': 0.02, 'datetime': '2018-10-03 17:17:37.669336', 'mgs': 1, 'volt': 0.9424, 'depth': 2.225, 'time': 1, 'pitch': -7.63, 'roll': -0.16, 'pres': 193}
{'lipoC2': 0.0, 'lipoC3S1': 3.95, 'temp': 26.13, 'lipoC3S3': 11.97, 'lipoC3S2': 7.9, 'rot1': 0, 'rot0': 0, 'rot3': 0, 'rot2': 0, 'state': 'normal', 'yaw': 0.02, 'datetime': '2018-10-03 17:17:37.685913', 'mgs': 1, 'volt': 0.9473, 'depth': 2.301, 'time': 1, 'pitch': -7.37, 'roll': -0.12, 'pres': 194}
{'lipoC2': 0.0, 'lipoC3S1': 3.95, 'temp': 26.13, 'lipoC3S3': 11.97, 'lipoC3S2': 7.9, 'rot1': 0, 'rot0': 0, 'rot3': 0, 'rot2': 0, 'state': 'normal', 'yaw': 0.02, 'datetime': '2018-10-03 17:17:37.703507', 'mgs': 1, 'volt': 0.9521, 'depth': 2.377, 'time': 2, 'pitch': -7.13, 'roll': 0.03, 'pres': 195}
{'lipoC2': 0.0, 'lipoC3S1': 3.96, 'temp': 26.19, 'lipoC3S3': 11.97, 'lipoC3S2': 7.9, 'rot1': 0, 'rot0': 0, 'rot3': 0, 'rot2': 0, 'state': 'normal', 'yaw': 0.0, 'datetime': '2018-10-03 17:17:37.720092', 'mgs': 1, 'volt': 0.9521, 'depth': 2.377, 'time': 2, 'pitch': -6.96, 'roll': 0.21, 'pres': 195}
{'lipoC2': 0.0, 'lipoC3S1': 3.95, 'temp': 26.19, 'lipoC3S3': 11.97, 'lipoC3S2': 7.91, 'rot1': 0, 'rot0': 0, 'rot3': 0, 'rot2': 0, 'state': 'normal', 'yaw': -0.0, 'datetime': '2018-10-03 17:17:37.736167', 'mgs': 1, 'volt': 0.957, 'depth': 2.454, 'time': 2, 'pitch': -6.85, 'roll': 0.41, 'pres': 196}
{'lipoC2': 0.0, 'lipoC3S1': 3.95, 'temp': 26.19, 'lipoC3S3': 11.97, 'lipoC3S2': 7.91, 'rot1': 0, 'rot0': 0, 'rot3': 0, 'rot2': 0, 'state': 'normal', 'yaw': -0.01, 'datetime': '2018-10-03 17:17:37.751896', 'mgs': 1, 'volt': 0.9619, 'depth': 2.53, 'time': 2, 'pitch': -6.79, 'roll': 0.6, 'pres': 197}
{'lipoC2': 0.0, 'lipoC3S1': 3.96, 'temp': 26.13, 'lipoC3S3': 11.97, 'lipoC3S2': 7.91, 'rot1': 0, 'rot0': 0, 'rot3': 0, 'rot2': 0, 'state': 'normal', 'yaw': -0.01, 'datetime': '2018-10-03 17:17:37.767882', 'mgs': 1, 'volt': 0.9619, 'depth': 2.53, 'time': 2, 'pitch': -6.8, 'roll': 0.78, 'pres': 197}
{'lipoC2': 0.0, 'lipoC3S1': 3.96, 'temp': 26.13, 'lipoC3S3': 11.97, 'lipoC3S2': 7.91, 'rot1': 0, 'rot0': 0, 'rot3': 0, 'rot2': 0, 'state': 'normal', 'yaw': -0.01, 'datetime': '2018-10-03 17:17:37.783749', 'mgs': 1, 'volt': 0.9668, 'depth': 2.606, 'time': 2, 'pitch': -6.8, 'roll': 0.9, 'pres': 198}
{'lipoC2': 0.0, 'lipoC3S1': 3.96, 'temp': 26.19, 'lipoC3S3': 11.97, 'lipoC3S2': 7.91, 'rot1': 0, 'rot0': 0, 'rot3': 0, 'rot2': 0, 'state': 'normal', 'yaw': -0.01, 'datetime': '2018-10-03 17:17:37.799766', 'mgs': 1, 'volt': 0.9668, 'depth': 2.606, 'time': 2, 'pitch': -6.8, 'roll': 0.98, 'pres': 198}
{'lipoC2': 0.0, 'lipoC3S1': 3.96, 'temp': 26.19, 'lipoC3S3': 11.97, 'lipoC3S2': 7.91, 'rot1': 0, 'rot0': 0, 'rot3': 0, 'rot2': 0, 'state': 'normal', 'yaw': -0.01, 'datetime': '2018-10-03 17:17:37.815543', 'mgs': 1, 'volt': 0.9717, 'depth': 2.682, 'time': 2, 'pitch': -6.9, 'roll': 0.99, 'pres': 199}
{'lipoC2': 0.0, 'lipoC3S1': 3.95, 'temp': 26.13, 'lipoC3S3': 11.97, 'lipoC3S2': 7.91, 'rot1': 0, 'rot0': 0, 'rot3': 0, 'rot2': 0, 'state': 'normal', 'yaw': -0.01, 'datetime': '2018-10-03 17:17:37.831469', 'mgs': 1, 'volt': 0.9766, 'depth': 2.759, 'time': 2, 'pitch': -7.02, 'roll': 0.98, 'pres': 200}
{'lipoC2': 0.0, 'lipoC3S1': 3.96, 'temp': 26.13, 'lipoC3S3': 11.97, 'lipoC3S2': 7.9, 'rot1': 0, 'rot0': 0, 'rot3': 0, 'rot2': 0, 'state': 'normal', 'yaw': -0.01, 'datetime': '2018-10-03 17:17:37.847229', 'mgs': 1, 'volt': 0.9766, 'depth': 2.759, 'time': 3, 'pitch': -7.17, 'roll': 0.95, 'pres': 200}
{'lipoC2': 0.0, 'lipoC3S1': 3.96, 'temp': 26.13, 'lipoC3S3': 11.97, 'lipoC3S2': 7.9, 'rot1': 0, 'rot0': 0, 'rot3': 0, 'rot2': 0, 'state': 'normal', 'yaw': -0.02, 'datetime': '2018-10-03 17:17:37.863163', 'mgs': 1, 'volt': 0.9766, 'depth': 2.759, 'time': 3, 'pitch': -7.3, 'roll': 0.84, 'pres': 200}
{'lipoC2': 0.0, 'lipoC3S1': 3.95, 'temp': 26.19, 'lipoC3S3': 11.97, 'lipoC3S2': 7.9, 'rot1': 0, 'rot0': 0, 'rot3': 0, 'rot2': 0, 'state': 'normal', 'yaw': -0.01, 'datetime': '2018-10-03 17:17:37.878948', 'mgs': 1, 'volt': 0.9814, 'depth': 2.835, 'time': 3, 'pitch': -7.38, 'roll': 0.7, 'pres': 201}
{'lipoC2': 0.0, 'lipoC3S1': 3.95, 'temp': 26.19, 'lipoC3S3': 11.97, 'lipoC3S2': 7.9, 'rot1': 0, 'rot0': 0, 'rot3': 0, 'rot2': 0, 'state': 'normal', 'yaw': -0.02, 'datetime': '2018-10-03 17:17:37.894964', 'mgs': 1, 'volt': 0.9863, 'depth': 2.911, 'time': 3, 'pitch': -7.39, 'roll': 0.52, 'pres': 202}
{'lipoC2': 0.0, 'lipoC3S1': 3.96, 'temp': 26.19, 'lipoC3S3': 11.98, 'lipoC3S2': 7.91, 'rot1': 0, 'rot0': 0, 'rot3': 0, 'rot2': 0, 'state': 'normal', 'yaw': -0.02, 'datetime': '2018-10-03 17:17:37.910978', 'mgs': 1, 'volt': 0.9863, 'depth': 2.911, 'time': 3, 'pitch': -7.4, 'roll': 0.3, 'pres': 202}
{'lipoC2': 0.0, 'lipoC3S1': 3.96, 'temp': 26.19, 'lipoC3S3': 11.97, 'lipoC3S2': 7.91, 'rot1': 0, 'rot0': 0, 'rot3': 0, 'rot2': 0, 'state': 'normal', 'yaw': -0.02, 'datetime': '2018-10-03 17:17:37.926959', 'mgs': 1, 'volt': 0.9912, 'depth': 2.988, 'time': 3, 'pitch': -7.4, 'roll': 0.1, 'pres': 203}
{'lipoC2': 0.0, 'lipoC3S1': 3.96, 'temp': 26.13, 'lipoC3S3': 11.97, 'lipoC3S2': 7.91, 'rot1': 0, 'rot0': 0, 'rot3': 0, 'rot2': 0, 'state': 'normal', 'yaw': -0.02, 'datetime': '2018-10-03 17:17:37.942821', 'mgs': 1, 'volt': 0.9912, 'depth': 2.988, 'time': 3, 'pitch': -7.39, 'roll': -0.1, 'pres': 203}
{'lipoC2': 0.0, 'lipoC3S1': 3.96, 'temp': 26.13, 'lipoC3S3': 11.97, 'lipoC3S2': 7.91, 'rot1': 0, 'rot0': 0, 'rot3': 0, 'rot2': 0, 'state': 'normal', 'yaw': -0.02, 'datetime': '2018-10-03 17:17:37.958773', 'mgs': 1, 'volt': 0.9961, 'depth': 3.064, 'time': 3, 'pitch': -7.41, 'roll': -0.29, 'pres': 204}
{'lipoC2': 0.0, 'lipoC3S1': 3.96, 'temp': 26.13, 'lipoC3S3': 11.97, 'lipoC3S2': 7.91, 'rot1': 0, 'rot0': 0, 'rot3': 0, 'rot2': 0, 'state': 'normal', 'yaw': -0.01, 'datetime': '2018-10-03 17:17:37.974610', 'mgs': 1, 'volt': 0.9961, 'depth': 3.064, 'time': 3, 'pitch': -7.41, 'roll': -0.41, 'pres': 204}
{'lipoC2': 0.0, 'lipoC3S1': 3.95, 'temp': 26.13, 'lipoC3S3': 11.97, 'lipoC3S2': 7.9, 'rot1': 0, 'rot0': 0, 'rot3': 0, 'rot2': 0, 'state': 'normal', 'yaw': -0.02, 'datetime': '2018-10-03 17:17:37.990648', 'mgs': 1, 'volt': 1.001, 'depth': 3.14, 'time': 3, 'pitch': -7.41, 'roll': -0.48, 'pres': 205}
{'lipoC2': 0.0, 'lipoC3S1': 3.95, 'temp': 26.13, 'lipoC3S3': 11.97, 'lipoC3S2': 7.9, 'rot1': 0, 'rot0': 0, 'rot3': 0, 'rot2': 0, 'state': 'normal', 'yaw': -0.02, 'datetime': '2018-10-03 17:17:38.006489', 'mgs': 1, 'volt': 1.001, 'depth': 3.14, 'time': 4, 'pitch': -7.41, 'roll': -0.48, 'pres': 205}
{'lipoC2': 0.0, 'lipoC3S1': 3.96, 'temp': 26.19, 'lipoC3S3': 11.97, 'lipoC3S2': 7.91, 'rot1': 0, 'rot0': 0, 'rot3': 0, 'rot2': 0, 'state': 'normal', 'yaw': -0.02, 'datetime': '2018-10-03 17:17:38.022774', 'mgs': 1, 'volt': 1.0059, 'depth': 3.217, 'time': 4, 'pitch': -7.36, 'roll': -0.48, 'pres': 206}
{'lipoC2': 0.0, 'lipoC3S1': 3.95, 'temp': 26.19, 'lipoC3S3': 11.97, 'lipoC3S2': 7.9, 'rot1': 0, 'rot0': 0, 'rot3': 0, 'rot2': 0, 'state': 'normal', 'yaw': -0.02, 'datetime': '2018-10-03 17:17:38.038637', 'mgs': 1, 'volt': 1.0107, 'depth': 3.293, 'time': 4, 'pitch': -7.28, 'roll': -0.48, 'pres': 207}
{'lipoC2': 0.0, 'lipoC3S1': 3.96, 'temp': 26.19, 'lipoC3S3': 11.97, 'lipoC3S2': 7.9, 'rot1': 0, 'rot0': 0, 'rot3': 0, 'rot2': 0, 'state': 'normal', 'yaw': -0.02, 'datetime': '2018-10-03 17:17:38.054663', 'mgs': 1, 'volt': 1.0107, 'depth': 3.293, 'time': 4, 'pitch': -7.2, 'roll': -0.38, 'pres': 207}
{'lipoC2': 0.0, 'lipoC3S1': 3.96, 'temp': 26.19, 'lipoC3S3': 11.97, 'lipoC3S2': 7.91, 'rot1': 0, 'rot0': 0, 'rot3': 0, 'rot2': 0, 'state': 'normal', 'yaw': -0.05, 'datetime': '2018-10-03 17:17:38.070415', 'mgs': 1, 'volt': 1.0156, 'depth': 3.369, 'time': 4, 'pitch': -7.13, 'roll': -0.28, 'pres': 208}
{'lipoC2': 0.0, 'lipoC3S1': 3.96, 'temp': 26.19, 'lipoC3S3': 11.97, 'lipoC3S2': 7.91, 'rot1': 0, 'rot0': 0, 'rot3': 0, 'rot2': 0, 'state': 'normal', 'yaw': -0.08, 'datetime': '2018-10-03 17:17:38.086375', 'mgs': 1, 'volt': 1.0156, 'depth': 3.369, 'time': 4, 'pitch': -7.08, 'roll': -0.16, 'pres': 208}
{'lipoC2': 0.0, 'lipoC3S1': 3.96, 'temp': 26.19, 'lipoC3S3': 11.97, 'lipoC3S2': 7.91, 'rot1': 0, 'rot0': 0, 'rot3': 0, 'rot2': 0, 'state': 'normal', 'yaw': -0.12, 'datetime': '2018-10-03 17:17:38.102165', 'mgs': 1, 'volt': 1.0205, 'depth': 3.445, 'time': 4, 'pitch': -7.04, 'roll': -0.04, 'pres': 209}
{'lipoC2': 0.0, 'lipoC3S1': 3.96, 'temp': 26.19, 'lipoC3S3': 11.97, 'lipoC3S2': 7.91, 'rot1': 0, 'rot0': 0, 'rot3': 0, 'rot2': 0, 'state': 'normal', 'yaw': -0.14, 'datetime': '2018-10-03 17:17:38.118303', 'mgs': 1, 'volt': 1.0254, 'depth': 3.522, 'time': 4, 'pitch': -7.03, 'roll': 0.06, 'pres': 210}
{'lipoC2': 0.0, 'lipoC3S1': 3.96, 'temp': 26.19, 'lipoC3S3': 11.97, 'lipoC3S2': 7.91, 'rot1': 0, 'rot0': 0, 'rot3': 0, 'rot2': 0, 'state': 'normal', 'yaw': -0.14, 'datetime': '2018-10-03 17:17:38.134034', 'mgs': 1, 'volt': 1.0303, 'depth': 3.598, 'time': 4, 'pitch': -7.03, 'roll': 0.07, 'pres': 211}
{'lipoC2': 0.0, 'lipoC3S1': 3.95, 'temp': 26.19, 'lipoC3S3': 11.97, 'lipoC3S2': 7.91, 'rot1': 0, 'rot0': 0, 'rot3': 0, 'rot2': 0, 'state': 'normal', 'yaw': -0.12, 'datetime': '2018-10-03 17:17:38.149439', 'mgs': 1, 'volt': 1.0205, 'depth': 3.445, 'time': 4, 'pitch': -7.08, 'roll': 0.01, 'pres': 209}
{'lipoC2': 0.0, 'lipoC3S1': 3.96, 'temp': 26.19, 'lipoC3S3': 11.97, 'lipoC3S2': 7.91, 'rot1': 0, 'rot0': 0, 'rot3': 0, 'rot2': 0, 'state': 'normal', 'yaw': 0.04, 'datetime': '2018-10-03 17:17:38.164687', 'mgs': 1, 'volt': 1.0254, 'depth': 3.522, 'time': 5, 'pitch': -7.27, 'roll': -1.0, 'pres': 210}
{'lipoC2': 0.0, 'lipoC3S1': 3.96, 'temp': 26.19, 'lipoC3S3': 11.96, 'lipoC3S2': 7.9, 'rot1': 0, 'rot0': 0, 'rot3': 0, 'rot2': 0, 'state': 'normal', 'yaw': 0.04, 'datetime': '2018-10-03 17:17:38.180212', 'mgs': 1, 'volt': 1.0303, 'depth': 3.598, 'time': 5, 'pitch': -7.28, 'roll': -1.2, 'pres': 211}
{'lipoC2': 0.0, 'lipoC3S1': 3.96, 'temp': 26.19, 'lipoC3S3': 11.97, 'lipoC3S2': 7.91, 'rot1': 0, 'rot0': 0, 'rot3': 0, 'rot2': 0, 'state': 'normal', 'yaw': 0.04, 'datetime': '2018-10-03 17:17:38.195484', 'mgs': 1, 'volt': 1.0254, 'depth': 3.522, 'time': 5, 'pitch': -7.28, 'roll': -1.33, 'pres': 210}
{'lipoC2': 0.0, 'lipoC3S1': 3.95, 'temp': 26.25, 'lipoC3S3': 11.97, 'lipoC3S2': 7.91, 'rot1': 0, 'rot0': 0, 'rot3': 0, 'rot2': 0, 'state': 'normal', 'yaw': 0.05, 'datetime': '2018-10-03 17:17:38.210996', 'mgs': 1, 'volt': 1.0303, 'depth': 3.598, 'time': 5, 'pitch': -7.28, 'roll': -1.38, 'pres': 211}
{'lipoC2': 0.0, 'lipoC3S1': 3.96, 'temp': 26.25, 'lipoC3S3': 11.97, 'lipoC3S2': 7.91, 'rot1': 0, 'rot0': 0, 'rot3': 0, 'rot2': 0, 'state': 'normal', 'yaw': 0.05, 'datetime': '2018-10-03 17:17:38.226272', 'mgs': 1, 'volt': 1.0254, 'depth': 3.522, 'time': 5, 'pitch': -7.28, 'roll': -1.38, 'pres': 210}
{'lipoC2': 0.0, 'lipoC3S1': 3.96, 'temp': 26.19, 'lipoC3S3': 11.97, 'lipoC3S2': 7.91, 'rot1': 0, 'rot0': 0, 'rot3': 0, 'rot2': 0, 'state': 'normal', 'yaw': 0.04, 'datetime': '2018-10-03 17:17:38.241666', 'mgs': 1, 'volt': 1.0303, 'depth': 3.598, 'time': 5, 'pitch': -7.28, 'roll': -1.34, 'pres': 211}
{'lipoC2': 0.0, 'lipoC3S1': 3.96, 'temp': 26.19, 'lipoC3S3': 11.97, 'lipoC3S2': 7.91, 'rot1': 0, 'rot0': 0, 'rot3': 0, 'rot2': 0, 'state': 'normal', 'yaw': 0.04, 'datetime': '2018-10-03 17:17:38.256906', 'mgs': 1, 'volt': 1.0254, 'depth': 3.522, 'time': 5, 'pitch': -7.28, 'roll': -1.21, 'pres': 210}
{'lipoC2': 0.0, 'lipoC3S1': 3.96, 'temp': 26.19, 'lipoC3S3': 11.97, 'lipoC3S2': 7.91, 'rot1': 0, 'rot0': 0, 'rot3': 0, 'rot2': 0, 'state': 'normal', 'yaw': 0.04, 'datetime': '2018-10-03 17:17:38.272331', 'mgs': 1, 'volt': 1.0303, 'depth': 3.598, 'time': 5, 'pitch': -7.26, 'roll': -1.05, 'pres': 211}
{'lipoC2': 0.0, 'lipoC3S1': 3.95, 'temp': 26.19, 'lipoC3S3': 11.96, 'lipoC3S2': 7.9, 'rot1': 0, 'rot0': 0, 'rot3': 0, 'rot2': 0, 'state': 'normal', 'yaw': 0.04, 'datetime': '2018-10-03 17:17:38.287646', 'mgs': 1, 'volt': 1.0254, 'depth': 3.522, 'time': 5, 'pitch': -7.24, 'roll': -0.84, 'pres': 210}
{'lipoC2': 0.0, 'lipoC3S1': 3.8, 'temp': 26.19, 'lipoC3S3': 11.76, 'lipoC3S2': 7.8, 'rot1': 0, 'rot0': 0, 'rot3': 1, 'rot2': 0, 'state': 'normal', 'yaw': -0.03, 'datetime': '2018-10-03 17:17:38.303103', 'mgs': 1, 'volt': 1.0645, 'depth': 4.132, 'time': 6, 'pitch': -7.11, 'roll': -0.53, 'pres': 218}
{'lipoC2': 0.0, 'lipoC3S1': 3.9, 'temp': 26.19, 'lipoC3S3': 11.88, 'lipoC3S2': 7.75, 'rot1': 1, 'rot0': 1, 'rot3': 2, 'rot2': 1, 'state': 'normal', 'yaw': -0.09, 'datetime': '2018-10-03 17:17:38.318324', 'mgs': 1, 'volt': 1.0498, 'depth': 3.903, 'time': 6, 'pitch': -6.61, 'roll': -0.45, 'pres': 215}
{'lipoC2': 0.0, 'lipoC3S1': 3.85, 'temp': 26.19, 'lipoC3S3': 11.89, 'lipoC3S2': 7.85, 'rot1': 2, 'rot0': 3, 'rot3': 2, 'rot2': 2, 'state': 'normal', 'yaw': 0.23, 'datetime': '2018-10-03 17:17:38.333974', 'mgs': 1, 'volt': 1.0254, 'depth': 3.522, 'time': 6, 'pitch': -6.32, 'roll': -1.12, 'pres': 210}
{'lipoC2': 0.0, 'lipoC3S1': 3.93, 'temp': 26.13, 'lipoC3S3': 11.8, 'lipoC3S2': 7.84, 'rot1': 3, 'rot0': 4, 'rot3': 3, 'rot2': 2, 'state': 'normal', 'yaw': 0.42, 'datetime': '2018-10-03 17:17:38.349217', 'mgs': 1, 'volt': 1.0303, 'depth': 3.598, 'time': 6, 'pitch': -6.97, 'roll': -1.25, 'pres': 211}
{'lipoC2': 0.0, 'lipoC3S1': 3.94, 'temp': 26.13, 'lipoC3S3': 11.97, 'lipoC3S2': 7.85, 'rot1': 5, 'rot0': 5, 'rot3': 3, 'rot2': 2, 'state': 'normal', 'yaw': 0.48, 'datetime': '2018-10-03 17:17:38.366131', 'mgs': 1, 'volt': 1.0303, 'depth': 3.598, 'time': 6, 'pitch': -6.68, 'roll': -1.13, 'pres': 211}
{'lipoC2': 0.0, 'lipoC3S1': 3.93, 'temp': 26.13, 'lipoC3S3': 11.89, 'lipoC3S2': 7.85, 'rot1': 6, 'rot0': 7, 'rot3': 3, 'rot2': 2, 'state': 'normal', 'yaw': 0.49, 'datetime': '2018-10-03 17:17:38.382789', 'mgs': 1, 'volt': 1.0693, 'depth': 4.208, 'time': 6, 'pitch': -5.88, 'roll': -0.96, 'pres': 219}
{'lipoC2': 0.0, 'lipoC3S1': 3.91, 'temp': 26.19, 'lipoC3S3': 11.88, 'lipoC3S2': 7.77, 'rot1': 7, 'rot0': 8, 'rot3': 3, 'rot2': 2, 'state': 'normal', 'yaw': 0.5, 'datetime': '2018-10-03 17:17:38.398406', 'mgs': 1, 'volt': 1.0303, 'depth': 3.598, 'time': 6, 'pitch': -5.3, 'roll': -0.85, 'pres': 211}
{'lipoC2': 0.0, 'lipoC3S1': 3.92, 'temp': 26.19, 'lipoC3S3': 11.84, 'lipoC3S2': 7.68, 'rot1': 8, 'rot0': 9, 'rot3': 4, 'rot2': 2, 'state': 'normal', 'yaw': 0.54, 'datetime': '2018-10-03 17:17:38.413621', 'mgs': 1, 'volt': 1.0303, 'depth': 3.598, 'time': 6, 'pitch': -4.02, 'roll': -0.75, 'pres': 211}
{'lipoC2': 0.0, 'lipoC3S1': 3.93, 'temp': 26.13, 'lipoC3S3': 11.71, 'lipoC3S2': 7.82, 'rot1': 9, 'rot0': 10, 'rot3': 4, 'rot2': 3, 'state': 'normal', 'yaw': 0.53, 'datetime': '2018-10-03 17:17:38.429270', 'mgs': 1, 'volt': 1.0303, 'depth': 3.598, 'time': 6, 'pitch': -2.42, 'roll': -0.68, 'pres': 211}
{'lipoC2': 0.0, 'lipoC3S1': 3.9, 'temp': 26.13, 'lipoC3S3': 11.88, 'lipoC3S2': 7.84, 'rot1': 10, 'rot0': 11, 'rot3': 5, 'rot2': 3, 'state': 'normal', 'yaw': 0.58, 'datetime': '2018-10-03 17:17:38.483685', 'mgs': 1, 'volt': 1.084, 'depth': 4.437, 'time': 6, 'pitch': -0.53, 'roll': -0.64, 'pres': 222}
{'lipoC2': 0.0, 'lipoC3S1': 3.92, 'temp': 26.06, 'lipoC3S3': 11.77, 'lipoC3S2': 7.77, 'rot1': 11, 'rot0': 13, 'rot3': 5, 'rot2': 4, 'state': 'normal', 'yaw': 0.67, 'datetime': '2018-10-03 17:17:38.587137', 'mgs': 1, 'volt': 1.0303, 'depth': 3.598, 'time': 7, 'pitch': 1.72, 'roll': -0.59, 'pres': 211}
{'lipoC2': 0.0, 'lipoC3S1': 3.85, 'temp': 26.06, 'lipoC3S3': 11.88, 'lipoC3S2': 7.84, 'rot1': 13, 'rot0': 14, 'rot3': 6, 'rot2': 4, 'state': 'normal', 'yaw': 0.8, 'datetime': '2018-10-03 17:17:38.690548', 'mgs': 1, 'volt': 1.0449, 'depth': 3.827, 'time': 7, 'pitch': 3.84, 'roll': -0.6, 'pres': 214}
{'lipoC2': 0.0, 'lipoC3S1': 3.93, 'temp': 26.06, 'lipoC3S3': 11.65, 'lipoC3S2': 7.82, 'rot1': 14, 'rot0': 15, 'rot3': 6, 'rot2': 5, 'state': 'normal', 'yaw': 0.91, 'datetime': '2018-10-03 17:17:38.793989', 'mgs': 1, 'volt': 1.0303, 'depth': 3.598, 'time': 7, 'pitch': 5.87, 'roll': -0.63, 'pres': 211}
{'lipoC2': 0.0, 'lipoC3S1': 3.91, 'temp': 26.19, 'lipoC3S3': 11.88, 'lipoC3S2': 7.78, 'rot1': 15, 'rot0': 16, 'rot3': 7, 'rot2': 5, 'state': 'normal', 'yaw': 1.08, 'datetime': '2018-10-03 17:17:38.897449', 'mgs': 1, 'volt': 1.0303, 'depth': 3.598, 'time': 7, 'pitch': 7.94, 'roll': -0.6, 'pres': 211}
{'lipoC2': 0.0, 'lipoC3S1': 3.93, 'temp': 26.19, 'lipoC3S3': 11.88, 'lipoC3S2': 7.84, 'rot1': 16, 'rot0': 17, 'rot3': 7, 'rot2': 6, 'state': 'normal', 'yaw': 1.22, 'datetime': '2018-10-03 17:17:39.008046', 'mgs': 1, 'volt': 1.0449, 'depth': 3.827, 'time': 7, 'pitch': 9.58, 'roll': -0.56, 'pres': 214}
{'lipoC2': 0.0, 'lipoC3S1': 3.89, 'temp': 26.13, 'lipoC3S3': 11.87, 'lipoC3S2': 7.84, 'rot1': 17, 'rot0': 18, 'rot3': 8, 'rot2': 7, 'state': 'normal', 'yaw': 1.38, 'datetime': '2018-10-03 17:17:39.124280', 'mgs': 1, 'volt': 1.084, 'depth': 4.437, 'time': 7, 'pitch': 10.97, 'roll': -0.52, 'pres': 222}
{'lipoC2': 0.0, 'lipoC3S1': 3.92, 'temp': 26.13, 'lipoC3S3': 11.71, 'lipoC3S2': 7.82, 'rot1': 18, 'rot0': 20, 'rot3': 8, 'rot2': 7, 'state': 'normal', 'yaw': 1.54, 'datetime': '2018-10-03 17:17:39.209071', 'mgs': 1, 'volt': 1.0205, 'depth': 3.445, 'time': 7, 'pitch': 12.18, 'roll': -0.47, 'pres': 209}
{'lipoC2': 0.0, 'lipoC3S1': 3.83, 'temp': 26.19, 'lipoC3S3': 11.88, 'lipoC3S2': 7.84, 'rot1': 20, 'rot0': 21, 'rot3': 9, 'rot2': 8, 'state': 'normal', 'yaw': 1.74, 'datetime': '2018-10-03 17:17:39.312485', 'mgs': 1, 'volt': 1.04, 'depth': 3.751, 'time': 7, 'pitch': 13.04, 'roll': -0.41, 'pres': 213}
{'lipoC2': 0.0, 'lipoC3S1': 3.93, 'temp': 26.19, 'lipoC3S3': 11.88, 'lipoC3S2': 7.71, 'rot1': 21, 'rot0': 22, 'rot3': 9, 'rot2': 8, 'state': 'normal', 'yaw': 1.95, 'datetime': '2018-10-03 17:17:39.417228', 'mgs': 1, 'volt': 1.0107, 'depth': 3.293, 'time': 7, 'pitch': 13.68, 'roll': -0.32, 'pres': 207}
{'lipoC2': 0.0, 'lipoC3S1': 3.89, 'temp': 26.19, 'lipoC3S3': 11.87, 'lipoC3S2': 7.83, 'rot1': 22, 'rot0': 23, 'rot3': 10, 'rot2': 9, 'state': 'normal', 'yaw': 2.2, 'datetime': '2018-10-03 17:17:39.520961', 'mgs': 1, 'volt': 1.0693, 'depth': 4.208, 'time': 7, 'pitch': 14.19, 'roll': -0.25, 'pres': 219}
{'lipoC2': 0.0, 'lipoC3S1': 3.91, 'temp': 26.19, 'lipoC3S3': 11.87, 'lipoC3S2': 7.83, 'rot1': 23, 'rot0': 24, 'rot3': 10, 'rot2': 9, 'state': 'normal', 'yaw': 2.44, 'datetime': '2018-10-03 17:17:39.624694', 'mgs': 1, 'volt': 1.0547, 'depth': 3.979, 'time': 8, 'pitch': 14.5, 'roll': -0.18, 'pres': 216}
{'lipoC2': 0.0, 'lipoC3S1': 3.93, 'temp': 26.19, 'lipoC3S3': 11.87, 'lipoC3S2': 7.83, 'rot1': 24, 'rot0': 25, 'rot3': 11, 'rot2': 10, 'state': 'normal', 'yaw': 2.72, 'datetime': '2018-10-03 17:17:39.728595', 'mgs': 1, 'volt': 1.0303, 'depth': 3.598, 'time': 8, 'pitch': 14.7, 'roll': -0.11, 'pres': 211}
{'lipoC2': 0.0, 'lipoC3S1': 3.86, 'temp': 26.13, 'lipoC3S3': 11.87, 'lipoC3S2': 7.83, 'rot1': 25, 'rot0': 27, 'rot3': 11, 'rot2': 10, 'state': 'normal', 'yaw': 3.02, 'datetime': '2018-10-03 17:17:39.832536', 'mgs': 1, 'volt': 1.0547, 'depth': 3.979, 'time': 8, 'pitch': 14.82, 'roll': -0.03, 'pres': 216}
{'lipoC2': 0.0, 'lipoC3S1': 3.8, 'temp': 26.13, 'lipoC3S3': 11.88, 'lipoC3S2': 7.79, 'rot1': 26, 'rot0': 28, 'rot3': 11, 'rot2': 11, 'state': 'normal', 'yaw': 3.32, 'datetime': '2018-10-03 17:17:39.942710', 'mgs': 1, 'volt': 0.9814, 'depth': 2.835, 'time': 8, 'pitch': 14.8, 'roll': 0.02, 'pres': 201}
{'lipoC2': 0.0, 'lipoC3S1': 3.93, 'temp': 26.13, 'lipoC3S3': 11.76, 'lipoC3S2': 7.84, 'rot1': 28, 'rot0': 29, 'rot3': 12, 'rot2': 11, 'state': 'normal', 'yaw': 3.67, 'datetime': '2018-10-03 17:17:40.047658', 'mgs': 1, 'volt': 0.9717, 'depth': 2.682, 'time': 8, 'pitch': 14.64, 'roll': 0.07, 'pres': 199}
{'lipoC2': 0.0, 'lipoC3S1': 3.93, 'temp': 26.13, 'lipoC3S3': 11.87, 'lipoC3S2': 7.84, 'rot1': 29, 'rot0': 31, 'rot3': 12, 'rot2': 11, 'state': 'normal', 'yaw': 4.06, 'datetime': '2018-10-03 17:17:40.151433', 'mgs': 1, 'volt': 0.9619, 'depth': 2.53, 'time': 8, 'pitch': 14.16, 'roll': 0.2, 'pres': 197}
{'lipoC2': 0.0, 'lipoC3S1': 3.93, 'temp': 26.13, 'lipoC3S3': 11.85, 'lipoC3S2': 7.83, 'rot1': 30, 'rot0': 32, 'rot3': 12, 'rot2': 11, 'state': 'normal', 'yaw': 4.35, 'datetime': '2018-10-03 17:17:40.255348', 'mgs': 1, 'volt': 0.9668, 'depth': 2.606, 'time': 8, 'pitch': 13.47, 'roll': 0.4, 'pres': 198}
{'lipoC2': 0.0, 'lipoC3S1': 3.93, 'temp': 26.19, 'lipoC3S3': 11.87, 'lipoC3S2': 7.83, 'rot1': 31, 'rot0': 33, 'rot3': 13, 'rot2': 12, 'state': 'normal', 'yaw': 4.67, 'datetime': '2018-10-03 17:17:40.359021', 'mgs': 1, 'volt': 0.9668, 'depth': 2.606, 'time': 8, 'pitch': 12.51, 'roll': 0.68, 'pres': 198}
{'lipoC2': 0.0, 'lipoC3S1': 3.93, 'temp': 26.19, 'lipoC3S3': 11.87, 'lipoC3S2': 7.84, 'rot1': 32, 'rot0': 34, 'rot3': 13, 'rot2': 12, 'state': 'normal', 'yaw': 5.0, 'datetime': '2018-10-03 17:17:40.462957', 'mgs': 1, 'volt': 0.9766, 'depth': 2.759, 'time': 8, 'pitch': 11.53, 'roll': 0.81, 'pres': 200}
{'lipoC2': 0.0, 'lipoC3S1': 3.93, 'temp': 26.19, 'lipoC3S3': 11.73, 'lipoC3S2': 7.83, 'rot1': 34, 'rot0': 35, 'rot3': 13, 'rot2': 12, 'state': 'normal', 'yaw': 5.32, 'datetime': '2018-10-03 17:17:40.568021', 'mgs': 1, 'volt': 0.9326, 'depth': 2.072, 'time': 9, 'pitch': 10.53, 'roll': 0.85, 'pres': 191}
{'lipoC2': 0.0, 'lipoC3S1': 3.91, 'temp': 26.19, 'lipoC3S3': 11.68, 'lipoC3S2': 7.75, 'rot1': 35, 'rot0': 36, 'rot3': 14, 'rot2': 13, 'state': 'normal', 'yaw': 5.64, 'datetime': '2018-10-03 17:17:40.671864', 'mgs': 1, 'volt': 0.9229, 'depth': 1.92, 'time': 9, 'pitch': 9.43, 'roll': 0.84, 'pres': 189}
{'lipoC2': 0.0, 'lipoC3S1': 3.92, 'temp': 26.13, 'lipoC3S3': 11.79, 'lipoC3S2': 7.81, 'rot1': 36, 'rot0': 38, 'rot3': 15, 'rot2': 13, 'state': 'normal', 'yaw': 5.91, 'datetime': '2018-10-03 17:17:40.776555', 'mgs': 1, 'volt': 0.918, 'depth': 1.843, 'time': 9, 'pitch': 8.26, 'roll': 0.76, 'pres': 188}
{'lipoC2': 0.0, 'lipoC3S1': 3.9, 'temp': 26.13, 'lipoC3S3': 11.83, 'lipoC3S2': 7.73, 'rot1': 37, 'rot0': 39, 'rot3': 15, 'rot2': 14, 'state': 'normal', 'yaw': 6.16, 'datetime': '2018-10-03 17:17:40.880694', 'mgs': 1, 'volt': 0.9326, 'depth': 2.072, 'time': 9, 'pitch': 6.87, 'roll': 0.55, 'pres': 191}
{'lipoC2': 0.0, 'lipoC3S1': 3.88, 'temp': 26.13, 'lipoC3S3': 11.83, 'lipoC3S2': 7.71, 'rot1': 38, 'rot0': 40, 'rot3': 16, 'rot2': 15, 'state': 'normal', 'yaw': 6.32, 'datetime': '2018-10-03 17:17:40.984447', 'mgs': 1, 'volt': 0.9277, 'depth': 1.996, 'time': 9, 'pitch': 5.6, 'roll': 0.16, 'pres': 190}
{'lipoC2': 0.0, 'lipoC3S1': 3.88, 'temp': 26.19, 'lipoC3S3': 11.85, 'lipoC3S2': 7.71, 'rot1': 39, 'rot0': 41, 'rot3': 17, 'rot2': 15, 'state': 'normal', 'yaw': 6.4, 'datetime': '2018-10-03 17:17:41.088540', 'mgs': 1, 'volt': 0.9229, 'depth': 1.92, 'time': 9, 'pitch': 4.33, 'roll': -0.27, 'pres': 189}
{'lipoC2': 0.0, 'lipoC3S1': 3.89, 'temp': 26.19, 'lipoC3S3': 11.84, 'lipoC3S2': 7.69, 'rot1': 41, 'rot0': 42, 'rot3': 18, 'rot2': 16, 'state': 'normal', 'yaw': 6.47, 'datetime': '2018-10-03 17:17:41.192135', 'mgs': 1, 'volt': 0.9229, 'depth': 1.92, 'time': 9, 'pitch': 2.99, 'roll': -0.77, 'pres': 189}
{'lipoC2': 0.0, 'lipoC3S1': 3.89, 'temp': 26.13, 'lipoC3S3': 11.79, 'lipoC3S2': 7.65, 'rot1': 42, 'rot0': 44, 'rot3': 19, 'rot2': 17, 'state': 'normal', 'yaw': 6.53, 'datetime': '2018-10-03 17:17:41.295998', 'mgs': 1, 'volt': 0.9229, 'depth': 1.92, 'time': 9, 'pitch': 1.82, 'roll': -1.2, 'pres': 189}
{'lipoC2': 0.0, 'lipoC3S1': 3.88, 'temp': 26.13, 'lipoC3S3': 11.79, 'lipoC3S2': 7.82, 'rot1': 43, 'rot0': 45, 'rot3': 20, 'rot2': 18, 'state': 'normal', 'yaw': 6.64, 'datetime': '2018-10-03 17:17:41.399636', 'mgs': 1, 'volt': 0.918, 'depth': 1.843, 'time': 9, 'pitch': 0.71, 'roll': -1.51, 'pres': 188}
{'lipoC2': 0.0, 'lipoC3S1': 3.87, 'temp': 26.19, 'lipoC3S3': 11.77, 'lipoC3S2': 7.79, 'rot1': 44, 'rot0': 46, 'rot3': 21, 'rot2': 18, 'state': 'normal', 'yaw': 6.77, 'datetime': '2018-10-03 17:17:41.503635', 'mgs': 1, 'volt': 0.9082, 'depth': 1.691, 'time': 9, 'pitch': -0.4, 'roll': -1.8, 'pres': 186}
{'lipoC2': 0.0, 'lipoC3S1': 3.88, 'temp': 26.19, 'lipoC3S3': 11.76, 'lipoC3S2': 7.76, 'rot1': 45, 'rot0': 47, 'rot3': 22, 'rot2': 19, 'state': 'normal', 'yaw': 6.87, 'datetime': '2018-10-03 17:17:41.607409', 'mgs': 1, 'volt': 0.918, 'depth': 1.843, 'time': 10, 'pitch': -1.29, 'roll': -1.98, 'pres': 188}
{'lipoC2': 0.0, 'lipoC3S1': 3.91, 'temp': 26.19, 'lipoC3S3': 11.76, 'lipoC3S2': 7.79, 'rot1': 46, 'rot0': 48, 'rot3': 23, 'rot2': 20, 'state': 'normal', 'yaw': 6.93, 'datetime': '2018-10-03 17:17:41.712590', 'mgs': 1, 'volt': 0.9473, 'depth': 2.301, 'time': 10, 'pitch': -1.97, 'roll': -2.16, 'pres': 194}
{'lipoC2': 0.0, 'lipoC3S1': 3.84, 'temp': 26.19, 'lipoC3S3': 11.75, 'lipoC3S2': 7.8, 'rot1': 47, 'rot0': 50, 'rot3': 24, 'rot2': 21, 'state': 'normal', 'yaw': 7.0, 'datetime': '2018-10-03 17:17:41.816279', 'mgs': 1, 'volt': 0.8789, 'depth': 1.233, 'time': 10, 'pitch': -2.43, 'roll': -2.43, 'pres': 180}
{'lipoC2': 0.0, 'lipoC3S1': 3.87, 'temp': 26.19, 'lipoC3S3': 11.71, 'lipoC3S2': 7.72, 'rot1': 49, 'rot0': 51, 'rot3': 25, 'rot2': 21, 'state': 'normal', 'yaw': 7.04, 'datetime': '2018-10-03 17:17:41.921633', 'mgs': 1, 'volt': 0.9473, 'depth': 2.301, 'time': 10, 'pitch': -2.57, 'roll': -2.73, 'pres': 194}
{'lipoC2': 0.0, 'lipoC3S1': 3.84, 'temp': 26.19, 'lipoC3S3': 11.73, 'lipoC3S2': 7.73, 'rot1': 50, 'rot0': 52, 'rot3': 26, 'rot2': 22, 'state': 'normal', 'yaw': 7.11, 'datetime': '2018-10-03 17:17:42.025583', 'mgs': 1, 'volt': 0.9814, 'depth': 2.835, 'time': 10, 'pitch': -2.62, 'roll': -3.18, 'pres': 201}
{'lipoC2': 0.0, 'lipoC3S1': 3.87, 'temp': 26.19, 'lipoC3S3': 11.87, 'lipoC3S2': 7.84, 'rot1': 51, 'rot0': 53, 'rot3': 27, 'rot2': 23, 'state': 'normal', 'yaw': 7.2, 'datetime': '2018-10-03 17:17:42.130208', 'mgs': 1, 'volt': 0.8936, 'depth': 1.462, 'time': 10, 'pitch': -2.58, 'roll': -3.6, 'pres': 183}
{'lipoC2': 0.0, 'lipoC3S1': 3.9, 'temp': 26.19, 'lipoC3S3': 11.87, 'lipoC3S2': 7.83, 'rot1': 52, 'rot0': 55, 'rot3': 27, 'rot2': 23, 'state': 'normal', 'yaw': 7.23, 'datetime': '2018-10-03 17:17:42.234693', 'mgs': 1, 'volt': 0.9668, 'depth': 2.606, 'time': 10, 'pitch': -2.27, 'roll': -3.8, 'pres': 198}
{'lipoC2': 0.0, 'lipoC3S1': 3.86, 'temp': 26.19, 'lipoC3S3': 11.87, 'lipoC3S2': 7.83, 'rot1': 53, 'rot0': 56, 'rot3': 27, 'rot2': 23, 'state': 'normal', 'yaw': 7.22, 'datetime': '2018-10-03 17:17:42.338573', 'mgs': 1, 'volt': 0.9277, 'depth': 1.996, 'time': 10, 'pitch': -1.64, 'roll': -3.8, 'pres': 190}
{'lipoC2': 0.0, 'lipoC3S1': 3.92, 'temp': 26.19, 'lipoC3S3': 11.88, 'lipoC3S2': 7.72, 'rot1': 54, 'rot0': 57, 'rot3': 27, 'rot2': 23, 'state': 'normal', 'yaw': 7.18, 'datetime': '2018-10-03 17:17:42.442441', 'mgs': 1, 'volt': 0.9277, 'depth': 1.996, 'time': 10, 'pitch': -1.0, 'roll': -3.73, 'pres': 190}
{'lipoC2': 0.0, 'lipoC3S1': 3.87, 'temp': 26.19, 'lipoC3S3': 11.75, 'lipoC3S2': 7.75, 'rot1': 56, 'rot0': 59, 'rot3': 28, 'rot2': 24, 'state': 'normal', 'yaw': 7.11, 'datetime': '2018-10-03 17:17:42.543843', 'mgs': 1, 'volt': 0.9375, 'depth': 2.148, 'time': 10, 'pitch': -0.27, 'roll': -3.54, 'pres': 192}
{'lipoC2': 0.0, 'lipoC3S1': 3.91, 'temp': 26.19, 'lipoC3S3': 11.67, 'lipoC3S2': 7.74, 'rot1': 57, 'rot0': 60, 'rot3': 28, 'rot2': 25, 'state': 'normal', 'yaw': 7.08, 'datetime': '2018-10-03 17:17:42.650256', 'mgs': 1, 'volt': 0.9424, 'depth': 2.225, 'time': 11, 'pitch': 0.33, 'roll': -3.39, 'pres': 193}
{'lipoC2': 0.0, 'lipoC3S1': 3.92, 'temp': 26.19, 'lipoC3S3': 11.77, 'lipoC3S2': 7.81, 'rot1': 58, 'rot0': 61, 'rot3': 30, 'rot2': 25, 'state': 'normal', 'yaw': 7.11, 'datetime': '2018-10-03 17:17:42.754496', 'mgs': 1, 'volt': 0.957, 'depth': 2.454, 'time': 11, 'pitch': 0.93, 'roll': -3.29, 'pres': 196}
{'lipoC2': 0.0, 'lipoC3S1': 3.88, 'temp': 26.19, 'lipoC3S3': 11.84, 'lipoC3S2': 7.81, 'rot1': 59, 'rot0': 62, 'rot3': 31, 'rot2': 26, 'state': 'normal', 'yaw': 7.11, 'datetime': '2018-10-03 17:17:42.858004', 'mgs': 1, 'volt': 1.0107, 'depth': 3.293, 'time': 11, 'pitch': 1.62, 'roll': -3.05, 'pres': 207}
{'lipoC2': 0.0, 'lipoC3S1': 3.8, 'temp': 26.19, 'lipoC3S3': 11.87, 'lipoC3S2': 7.82, 'rot1': 60, 'rot0': 63, 'rot3': 31, 'rot2': 26, 'state': 'normal', 'yaw': 7.14, 'datetime': '2018-10-03 17:17:42.962057', 'mgs': 1, 'volt': 0.957, 'depth': 2.454, 'time': 11, 'pitch': 2.26, 'roll': -2.77, 'pres': 196}
{'lipoC2': 0.0, 'lipoC3S1': 3.84, 'temp': 26.19, 'lipoC3S3': 11.87, 'lipoC3S2': 7.83, 'rot1': 61, 'rot0': 65, 'rot3': 31, 'rot2': 26, 'state': 'normal', 'yaw': 7.18, 'datetime': '2018-10-03 17:17:43.066495', 'mgs': 1, 'volt': 0.9375, 'depth': 2.148, 'time': 11, 'pitch': 2.96, 'roll': -2.45, 'pres': 192}
{'lipoC2': 0.0, 'lipoC3S1': 3.87, 'temp': 26.19, 'lipoC3S3': 11.83, 'lipoC3S2': 7.71, 'rot1': 63, 'rot0': 66, 'rot3': 31, 'rot2': 26, 'state': 'normal', 'yaw': 7.37, 'datetime': '2018-10-03 17:17:43.170457', 'mgs': 1, 'volt': 0.9912, 'depth': 2.988, 'time': 11, 'pitch': 3.74, 'roll': -2.07, 'pres': 203}
{'lipoC2': 0.0, 'lipoC3S1': 3.83, 'temp': 26.19, 'lipoC3S3': 11.83, 'lipoC3S2': 7.81, 'rot1': 64, 'rot0': 67, 'rot3': 32, 'rot2': 27, 'state': 'normal', 'yaw': 7.62, 'datetime': '2018-10-03 17:17:43.275678', 'mgs': 1, 'volt': 0.9912, 'depth': 2.988, 'time': 11, 'pitch': 4.13, 'roll': -1.79, 'pres': 203}
{'lipoC2': 0.0, 'lipoC3S1': 3.92, 'temp': 26.19, 'lipoC3S3': 11.87, 'lipoC3S2': 7.76, 'rot1': 65, 'rot0': 68, 'rot3': 32, 'rot2': 27, 'state': 'normal', 'yaw': 8.04, 'datetime': '2018-10-03 17:17:43.379632', 'mgs': 1, 'volt': 0.9766, 'depth': 2.759, 'time': 11, 'pitch': 4.32, 'roll': -1.52, 'pres': 200}
{'lipoC2': 0.0, 'lipoC3S1': 3.92, 'temp': 26.19, 'lipoC3S3': 11.84, 'lipoC3S2': 7.71, 'rot1': 66, 'rot0': 69, 'rot3': 32, 'rot2': 27, 'state': 'normal', 'yaw': 8.44, 'datetime': '2018-10-03 17:17:43.484188', 'mgs': 1, 'volt': 0.9766, 'depth': 2.759, 'time': 11, 'pitch': 4.44, 'roll': -1.3, 'pres': 200}
{'lipoC2': 0.0, 'lipoC3S1': 3.84, 'temp': 26.19, 'lipoC3S3': 11.87, 'lipoC3S2': 7.83, 'rot1': 67, 'rot0': 71, 'rot3': 32, 'rot2': 27, 'state': 'normal', 'yaw': 8.91, 'datetime': '2018-10-03 17:17:43.586970', 'mgs': 1, 'volt': 0.9814, 'depth': 2.835, 'time': 12, 'pitch': 4.6, 'roll': -1.07, 'pres': 201}
{'lipoC2': 0.0, 'lipoC3S1': 3.92, 'temp': 26.25, 'lipoC3S3': 11.87, 'lipoC3S2': 7.75, 'rot1': 69, 'rot0': 72, 'rot3': 32, 'rot2': 27, 'state': 'normal', 'yaw': 9.38, 'datetime': '2018-10-03 17:17:43.692594', 'mgs': 1, 'volt': 0.9814, 'depth': 2.835, 'time': 12, 'pitch': 4.76, 'roll': -0.88, 'pres': 201}
{'lipoC2': 0.0, 'lipoC3S1': 3.92, 'temp': 26.25, 'lipoC3S3': 11.81, 'lipoC3S2': 7.82, 'rot1': 70, 'rot0': 73, 'rot3': 32, 'rot2': 27, 'state': 'normal', 'yaw': 9.92, 'datetime': '2018-10-03 17:17:43.796607', 'mgs': 1, 'volt': 0.9814, 'depth': 2.835, 'time': 12, 'pitch': 4.95, 'roll': -0.72, 'pres': 201}
{'lipoC2': 0.0, 'lipoC3S1': 3.92, 'temp': 26.19, 'lipoC3S3': 11.69, 'lipoC3S2': 7.82, 'rot1': 71, 'rot0': 74, 'rot3': 32, 'rot2': 27, 'state': 'normal', 'yaw': 10.53, 'datetime': '2018-10-03 17:17:43.900327', 'mgs': 1, 'volt': 0.9814, 'depth': 2.835, 'time': 12, 'pitch': 5.19, 'roll': -0.55, 'pres': 201}
{'lipoC2': 0.0, 'lipoC3S1': 3.92, 'temp': 26.19, 'lipoC3S3': 11.85, 'lipoC3S2': 7.83, 'rot1': 72, 'rot0': 76, 'rot3': 32, 'rot2': 27, 'state': 'normal', 'yaw': 11.1, 'datetime': '2018-10-03 17:17:44.004373', 'mgs': 1, 'volt': 0.9863, 'depth': 2.911, 'time': 12, 'pitch': 5.42, 'roll': -0.45, 'pres': 202}
{'lipoC2': 0.0, 'lipoC3S1': 3.89, 'temp': 26.19, 'lipoC3S3': 11.87, 'lipoC3S2': 7.83, 'rot1': 73, 'rot0': 77, 'rot3': 32, 'rot2': 27, 'state': 'normal', 'yaw': 11.65, 'datetime': '2018-10-03 17:17:44.108398', 'mgs': 1, 'volt': 1.0352, 'depth': 3.674, 'time': 12, 'pitch': 5.63, 'roll': -0.35, 'pres': 212}
{'lipoC2': 0.0, 'lipoC3S1': 3.8, 'temp': 26.19, 'lipoC3S3': 11.84, 'lipoC3S2': 7.79, 'rot1': 74, 'rot0': 78, 'rot3': 32, 'rot2': 27, 'state': 'normal', 'yaw': 12.3, 'datetime': '2018-10-03 17:17:44.212281', 'mgs': 1, 'volt': 0.9961, 'depth': 3.064, 'time': 12, 'pitch': 5.83, 'roll': -0.23, 'pres': 204}
{'lipoC2': 0.0, 'lipoC3S1': 3.91, 'temp': 26.19, 'lipoC3S3': 11.85, 'lipoC3S2': 7.69, 'rot1': 75, 'rot0': 79, 'rot3': 32, 'rot2': 27, 'state': 'normal', 'yaw': 12.91, 'datetime': '2018-10-03 17:17:44.316086', 'mgs': 1, 'volt': 0.9863, 'depth': 2.911, 'time': 12, 'pitch': 6.03, 'roll': -0.11, 'pres': 202}
{'lipoC2': 0.0, 'lipoC3S1': 3.96, 'temp': 26.19, 'lipoC3S3': 11.87, 'lipoC3S2': 7.79, 'rot1': 77, 'rot0': 80, 'rot3': 35, 'rot2': 28, 'state': 'normal', 'yaw': 13.56, 'datetime': '2018-10-03 17:17:44.420656', 'mgs': 1, 'volt': 0.9863, 'depth': 2.911, 'time': 12, 'pitch': 6.38, 'roll': 0.0, 'pres': 202}
{'lipoC2': 0.0, 'lipoC3S1': 3.92, 'temp': 26.19, 'lipoC3S3': 11.85, 'lipoC3S2': 7.72, 'rot1': 78, 'rot0': 81, 'rot3': 37, 'rot2': 28, 'state': 'normal', 'yaw': 14.23, 'datetime': '2018-10-03 17:17:44.524468', 'mgs': 1, 'volt': 0.9814, 'depth': 2.835, 'time': 12, 'pitch': 6.74, 'roll': 0.09, 'pres': 201}
{'lipoC2': 0.0, 'lipoC3S1': 3.98, 'temp': 26.19, 'lipoC3S3': 11.87, 'lipoC3S2': 7.8, 'rot1': 79, 'rot0': 83, 'rot3': 37, 'rot2': 28, 'state': 'normal', 'yaw': 14.81, 'datetime': '2018-10-03 17:17:44.629820', 'mgs': 1, 'volt': 0.9814, 'depth': 2.835, 'time': 13, 'pitch': 7.05, 'roll': 0.18, 'pres': 201}
{'lipoC2': 0.0, 'lipoC3S1': 3.92, 'temp': 26.19, 'lipoC3S3': 11.83, 'lipoC3S2': 7.71, 'rot1': 80, 'rot0': 84, 'rot3': 37, 'rot2': 30, 'state': 'normal', 'yaw': 15.47, 'datetime': '2018-10-03 17:17:44.733629', 'mgs': 1, 'volt': 0.9814, 'depth': 2.835, 'time': 13, 'pitch': 7.43, 'roll': 0.28, 'pres': 201}
{'lipoC2': 0.0, 'lipoC3S1': 3.99, 'temp': 26.19, 'lipoC3S3': 11.87, 'lipoC3S2': 7.8, 'rot1': 81, 'rot0': 85, 'rot3': 39, 'rot2': 30, 'state': 'normal', 'yaw': 16.08, 'datetime': '2018-10-03 17:17:44.838185', 'mgs': 1, 'volt': 0.9766, 'depth': 2.759, 'time': 13, 'pitch': 7.77, 'roll': 0.36, 'pres': 200}
{'lipoC2': 0.0, 'lipoC3S1': 3.89, 'temp': 26.13, 'lipoC3S3': 11.87, 'lipoC3S2': 7.83, 'rot1': 82, 'rot0': 86, 'rot3': 39, 'rot2': 30, 'state': 'normal', 'yaw': 16.76, 'datetime': '2018-10-03 17:17:44.942408', 'mgs': 1, 'volt': 1.0254, 'depth': 3.522, 'time': 13, 'pitch': 8.11, 'roll': 0.43, 'pres': 210}
{'lipoC2': 0.0, 'lipoC3S1': 3.8, 'temp': 26.13, 'lipoC3S3': 11.84, 'lipoC3S2': 7.78, 'rot1': 84, 'rot0': 87, 'rot3': 40, 'rot2': 30, 'state': 'normal', 'yaw': 17.39, 'datetime': '2018-10-03 17:17:45.046546', 'mgs': 1, 'volt': 0.9619, 'depth': 2.53, 'time': 13, 'pitch': 8.37, 'roll': 0.44, 'pres': 197}
{'lipoC2': 0.0, 'lipoC3S1': 3.91, 'temp': 26.19, 'lipoC3S3': 11.85, 'lipoC3S2': 7.67, 'rot1': 85, 'rot0': 89, 'rot3': 40, 'rot2': 31, 'state': 'normal', 'yaw': 18.05, 'datetime': '2018-10-03 17:17:45.150343', 'mgs': 1, 'volt': 0.9668, 'depth': 2.606, 'time': 13, 'pitch': 8.62, 'roll': 0.46, 'pres': 198}
{'lipoC2': 0.0, 'lipoC3S1': 3.92, 'temp': 26.19, 'lipoC3S3': 11.67, 'lipoC3S2': 7.81, 'rot1': 86, 'rot0': 90, 'rot3': 40, 'rot2': 31, 'state': 'normal', 'yaw': 18.79, 'datetime': '2018-10-03 17:17:45.254382', 'mgs': 1, 'volt': 0.9619, 'depth': 2.53, 'time': 13, 'pitch': 8.92, 'roll': 0.47, 'pres': 197}
{'lipoC2': 0.0, 'lipoC3S1': 3.92, 'temp': 26.25, 'lipoC3S3': 11.84, 'lipoC3S2': 7.82, 'rot1': 87, 'rot0': 91, 'rot3': 40, 'rot2': 31, 'state': 'normal', 'yaw': 19.48, 'datetime': '2018-10-03 17:17:45.358250', 'mgs': 1, 'volt': 0.9863, 'depth': 2.911, 'time': 13, 'pitch': 9.11, 'roll': 0.47, 'pres': 202}
{'lipoC2': 0.0, 'lipoC3S1': 3.88, 'temp': 26.25, 'lipoC3S3': 11.87, 'lipoC3S2': 7.83, 'rot1': 88, 'rot0': 92, 'rot3': 40, 'rot2': 31, 'state': 'normal', 'yaw': 20.14, 'datetime': '2018-10-03 17:17:45.462284', 'mgs': 1, 'volt': 1.0156, 'depth': 3.369, 'time': 13, 'pitch': 9.13, 'roll': 0.45, 'pres': 208}
{'lipoC2': 0.0, 'lipoC3S1': 3.97, 'temp': 26.25, 'lipoC3S3': 11.87, 'lipoC3S2': 7.8, 'rot1': 89, 'rot0': 93, 'rot3': 40, 'rot2': 31, 'state': 'normal', 'yaw': 20.78, 'datetime': '2018-10-03 17:17:45.566799', 'mgs': 1, 'volt': 0.9521, 'depth': 2.377, 'time': 14, 'pitch': 9.13, 'roll': 0.4, 'pres': 195}
{'lipoC2': 0.0, 'lipoC3S1': 3.91, 'temp': 26.25, 'lipoC3S3': 11.8, 'lipoC3S2': 7.65, 'rot1': 90, 'rot0': 94, 'rot3': 40, 'rot2': 31, 'state': 'normal', 'yaw': 21.28, 'datetime': '2018-10-03 17:17:45.670190', 'mgs': 1, 'volt': 0.9473, 'depth': 2.301, 'time': 14, 'pitch': 9.06, 'roll': 0.34, 'pres': 194}
{'lipoC2': 0.0, 'lipoC3S1': 3.91, 'temp': 26.25, 'lipoC3S3': 11.85, 'lipoC3S2': 7.71, 'rot1': 92, 'rot0': 96, 'rot3': 41, 'rot2': 32, 'state': 'normal', 'yaw': 21.76, 'datetime': '2018-10-03 17:17:45.774622', 'mgs': 1, 'volt': 0.9424, 'depth': 2.225, 'time': 14, 'pitch': 8.8, 'roll': 0.24, 'pres': 193}
{'lipoC2': 0.0, 'lipoC3S1': 3.91, 'temp': 26.19, 'lipoC3S3': 11.75, 'lipoC3S2': 7.75, 'rot1': 93, 'rot0': 97, 'rot3': 41, 'rot2': 32, 'state': 'normal', 'yaw': 22.2, 'datetime': '2018-10-03 17:17:45.878506', 'mgs': 1, 'volt': 0.9424, 'depth': 2.225, 'time': 14, 'pitch': 8.31, 'roll': 0.12, 'pres': 193}
{'lipoC2': 0.0, 'lipoC3S1': 3.88, 'temp': 26.19, 'lipoC3S3': 11.84, 'lipoC3S2': 7.74, 'rot1': 94, 'rot0': 98, 'rot3': 42, 'rot2': 33, 'state': 'normal', 'yaw': 22.57, 'datetime': '2018-10-03 17:17:45.983705', 'mgs': 1, 'volt': 0.9326, 'depth': 2.072, 'time': 14, 'pitch': 7.69, 'roll': 0.01, 'pres': 191}
{'lipoC2': 0.0, 'lipoC3S1': 3.87, 'temp': 26.19, 'lipoC3S3': 11.76, 'lipoC3S2': 7.79, 'rot1': 95, 'rot0': 99, 'rot3': 43, 'rot2': 34, 'state': 'normal', 'yaw': 22.95, 'datetime': '2018-10-03 17:17:46.087725', 'mgs': 1, 'volt': 0.9326, 'depth': 2.072, 'time': 14, 'pitch': 6.86, 'roll': -0.11, 'pres': 191}
{'lipoC2': 0.0, 'lipoC3S1': 3.91, 'temp': 26.19, 'lipoC3S3': 11.76, 'lipoC3S2': 7.8, 'rot1': 96, 'rot0': 101, 'rot3': 43, 'rot2': 34, 'state': 'normal', 'yaw': 23.35, 'datetime': '2018-10-03 17:17:46.190540', 'mgs': 1, 'volt': 0.9668, 'depth': 2.606, 'time': 14, 'pitch': 6.04, 'roll': -0.23, 'pres': 198}
{'lipoC2': 0.0, 'lipoC3S1': 3.95, 'temp': 26.19, 'lipoC3S3': 11.85, 'lipoC3S2': 7.76, 'rot1': 97, 'rot0': 102, 'rot3': 44, 'rot2': 35, 'state': 'normal', 'yaw': 23.83, 'datetime': '2018-10-03 17:17:46.296764', 'mgs': 1, 'volt': 0.9229, 'depth': 1.92, 'time': 14, 'pitch': 5.17, 'roll': -0.51, 'pres': 189}
{'lipoC2': 0.0, 'lipoC3S1': 3.92, 'temp': 26.13, 'lipoC3S3': 11.73, 'lipoC3S2': 7.81, 'rot1': 99, 'rot0': 103, 'rot3': 44, 'rot2': 35, 'state': 'normal', 'yaw': 24.21, 'datetime': '2018-10-03 17:17:46.400757', 'mgs': 1, 'volt': 0.918, 'depth': 1.843, 'time': 14, 'pitch': 4.53, 'roll': -0.7, 'pres': 188}
{'lipoC2': 0.0, 'lipoC3S1': 3.9, 'temp': 26.13, 'lipoC3S3': 11.73, 'lipoC3S2': 7.72, 'rot1': 100, 'rot0': 104, 'rot3': 45, 'rot2': 36, 'state': 'normal', 'yaw': 24.55, 'datetime': '2018-10-03 17:17:46.505115', 'mgs': 1, 'volt': 0.9473, 'depth': 2.301, 'time': 14, 'pitch': 3.98, 'roll': -0.79, 'pres': 194}
{'lipoC2': 0.0, 'lipoC3S1': 3.87, 'temp': 26.19, 'lipoC3S3': 11.8, 'lipoC3S2': 7.7, 'rot1': 101, 'rot0': 105, 'rot3': 46, 'rot2': 36, 'state': 'normal', 'yaw': 24.85, 'datetime': '2018-10-03 17:17:46.609021', 'mgs': 1, 'volt': 0.9375, 'depth': 2.148, 'time': 15, 'pitch': 3.15, 'roll': -0.94, 'pres': 192}
{'lipoC2': 0.0, 'lipoC3S1': 3.91, 'temp': 26.19, 'lipoC3S3': 11.76, 'lipoC3S2': 7.79, 'rot1': 102, 'rot0': 106, 'rot3': 47, 'rot2': 37, 'state': 'normal', 'yaw': 25.06, 'datetime': '2018-10-03 17:17:46.713394', 'mgs': 1, 'volt': 0.918, 'depth': 1.843, 'time': 15, 'pitch': 2.3, 'roll': -1.12, 'pres': 188}
