{'lipoC2': 0.0, 'lipoC3S1': 3.93, 'temp': 26.44, 'lipoC3S3': 11.88, 'lipoC3S2': 7.85, 'rot1': 315, 'rot0': 314, 'rot3': 189, 'rot2': 171, 'state': 'normal', 'yaw': -9.73, 'datetime': '2018-10-03 17:29:35.886282', 'mgs': 0, 'volt': 1.0254, 'depth': 3.522, 'time': 57, 'pitch': -13.98, 'roll': 2.45, 'pres': 210}
{'lipoC2': 0.0, 'lipoC3S1': 3.93, 'temp': 26.44, 'lipoC3S3': 11.87, 'lipoC3S2': 7.85, 'rot1': 0, 'rot0': 0, 'rot3': 0, 'rot2': 0, 'state': 'normal', 'yaw': 0.02, 'datetime': '2018-10-03 17:29:35.918958', 'mgs': 0, 'volt': 1.0205, 'depth': 3.445, 'time': 1, 'pitch': -9.18, 'roll': 0.32, 'pres': 209}
{'lipoC2': 0.0, 'lipoC3S1': 3.93, 'temp': 26.44, 'lipoC3S3': 11.87, 'lipoC3S2': 7.85, 'rot1': 0, 'rot0': 0, 'rot3': 0, 'rot2': 0, 'state': 'normal', 'yaw': 0.21, 'datetime': '2018-10-03 17:29:35.931840', 'mgs': 0, 'volt': 1.0205, 'depth': 3.445, 'time': 1, 'pitch': -8.87, 'roll': 0.26, 'pres': 209}
{'lipoC2': 0.0, 'lipoC3S1': 3.93, 'temp': 26.44, 'lipoC3S3': 11.87, 'lipoC3S2': 7.85, 'rot1': 0, 'rot0': 0, 'rot3': 0, 'rot2': 0, 'state': 'normal', 'yaw': 0.4, 'datetime': '2018-10-03 17:29:35.942953', 'mgs': 0, 'volt': 1.0205, 'depth': 3.445, 'time': 1, 'pitch': -8.62, 'roll': 0.24, 'pres': 209}
{'lipoC2': 0.0, 'lipoC3S1': 3.93, 'temp': 26.44, 'lipoC3S3': 11.87, 'lipoC3S2': 7.85, 'rot1': 0, 'rot0': 0, 'rot3': 0, 'rot2': 0, 'state': 'normal', 'yaw': 0.6, 'datetime': '2018-10-03 17:29:35.952447', 'mgs': 0, 'volt': 1.0205, 'depth': 3.445, 'time': 1, 'pitch': -8.38, 'roll': 0.24, 'pres': 209}
{'lipoC2': 0.0, 'lipoC3S1': 3.93, 'temp': 26.44, 'lipoC3S3': 11.87, 'lipoC3S2': 7.85, 'rot1': 0, 'rot0': 0, 'rot3': 0, 'rot2': 0, 'state': 'normal', 'yaw': 0.84, 'datetime': '2018-10-03 17:29:35.961881', 'mgs': 0, 'volt': 1.0205, 'depth': 3.445, 'time': 1, 'pitch': -8.07, 'roll': 0.21, 'pres': 209}
{'lipoC2': 0.0, 'lipoC3S1': 3.93, 'temp': 26.5, 'lipoC3S3': 11.88, 'lipoC3S2': 7.85, 'rot1': 0, 'rot0': 0, 'rot3': 0, 'rot2': 0, 'state': 'normal', 'yaw': 1.08, 'datetime': '2018-10-03 17:29:35.971384', 'mgs': 0, 'volt': 1.0254, 'depth': 3.522, 'time': 1, 'pitch': -7.78, 'roll': 0.16, 'pres': 210}
{'lipoC2': 0.0, 'lipoC3S1': 3.93, 'temp': 26.5, 'lipoC3S3': 11.87, 'lipoC3S2': 7.85, 'rot1': 0, 'rot0': 0, 'rot3': 0, 'rot2': 0, 'state': 'normal', 'yaw': 1.32, 'datetime': '2018-10-03 17:29:35.981191', 'mgs': 0, 'volt': 1.0205, 'depth': 3.445, 'time': 1, 'pitch': -7.53, 'roll': 0.15, 'pres': 209}
{'lipoC2': 0.0, 'lipoC3S1': 3.93, 'temp': 26.44, 'lipoC3S3': 11.88, 'lipoC3S2': 7.85, 'rot1': 0, 'rot0': 0, 'rot3': 0, 'rot2': 0, 'state': 'normal', 'yaw': 1.49, 'datetime': '2018-10-03 17:29:35.990723', 'mgs': 0, 'volt': 1.0205, 'depth': 3.445, 'time': 1, 'pitch': -7.33, 'roll': 0.12, 'pres': 209}
{'lipoC2': 0.0, 'lipoC3S1': 3.93, 'temp': 26.44, 'lipoC3S3': 11.88, 'lipoC3S2': 7.85, 'rot1': 0, 'rot0': 0, 'rot3': 0, 'rot2': 0, 'state': 'normal', 'yaw': 1.62, 'datetime': '2018-10-03 17:29:36.000235', 'mgs': 0, 'volt': 1.0254, 'depth': 3.522, 'time': 2, 'pitch': -7.19, 'roll': 0.09, 'pres': 210}
{'lipoC2': 0.0, 'lipoC3S1': 3.93, 'temp': 26.44, 'lipoC3S3': 11.88, 'lipoC3S2': 7.85, 'rot1': 0, 'rot0': 0, 'rot3': 0, 'rot2': 0, 'state': 'normal', 'yaw': 1.74, 'datetime': '2018-10-03 17:29:36.009717', 'mgs': 0, 'volt': 1.0205, 'depth': 3.445, 'time': 2, 'pitch': -7.15, 'roll': 0.08, 'pres': 209}
{'lipoC2': 0.0, 'lipoC3S1': 3.93, 'temp': 26.44, 'lipoC3S3': 11.88, 'lipoC3S2': 7.85, 'rot1': 0, 'rot0': 0, 'rot3': 0, 'rot2': 0, 'state': 'normal', 'yaw': 1.86, 'datetime': '2018-10-03 17:29:36.019213', 'mgs': 0, 'volt': 1.0205, 'depth': 3.445, 'time': 2, 'pitch': -7.14, 'roll': 0.09, 'pres': 209}
{'lipoC2': 0.0, 'lipoC3S1': 3.93, 'temp': 26.44, 'lipoC3S3': 11.88, 'lipoC3S2': 7.85, 'rot1': 0, 'rot0': 0, 'rot3': 0, 'rot2': 0, 'state': 'normal', 'yaw': 1.98, 'datetime': '2018-10-03 17:29:36.029812', 'mgs': 0, 'volt': 1.0205, 'depth': 3.445, 'time': 2, 'pitch': -7.14, 'roll': 0.08, 'pres': 209}
{'lipoC2': 0.0, 'lipoC3S1': 3.93, 'temp': 26.5, 'lipoC3S3': 11.88, 'lipoC3S2': 7.85, 'rot1': 0, 'rot0': 0, 'rot3': 0, 'rot2': 0, 'state': 'normal', 'yaw': 2.11, 'datetime': '2018-10-03 17:29:36.039359', 'mgs': 0, 'volt': 1.0205, 'depth': 3.445, 'time': 2, 'pitch': -7.19, 'roll': 0.15, 'pres': 209}
{'lipoC2': 0.0, 'lipoC3S1': 3.93, 'temp': 26.5, 'lipoC3S3': 11.88, 'lipoC3S2': 7.85, 'rot1': 0, 'rot0': 0, 'rot3': 0, 'rot2': 0, 'state': 'normal', 'yaw': 2.23, 'datetime': '2018-10-03 17:29:36.050754', 'mgs': 0, 'volt': 1.0205, 'depth': 3.445, 'time': 2, 'pitch': -7.27, 'roll': 0.26, 'pres': 209}
{'lipoC2': 0.0, 'lipoC3S1': 3.93, 'temp': 26.44, 'lipoC3S3': 11.88, 'lipoC3S2': 7.85, 'rot1': 0, 'rot0': 0, 'rot3': 0, 'rot2': 0, 'state': 'normal', 'yaw': 2.38, 'datetime': '2018-10-03 17:29:36.060616', 'mgs': 0, 'volt': 1.0205, 'depth': 3.445, 'time': 2, 'pitch': -7.35, 'roll': 0.38, 'pres': 209}
{'lipoC2': 0.0, 'lipoC3S1': 3.93, 'temp': 26.44, 'lipoC3S3': 11.88, 'lipoC3S2': 7.85, 'rot1': 0, 'rot0': 0, 'rot3': 0, 'rot2': 0, 'state': 'normal', 'yaw': 2.53, 'datetime': '2018-10-03 17:29:36.070341', 'mgs': 0, 'volt': 1.0205, 'depth': 3.445, 'time': 2, 'pitch': -7.3, 'roll': 0.44, 'pres': 209}
{'lipoC2': 0.0, 'lipoC3S1': 3.93, 'temp': 26.44, 'lipoC3S3': 11.88, 'lipoC3S2': 7.85, 'rot1': 0, 'rot0': 0, 'rot3': 0, 'rot2': 0, 'state': 'normal', 'yaw': 2.69, 'datetime': '2018-10-03 17:29:36.088406', 'mgs': 0, 'volt': 1.0254, 'depth': 3.522, 'time': 2, 'pitch': -7.24, 'roll': 0.44, 'pres': 210}
{'lipoC2': 0.0, 'lipoC3S1': 3.93, 'temp': 26.44, 'lipoC3S3': 11.87, 'lipoC3S2': 7.85, 'rot1': 0, 'rot0': 0, 'rot3': 0, 'rot2': 0, 'state': 'normal', 'yaw': 2.89, 'datetime': '2018-10-03 17:29:36.098020', 'mgs': 0, 'volt': 1.0254, 'depth': 3.522, 'time': 3, 'pitch': -7.19, 'roll': 0.41, 'pres': 210}
{'lipoC2': 0.0, 'lipoC3S1': 3.93, 'temp': 26.44, 'lipoC3S3': 11.88, 'lipoC3S2': 7.85, 'rot1': 0, 'rot0': 0, 'rot3': 0, 'rot2': 0, 'state': 'normal', 'yaw': 3.08, 'datetime': '2018-10-03 17:29:36.148495', 'mgs': 0, 'volt': 1.0205, 'depth': 3.445, 'time': 3, 'pitch': -7.16, 'roll': 0.33, 'pres': 209}
{'lipoC2': 0.0, 'lipoC3S1': 3.93, 'temp': 26.38, 'lipoC3S3': 11.88, 'lipoC3S2': 7.85, 'rot1': 0, 'rot0': 0, 'rot3': 0, 'rot2': 0, 'state': 'normal', 'yaw': 3.27, 'datetime': '2018-10-03 17:29:36.251618', 'mgs': 0, 'volt': 1.0205, 'depth': 3.445, 'time': 3, 'pitch': -7.08, 'roll': 0.23, 'pres': 209}
{'lipoC2': 0.0, 'lipoC3S1': 3.93, 'temp': 26.38, 'lipoC3S3': 11.88, 'lipoC3S2': 7.85, 'rot1': 0, 'rot0': 0, 'rot3': 0, 'rot2': 0, 'state': 'normal', 'yaw': 3.48, 'datetime': '2018-10-03 17:29:36.354728', 'mgs': 0, 'volt': 1.0205, 'depth': 3.445, 'time': 3, 'pitch': -7.04, 'roll': 0.19, 'pres': 209}
{'lipoC2': 0.0, 'lipoC3S1': 3.93, 'temp': 26.5, 'lipoC3S3': 11.88, 'lipoC3S2': 7.85, 'rot1': 0, 'rot0': 0, 'rot3': 0, 'rot2': 0, 'state': 'normal', 'yaw': 3.66, 'datetime': '2018-10-03 17:29:36.457842', 'mgs': 0, 'volt': 1.0205, 'depth': 3.445, 'time': 3, 'pitch': -7.04, 'roll': 0.14, 'pres': 209}
{'lipoC2': 0.0, 'lipoC3S1': 3.93, 'temp': 26.5, 'lipoC3S3': 11.88, 'lipoC3S2': 7.85, 'rot1': 0, 'rot0': 0, 'rot3': 0, 'rot2': 0, 'state': 'normal', 'yaw': 3.83, 'datetime': '2018-10-03 17:29:36.560948', 'mgs': 0, 'volt': 1.0205, 'depth': 3.445, 'time': 3, 'pitch': -7.04, 'roll': 0.12, 'pres': 209}
{'lipoC2': 0.0, 'lipoC3S1': 3.93, 'temp': 26.44, 'lipoC3S3': 11.88, 'lipoC3S2': 7.85, 'rot1': 0, 'rot0': 0, 'rot3': 0, 'rot2': 0, 'state': 'normal', 'yaw': 3.99, 'datetime': '2018-10-03 17:29:36.670700', 'mgs': 0, 'volt': 1.0205, 'depth': 3.445, 'time': 3, 'pitch': -7.04, 'roll': 0.14, 'pres': 209}
{'lipoC2': 0.0, 'lipoC3S1': 3.93, 'temp': 26.44, 'lipoC3S3': 11.88, 'lipoC3S2': 7.85, 'rot1': 0, 'rot0': 0, 'rot3': 0, 'rot2': 0, 'state': 'normal', 'yaw': 4.17, 'datetime': '2018-10-03 17:29:36.773866', 'mgs': 0, 'volt': 1.0205, 'depth': 3.445, 'time': 3, 'pitch': -7.12, 'roll': 0.26, 'pres': 209}
{'lipoC2': 0.0, 'lipoC3S1': 3.93, 'temp': 26.44, 'lipoC3S3': 11.87, 'lipoC3S2': 7.85, 'rot1': 0, 'rot0': 0, 'rot3': 0, 'rot2': 0, 'state': 'normal', 'yaw': 4.32, 'datetime': '2018-10-03 17:29:36.876877', 'mgs': 0, 'volt': 1.0205, 'depth': 3.445, 'time': 3, 'pitch': -7.23, 'roll': 0.41, 'pres': 209}
{'lipoC2': 0.0, 'lipoC3S1': 3.93, 'temp': 26.44, 'lipoC3S3': 11.88, 'lipoC3S2': 7.85, 'rot1': 0, 'rot0': 0, 'rot3': 0, 'rot2': 0, 'state': 'normal', 'yaw': 4.47, 'datetime': '2018-10-03 17:29:36.981222', 'mgs': 0, 'volt': 1.0205, 'depth': 3.445, 'time': 3, 'pitch': -7.33, 'roll': 0.57, 'pres': 209}
{'lipoC2': 0.0, 'lipoC3S1': 3.93, 'temp': 26.44, 'lipoC3S3': 11.88, 'lipoC3S2': 7.85, 'rot1': 0, 'rot0': 0, 'rot3': 0, 'rot2': 0, 'state': 'normal', 'yaw': 4.66, 'datetime': '2018-10-03 17:29:37.085113', 'mgs': 0, 'volt': 1.0254, 'depth': 3.522, 'time': 4, 'pitch': -7.33, 'roll': 0.59, 'pres': 210}
{'lipoC2': 0.0, 'lipoC3S1': 3.93, 'temp': 26.44, 'lipoC3S3': 11.88, 'lipoC3S2': 7.85, 'rot1': 0, 'rot0': 0, 'rot3': 0, 'rot2': 0, 'state': 'normal', 'yaw': 4.83, 'datetime': '2018-10-03 17:29:37.187972', 'mgs': 0, 'volt': 1.0205, 'depth': 3.445, 'time': 4, 'pitch': -7.3, 'roll': 0.59, 'pres': 209}
{'lipoC2': 0.0, 'lipoC3S1': 3.93, 'temp': 26.44, 'lipoC3S3': 11.88, 'lipoC3S2': 7.85, 'rot1': 0, 'rot0': 0, 'rot3': 0, 'rot2': 0, 'state': 'normal', 'yaw': 4.99, 'datetime': '2018-10-03 17:29:37.292145', 'mgs': 0, 'volt': 1.0254, 'depth': 3.522, 'time': 4, 'pitch': -7.19, 'roll': 0.4, 'pres': 210}
{'lipoC2': 0.0, 'lipoC3S1': 3.93, 'temp': 26.44, 'lipoC3S3': 11.88, 'lipoC3S2': 7.85, 'rot1': 0, 'rot0': 0, 'rot3': 0, 'rot2': 0, 'state': 'normal', 'yaw': 5.17, 'datetime': '2018-10-03 17:29:37.395245', 'mgs': 0, 'volt': 1.0254, 'depth': 3.522, 'time': 4, 'pitch': -7.1, 'roll': 0.22, 'pres': 210}
{'lipoC2': 0.0, 'lipoC3S1': 3.93, 'temp': 26.44, 'lipoC3S3': 11.88, 'lipoC3S2': 7.85, 'rot1': 0, 'rot0': 0, 'rot3': 0, 'rot2': 0, 'state': 'normal', 'yaw': 5.29, 'datetime': '2018-10-03 17:29:37.498789', 'mgs': 0, 'volt': 1.0205, 'depth': 3.445, 'time': 4, 'pitch': -7.04, 'roll': 0.03, 'pres': 209}
{'lipoC2': 0.0, 'lipoC3S1': 3.93, 'temp': 26.44, 'lipoC3S3': 11.88, 'lipoC3S2': 7.85, 'rot1': 0, 'rot0': 0, 'rot3': 0, 'rot2': 0, 'state': 'normal', 'yaw': 5.36, 'datetime': '2018-10-03 17:29:37.603123', 'mgs': 0, 'volt': 1.0205, 'depth': 3.445, 'time': 4, 'pitch': -7.18, 'roll': 0.09, 'pres': 209}
{'lipoC2': 0.0, 'lipoC3S1': 3.93, 'temp': 26.5, 'lipoC3S3': 11.88, 'lipoC3S2': 7.85, 'rot1': 0, 'rot0': 0, 'rot3': 0, 'rot2': 0, 'state': 'normal', 'yaw': 5.47, 'datetime': '2018-10-03 17:29:37.706223', 'mgs': 0, 'volt': 1.0205, 'depth': 3.445, 'time': 4, 'pitch': -7.24, 'roll': 0.11, 'pres': 209}
{'lipoC2': 0.0, 'lipoC3S1': 3.93, 'temp': 26.5, 'lipoC3S3': 11.88, 'lipoC3S2': 7.85, 'rot1': 0, 'rot0': 0, 'rot3': 0, 'rot2': 0, 'state': 'normal', 'yaw': 5.59, 'datetime': '2018-10-03 17:29:37.809348', 'mgs': 0, 'volt': 1.0205, 'depth': 3.445, 'time': 4, 'pitch': -7.21, 'roll': 0.09, 'pres': 209}
{'lipoC2': 0.0, 'lipoC3S1': 3.93, 'temp': 26.44, 'lipoC3S3': 11.87, 'lipoC3S2': 7.85, 'rot1': 0, 'rot0': 0, 'rot3': 0, 'rot2': 0, 'state': 'normal', 'yaw': 5.71, 'datetime': '2018-10-03 17:29:37.912769', 'mgs': 0, 'volt': 1.0205, 'depth': 3.445, 'time': 4, 'pitch': -7.25, 'roll': 0.12, 'pres': 209}
{'lipoC2': 0.0, 'lipoC3S1': 3.93, 'temp': 26.44, 'lipoC3S3': 11.88, 'lipoC3S2': 7.85, 'rot1': 0, 'rot0': 0, 'rot3': 0, 'rot2': 0, 'state': 'normal', 'yaw': 5.83, 'datetime': '2018-10-03 17:29:38.015952', 'mgs': 0, 'volt': 1.0205, 'depth': 3.445, 'time': 4, 'pitch': -7.29, 'roll': 0.22, 'pres': 209}
{'lipoC2': 0.0, 'lipoC3S1': 3.93, 'temp': 26.44, 'lipoC3S3': 11.88, 'lipoC3S2': 7.85, 'rot1': 0, 'rot0': 0, 'rot3': 0, 'rot2': 0, 'state': 'normal', 'yaw': 5.95, 'datetime': '2018-10-03 17:29:38.119019', 'mgs': 0, 'volt': 1.0205, 'depth': 3.445, 'time': 5, 'pitch': -7.33, 'roll': 0.35, 'pres': 209}
{'lipoC2': 0.0, 'lipoC3S1': 3.93, 'temp': 26.44, 'lipoC3S3': 11.88, 'lipoC3S2': 7.85, 'rot1': 0, 'rot0': 0, 'rot3': 0, 'rot2': 0, 'state': 'normal', 'yaw': 6.06, 'datetime': '2018-10-03 17:29:38.222190', 'mgs': 0, 'volt': 1.0205, 'depth': 3.445, 'time': 5, 'pitch': -7.36, 'roll': 0.52, 'pres': 209}
{'lipoC2': 0.0, 'lipoC3S1': 3.93, 'temp': 26.44, 'lipoC3S3': 11.88, 'lipoC3S2': 7.85, 'rot1': 0, 'rot0': 0, 'rot3': 0, 'rot2': 0, 'state': 'normal', 'yaw': 6.18, 'datetime': '2018-10-03 17:29:38.320101', 'mgs': 0, 'volt': 1.0205, 'depth': 3.445, 'time': 5, 'pitch': -7.37, 'roll': 0.61, 'pres': 209}
{'lipoC2': 0.0, 'lipoC3S1': 3.93, 'temp': 26.44, 'lipoC3S3': 11.87, 'lipoC3S2': 7.85, 'rot1': 0, 'rot0': 0, 'rot3': 0, 'rot2': 0, 'state': 'normal', 'yaw': 6.3, 'datetime': '2018-10-03 17:29:38.423183', 'mgs': 0, 'volt': 1.0205, 'depth': 3.445, 'time': 5, 'pitch': -7.34, 'roll': 0.59, 'pres': 209}
{'lipoC2': 0.0, 'lipoC3S1': 3.93, 'temp': 26.44, 'lipoC3S3': 11.88, 'lipoC3S2': 7.85, 'rot1': 0, 'rot0': 0, 'rot3': 0, 'rot2': 0, 'state': 'normal', 'yaw': 6.41, 'datetime': '2018-10-03 17:29:38.526195', 'mgs': 0, 'volt': 1.0205, 'depth': 3.445, 'time': 5, 'pitch': -7.32, 'roll': 0.58, 'pres': 209}
{'lipoC2': 0.0, 'lipoC3S1': 3.93, 'temp': 26.44, 'lipoC3S3': 11.88, 'lipoC3S2': 7.85, 'rot1': 0, 'rot0': 0, 'rot3': 0, 'rot2': 0, 'state': 'normal', 'yaw': 6.56, 'datetime': '2018-10-03 17:29:38.630381', 'mgs': 0, 'volt': 1.0254, 'depth': 3.522, 'time': 5, 'pitch': -7.4, 'roll': 0.56, 'pres': 210}
{'lipoC2': 0.0, 'lipoC3S1': 3.93, 'temp': 26.44, 'lipoC3S3': 11.88, 'lipoC3S2': 7.85, 'rot1': 0, 'rot0': 0, 'rot3': 0, 'rot2': 0, 'state': 'normal', 'yaw': 6.71, 'datetime': '2018-10-03 17:29:38.733511', 'mgs': 0, 'volt': 1.0254, 'depth': 3.522, 'time': 5, 'pitch': -7.5, 'roll': 0.54, 'pres': 210}
{'lipoC2': 0.0, 'lipoC3S1': 3.93, 'temp': 26.44, 'lipoC3S3': 11.88, 'lipoC3S2': 7.85, 'rot1': 0, 'rot0': 0, 'rot3': 0, 'rot2': 0, 'state': 'normal', 'yaw': 6.86, 'datetime': '2018-10-03 17:29:38.837507', 'mgs': 0, 'volt': 1.0205, 'depth': 3.445, 'time': 5, 'pitch': -7.57, 'roll': 0.49, 'pres': 209}
{'lipoC2': 0.0, 'lipoC3S1': 3.93, 'temp': 26.5, 'lipoC3S3': 11.88, 'lipoC3S2': 7.85, 'rot1': 0, 'rot0': 0, 'rot3': 0, 'rot2': 0, 'state': 'normal', 'yaw': 7.01, 'datetime': '2018-10-03 17:29:38.941538', 'mgs': 0, 'volt': 1.0254, 'depth': 3.522, 'time': 5, 'pitch': -7.62, 'roll': 0.4, 'pres': 210}
{'lipoC2': 0.0, 'lipoC3S1': 3.93, 'temp': 26.5, 'lipoC3S3': 11.88, 'lipoC3S2': 7.85, 'rot1': 0, 'rot0': 0, 'rot3': 0, 'rot2': 0, 'state': 'normal', 'yaw': 7.18, 'datetime': '2018-10-03 17:29:39.044558', 'mgs': 0, 'volt': 1.0205, 'depth': 3.445, 'time': 6, 'pitch': -7.63, 'roll': 0.28, 'pres': 209}
{'lipoC2': 0.0, 'lipoC3S1': 3.93, 'temp': 26.44, 'lipoC3S3': 11.88, 'lipoC3S2': 7.85, 'rot1': 0, 'rot0': 0, 'rot3': 0, 'rot2': 0, 'state': 'normal', 'yaw': 7.32, 'datetime': '2018-10-03 17:29:39.147702', 'mgs': 0, 'volt': 1.0205, 'depth': 3.445, 'time': 6, 'pitch': -7.63, 'roll': 0.17, 'pres': 209}
{'lipoC2': 0.0, 'lipoC3S1': 3.93, 'temp': 26.44, 'lipoC3S3': 11.88, 'lipoC3S2': 7.85, 'rot1': 0, 'rot0': 0, 'rot3': 0, 'rot2': 0, 'state': 'normal', 'yaw': 7.45, 'datetime': '2018-10-03 17:29:39.252284', 'mgs': 0, 'volt': 1.0205, 'depth': 3.445, 'time': 6, 'pitch': -7.63, 'roll': 0.05, 'pres': 209}
{'lipoC2': 0.0, 'lipoC3S1': 3.93, 'temp': 26.44, 'lipoC3S3': 11.88, 'lipoC3S2': 7.85, 'rot1': 0, 'rot0': 0, 'rot3': 0, 'rot2': 0, 'state': 'normal', 'yaw': 7.56, 'datetime': '2018-10-03 17:29:39.355331', 'mgs': 0, 'volt': 1.0205, 'depth': 3.445, 'time': 6, 'pitch': -7.59, 'roll': 0.08, 'pres': 209}
{'lipoC2': 0.0, 'lipoC3S1': 3.93, 'temp': 26.44, 'lipoC3S3': 11.88, 'lipoC3S2': 7.85, 'rot1': 0, 'rot0': 0, 'rot3': 0, 'rot2': 0, 'state': 'normal', 'yaw': 7.67, 'datetime': '2018-10-03 17:29:39.458478', 'mgs': 0, 'volt': 1.0205, 'depth': 3.445, 'time': 6, 'pitch': -7.56, 'roll': 0.17, 'pres': 209}
{'lipoC2': 0.0, 'lipoC3S1': 3.93, 'temp': 26.44, 'lipoC3S3': 11.88, 'lipoC3S2': 7.85, 'rot1': 0, 'rot0': 0, 'rot3': 0, 'rot2': 0, 'state': 'normal', 'yaw': 7.78, 'datetime': '2018-10-03 17:29:39.562268', 'mgs': 0, 'volt': 1.0254, 'depth': 3.522, 'time': 6, 'pitch': -7.54, 'roll': 0.21, 'pres': 210}
{'lipoC2': 0.0, 'lipoC3S1': 3.93, 'temp': 26.44, 'lipoC3S3': 11.88, 'lipoC3S2': 7.85, 'rot1': 0, 'rot0': 0, 'rot3': 0, 'rot2': 0, 'state': 'normal', 'yaw': 7.91, 'datetime': '2018-10-03 17:29:39.665384', 'mgs': 0, 'volt': 1.0205, 'depth': 3.445, 'time': 6, 'pitch': -7.5, 'roll': 0.24, 'pres': 209}
{'lipoC2': 0.0, 'lipoC3S1': 3.93, 'temp': 26.44, 'lipoC3S3': 11.88, 'lipoC3S2': 7.85, 'rot1': 0, 'rot0': 0, 'rot3': 0, 'rot2': 0, 'state': 'normal', 'yaw': 8.02, 'datetime': '2018-10-03 17:29:39.768515', 'mgs': 0, 'volt': 1.0205, 'depth': 3.445, 'time': 6, 'pitch': -7.47, 'roll': 0.22, 'pres': 209}
{'lipoC2': 0.0, 'lipoC3S1': 3.93, 'temp': 26.44, 'lipoC3S3': 11.88, 'lipoC3S2': 7.85, 'rot1': 0, 'rot0': 0, 'rot3': 0, 'rot2': 0, 'state': 'normal', 'yaw': 8.13, 'datetime': '2018-10-03 17:29:39.872962', 'mgs': 0, 'volt': 1.0254, 'depth': 3.522, 'time': 6, 'pitch': -7.43, 'roll': 0.2, 'pres': 210}
{'lipoC2': 0.0, 'lipoC3S1': 3.93, 'temp': 26.44, 'lipoC3S3': 11.88, 'lipoC3S2': 7.85, 'rot1': 0, 'rot0': 0, 'rot3': 0, 'rot2': 0, 'state': 'normal', 'yaw': 8.27, 'datetime': '2018-10-03 17:29:39.976081', 'mgs': 0, 'volt': 1.0205, 'depth': 3.445, 'time': 6, 'pitch': -7.39, 'roll': 0.16, 'pres': 209}
{'lipoC2': 0.0, 'lipoC3S1': 3.93, 'temp': 26.5, 'lipoC3S3': 11.88, 'lipoC3S2': 7.85, 'rot1': 0, 'rot0': 0, 'rot3': 0, 'rot2': 0, 'state': 'normal', 'yaw': 8.35, 'datetime': '2018-10-03 17:29:40.079131', 'mgs': 0, 'volt': 1.0205, 'depth': 3.445, 'time': 7, 'pitch': -7.4, 'roll': 0.19, 'pres': 209}
{'lipoC2': 0.0, 'lipoC3S1': 3.93, 'temp': 26.5, 'lipoC3S3': 11.88, 'lipoC3S2': 7.85, 'rot1': 0, 'rot0': 0, 'rot3': 0, 'rot2': 0, 'state': 'normal', 'yaw': 8.44, 'datetime': '2018-10-03 17:29:40.183587', 'mgs': 0, 'volt': 1.0205, 'depth': 3.445, 'time': 7, 'pitch': -7.38, 'roll': 0.21, 'pres': 209}
{'lipoC2': 0.0, 'lipoC3S1': 3.93, 'temp': 26.5, 'lipoC3S3': 11.88, 'lipoC3S2': 7.85, 'rot1': 0, 'rot0': 0, 'rot3': 0, 'rot2': 0, 'state': 'normal', 'yaw': 8.55, 'datetime': '2018-10-03 17:29:40.286695', 'mgs': 0, 'volt': 1.0205, 'depth': 3.445, 'time': 7, 'pitch': -7.36, 'roll': 0.28, 'pres': 209}
{'lipoC2': 0.0, 'lipoC3S1': 3.93, 'temp': 26.44, 'lipoC3S3': 11.88, 'lipoC3S2': 7.85, 'rot1': 0, 'rot0': 0, 'rot3': 0, 'rot2': 0, 'state': 'normal', 'yaw': 8.66, 'datetime': '2018-10-03 17:29:40.389814', 'mgs': 0, 'volt': 1.0205, 'depth': 3.445, 'time': 7, 'pitch': -7.37, 'roll': 0.37, 'pres': 209}
{'lipoC2': 0.0, 'lipoC3S1': 3.93, 'temp': 26.44, 'lipoC3S3': 11.88, 'lipoC3S2': 7.85, 'rot1': 0, 'rot0': 0, 'rot3': 0, 'rot2': 0, 'state': 'normal', 'yaw': 8.78, 'datetime': '2018-10-03 17:29:40.494175', 'mgs': 0, 'volt': 1.0205, 'depth': 3.445, 'time': 7, 'pitch': -7.37, 'roll': 0.49, 'pres': 209}
{'lipoC2': 0.0, 'lipoC3S1': 3.93, 'temp': 26.44, 'lipoC3S3': 11.88, 'lipoC3S2': 7.85, 'rot1': 0, 'rot0': 0, 'rot3': 0, 'rot2': 0, 'state': 'normal', 'yaw': 8.89, 'datetime': '2018-10-03 17:29:40.597318', 'mgs': 0, 'volt': 1.0205, 'depth': 3.445, 'time': 7, 'pitch': -7.37, 'roll': 0.61, 'pres': 209}
{'lipoC2': 0.0, 'lipoC3S1': 3.93, 'temp': 26.44, 'lipoC3S3': 11.88, 'lipoC3S2': 7.85, 'rot1': 0, 'rot0': 0, 'rot3': 0, 'rot2': 0, 'state': 'normal', 'yaw': 8.98, 'datetime': '2018-10-03 17:29:40.700462', 'mgs': 0, 'volt': 1.0205, 'depth': 3.445, 'time': 7, 'pitch': -7.37, 'roll': 0.7, 'pres': 209}
{'lipoC2': 0.0, 'lipoC3S1': 3.93, 'temp': 26.44, 'lipoC3S3': 11.88, 'lipoC3S2': 7.85, 'rot1': 0, 'rot0': 0, 'rot3': 0, 'rot2': 0, 'state': 'normal', 'yaw': 9.04, 'datetime': '2018-10-03 17:29:40.804874', 'mgs': 0, 'volt': 1.0205, 'depth': 3.445, 'time': 7, 'pitch': -7.37, 'roll': 0.73, 'pres': 209}
{'lipoC2': 0.0, 'lipoC3S1': 3.93, 'temp': 26.44, 'lipoC3S3': 11.88, 'lipoC3S2': 7.85, 'rot1': 0, 'rot0': 0, 'rot3': 0, 'rot2': 0, 'state': 'normal', 'yaw': 9.13, 'datetime': '2018-10-03 17:29:40.907983', 'mgs': 0, 'volt': 1.0205, 'depth': 3.445, 'time': 7, 'pitch': -7.37, 'roll': 0.72, 'pres': 209}
{'lipoC2': 0.0, 'lipoC3S1': 3.93, 'temp': 26.44, 'lipoC3S3': 11.88, 'lipoC3S2': 7.85, 'rot1': 0, 'rot0': 0, 'rot3': 0, 'rot2': 0, 'state': 'normal', 'yaw': 9.24, 'datetime': '2018-10-03 17:29:41.011093', 'mgs': 0, 'volt': 1.0205, 'depth': 3.445, 'time': 7, 'pitch': -7.37, 'roll': 0.7, 'pres': 209}
{'lipoC2': 0.0, 'lipoC3S1': 3.93, 'temp': 26.44, 'lipoC3S3': 11.88, 'lipoC3S2': 7.85, 'rot1': 0, 'rot0': 0, 'rot3': 0, 'rot2': 0, 'state': 'normal', 'yaw': 9.38, 'datetime': '2018-10-03 17:29:41.113604', 'mgs': 0, 'volt': 1.0205, 'depth': 3.445, 'time': 8, 'pitch': -7.38, 'roll': 0.68, 'pres': 209}
{'lipoC2': 0.0, 'lipoC3S1': 3.93, 'temp': 26.44, 'lipoC3S3': 11.88, 'lipoC3S2': 7.85, 'rot1': 0, 'rot0': 0, 'rot3': 0, 'rot2': 0, 'state': 'normal', 'yaw': 9.55, 'datetime': '2018-10-03 17:29:41.216878', 'mgs': 0, 'volt': 1.0205, 'depth': 3.445, 'time': 8, 'pitch': -7.38, 'roll': 0.65, 'pres': 209}
{'lipoC2': 0.0, 'lipoC3S1': 3.93, 'temp': 26.44, 'lipoC3S3': 11.88, 'lipoC3S2': 7.85, 'rot1': 0, 'rot0': 0, 'rot3': 0, 'rot2': 0, 'state': 'normal', 'yaw': 9.7, 'datetime': '2018-10-03 17:29:41.320017', 'mgs': 0, 'volt': 1.0205, 'depth': 3.445, 'time': 8, 'pitch': -7.38, 'roll': 0.63, 'pres': 209}
{'lipoC2': 0.0, 'lipoC3S1': 3.93, 'temp': 26.44, 'lipoC3S3': 11.88, 'lipoC3S2': 7.85, 'rot1': 0, 'rot0': 0, 'rot3': 0, 'rot2': 0, 'state': 'normal', 'yaw': 9.84, 'datetime': '2018-10-03 17:29:41.423162', 'mgs': 0, 'volt': 1.0205, 'depth': 3.445, 'time': 8, 'pitch': -7.38, 'roll': 0.61, 'pres': 209}
{'lipoC2': 0.0, 'lipoC3S1': 3.93, 'temp': 26.44, 'lipoC3S3': 11.88, 'lipoC3S2': 7.85, 'rot1': 0, 'rot0': 0, 'rot3': 0, 'rot2': 0, 'state': 'normal', 'yaw': 9.96, 'datetime': '2018-10-03 17:29:41.526285', 'mgs': 0, 'volt': 1.0205, 'depth': 3.445, 'time': 8, 'pitch': -7.38, 'roll': 0.6, 'pres': 209}
{'lipoC2': 0.0, 'lipoC3S1': 3.93, 'temp': 26.44, 'lipoC3S3': 11.88, 'lipoC3S2': 7.85, 'rot1': 0, 'rot0': 0, 'rot3': 0, 'rot2': 0, 'state': 'normal', 'yaw': 10.1, 'datetime': '2018-10-03 17:29:41.629417', 'mgs': 0, 'volt': 1.0205, 'depth': 3.445, 'time': 8, 'pitch': -7.38, 'roll': 0.58, 'pres': 209}
{'lipoC2': 0.0, 'lipoC3S1': 3.93, 'temp': 26.44, 'lipoC3S3': 11.88, 'lipoC3S2': 7.85, 'rot1': 0, 'rot0': 0, 'rot3': 0, 'rot2': 0, 'state': 'normal', 'yaw': 10.22, 'datetime': '2018-10-03 17:29:41.732540', 'mgs': 0, 'volt': 1.0205, 'depth': 3.445, 'time': 8, 'pitch': -7.38, 'roll': 0.57, 'pres': 209}
{'lipoC2': 0.0, 'lipoC3S1': 3.93, 'temp': 26.38, 'lipoC3S3': 11.88, 'lipoC3S2': 7.85, 'rot1': 0, 'rot0': 0, 'rot3': 0, 'rot2': 0, 'state': 'normal', 'yaw': 10.31, 'datetime': '2018-10-03 17:29:41.837636', 'mgs': 0, 'volt': 1.0205, 'depth': 3.445, 'time': 8, 'pitch': -7.39, 'roll': 0.56, 'pres': 209}
{'lipoC2': 0.0, 'lipoC3S1': 3.93, 'temp': 26.38, 'lipoC3S3': 11.88, 'lipoC3S2': 7.85, 'rot1': 0, 'rot0': 0, 'rot3': 0, 'rot2': 0, 'state': 'normal', 'yaw': 10.55, 'datetime': '2018-10-03 17:29:41.940774', 'mgs': 0, 'volt': 1.0205, 'depth': 3.445, 'time': 8, 'pitch': -7.39, 'roll': 0.55, 'pres': 209}
{'lipoC2': 0.0, 'lipoC3S1': 3.93, 'temp': 26.44, 'lipoC3S3': 11.88, 'lipoC3S2': 7.85, 'rot1': 0, 'rot0': 0, 'rot3': 0, 'rot2': 0, 'state': 'normal', 'yaw': 11.12, 'datetime': '2018-10-03 17:29:42.043901', 'mgs': 0, 'volt': 1.0205, 'depth': 3.445, 'time': 9, 'pitch': -7.46, 'roll': 0.48, 'pres': 209}
{'lipoC2': 0.0, 'lipoC3S1': 3.93, 'temp': 26.44, 'lipoC3S3': 11.88, 'lipoC3S2': 7.85, 'rot1': 0, 'rot0': 0, 'rot3': 0, 'rot2': 0, 'state': 'normal', 'yaw': 12.26, 'datetime': '2018-10-03 17:29:42.148381', 'mgs': 0, 'volt': 1.0205, 'depth': 3.445, 'time': 9, 'pitch': -7.81, 'roll': 0.2, 'pres': 209}
{'lipoC2': 0.0, 'lipoC3S1': 3.93, 'temp': 26.44, 'lipoC3S3': 11.88, 'lipoC3S2': 7.85, 'rot1': 0, 'rot0': 0, 'rot3': 0, 'rot2': 0, 'state': 'normal', 'yaw': 14.04, 'datetime': '2018-10-03 17:29:42.251744', 'mgs': 0, 'volt': 1.0156, 'depth': 3.369, 'time': 9, 'pitch': -8.47, 'roll': -0.2, 'pres': 208}
{'lipoC2': 0.0, 'lipoC3S1': 3.93, 'temp': 26.44, 'lipoC3S3': 11.88, 'lipoC3S2': 7.85, 'rot1': 0, 'rot0': 0, 'rot3': 0, 'rot2': 0, 'state': 'normal', 'yaw': 15.95, 'datetime': '2018-10-03 17:29:42.354860', 'mgs': 0, 'volt': 1.0156, 'depth': 3.369, 'time': 9, 'pitch': -9.03, 'roll': -0.32, 'pres': 208}
{'lipoC2': 0.0, 'lipoC3S1': 3.93, 'temp': 26.44, 'lipoC3S3': 11.88, 'lipoC3S2': 7.85, 'rot1': 0, 'rot0': 0, 'rot3': 0, 'rot2': 0, 'state': 'normal', 'yaw': 18.21, 'datetime': '2018-10-03 17:29:42.458629', 'mgs': 0, 'volt': 1.0156, 'depth': 3.369, 'time': 9, 'pitch': -9.53, 'roll': -0.6, 'pres': 208}
{'lipoC2': 0.0, 'lipoC3S1': 3.93, 'temp': 26.44, 'lipoC3S3': 11.88, 'lipoC3S2': 7.85, 'rot1': 0, 'rot0': 0, 'rot3': 0, 'rot2': 0, 'state': 'normal', 'yaw': 20.84, 'datetime': '2018-10-03 17:29:42.562619', 'mgs': 0, 'volt': 1.0156, 'depth': 3.369, 'time': 9, 'pitch': -9.87, 'roll': -0.94, 'pres': 208}
{'lipoC2': 0.0, 'lipoC3S1': 3.93, 'temp': 26.44, 'lipoC3S3': 11.88, 'lipoC3S2': 7.85, 'rot1': 0, 'rot0': 0, 'rot3': 0, 'rot2': 0, 'state': 'normal', 'yaw': 24.27, 'datetime': '2018-10-03 17:29:42.665805', 'mgs': 0, 'volt': 1.0107, 'depth': 3.293, 'time': 9, 'pitch': -10.13, 'roll': -1.53, 'pres': 207}
{'lipoC2': 0.0, 'lipoC3S1': 3.93, 'temp': 26.44, 'lipoC3S3': 11.88, 'lipoC3S2': 7.85, 'rot1': 0, 'rot0': 0, 'rot3': 0, 'rot2': 0, 'state': 'normal', 'yaw': 27.84, 'datetime': '2018-10-03 17:29:42.768845', 'mgs': 0, 'volt': 1.0107, 'depth': 3.293, 'time': 9, 'pitch': -10.25, 'roll': -2.19, 'pres': 207}
{'lipoC2': 0.0, 'lipoC3S1': 3.93, 'temp': 26.44, 'lipoC3S3': 11.88, 'lipoC3S2': 7.85, 'rot1': 0, 'rot0': 0, 'rot3': 0, 'rot2': 0, 'state': 'normal', 'yaw': 31.78, 'datetime': '2018-10-03 17:29:42.872075', 'mgs': 0, 'volt': 1.0059, 'depth': 3.217, 'time': 9, 'pitch': -10.33, 'roll': -2.96, 'pres': 206}
{'lipoC2': 0.0, 'lipoC3S1': 3.93, 'temp': 26.44, 'lipoC3S3': 11.88, 'lipoC3S2': 7.85, 'rot1': 0, 'rot0': 0, 'rot3': 0, 'rot2': 0, 'state': 'normal', 'yaw': 36.49, 'datetime': '2018-10-03 17:29:42.975184', 'mgs': 0, 'volt': 1.0059, 'depth': 3.217, 'time': 9, 'pitch': -10.41, 'roll': -3.88, 'pres': 206}
{'lipoC2': 0.0, 'lipoC3S1': 3.93, 'temp': 26.44, 'lipoC3S3': 11.88, 'lipoC3S2': 7.85, 'rot1': 0, 'rot0': 0, 'rot3': 0, 'rot2': 0, 'state': 'normal', 'yaw': 41.01, 'datetime': '2018-10-03 17:29:43.078357', 'mgs': 0, 'volt': 1.0059, 'depth': 3.217, 'time': 10, 'pitch': -10.45, 'roll': -4.71, 'pres': 206}
{'lipoC2': 0.0, 'lipoC3S1': 3.93, 'temp': 26.44, 'lipoC3S3': 11.88, 'lipoC3S2': 7.85, 'rot1': 0, 'rot0': 0, 'rot3': 0, 'rot2': 0, 'state': 'normal', 'yaw': 45.58, 'datetime': '2018-10-03 17:29:43.181634', 'mgs': 0, 'volt': 1.001, 'depth': 3.14, 'time': 10, 'pitch': -10.41, 'roll': -5.41, 'pres': 205}
{'lipoC2': 0.0, 'lipoC3S1': 3.93, 'temp': 26.5, 'lipoC3S3': 11.88, 'lipoC3S2': 7.85, 'rot1': 0, 'rot0': 0, 'rot3': 0, 'rot2': 0, 'state': 'normal', 'yaw': 49.92, 'datetime': '2018-10-03 17:29:43.284865', 'mgs': 0, 'volt': 1.001, 'depth': 3.14, 'time': 10, 'pitch': -10.24, 'roll': -5.79, 'pres': 205}
{'lipoC2': 0.0, 'lipoC3S1': 3.93, 'temp': 26.5, 'lipoC3S3': 11.88, 'lipoC3S2': 7.85, 'rot1': 0, 'rot0': 0, 'rot3': 0, 'rot2': 0, 'state': 'normal', 'yaw': 54.23, 'datetime': '2018-10-03 17:29:43.388151', 'mgs': 0, 'volt': 1.0059, 'depth': 3.217, 'time': 10, 'pitch': -9.91, 'roll': -5.69, 'pres': 206}
{'lipoC2': 0.0, 'lipoC3S1': 3.93, 'temp': 26.5, 'lipoC3S3': 11.88, 'lipoC3S2': 7.85, 'rot1': 0, 'rot0': 0, 'rot3': 0, 'rot2': 0, 'state': 'normal', 'yaw': 57.75, 'datetime': '2018-10-03 17:29:43.491406', 'mgs': 0, 'volt': 1.0059, 'depth': 3.217, 'time': 10, 'pitch': -9.53, 'roll': -5.11, 'pres': 206}
{'lipoC2': 0.0, 'lipoC3S1': 3.93, 'temp': 26.5, 'lipoC3S3': 11.88, 'lipoC3S2': 7.85, 'rot1': 0, 'rot0': 0, 'rot3': 0, 'rot2': 0, 'state': 'normal', 'yaw': 60.97, 'datetime': '2018-10-03 17:29:43.595330', 'mgs': 0, 'volt': 1.0059, 'depth': 3.217, 'time': 10, 'pitch': -9.16, 'roll': -4.17, 'pres': 206}
{'lipoC2': 0.0, 'lipoC3S1': 3.93, 'temp': 26.44, 'lipoC3S3': 11.88, 'lipoC3S2': 7.85, 'rot1': 0, 'rot0': 0, 'rot3': 0, 'rot2': 0, 'state': 'normal', 'yaw': 64.22, 'datetime': '2018-10-03 17:29:43.698615', 'mgs': 0, 'volt': 1.0059, 'depth': 3.217, 'time': 10, 'pitch': -8.75, 'roll': -2.83, 'pres': 206}
{'lipoC2': 0.0, 'lipoC3S1': 3.93, 'temp': 26.44, 'lipoC3S3': 11.88, 'lipoC3S2': 7.85, 'rot1': 0, 'rot0': 0, 'rot3': 0, 'rot2': 0, 'state': 'normal', 'yaw': 66.82, 'datetime': '2018-10-03 17:29:43.802519', 'mgs': 0, 'volt': 1.0059, 'depth': 3.217, 'time': 10, 'pitch': -8.35, 'roll': -1.4, 'pres': 206}
{'lipoC2': 0.0, 'lipoC3S1': 3.93, 'temp': 26.44, 'lipoC3S3': 11.88, 'lipoC3S2': 7.85, 'rot1': 0, 'rot0': 0, 'rot3': 0, 'rot2': 0, 'state': 'normal', 'yaw': 68.99, 'datetime': '2018-10-03 17:29:43.906352', 'mgs': 0, 'volt': 1.0059, 'depth': 3.217, 'time': 10, 'pitch': -8.11, 'roll': 0.28, 'pres': 206}
{'lipoC2': 0.0, 'lipoC3S1': 3.93, 'temp': 26.5, 'lipoC3S3': 11.88, 'lipoC3S2': 7.85, 'rot1': 0, 'rot0': 0, 'rot3': 0, 'rot2': 0, 'state': 'normal', 'yaw': 71.7, 'datetime': '2018-10-03 17:29:44.009587', 'mgs': 0, 'volt': 1.0059, 'depth': 3.217, 'time': 10, 'pitch': -9.27, 'roll': 1.8, 'pres': 206}
{'lipoC2': 0.0, 'lipoC3S1': 3.93, 'temp': 26.5, 'lipoC3S3': 11.88, 'lipoC3S2': 7.85, 'rot1': 0, 'rot0': 0, 'rot3': 0, 'rot2': 0, 'state': 'normal', 'yaw': 74.99, 'datetime': '2018-10-03 17:29:44.114197', 'mgs': 0, 'volt': 1.0059, 'depth': 3.217, 'time': 11, 'pitch': -10.96, 'roll': 2.31, 'pres': 206}
{'lipoC2': 0.0, 'lipoC3S1': 3.93, 'temp': 26.44, 'lipoC3S3': 11.88, 'lipoC3S2': 7.85, 'rot1': 0, 'rot0': 0, 'rot3': 0, 'rot2': 0, 'state': 'normal', 'yaw': 79.78, 'datetime': '2018-10-03 17:29:44.217924', 'mgs': 0, 'volt': 1.0059, 'depth': 3.217, 'time': 11, 'pitch': -12.23, 'roll': 1.83, 'pres': 206}
{'lipoC2': 0.0, 'lipoC3S1': 3.93, 'temp': 26.44, 'lipoC3S3': 11.88, 'lipoC3S2': 7.85, 'rot1': 0, 'rot0': 0, 'rot3': 0, 'rot2': 0, 'state': 'normal', 'yaw': 85.17, 'datetime': '2018-10-03 17:29:44.321157', 'mgs': 0, 'volt': 1.001, 'depth': 3.14, 'time': 11, 'pitch': -12.87, 'roll': 0.49, 'pres': 205}
{'lipoC2': 0.0, 'lipoC3S1': 3.93, 'temp': 26.44, 'lipoC3S3': 11.88, 'lipoC3S2': 7.85, 'rot1': 0, 'rot0': 0, 'rot3': 0, 'rot2': 0, 'state': 'normal', 'yaw': 90.88, 'datetime': '2018-10-03 17:29:44.424439', 'mgs': 0, 'volt': 0.9912, 'depth': 2.988, 'time': 11, 'pitch': -13.67, 'roll': -1.31, 'pres': 203}
{'lipoC2': 0.0, 'lipoC3S1': 3.93, 'temp': 26.44, 'lipoC3S3': 11.88, 'lipoC3S2': 7.85, 'rot1': 0, 'rot0': 0, 'rot3': 0, 'rot2': 0, 'state': 'normal', 'yaw': 95.92, 'datetime': '2018-10-03 17:29:44.527969', 'mgs': 0, 'volt': 0.9863, 'depth': 2.911, 'time': 11, 'pitch': -14.95, 'roll': -2.79, 'pres': 202}
{'lipoC2': 0.0, 'lipoC3S1': 3.93, 'temp': 26.44, 'lipoC3S3': 11.88, 'lipoC3S2': 7.85, 'rot1': 0, 'rot0': 0, 'rot3': 0, 'rot2': 0, 'state': 'normal', 'yaw': 100.16, 'datetime': '2018-10-03 17:29:44.631338', 'mgs': 0, 'volt': 0.9814, 'depth': 2.835, 'time': 11, 'pitch': -16.68, 'roll': -3.55, 'pres': 201}
{'lipoC2': 0.0, 'lipoC3S1': 3.93, 'temp': 26.5, 'lipoC3S3': 11.88, 'lipoC3S2': 7.85, 'rot1': 0, 'rot0': 0, 'rot3': 0, 'rot2': 0, 'state': 'normal', 'yaw': 103.02, 'datetime': '2018-10-03 17:29:44.734671', 'mgs': 0, 'volt': 0.9766, 'depth': 2.759, 'time': 11, 'pitch': -17.76, 'roll': -3.55, 'pres': 200}
{'lipoC2': 0.0, 'lipoC3S1': 3.93, 'temp': 26.5, 'lipoC3S3': 11.88, 'lipoC3S2': 7.85, 'rot1': 0, 'rot0': 0, 'rot3': 0, 'rot2': 0, 'state': 'normal', 'yaw': 104.92, 'datetime': '2018-10-03 17:29:44.838016', 'mgs': 0, 'volt': 0.9717, 'depth': 2.682, 'time': 11, 'pitch': -17.74, 'roll': -2.88, 'pres': 199}
{'lipoC2': 0.0, 'lipoC3S1': 3.93, 'temp': 26.44, 'lipoC3S3': 11.88, 'lipoC3S2': 7.85, 'rot1': 0, 'rot0': 0, 'rot3': 0, 'rot2': 0, 'state': 'normal', 'yaw': 106.08, 'datetime': '2018-10-03 17:29:44.941331', 'mgs': 0, 'volt': 0.9668, 'depth': 2.606, 'time': 11, 'pitch': -16.54, 'roll': -1.58, 'pres': 198}
{'lipoC2': 0.0, 'lipoC3S1': 3.93, 'temp': 26.44, 'lipoC3S3': 11.88, 'lipoC3S2': 7.85, 'rot1': 0, 'rot0': 0, 'rot3': 0, 'rot2': 0, 'state': 'normal', 'yaw': 106.55, 'datetime': '2018-10-03 17:29:45.044644', 'mgs': 0, 'volt': 0.957, 'depth': 2.454, 'time': 12, 'pitch': -14.95, 'roll': -0.23, 'pres': 196}
{'lipoC2': 0.0, 'lipoC3S1': 3.93, 'temp': 26.5, 'lipoC3S3': 11.88, 'lipoC3S2': 7.85, 'rot1': 0, 'rot0': 0, 'rot3': 0, 'rot2': 0, 'state': 'normal', 'yaw': 106.55, 'datetime': '2018-10-03 17:29:45.147945', 'mgs': 0, 'volt': 0.957, 'depth': 2.454, 'time': 12, 'pitch': -13.3, 'roll': 1.17, 'pres': 196}
{'lipoC2': 0.0, 'lipoC3S1': 3.93, 'temp': 26.5, 'lipoC3S3': 11.88, 'lipoC3S2': 7.85, 'rot1': 0, 'rot0': 0, 'rot3': 0, 'rot2': 0, 'state': 'normal', 'yaw': 106.25, 'datetime': '2018-10-03 17:29:45.251182', 'mgs': 0, 'volt': 0.9521, 'depth': 2.377, 'time': 12, 'pitch': -11.53, 'roll': 2.51, 'pres': 195}
{'lipoC2': 0.0, 'lipoC3S1': 3.93, 'temp': 26.5, 'lipoC3S3': 11.88, 'lipoC3S2': 7.85, 'rot1': 0, 'rot0': 0, 'rot3': 0, 'rot2': 0, 'state': 'normal', 'yaw': 105.76, 'datetime': '2018-10-03 17:29:45.354398', 'mgs': 0, 'volt': 0.9424, 'depth': 2.225, 'time': 12, 'pitch': -10.2, 'roll': 3.49, 'pres': 193}
{'lipoC2': 0.0, 'lipoC3S1': 3.93, 'temp': 26.5, 'lipoC3S3': 11.88, 'lipoC3S2': 7.85, 'rot1': 0, 'rot0': 0, 'rot3': 0, 'rot2': 0, 'state': 'normal', 'yaw': 104.99, 'datetime': '2018-10-03 17:29:45.458965', 'mgs': 0, 'volt': 0.9375, 'depth': 2.148, 'time': 12, 'pitch': -9.38, 'roll': 4.18, 'pres': 192}
{'lipoC2': 0.0, 'lipoC3S1': 3.93, 'temp': 26.5, 'lipoC3S3': 11.88, 'lipoC3S2': 7.85, 'rot1': 0, 'rot0': 0, 'rot3': 0, 'rot2': 0, 'state': 'normal', 'yaw': 103.75, 'datetime': '2018-10-03 17:29:45.562283', 'mgs': 0, 'volt': 0.9326, 'depth': 2.072, 'time': 12, 'pitch': -9.21, 'roll': 4.74, 'pres': 191}
{'lipoC2': 0.0, 'lipoC3S1': 3.93, 'temp': 26.44, 'lipoC3S3': 11.88, 'lipoC3S2': 7.85, 'rot1': 0, 'rot0': 0, 'rot3': 0, 'rot2': 0, 'state': 'normal', 'yaw': 102.4, 'datetime': '2018-10-03 17:29:45.665399', 'mgs': 0, 'volt': 0.9277, 'depth': 1.996, 'time': 12, 'pitch': -9.34, 'roll': 5.05, 'pres': 190}
{'lipoC2': 0.0, 'lipoC3S1': 3.93, 'temp': 26.44, 'lipoC3S3': 11.88, 'lipoC3S2': 7.85, 'rot1': 0, 'rot0': 0, 'rot3': 0, 'rot2': 0, 'state': 'normal', 'yaw': 101.23, 'datetime': '2018-10-03 17:29:45.769666', 'mgs': 0, 'volt': 0.9229, 'depth': 1.92, 'time': 12, 'pitch': -8.89, 'roll': 5.05, 'pres': 189}
{'lipoC2': 0.0, 'lipoC3S1': 3.93, 'temp': 26.44, 'lipoC3S3': 11.88, 'lipoC3S2': 7.85, 'rot1': 0, 'rot0': 0, 'rot3': 0, 'rot2': 0, 'state': 'normal', 'yaw': 100.25, 'datetime': '2018-10-03 17:29:45.872954', 'mgs': 0, 'volt': 0.918, 'depth': 1.843, 'time': 12, 'pitch': -7.65, 'roll': 4.71, 'pres': 188}
{'lipoC2': 0.0, 'lipoC3S1': 3.93, 'temp': 26.44, 'lipoC3S3': 11.88, 'lipoC3S2': 7.85, 'rot1': 0, 'rot0': 0, 'rot3': 0, 'rot2': 0, 'state': 'normal', 'yaw': 99.56, 'datetime': '2018-10-03 17:29:45.976200', 'mgs': 0, 'volt': 0.9131, 'depth': 1.767, 'time': 12, 'pitch': -6.44, 'roll': 4.09, 'pres': 187}
{'lipoC2': 0.0, 'lipoC3S1': 3.93, 'temp': 26.44, 'lipoC3S3': 11.88, 'lipoC3S2': 7.85, 'rot1': 0, 'rot0': 0, 'rot3': 0, 'rot2': 0, 'state': 'normal', 'yaw': 98.92, 'datetime': '2018-10-03 17:29:46.085288', 'mgs': 0, 'volt': 0.9082, 'depth': 1.691, 'time': 13, 'pitch': -5.29, 'roll': 3.3, 'pres': 186}
{'lipoC2': 0.0, 'lipoC3S1': 3.93, 'temp': 26.5, 'lipoC3S3': 11.88, 'lipoC3S2': 7.85, 'rot1': 0, 'rot0': 0, 'rot3': 0, 'rot2': 0, 'state': 'normal', 'yaw': 98.3, 'datetime': '2018-10-03 17:29:46.186152', 'mgs': 0, 'volt': 0.9082, 'depth': 1.691, 'time': 13, 'pitch': -4.28, 'roll': 2.4, 'pres': 186}
{'lipoC2': 0.0, 'lipoC3S1': 3.93, 'temp': 26.5, 'lipoC3S3': 11.88, 'lipoC3S2': 7.85, 'rot1': 0, 'rot0': 0, 'rot3': 0, 'rot2': 0, 'state': 'normal', 'yaw': 97.54, 'datetime': '2018-10-03 17:29:46.289231', 'mgs': 0, 'volt': 0.9033, 'depth': 1.614, 'time': 13, 'pitch': -3.28, 'roll': 1.38, 'pres': 185}
{'lipoC2': 0.0, 'lipoC3S1': 3.93, 'temp': 26.44, 'lipoC3S3': 11.88, 'lipoC3S2': 7.85, 'rot1': 0, 'rot0': 0, 'rot3': 0, 'rot2': 0, 'state': 'normal', 'yaw': 96.59, 'datetime': '2018-10-03 17:29:46.392449', 'mgs': 0, 'volt': 0.9033, 'depth': 1.614, 'time': 13, 'pitch': -2.39, 'roll': 0.57, 'pres': 185}
{'lipoC2': 0.0, 'lipoC3S1': 3.93, 'temp': 26.44, 'lipoC3S3': 11.88, 'lipoC3S2': 7.85, 'rot1': 0, 'rot0': 0, 'rot3': 0, 'rot2': 0, 'state': 'normal', 'yaw': 95.61, 'datetime': '2018-10-03 17:29:46.495618', 'mgs': 0, 'volt': 0.8984, 'depth': 1.538, 'time': 13, 'pitch': -1.78, 'roll': -0.18, 'pres': 184}
{'lipoC2': 0.0, 'lipoC3S1': 3.93, 'temp': 26.44, 'lipoC3S3': 11.88, 'lipoC3S2': 7.85, 'rot1': 0, 'rot0': 0, 'rot3': 0, 'rot2': 0, 'state': 'normal', 'yaw': 94.56, 'datetime': '2018-10-03 17:29:46.599293', 'mgs': 0, 'volt': 0.8936, 'depth': 1.462, 'time': 13, 'pitch': -1.31, 'roll': -0.94, 'pres': 183}
{'lipoC2': 0.0, 'lipoC3S1': 3.93, 'temp': 26.44, 'lipoC3S3': 11.88, 'lipoC3S2': 7.85, 'rot1': 0, 'rot0': 0, 'rot3': 0, 'rot2': 0, 'state': 'normal', 'yaw': 93.55, 'datetime': '2018-10-03 17:29:46.702085', 'mgs': 0, 'volt': 0.8936, 'depth': 1.462, 'time': 13, 'pitch': -1.07, 'roll': -1.49, 'pres': 183}
{'lipoC2': 0.0, 'lipoC3S1': 3.93, 'temp': 26.44, 'lipoC3S3': 11.88, 'lipoC3S2': 7.85, 'rot1': 0, 'rot0': 0, 'rot3': 0, 'rot2': 0, 'state': 'normal', 'yaw': 92.55, 'datetime': '2018-10-03 17:29:46.805519', 'mgs': 0, 'volt': 0.8936, 'depth': 1.462, 'time': 13, 'pitch': -1.02, 'roll': -1.88, 'pres': 183}
{'lipoC2': 0.0, 'lipoC3S1': 3.93, 'temp': 26.44, 'lipoC3S3': 11.88, 'lipoC3S2': 7.85, 'rot1': 0, 'rot0': 0, 'rot3': 0, 'rot2': 0, 'state': 'normal', 'yaw': 91.5, 'datetime': '2018-10-03 17:29:46.909008', 'mgs': 0, 'volt': 0.8936, 'depth': 1.462, 'time': 13, 'pitch': -1.19, 'roll': -2.13, 'pres': 183}
{'lipoC2': 0.0, 'lipoC3S1': 3.93, 'temp': 26.44, 'lipoC3S3': 11.88, 'lipoC3S2': 7.85, 'rot1': 0, 'rot0': 0, 'rot3': 0, 'rot2': 0, 'state': 'normal', 'yaw': 90.57, 'datetime': '2018-10-03 17:29:47.012169', 'mgs': 0, 'volt': 0.8887, 'depth': 1.385, 'time': 13, 'pitch': -1.6, 'roll': -2.14, 'pres': 182}
{'lipoC2': 0.0, 'lipoC3S1': 3.93, 'temp': 26.44, 'lipoC3S3': 11.88, 'lipoC3S2': 7.85, 'rot1': 0, 'rot0': 0, 'rot3': 0, 'rot2': 0, 'state': 'normal', 'yaw': 89.63, 'datetime': '2018-10-03 17:29:47.116637', 'mgs': 0, 'volt': 0.8887, 'depth': 1.385, 'time': 14, 'pitch': -2.22, 'roll': -1.97, 'pres': 182}
{'lipoC2': 0.0, 'lipoC3S1': 3.93, 'temp': 26.44, 'lipoC3S3': 11.88, 'lipoC3S2': 7.85, 'rot1': 0, 'rot0': 0, 'rot3': 0, 'rot2': 0, 'state': 'normal', 'yaw': 88.6, 'datetime': '2018-10-03 17:29:47.219753', 'mgs': 0, 'volt': 0.8887, 'depth': 1.385, 'time': 14, 'pitch': -3.11, 'roll': -1.6, 'pres': 182}
{'lipoC2': 0.0, 'lipoC3S1': 3.93, 'temp': 26.5, 'lipoC3S3': 11.88, 'lipoC3S2': 7.85, 'rot1': 0, 'rot0': 0, 'rot3': 0, 'rot2': 0, 'state': 'normal', 'yaw': 87.7, 'datetime': '2018-10-03 17:29:47.323133', 'mgs': 0, 'volt': 0.8887, 'depth': 1.385, 'time': 14, 'pitch': -3.95, 'roll': -1.15, 'pres': 182}
{'lipoC2': 0.0, 'lipoC3S1': 3.93, 'temp': 26.5, 'lipoC3S3': 11.88, 'lipoC3S2': 7.85, 'rot1': 0, 'rot0': 0, 'rot3': 0, 'rot2': 0, 'state': 'normal', 'yaw': 86.79, 'datetime': '2018-10-03 17:29:47.427553', 'mgs': 0, 'volt': 0.8838, 'depth': 1.309, 'time': 14, 'pitch': -4.61, 'roll': -0.64, 'pres': 181}
{'lipoC2': 0.0, 'lipoC3S1': 3.93, 'temp': 26.5, 'lipoC3S3': 11.88, 'lipoC3S2': 7.85, 'rot1': 0, 'rot0': 0, 'rot3': 0, 'rot2': 0, 'state': 'normal', 'yaw': 85.41, 'datetime': '2018-10-03 17:29:47.531131', 'mgs': 0, 'volt': 0.8838, 'depth': 1.309, 'time': 14, 'pitch': -5.07, 'roll': -0.07, 'pres': 181}
{'lipoC2': 0.0, 'lipoC3S1': 3.93, 'temp': 26.5, 'lipoC3S3': 11.88, 'lipoC3S2': 7.85, 'rot1': 0, 'rot0': 0, 'rot3': 0, 'rot2': 0, 'state': 'normal', 'yaw': 83.82, 'datetime': '2018-10-03 17:29:47.634238', 'mgs': 0, 'volt': 0.8838, 'depth': 1.309, 'time': 14, 'pitch': -5.57, 'roll': 0.57, 'pres': 181}
{'lipoC2': 0.0, 'lipoC3S1': 3.93, 'temp': 26.5, 'lipoC3S3': 11.88, 'lipoC3S2': 7.85, 'rot1': 0, 'rot0': 0, 'rot3': 0, 'rot2': 0, 'state': 'normal', 'yaw': 82.99, 'datetime': '2018-10-03 17:29:47.737498', 'mgs': 0, 'volt': 0.8789, 'depth': 1.233, 'time': 14, 'pitch': -7.13, 'roll': 0.99, 'pres': 180}
{'lipoC2': 0.0, 'lipoC3S1': 3.93, 'temp': 26.44, 'lipoC3S3': 11.88, 'lipoC3S2': 7.85, 'rot1': 0, 'rot0': 0, 'rot3': 0, 'rot2': 0, 'state': 'normal', 'yaw': 82.67, 'datetime': '2018-10-03 17:29:47.840909', 'mgs': 0, 'volt': 0.874, 'depth': 1.157, 'time': 14, 'pitch': -8.2, 'roll': 0.56, 'pres': 179}
{'lipoC2': 0.0, 'lipoC3S1': 3.93, 'temp': 26.44, 'lipoC3S3': 11.88, 'lipoC3S2': 7.85, 'rot1': 0, 'rot0': 0, 'rot3': 0, 'rot2': 0, 'state': 'normal', 'yaw': 82.79, 'datetime': '2018-10-03 17:29:47.945229', 'mgs': 0, 'volt': 0.8691, 'depth': 1.08, 'time': 14, 'pitch': -8.54, 'roll': -0.99, 'pres': 178}
{'lipoC2': 0.0, 'lipoC3S1': 3.93, 'temp': 26.5, 'lipoC3S3': 11.88, 'lipoC3S2': 7.85, 'rot1': 0, 'rot0': 0, 'rot3': 0, 'rot2': 0, 'state': 'normal', 'yaw': 82.73, 'datetime': '2018-10-03 17:29:48.047582', 'mgs': 0, 'volt': 0.8643, 'depth': 1.004, 'time': 14, 'pitch': -8.63, 'roll': -2.65, 'pres': 177}
{'lipoC2': 0.0, 'lipoC3S1': 3.93, 'temp': 26.5, 'lipoC3S3': 11.88, 'lipoC3S2': 7.85, 'rot1': 0, 'rot0': 0, 'rot3': 0, 'rot2': 0, 'state': 'normal', 'yaw': 82.56, 'datetime': '2018-10-03 17:29:48.150739', 'mgs': 0, 'volt': 0.8545, 'depth': 0.851, 'time': 15, 'pitch': -9.23, 'roll': -4.14, 'pres': 175}
{'lipoC2': 0.0, 'lipoC3S1': 3.93, 'temp': 26.5, 'lipoC3S3': 11.88, 'lipoC3S2': 7.85, 'rot1': 0, 'rot0': 0, 'rot3': 0, 'rot2': 0, 'state': 'normal', 'yaw': 82.48, 'datetime': '2018-10-03 17:29:48.253999', 'mgs': 0, 'volt': 0.8496, 'depth': 0.775, 'time': 15, 'pitch': -10.28, 'roll': -5.37, 'pres': 174}
{'lipoC2': 0.0, 'lipoC3S1': 3.93, 'temp': 26.44, 'lipoC3S3': 11.88, 'lipoC3S2': 7.85, 'rot1': 0, 'rot0': 0, 'rot3': 0, 'rot2': 0, 'state': 'normal', 'yaw': 82.54, 'datetime': '2018-10-03 17:29:48.357608', 'mgs': 0, 'volt': 0.8398, 'depth': 0.623, 'time': 15, 'pitch': -10.89, 'roll': -5.98, 'pres': 172}
{'lipoC2': 0.0, 'lipoC3S1': 3.93, 'temp': 26.44, 'lipoC3S3': 11.88, 'lipoC3S2': 7.85, 'rot1': 0, 'rot0': 0, 'rot3': 0, 'rot2': 0, 'state': 'normal', 'yaw': 82.66, 'datetime': '2018-10-03 17:29:48.460990', 'mgs': 0, 'volt': 0.835, 'depth': 0.546, 'time': 15, 'pitch': -11.08, 'roll': -6.16, 'pres': 171}
{'lipoC2': 0.0, 'lipoC3S1': 3.93, 'temp': 26.44, 'lipoC3S3': 11.88, 'lipoC3S2': 7.85, 'rot1': 0, 'rot0': 0, 'rot3': 0, 'rot2': 0, 'state': 'normal', 'yaw': 82.88, 'datetime': '2018-10-03 17:29:48.563952', 'mgs': 0, 'volt': 0.8252, 'depth': 0.394, 'time': 15, 'pitch': -10.88, 'roll': -5.9, 'pres': 169}
{'lipoC2': 0.0, 'lipoC3S1': 3.93, 'temp': 26.44, 'lipoC3S3': 11.88, 'lipoC3S2': 7.85, 'rot1': 0, 'rot0': 0, 'rot3': 0, 'rot2': 0, 'state': 'normal', 'yaw': 83.06, 'datetime': '2018-10-03 17:29:48.669555', 'mgs': 0, 'volt': 0.8203, 'depth': 0.317, 'time': 15, 'pitch': -10.51, 'roll': -5.38, 'pres': 168}
{'lipoC2': 0.0, 'lipoC3S1': 3.93, 'temp': 26.44, 'lipoC3S3': 11.88, 'lipoC3S2': 7.86, 'rot1': 0, 'rot0': 0, 'rot3': 0, 'rot2': 0, 'state': 'normal', 'yaw': 83.18, 'datetime': '2018-10-03 17:29:48.778072', 'mgs': 0, 'volt': 0.8154, 'depth': 0.241, 'time': 15, 'pitch': -10.02, 'roll': -4.63, 'pres': 167}
{'lipoC2': 0.0, 'lipoC3S1': 3.93, 'temp': 26.44, 'lipoC3S3': 11.88, 'lipoC3S2': 7.85, 'rot1': 0, 'rot0': 0, 'rot3': 0, 'rot2': 0, 'state': 'normal', 'yaw': 83.32, 'datetime': '2018-10-03 17:29:48.881381', 'mgs': 0, 'volt': 0.8105, 'depth': 0.165, 'time': 15, 'pitch': -9.52, 'roll': -3.59, 'pres': 166}
{'lipoC2': 0.0, 'lipoC3S1': 3.93, 'temp': 26.44, 'lipoC3S3': 11.88, 'lipoC3S2': 7.85, 'rot1': 0, 'rot0': 0, 'rot3': 0, 'rot2': 0, 'state': 'normal', 'yaw': 83.49, 'datetime': '2018-10-03 17:29:48.984791', 'mgs': 0, 'volt': 0.8105, 'depth': 0.165, 'time': 15, 'pitch': -8.96, 'roll': -2.6, 'pres': 166}
{'lipoC2': 0.0, 'lipoC3S1': 3.93, 'temp': 26.44, 'lipoC3S3': 11.88, 'lipoC3S2': 7.85, 'rot1': 0, 'rot0': 0, 'rot3': 0, 'rot2': 0, 'state': 'normal', 'yaw': 83.75, 'datetime': '2018-10-03 17:29:49.088491', 'mgs': 0, 'volt': 0.8105, 'depth': 0.165, 'time': 16, 'pitch': -8.37, 'roll': -1.71, 'pres': 166}
{'lipoC2': 0.0, 'lipoC3S1': 3.93, 'temp': 26.44, 'lipoC3S3': 11.88, 'lipoC3S2': 7.85, 'rot1': 0, 'rot0': 0, 'rot3': 0, 'rot2': 0, 'state': 'normal', 'yaw': 84.06, 'datetime': '2018-10-03 17:29:49.192458', 'mgs': 0, 'volt': 0.8105, 'depth': 0.165, 'time': 16, 'pitch': -8.16, 'roll': -0.93, 'pres': 166}
{'lipoC2': 0.0, 'lipoC3S1': 3.93, 'temp': 26.44, 'lipoC3S3': 11.88, 'lipoC3S2': 7.85, 'rot1': 0, 'rot0': 0, 'rot3': 0, 'rot2': 0, 'state': 'normal', 'yaw': 84.24, 'datetime': '2018-10-03 17:29:49.295422', 'mgs': 0, 'volt': 0.8105, 'depth': 0.165, 'time': 16, 'pitch': -8.5, 'roll': -0.5, 'pres': 166}
{'lipoC2': 0.0, 'lipoC3S1': 3.93, 'temp': 26.44, 'lipoC3S3': 11.88, 'lipoC3S2': 7.85, 'rot1': 0, 'rot0': 0, 'rot3': 0, 'rot2': 0, 'state': 'normal', 'yaw': 84.27, 'datetime': '2018-10-03 17:29:49.398706', 'mgs': 0, 'volt': 0.8105, 'depth': 0.165, 'time': 16, 'pitch': -9.03, 'roll': -0.43, 'pres': 166}
{'lipoC2': 0.0, 'lipoC3S1': 3.93, 'temp': 26.44, 'lipoC3S3': 11.88, 'lipoC3S2': 7.85, 'rot1': 0, 'rot0': 0, 'rot3': 0, 'rot2': 0, 'state': 'normal', 'yaw': 84.18, 'datetime': '2018-10-03 17:29:49.502175', 'mgs': 0, 'volt': 0.8154, 'depth': 0.241, 'time': 16, 'pitch': -9.3, 'roll': -0.68, 'pres': 167}
{'lipoC2': 0.0, 'lipoC3S1': 3.93, 'temp': 26.44, 'lipoC3S3': 11.88, 'lipoC3S2': 7.85, 'rot1': 0, 'rot0': 0, 'rot3': 0, 'rot2': 0, 'state': 'normal', 'yaw': 83.83, 'datetime': '2018-10-03 17:29:49.605535', 'mgs': 0, 'volt': 0.8154, 'depth': 0.241, 'time': 16, 'pitch': -9.6, 'roll': -0.93, 'pres': 167}
{'lipoC2': 0.0, 'lipoC3S1': 3.93, 'temp': 26.44, 'lipoC3S3': 11.88, 'lipoC3S2': 7.85, 'rot1': 0, 'rot0': 0, 'rot3': 0, 'rot2': 0, 'state': 'normal', 'yaw': 83.46, 'datetime': '2018-10-03 17:29:49.708687', 'mgs': 0, 'volt': 0.8203, 'depth': 0.317, 'time': 16, 'pitch': -10.01, 'roll': -0.91, 'pres': 168}
{'lipoC2': 0.0, 'lipoC3S1': 3.93, 'temp': 26.44, 'lipoC3S3': 11.88, 'lipoC3S2': 7.85, 'rot1': 0, 'rot0': 0, 'rot3': 0, 'rot2': 0, 'state': 'normal', 'yaw': 83.07, 'datetime': '2018-10-03 17:29:49.811960', 'mgs': 0, 'volt': 0.8252, 'depth': 0.394, 'time': 16, 'pitch': -10.05, 'roll': -0.66, 'pres': 169}
{'lipoC2': 0.0, 'lipoC3S1': 3.93, 'temp': 26.44, 'lipoC3S3': 11.88, 'lipoC3S2': 7.85, 'rot1': 0, 'rot0': 0, 'rot3': 0, 'rot2': 0, 'state': 'normal', 'yaw': 82.75, 'datetime': '2018-10-03 17:29:49.915146', 'mgs': 0, 'volt': 0.8252, 'depth': 0.394, 'time': 16, 'pitch': -9.41, 'roll': -0.36, 'pres': 169}
{'lipoC2': 0.0, 'lipoC3S1': 3.93, 'temp': 26.44, 'lipoC3S3': 11.88, 'lipoC3S2': 7.85, 'rot1': 0, 'rot0': 0, 'rot3': 0, 'rot2': 0, 'state': 'normal', 'yaw': 82.71, 'datetime': '2018-10-03 17:29:50.018431', 'mgs': 0, 'volt': 0.8252, 'depth': 0.394, 'time': 16, 'pitch': -8.5, 'roll': -0.34, 'pres': 169}
{'lipoC2': 0.0, 'lipoC3S1': 3.93, 'temp': 26.44, 'lipoC3S3': 11.88, 'lipoC3S2': 7.85, 'rot1': 0, 'rot0': 0, 'rot3': 0, 'rot2': 0, 'state': 'normal', 'yaw': 82.85, 'datetime': '2018-10-03 17:29:50.121761', 'mgs': 0, 'volt': 0.8252, 'depth': 0.394, 'time': 17, 'pitch': -7.98, 'roll': -0.68, 'pres': 169}
{'lipoC2': 0.0, 'lipoC3S1': 3.93, 'temp': 26.44, 'lipoC3S3': 11.88, 'lipoC3S2': 7.85, 'rot1': 0, 'rot0': 0, 'rot3': 0, 'rot2': 0, 'state': 'normal', 'yaw': 83.06, 'datetime': '2018-10-03 17:29:50.225102', 'mgs': 0, 'volt': 0.8301, 'depth': 0.47, 'time': 17, 'pitch': -8.13, 'roll': -1.34, 'pres': 170}
{'lipoC2': 0.0, 'lipoC3S1': 3.93, 'temp': 26.44, 'lipoC3S3': 11.88, 'lipoC3S2': 7.85, 'rot1': 0, 'rot0': 0, 'rot3': 0, 'rot2': 0, 'state': 'normal', 'yaw': 83.16, 'datetime': '2018-10-03 17:29:50.328294', 'mgs': 0, 'volt': 0.8301, 'depth': 0.47, 'time': 17, 'pitch': -8.61, 'roll': -1.93, 'pres': 170}
{'lipoC2': 0.0, 'lipoC3S1': 3.93, 'temp': 26.44, 'lipoC3S3': 11.88, 'lipoC3S2': 7.85, 'rot1': 0, 'rot0': 0, 'rot3': 0, 'rot2': 0, 'state': 'normal', 'yaw': 83.04, 'datetime': '2018-10-03 17:29:50.432945', 'mgs': 0, 'volt': 0.8301, 'depth': 0.47, 'time': 17, 'pitch': -9.27, 'roll': -2.2, 'pres': 170}
{'lipoC2': 0.0, 'lipoC3S1': 3.93, 'temp': 26.44, 'lipoC3S3': 11.88, 'lipoC3S2': 7.85, 'rot1': 0, 'rot0': 0, 'rot3': 0, 'rot2': 0, 'state': 'normal', 'yaw': 82.84, 'datetime': '2018-10-03 17:29:50.536252', 'mgs': 0, 'volt': 0.835, 'depth': 0.546, 'time': 17, 'pitch': -10.25, 'roll': -2.06, 'pres': 171}
{'lipoC2': 0.0, 'lipoC3S1': 3.93, 'temp': 26.44, 'lipoC3S3': 11.89, 'lipoC3S2': 7.85, 'rot1': 0, 'rot0': 0, 'rot3': 0, 'rot2': 0, 'state': 'normal', 'yaw': 82.66, 'datetime': '2018-10-03 17:29:50.635575', 'mgs': 0, 'volt': 0.835, 'depth': 0.546, 'time': 17, 'pitch': -11.19, 'roll': -1.52, 'pres': 171}
{'lipoC2': 0.0, 'lipoC3S1': 3.93, 'temp': 26.44, 'lipoC3S3': 11.88, 'lipoC3S2': 7.86, 'rot1': 0, 'rot0': 0, 'rot3': 0, 'rot2': 0, 'state': 'normal', 'yaw': 82.59, 'datetime': '2018-10-03 17:29:50.744804', 'mgs': 0, 'volt': 0.8447, 'depth': 0.699, 'time': 17, 'pitch': -11.87, 'roll': -0.86, 'pres': 173}
{'lipoC2': 0.0, 'lipoC3S1': 3.93, 'temp': 26.44, 'lipoC3S3': 11.88, 'lipoC3S2': 7.85, 'rot1': 0, 'rot0': 0, 'rot3': 0, 'rot2': 0, 'state': 'normal', 'yaw': 82.62, 'datetime': '2018-10-03 17:29:50.840947', 'mgs': 0, 'volt': 0.8447, 'depth': 0.699, 'time': 17, 'pitch': -11.91, 'roll': -0.09, 'pres': 173}
{'lipoC2': 0.0, 'lipoC3S1': 3.93, 'temp': 26.44, 'lipoC3S3': 11.88, 'lipoC3S2': 7.86, 'rot1': 0, 'rot0': 0, 'rot3': 0, 'rot2': 0, 'state': 'normal', 'yaw': 82.64, 'datetime': '2018-10-03 17:29:50.943925', 'mgs': 0, 'volt': 0.8496, 'depth': 0.775, 'time': 17, 'pitch': -11.64, 'roll': 0.5, 'pres': 174}
{'lipoC2': 0.0, 'lipoC3S1': 3.93, 'temp': 26.44, 'lipoC3S3': 11.88, 'lipoC3S2': 7.85, 'rot1': 0, 'rot0': 0, 'rot3': 0, 'rot2': 0, 'state': 'normal', 'yaw': 82.63, 'datetime': '2018-10-03 17:29:51.047385', 'mgs': 0, 'volt': 0.8496, 'depth': 0.775, 'time': 17, 'pitch': -11.43, 'roll': 1.02, 'pres': 174}
{'lipoC2': 0.0, 'lipoC3S1': 3.93, 'temp': 26.44, 'lipoC3S3': 11.88, 'lipoC3S2': 7.86, 'rot1': 0, 'rot0': 0, 'rot3': 0, 'rot2': 0, 'state': 'normal', 'yaw': 82.49, 'datetime': '2018-10-03 17:29:51.150938', 'mgs': 0, 'volt': 0.8545, 'depth': 0.851, 'time': 18, 'pitch': -11.46, 'roll': 1.49, 'pres': 175}
{'lipoC2': 0.0, 'lipoC3S1': 3.93, 'temp': 26.44, 'lipoC3S3': 11.88, 'lipoC3S2': 7.85, 'rot1': 0, 'rot0': 0, 'rot3': 0, 'rot2': 0, 'state': 'normal', 'yaw': 82.25, 'datetime': '2018-10-03 17:29:51.260522', 'mgs': 0, 'volt': 0.8545, 'depth': 0.851, 'time': 18, 'pitch': -11.79, 'roll': 1.87, 'pres': 175}
{'lipoC2': 0.0, 'lipoC3S1': 3.93, 'temp': 26.44, 'lipoC3S3': 11.88, 'lipoC3S2': 7.85, 'rot1': 0, 'rot0': 0, 'rot3': 0, 'rot2': 0, 'state': 'normal', 'yaw': 82.02, 'datetime': '2018-10-03 17:29:51.363686', 'mgs': 0, 'volt': 0.8545, 'depth': 0.851, 'time': 18, 'pitch': -12.0, 'roll': 2.01, 'pres': 175}
{'lipoC2': 0.0, 'lipoC3S1': 3.93, 'temp': 26.44, 'lipoC3S3': 11.88, 'lipoC3S2': 7.85, 'rot1': 0, 'rot0': 0, 'rot3': 0, 'rot2': 0, 'state': 'normal', 'yaw': 81.68, 'datetime': '2018-10-03 17:29:51.466992', 'mgs': 0, 'volt': 0.8594, 'depth': 0.928, 'time': 18, 'pitch': -12.0, 'roll': 1.89, 'pres': 176}
{'lipoC2': 0.0, 'lipoC3S1': 3.93, 'temp': 26.44, 'lipoC3S3': 11.88, 'lipoC3S2': 7.86, 'rot1': 0, 'rot0': 0, 'rot3': 0, 'rot2': 0, 'state': 'normal', 'yaw': 81.52, 'datetime': '2018-10-03 17:29:51.570392', 'mgs': 0, 'volt': 0.8643, 'depth': 1.004, 'time': 18, 'pitch': -11.36, 'roll': 1.29, 'pres': 177}
{'lipoC2': 0.0, 'lipoC3S1': 3.93, 'temp': 26.44, 'lipoC3S3': 11.88, 'lipoC3S2': 7.85, 'rot1': 0, 'rot0': 0, 'rot3': 0, 'rot2': 0, 'state': 'normal', 'yaw': 81.44, 'datetime': '2018-10-03 17:29:51.673539', 'mgs': 0, 'volt': 0.8643, 'depth': 1.004, 'time': 18, 'pitch': -10.0, 'roll': 0.34, 'pres': 177}
{'lipoC2': 0.0, 'lipoC3S1': 3.93, 'temp': 26.44, 'lipoC3S3': 11.88, 'lipoC3S2': 7.85, 'rot1': 0, 'rot0': 0, 'rot3': 0, 'rot2': 0, 'state': 'normal', 'yaw': 81.43, 'datetime': '2018-10-03 17:29:51.777164', 'mgs': 0, 'volt': 0.8691, 'depth': 1.08, 'time': 18, 'pitch': -8.47, 'roll': -0.75, 'pres': 178}
{'lipoC2': 0.0, 'lipoC3S1': 3.93, 'temp': 26.44, 'lipoC3S3': 11.88, 'lipoC3S2': 7.85, 'rot1': 0, 'rot0': 0, 'rot3': 0, 'rot2': 0, 'state': 'normal', 'yaw': 81.32, 'datetime': '2018-10-03 17:29:51.880082', 'mgs': 0, 'volt': 0.8691, 'depth': 1.08, 'time': 18, 'pitch': -7.24, 'roll': -1.81, 'pres': 178}
{'lipoC2': 0.0, 'lipoC3S1': 3.93, 'temp': 26.44, 'lipoC3S3': 11.88, 'lipoC3S2': 7.85, 'rot1': 0, 'rot0': 0, 'rot3': 0, 'rot2': 0, 'state': 'normal', 'yaw': 81.06, 'datetime': '2018-10-03 17:29:51.983495', 'mgs': 0, 'volt': 0.874, 'depth': 1.157, 'time': 18, 'pitch': -6.59, 'roll': -2.46, 'pres': 179}
{'lipoC2': 0.0, 'lipoC3S1': 3.93, 'temp': 26.44, 'lipoC3S3': 11.88, 'lipoC3S2': 7.86, 'rot1': 0, 'rot0': 0, 'rot3': 0, 'rot2': 0, 'state': 'normal', 'yaw': 80.71, 'datetime': '2018-10-03 17:29:52.087966', 'mgs': 0, 'volt': 0.8789, 'depth': 1.233, 'time': 19, 'pitch': -6.35, 'roll': -2.81, 'pres': 180}
{'lipoC2': 0.0, 'lipoC3S1': 3.93, 'temp': 26.44, 'lipoC3S3': 11.88, 'lipoC3S2': 7.85, 'rot1': 0, 'rot0': 0, 'rot3': 0, 'rot2': 0, 'state': 'normal', 'yaw': 80.27, 'datetime': '2018-10-03 17:29:52.190992', 'mgs': 0, 'volt': 0.8789, 'depth': 1.233, 'time': 19, 'pitch': -6.42, 'roll': -2.89, 'pres': 180}
{'lipoC2': 0.0, 'lipoC3S1': 3.93, 'temp': 26.44, 'lipoC3S3': 11.88, 'lipoC3S2': 7.86, 'rot1': 0, 'rot0': 0, 'rot3': 0, 'rot2': 0, 'state': 'normal', 'yaw': 79.9, 'datetime': '2018-10-03 17:29:52.294299', 'mgs': 0, 'volt': 0.8838, 'depth': 1.309, 'time': 19, 'pitch': -6.63, 'roll': -2.73, 'pres': 181}
{'lipoC2': 0.0, 'lipoC3S1': 3.93, 'temp': 26.44, 'lipoC3S3': 11.88, 'lipoC3S2': 7.85, 'rot1': 0, 'rot0': 0, 'rot3': 0, 'rot2': 0, 'state': 'normal', 'yaw': 79.55, 'datetime': '2018-10-03 17:29:52.398559', 'mgs': 0, 'volt': 0.8887, 'depth': 1.385, 'time': 19, 'pitch': -6.81, 'roll': -2.39, 'pres': 182}
{'lipoC2': 0.0, 'lipoC3S1': 3.93, 'temp': 26.44, 'lipoC3S3': 11.88, 'lipoC3S2': 7.85, 'rot1': 0, 'rot0': 0, 'rot3': 0, 'rot2': 0, 'state': 'normal', 'yaw': 79.25, 'datetime': '2018-10-03 17:29:52.496043', 'mgs': 0, 'volt': 0.8984, 'depth': 1.538, 'time': 19, 'pitch': -6.8, 'roll': -2.11, 'pres': 184}
{'lipoC2': 0.0, 'lipoC3S1': 3.93, 'temp': 26.44, 'lipoC3S3': 11.88, 'lipoC3S2': 7.86, 'rot1': 0, 'rot0': 0, 'rot3': 0, 'rot2': 0, 'state': 'normal', 'yaw': 79.02, 'datetime': '2018-10-03 17:29:52.599109', 'mgs': 0, 'volt': 0.9033, 'depth': 1.614, 'time': 19, 'pitch': -6.59, 'roll': -2.09, 'pres': 185}
{'lipoC2': 0.0, 'lipoC3S1': 3.93, 'temp': 26.44, 'lipoC3S3': 11.88, 'lipoC3S2': 7.86, 'rot1': 0, 'rot0': 0, 'rot3': 0, 'rot2': 0, 'state': 'normal', 'yaw': 78.86, 'datetime': '2018-10-03 17:29:52.702120', 'mgs': 0, 'volt': 0.9082, 'depth': 1.691, 'time': 19, 'pitch': -6.23, 'roll': -2.21, 'pres': 186}
{'lipoC2': 0.0, 'lipoC3S1': 3.93, 'temp': 26.44, 'lipoC3S3': 11.88, 'lipoC3S2': 7.85, 'rot1': 0, 'rot0': 0, 'rot3': 0, 'rot2': 0, 'state': 'normal', 'yaw': 78.72, 'datetime': '2018-10-03 17:29:52.805856', 'mgs': 0, 'volt': 0.918, 'depth': 1.843, 'time': 19, 'pitch': -5.87, 'roll': -2.28, 'pres': 188}
{'lipoC2': 0.0, 'lipoC3S1': 3.93, 'temp': 26.44, 'lipoC3S3': 11.88, 'lipoC3S2': 7.86, 'rot1': 0, 'rot0': 0, 'rot3': 0, 'rot2': 0, 'state': 'normal', 'yaw': 78.6, 'datetime': '2018-10-03 17:29:52.909140', 'mgs': 0, 'volt': 0.9229, 'depth': 1.92, 'time': 19, 'pitch': -5.62, 'roll': -2.18, 'pres': 189}
{'lipoC2': 0.0, 'lipoC3S1': 3.93, 'temp': 26.44, 'lipoC3S3': 11.88, 'lipoC3S2': 7.86, 'rot1': 0, 'rot0': 0, 'rot3': 0, 'rot2': 0, 'state': 'normal', 'yaw': 78.55, 'datetime': '2018-10-03 17:29:53.012135', 'mgs': 0, 'volt': 0.9375, 'depth': 2.148, 'time': 19, 'pitch': -5.58, 'roll': -1.88, 'pres': 192}
{'lipoC2': 0.0, 'lipoC3S1': 3.93, 'temp': 26.44, 'lipoC3S3': 11.88, 'lipoC3S2': 7.85, 'rot1': 0, 'rot0': 0, 'rot3': 0, 'rot2': 0, 'state': 'normal', 'yaw': 78.55, 'datetime': '2018-10-03 17:29:53.115363', 'mgs': 0, 'volt': 0.9424, 'depth': 2.225, 'time': 20, 'pitch': -5.67, 'roll': -1.58, 'pres': 193}
{'lipoC2': 0.0, 'lipoC3S1': 3.93, 'temp': 26.5, 'lipoC3S3': 11.88, 'lipoC3S2': 7.85, 'rot1': 0, 'rot0': 0, 'rot3': 0, 'rot2': 0, 'state': 'normal', 'yaw': 78.67, 'datetime': '2018-10-03 17:29:53.215405', 'mgs': 0, 'volt': 0.9521, 'depth': 2.377, 'time': 20, 'pitch': -6.01, 'roll': -1.32, 'pres': 195}
{'lipoC2': 0.0, 'lipoC3S1': 3.93, 'temp': 26.5, 'lipoC3S3': 11.88, 'lipoC3S2': 7.86, 'rot1': 0, 'rot0': 0, 'rot3': 0, 'rot2': 0, 'state': 'normal', 'yaw': 78.86, 'datetime': '2018-10-03 17:29:53.319661', 'mgs': 0, 'volt': 0.9619, 'depth': 2.53, 'time': 20, 'pitch': -6.28, 'roll': -1.16, 'pres': 197}
{'lipoC2': 0.0, 'lipoC3S1': 3.93, 'temp': 26.44, 'lipoC3S3': 11.88, 'lipoC3S2': 7.85, 'rot1': 0, 'rot0': 0, 'rot3': 0, 'rot2': 0, 'state': 'normal', 'yaw': 79.05, 'datetime': '2018-10-03 17:29:53.421979', 'mgs': 0, 'volt': 0.9717, 'depth': 2.682, 'time': 20, 'pitch': -6.42, 'roll': -1.08, 'pres': 199}
{'lipoC2': 0.0, 'lipoC3S1': 3.93, 'temp': 26.44, 'lipoC3S3': 11.88, 'lipoC3S2': 7.85, 'rot1': 0, 'rot0': 0, 'rot3': 0, 'rot2': 0, 'state': 'normal', 'yaw': 79.31, 'datetime': '2018-10-03 17:29:53.525290', 'mgs': 0, 'volt': 0.9814, 'depth': 2.835, 'time': 20, 'pitch': -6.45, 'roll': -1.11, 'pres': 201}
{'lipoC2': 0.0, 'lipoC3S1': 3.93, 'temp': 26.44, 'lipoC3S3': 11.88, 'lipoC3S2': 7.85, 'rot1': 0, 'rot0': 0, 'rot3': 0, 'rot2': 0, 'state': 'normal', 'yaw': 79.57, 'datetime': '2018-10-03 17:29:53.628501', 'mgs': 0, 'volt': 0.9912, 'depth': 2.988, 'time': 20, 'pitch': -6.5, 'roll': -1.14, 'pres': 203}
{'lipoC2': 0.0, 'lipoC3S1': 3.93, 'temp': 26.44, 'lipoC3S3': 11.88, 'lipoC3S2': 7.86, 'rot1': 0, 'rot0': 0, 'rot3': 0, 'rot2': 0, 'state': 'normal', 'yaw': 79.81, 'datetime': '2018-10-03 17:29:53.733050', 'mgs': 0, 'volt': 1.001, 'depth': 3.14, 'time': 20, 'pitch': -6.47, 'roll': -1.05, 'pres': 205}
{'lipoC2': 0.0, 'lipoC3S1': 3.93, 'temp': 26.44, 'lipoC3S3': 11.88, 'lipoC3S2': 7.86, 'rot1': 0, 'rot0': 0, 'rot3': 0, 'rot2': 0, 'state': 'normal', 'yaw': 79.99, 'datetime': '2018-10-03 17:29:53.836304', 'mgs': 0, 'volt': 1.0059, 'depth': 3.217, 'time': 20, 'pitch': -6.5, 'roll': -0.8, 'pres': 206}
{'lipoC2': 0.0, 'lipoC3S1': 3.93, 'temp': 26.44, 'lipoC3S3': 11.88, 'lipoC3S2': 7.85, 'rot1': 0, 'rot0': 0, 'rot3': 0, 'rot2': 0, 'state': 'normal', 'yaw': 80.0, 'datetime': '2018-10-03 17:29:53.939612', 'mgs': 0, 'volt': 1.0156, 'depth': 3.369, 'time': 20, 'pitch': -6.83, 'roll': -0.53, 'pres': 208}
{'lipoC2': 0.0, 'lipoC3S1': 3.93, 'temp': 26.44, 'lipoC3S3': 11.89, 'lipoC3S2': 7.86, 'rot1': 0, 'rot0': 0, 'rot3': 0, 'rot2': 0, 'state': 'normal', 'yaw': 80.07, 'datetime': '2018-10-03 17:29:54.044113', 'mgs': 0, 'volt': 0.9961, 'depth': 3.064, 'time': 20, 'pitch': -7.15, 'roll': 0.59, 'pres': 204}
{'lipoC2': 0.0, 'lipoC3S1': 3.93, 'temp': 26.5, 'lipoC3S3': 11.88, 'lipoC3S2': 7.85, 'rot1': 0, 'rot0': 0, 'rot3': 0, 'rot2': 0, 'state': 'normal', 'yaw': 80.22, 'datetime': '2018-10-03 17:29:54.147340', 'mgs': 0, 'volt': 1.0205, 'depth': 3.445, 'time': 21, 'pitch': -7.12, 'roll': 1.53, 'pres': 209}
{'lipoC2': 0.0, 'lipoC3S1': 3.93, 'temp': 26.5, 'lipoC3S3': 11.88, 'lipoC3S2': 7.85, 'rot1': 0, 'rot0': 0, 'rot3': 0, 'rot2': 0, 'state': 'normal', 'yaw': 80.12, 'datetime': '2018-10-03 17:29:54.250642', 'mgs': 0, 'volt': 1.0205, 'depth': 3.445, 'time': 21, 'pitch': -7.29, 'roll': 1.92, 'pres': 209}
{'lipoC2': 0.0, 'lipoC3S1': 3.93, 'temp': 26.44, 'lipoC3S3': 11.88, 'lipoC3S2': 7.85, 'rot1': 0, 'rot0': 0, 'rot3': 0, 'rot2': 0, 'state': 'normal', 'yaw': 79.94, 'datetime': '2018-10-03 17:29:54.353898', 'mgs': 0, 'volt': 1.0205, 'depth': 3.445, 'time': 21, 'pitch': -7.39, 'roll': 1.59, 'pres': 209}
{'lipoC2': 0.0, 'lipoC3S1': 3.93, 'temp': 26.44, 'lipoC3S3': 11.88, 'lipoC3S2': 7.86, 'rot1': 0, 'rot0': 0, 'rot3': 0, 'rot2': 0, 'state': 'normal', 'yaw': 79.69, 'datetime': '2018-10-03 17:29:54.457409', 'mgs': 0, 'volt': 1.0107, 'depth': 3.293, 'time': 21, 'pitch': -7.45, 'roll': 0.81, 'pres': 207}
{'lipoC2': 0.0, 'lipoC3S1': 3.93, 'temp': 26.44, 'lipoC3S3': 11.88, 'lipoC3S2': 7.86, 'rot1': 0, 'rot0': 0, 'rot3': 0, 'rot2': 0, 'state': 'normal', 'yaw': 79.66, 'datetime': '2018-10-03 17:29:54.560654', 'mgs': 0, 'volt': 1.0205, 'depth': 3.445, 'time': 21, 'pitch': -7.45, 'roll': 0.87, 'pres': 209}
{'lipoC2': 0.0, 'lipoC3S1': 3.93, 'temp': 26.44, 'lipoC3S3': 11.88, 'lipoC3S2': 7.86, 'rot1': 0, 'rot0': 0, 'rot3': 0, 'rot2': 0, 'state': 'normal', 'yaw': 79.42, 'datetime': '2018-10-03 17:29:54.665241', 'mgs': 0, 'volt': 1.0156, 'depth': 3.369, 'time': 21, 'pitch': -7.49, 'roll': 0.99, 'pres': 208}
