{'lipoC2': 0.0, 'lipoC3S1': 3.91, 'temp': 26.63, 'lipoC3S3': 11.84, 'lipoC3S2': 7.83, 'rot1': 0, 'rot0': 0, 'rot3': 0, 'rot2': 0, 'state': 'normal', 'yaw': -132.9, 'datetime': '2018-10-03 17:46:45.755834', 'mgs': 0, 'volt': 1.0303, 'depth': 3.598, 'time': 496, 'pitch': 68.86, 'roll': 21.51, 'pres': 211}
{'lipoC2': 0.0, 'lipoC3S1': 3.91, 'temp': 26.63, 'lipoC3S3': 11.84, 'lipoC3S2': 7.83, 'rot1': 0, 'rot0': 0, 'rot3': 0, 'rot2': 0, 'state': 'normal', 'yaw': -132.98, 'datetime': '2018-10-03 17:46:45.779325', 'mgs': 0, 'volt': 1.0303, 'depth': 3.598, 'time': 496, 'pitch': 68.75, 'roll': 21.44, 'pres': 211}
{'lipoC2': 0.0, 'lipoC3S1': 3.92, 'temp': 26.5, 'lipoC3S3': 11.85, 'lipoC3S2': 7.83, 'rot1': 0, 'rot0': 0, 'rot3': 0, 'rot2': 0, 'state': 'normal', 'yaw': -133.06, 'datetime': '2018-10-03 17:46:45.802712', 'mgs': 0, 'volt': 1.0303, 'depth': 3.598, 'time': 497, 'pitch': 68.67, 'roll': 21.37, 'pres': 211}
{'lipoC2': 0.0, 'lipoC3S1': 3.92, 'temp': 26.5, 'lipoC3S3': 11.84, 'lipoC3S2': 7.83, 'rot1': 0, 'rot0': 0, 'rot3': 0, 'rot2': 0, 'state': 'normal', 'yaw': -133.15, 'datetime': '2018-10-03 17:46:45.825812', 'mgs': 0, 'volt': 1.0303, 'depth': 3.598, 'time': 497, 'pitch': 68.57, 'roll': 21.24, 'pres': 211}
{'lipoC2': 0.0, 'lipoC3S1': 3.91, 'temp': 26.56, 'lipoC3S3': 11.85, 'lipoC3S2': 7.83, 'rot1': 0, 'rot0': 0, 'rot3': 0, 'rot2': 0, 'state': 'normal', 'yaw': -133.15, 'datetime': '2018-10-03 17:46:45.840881', 'mgs': 0, 'volt': 1.0303, 'depth': 3.598, 'time': 497, 'pitch': 68.56, 'roll': 21.14, 'pres': 211}
{'lipoC2': 0.0, 'lipoC3S1': 3.92, 'temp': 26.56, 'lipoC3S3': 11.85, 'lipoC3S2': 7.83, 'rot1': 0, 'rot0': 0, 'rot3': 0, 'rot2': 0, 'state': 'normal', 'yaw': -133.07, 'datetime': '2018-10-03 17:46:45.850891', 'mgs': 0, 'volt': 1.0303, 'depth': 3.598, 'time': 497, 'pitch': 68.66, 'roll': 21.13, 'pres': 211}
{'lipoC2': 0.0, 'lipoC3S1': 3.91, 'temp': 26.63, 'lipoC3S3': 11.84, 'lipoC3S2': 7.83, 'rot1': 0, 'rot0': 0, 'rot3': 0, 'rot2': 0, 'state': 'normal', 'yaw': -132.8, 'datetime': '2018-10-03 17:46:45.860973', 'mgs': 0, 'volt': 1.0303, 'depth': 3.598, 'time': 497, 'pitch': 68.89, 'roll': 21.24, 'pres': 211}
{'lipoC2': 0.0, 'lipoC3S1': 3.92, 'temp': 26.63, 'lipoC3S3': 11.85, 'lipoC3S2': 7.83, 'rot1': 0, 'rot0': 0, 'rot3': 0, 'rot2': 0, 'state': 'normal', 'yaw': -132.58, 'datetime': '2018-10-03 17:46:45.871013', 'mgs': 0, 'volt': 1.0303, 'depth': 3.598, 'time': 497, 'pitch': 69.11, 'roll': 21.31, 'pres': 211}
{'lipoC2': 0.0, 'lipoC3S1': 3.91, 'temp': 26.56, 'lipoC3S3': 11.84, 'lipoC3S2': 7.83, 'rot1': 0, 'rot0': 0, 'rot3': 0, 'rot2': 0, 'state': 'normal', 'yaw': -132.38, 'datetime': '2018-10-03 17:46:45.881173', 'mgs': 0, 'volt': 1.0303, 'depth': 3.598, 'time': 497, 'pitch': 69.28, 'roll': 21.35, 'pres': 211}
{'lipoC2': 0.0, 'lipoC3S1': 3.92, 'temp': 26.56, 'lipoC3S3': 11.84, 'lipoC3S2': 7.83, 'rot1': 0, 'rot0': 0, 'rot3': 0, 'rot2': 0, 'state': 'normal', 'yaw': -132.09, 'datetime': '2018-10-03 17:46:45.891248', 'mgs': 0, 'volt': 1.0303, 'depth': 3.598, 'time': 497, 'pitch': 69.38, 'roll': 21.48, 'pres': 211}
{'lipoC2': 0.0, 'lipoC3S1': 3.91, 'temp': 26.56, 'lipoC3S3': 11.84, 'lipoC3S2': 7.83, 'rot1': 0, 'rot0': 0, 'rot3': 0, 'rot2': 0, 'state': 'normal', 'yaw': 0.0, 'datetime': '2018-10-03 17:46:45.901130', 'mgs': 0, 'volt': 1.0303, 'depth': 3.598, 'time': 1, 'pitch': 14.52, 'roll': 3.57, 'pres': 211}
{'lipoC2': 0.0, 'lipoC3S1': 3.91, 'temp': 26.56, 'lipoC3S3': 11.84, 'lipoC3S2': 7.83, 'rot1': 0, 'rot0': 0, 'rot3': 0, 'rot2': 0, 'state': 'normal', 'yaw': -0.16, 'datetime': '2018-10-03 17:46:45.910996', 'mgs': 0, 'volt': 1.0303, 'depth': 3.598, 'time': 1, 'pitch': 8.64, 'roll': 2.68, 'pres': 211}
{'lipoC2': 0.0, 'lipoC3S1': 3.91, 'temp': 26.56, 'lipoC3S3': 11.84, 'lipoC3S2': 7.82, 'rot1': 0, 'rot0': 0, 'rot3': 0, 'rot2': 0, 'state': 'normal', 'yaw': -0.22, 'datetime': '2018-10-03 17:46:45.920894', 'mgs': 0, 'volt': 1.0303, 'depth': 3.598, 'time': 1, 'pitch': 4.75, 'roll': 2.11, 'pres': 211}
{'lipoC2': 0.0, 'lipoC3S1': 3.91, 'temp': 26.56, 'lipoC3S3': 11.84, 'lipoC3S2': 7.83, 'rot1': 0, 'rot0': 0, 'rot3': 0, 'rot2': 0, 'state': 'normal', 'yaw': -0.24, 'datetime': '2018-10-03 17:46:45.930953', 'mgs': 0, 'volt': 1.0303, 'depth': 3.598, 'time': 1, 'pitch': 1.88, 'roll': 1.68, 'pres': 211}
{'lipoC2': 0.0, 'lipoC3S1': 3.91, 'temp': 26.56, 'lipoC3S3': 11.84, 'lipoC3S2': 7.83, 'rot1': 0, 'rot0': 0, 'rot3': 0, 'rot2': 0, 'state': 'normal', 'yaw': -0.25, 'datetime': '2018-10-03 17:46:45.941133', 'mgs': 0, 'volt': 1.0303, 'depth': 3.598, 'time': 1, 'pitch': -0.26, 'roll': 1.35, 'pres': 211}
{'lipoC2': 0.0, 'lipoC3S1': 3.91, 'temp': 26.5, 'lipoC3S3': 11.84, 'lipoC3S2': 7.83, 'rot1': 0, 'rot0': 0, 'rot3': 0, 'rot2': 0, 'state': 'normal', 'yaw': -0.25, 'datetime': '2018-10-03 17:46:45.951673', 'mgs': 0, 'volt': 1.0303, 'depth': 3.598, 'time': 1, 'pitch': -1.86, 'roll': 1.09, 'pres': 211}
{'lipoC2': 0.0, 'lipoC3S1': 3.91, 'temp': 26.5, 'lipoC3S3': 11.84, 'lipoC3S2': 7.83, 'rot1': 0, 'rot0': 0, 'rot3': 0, 'rot2': 0, 'state': 'normal', 'yaw': -0.24, 'datetime': '2018-10-03 17:46:45.962249', 'mgs': 0, 'volt': 1.0303, 'depth': 3.598, 'time': 1, 'pitch': -2.7, 'roll': 0.95, 'pres': 211}
{'lipoC2': 0.0, 'lipoC3S1': 3.91, 'temp': 26.5, 'lipoC3S3': 11.84, 'lipoC3S2': 7.83, 'rot1': 0, 'rot0': 0, 'rot3': 0, 'rot2': 0, 'state': 'normal', 'yaw': -0.24, 'datetime': '2018-10-03 17:46:45.973250', 'mgs': 0, 'volt': 1.0254, 'depth': 3.522, 'time': 1, 'pitch': -3.22, 'roll': 0.87, 'pres': 210}
{'lipoC2': 0.0, 'lipoC3S1': 3.91, 'temp': 26.5, 'lipoC3S3': 11.84, 'lipoC3S2': 7.83, 'rot1': 0, 'rot0': 0, 'rot3': 0, 'rot2': 0, 'state': 'normal', 'yaw': -0.23, 'datetime': '2018-10-03 17:46:45.983807', 'mgs': 0, 'volt': 1.0254, 'depth': 3.522, 'time': 2, 'pitch': -3.74, 'roll': 0.58, 'pres': 210}
{'lipoC2': 0.0, 'lipoC3S1': 3.91, 'temp': 26.56, 'lipoC3S3': 11.84, 'lipoC3S2': 7.83, 'rot1': 0, 'rot0': 0, 'rot3': 0, 'rot2': 0, 'state': 'normal', 'yaw': -0.24, 'datetime': '2018-10-03 17:46:45.994047', 'mgs': 0, 'volt': 1.0254, 'depth': 3.522, 'time': 2, 'pitch': -4.16, 'roll': 0.45, 'pres': 210}
{'lipoC2': 0.0, 'lipoC3S1': 3.91, 'temp': 26.56, 'lipoC3S3': 11.84, 'lipoC3S2': 7.83, 'rot1': 0, 'rot0': 0, 'rot3': 0, 'rot2': 0, 'state': 'normal', 'yaw': -0.25, 'datetime': '2018-10-03 17:46:46.004048', 'mgs': 0, 'volt': 1.0254, 'depth': 3.522, 'time': 2, 'pitch': -4.55, 'roll': 0.4, 'pres': 210}
{'lipoC2': 0.0, 'lipoC3S1': 3.91, 'temp': 26.56, 'lipoC3S3': 11.84, 'lipoC3S2': 7.83, 'rot1': 0, 'rot0': 0, 'rot3': 0, 'rot2': 0, 'state': 'normal', 'yaw': -0.26, 'datetime': '2018-10-03 17:46:46.013943', 'mgs': 0, 'volt': 1.0254, 'depth': 3.522, 'time': 2, 'pitch': -4.89, 'roll': 0.47, 'pres': 210}
{'lipoC2': 0.0, 'lipoC3S1': 3.91, 'temp': 26.56, 'lipoC3S3': 11.84, 'lipoC3S2': 7.82, 'rot1': 0, 'rot0': 0, 'rot3': 0, 'rot2': 0, 'state': 'normal', 'yaw': -0.27, 'datetime': '2018-10-03 17:46:46.023864', 'mgs': 0, 'volt': 1.0254, 'depth': 3.522, 'time': 2, 'pitch': -5.16, 'roll': 0.58, 'pres': 210}
{'lipoC2': 0.0, 'lipoC3S1': 3.91, 'temp': 26.56, 'lipoC3S3': 11.84, 'lipoC3S2': 7.83, 'rot1': 0, 'rot0': 0, 'rot3': 0, 'rot2': 0, 'state': 'normal', 'yaw': -0.28, 'datetime': '2018-10-03 17:46:46.033779', 'mgs': 0, 'volt': 1.0254, 'depth': 3.522, 'time': 2, 'pitch': -5.4, 'roll': 0.7, 'pres': 210}
{'lipoC2': 0.0, 'lipoC3S1': 3.91, 'temp': 26.56, 'lipoC3S3': 11.84, 'lipoC3S2': 7.83, 'rot1': 0, 'rot0': 0, 'rot3': 0, 'rot2': 0, 'state': 'normal', 'yaw': -0.28, 'datetime': '2018-10-03 17:46:46.043675', 'mgs': 0, 'volt': 1.0303, 'depth': 3.598, 'time': 2, 'pitch': -5.62, 'roll': 0.84, 'pres': 211}
{'lipoC2': 0.0, 'lipoC3S1': 3.91, 'temp': 26.56, 'lipoC3S3': 11.84, 'lipoC3S2': 7.83, 'rot1': 0, 'rot0': 0, 'rot3': 0, 'rot2': 0, 'state': 'normal', 'yaw': -0.28, 'datetime': '2018-10-03 17:46:46.053544', 'mgs': 0, 'volt': 1.0303, 'depth': 3.598, 'time': 2, 'pitch': -5.74, 'roll': 0.96, 'pres': 211}
{'lipoC2': 0.0, 'lipoC3S1': 3.91, 'temp': 26.56, 'lipoC3S3': 11.84, 'lipoC3S2': 7.83, 'rot1': 0, 'rot0': 0, 'rot3': 0, 'rot2': 0, 'state': 'normal', 'yaw': -0.29, 'datetime': '2018-10-03 17:46:46.063458', 'mgs': 0, 'volt': 1.0303, 'depth': 3.598, 'time': 2, 'pitch': -5.79, 'roll': 1.05, 'pres': 211}
{'lipoC2': 0.0, 'lipoC3S1': 3.91, 'temp': 26.56, 'lipoC3S3': 11.84, 'lipoC3S2': 7.83, 'rot1': 0, 'rot0': 0, 'rot3': 0, 'rot2': 0, 'state': 'normal', 'yaw': -0.28, 'datetime': '2018-10-03 17:46:46.073361', 'mgs': 0, 'volt': 1.0303, 'depth': 3.598, 'time': 3, 'pitch': -5.84, 'roll': 1.09, 'pres': 211}
{'lipoC2': 0.0, 'lipoC3S1': 3.91, 'temp': 26.56, 'lipoC3S3': 11.84, 'lipoC3S2': 7.83, 'rot1': 0, 'rot0': 0, 'rot3': 0, 'rot2': 0, 'state': 'normal', 'yaw': -0.28, 'datetime': '2018-10-03 17:46:46.083666', 'mgs': 0, 'volt': 1.0303, 'depth': 3.598, 'time': 3, 'pitch': -5.87, 'roll': 1.1, 'pres': 211}
{'lipoC2': 0.0, 'lipoC3S1': 3.91, 'temp': 26.5, 'lipoC3S3': 11.84, 'lipoC3S2': 7.83, 'rot1': 0, 'rot0': 0, 'rot3': 0, 'rot2': 0, 'state': 'normal', 'yaw': -0.29, 'datetime': '2018-10-03 17:46:46.093617', 'mgs': 0, 'volt': 1.0303, 'depth': 3.598, 'time': 3, 'pitch': -5.87, 'roll': 1.08, 'pres': 211}
{'lipoC2': 0.0, 'lipoC3S1': 3.91, 'temp': 26.5, 'lipoC3S3': 11.84, 'lipoC3S2': 7.83, 'rot1': 0, 'rot0': 0, 'rot3': 0, 'rot2': 0, 'state': 'normal', 'yaw': -0.29, 'datetime': '2018-10-03 17:46:46.103498', 'mgs': 0, 'volt': 1.0254, 'depth': 3.522, 'time': 3, 'pitch': -5.89, 'roll': 1.01, 'pres': 210}
{'lipoC2': 0.0, 'lipoC3S1': 3.91, 'temp': 26.56, 'lipoC3S3': 11.84, 'lipoC3S2': 7.83, 'rot1': 0, 'rot0': 0, 'rot3': 0, 'rot2': 0, 'state': 'normal', 'yaw': -0.29, 'datetime': '2018-10-03 17:46:46.113403', 'mgs': 0, 'volt': 1.0254, 'depth': 3.522, 'time': 3, 'pitch': -5.9, 'roll': 0.74, 'pres': 210}
{'lipoC2': 0.0, 'lipoC3S1': 3.91, 'temp': 26.56, 'lipoC3S3': 11.84, 'lipoC3S2': 7.83, 'rot1': 0, 'rot0': 0, 'rot3': 0, 'rot2': 0, 'state': 'normal', 'yaw': -0.29, 'datetime': '2018-10-03 17:46:46.123270', 'mgs': 0, 'volt': 1.0254, 'depth': 3.522, 'time': 3, 'pitch': -5.9, 'roll': 0.31, 'pres': 210}
{'lipoC2': 0.0, 'lipoC3S1': 3.91, 'temp': 26.63, 'lipoC3S3': 11.84, 'lipoC3S2': 7.82, 'rot1': 0, 'rot0': 0, 'rot3': 0, 'rot2': 0, 'state': 'normal', 'yaw': -0.29, 'datetime': '2018-10-03 17:46:46.133155', 'mgs': 0, 'volt': 1.0254, 'depth': 3.522, 'time': 3, 'pitch': -5.91, 'roll': -0.08, 'pres': 210}
{'lipoC2': 0.0, 'lipoC3S1': 3.91, 'temp': 26.63, 'lipoC3S3': 11.84, 'lipoC3S2': 7.82, 'rot1': 0, 'rot0': 0, 'rot3': 0, 'rot2': 0, 'state': 'normal', 'yaw': -0.3, 'datetime': '2018-10-03 17:46:46.143025', 'mgs': 0, 'volt': 1.0254, 'depth': 3.522, 'time': 3, 'pitch': -5.91, 'roll': -0.44, 'pres': 210}
{'lipoC2': 0.0, 'lipoC3S1': 3.91, 'temp': 26.63, 'lipoC3S3': 11.84, 'lipoC3S2': 7.83, 'rot1': 0, 'rot0': 0, 'rot3': 0, 'rot2': 0, 'state': 'normal', 'yaw': -0.3, 'datetime': '2018-10-03 17:46:46.152892', 'mgs': 0, 'volt': 1.0254, 'depth': 3.522, 'time': 3, 'pitch': -5.92, 'roll': -0.7, 'pres': 210}
{'lipoC2': 0.0, 'lipoC3S1': 3.91, 'temp': 26.5, 'lipoC3S3': 11.84, 'lipoC3S2': 7.83, 'rot1': 0, 'rot0': 0, 'rot3': 0, 'rot2': 0, 'state': 'normal', 'yaw': -0.3, 'datetime': '2018-10-03 17:46:46.162805', 'mgs': 0, 'volt': 1.0303, 'depth': 3.598, 'time': 3, 'pitch': -5.91, 'roll': -0.88, 'pres': 211}
{'lipoC2': 0.0, 'lipoC3S1': 3.91, 'temp': 26.5, 'lipoC3S3': 11.84, 'lipoC3S2': 7.82, 'rot1': 0, 'rot0': 0, 'rot3': 0, 'rot2': 0, 'state': 'normal', 'yaw': -0.33, 'datetime': '2018-10-03 17:46:46.172700', 'mgs': 0, 'volt': 1.0303, 'depth': 3.598, 'time': 4, 'pitch': -5.92, 'roll': -0.99, 'pres': 211}
{'lipoC2': 0.0, 'lipoC3S1': 3.91, 'temp': 26.56, 'lipoC3S3': 11.84, 'lipoC3S2': 7.83, 'rot1': 0, 'rot0': 0, 'rot3': 0, 'rot2': 0, 'state': 'normal', 'yaw': -0.4, 'datetime': '2018-10-03 17:46:46.182653', 'mgs': 0, 'volt': 1.0254, 'depth': 3.522, 'time': 4, 'pitch': -5.95, 'roll': -0.99, 'pres': 210}
{'lipoC2': 0.0, 'lipoC3S1': 3.91, 'temp': 26.56, 'lipoC3S3': 11.84, 'lipoC3S2': 7.83, 'rot1': 0, 'rot0': 0, 'rot3': 0, 'rot2': 0, 'state': 'normal', 'yaw': -0.47, 'datetime': '2018-10-03 17:46:46.192703', 'mgs': 0, 'volt': 1.0303, 'depth': 3.598, 'time': 4, 'pitch': -5.88, 'roll': -0.8, 'pres': 211}
{'lipoC2': 0.0, 'lipoC3S1': 3.91, 'temp': 26.56, 'lipoC3S3': 11.84, 'lipoC3S2': 7.83, 'rot1': 0, 'rot0': 0, 'rot3': 0, 'rot2': 0, 'state': 'normal', 'yaw': -0.54, 'datetime': '2018-10-03 17:46:46.202624', 'mgs': 0, 'volt': 1.0303, 'depth': 3.598, 'time': 4, 'pitch': -5.8, 'roll': -0.53, 'pres': 211}
{'lipoC2': 0.0, 'lipoC3S1': 3.91, 'temp': 26.56, 'lipoC3S3': 11.84, 'lipoC3S2': 7.83, 'rot1': 0, 'rot0': 0, 'rot3': 0, 'rot2': 0, 'state': 'normal', 'yaw': -0.55, 'datetime': '2018-10-03 17:46:46.212876', 'mgs': 0, 'volt': 1.0303, 'depth': 3.598, 'time': 4, 'pitch': -6.0, 'roll': -0.54, 'pres': 211}
{'lipoC2': 0.0, 'lipoC3S1': 3.91, 'temp': 26.56, 'lipoC3S3': 11.84, 'lipoC3S2': 7.83, 'rot1': 0, 'rot0': 0, 'rot3': 0, 'rot2': 0, 'state': 'normal', 'yaw': -0.53, 'datetime': '2018-10-03 17:46:46.222802', 'mgs': 0, 'volt': 1.0303, 'depth': 3.598, 'time': 4, 'pitch': -6.15, 'roll': -0.56, 'pres': 211}
{'lipoC2': 0.0, 'lipoC3S1': 3.91, 'temp': 26.5, 'lipoC3S3': 11.84, 'lipoC3S2': 7.83, 'rot1': 0, 'rot0': 0, 'rot3': 0, 'rot2': 0, 'state': 'normal', 'yaw': -0.46, 'datetime': '2018-10-03 17:46:46.232722', 'mgs': 0, 'volt': 1.0303, 'depth': 3.598, 'time': 4, 'pitch': -6.16, 'roll': -0.5, 'pres': 211}
{'lipoC2': 0.0, 'lipoC3S1': 3.91, 'temp': 26.5, 'lipoC3S3': 11.84, 'lipoC3S2': 7.83, 'rot1': 0, 'rot0': 0, 'rot3': 0, 'rot2': 0, 'state': 'normal', 'yaw': -0.45, 'datetime': '2018-10-03 17:46:46.242639', 'mgs': 0, 'volt': 1.0303, 'depth': 3.598, 'time': 4, 'pitch': -6.18, 'roll': -0.38, 'pres': 211}
{'lipoC2': 0.0, 'lipoC3S1': 3.91, 'temp': 26.56, 'lipoC3S3': 11.84, 'lipoC3S2': 7.83, 'rot1': 0, 'rot0': 0, 'rot3': 0, 'rot2': 0, 'state': 'normal', 'yaw': -0.46, 'datetime': '2018-10-03 17:46:46.252520', 'mgs': 0, 'volt': 1.0303, 'depth': 3.598, 'time': 4, 'pitch': -6.26, 'roll': -0.38, 'pres': 211}
{'lipoC2': 0.0, 'lipoC3S1': 3.91, 'temp': 26.56, 'lipoC3S3': 11.84, 'lipoC3S2': 7.83, 'rot1': 0, 'rot0': 0, 'rot3': 0, 'rot2': 0, 'state': 'normal', 'yaw': -0.46, 'datetime': '2018-10-03 17:46:46.262391', 'mgs': 0, 'volt': 1.0254, 'depth': 3.522, 'time': 4, 'pitch': -6.32, 'roll': -0.47, 'pres': 210}
{'lipoC2': 0.0, 'lipoC3S1': 3.91, 'temp': 26.63, 'lipoC3S3': 11.84, 'lipoC3S2': 7.83, 'rot1': 0, 'rot0': 0, 'rot3': 0, 'rot2': 0, 'state': 'normal', 'yaw': -0.43, 'datetime': '2018-10-03 17:46:46.272281', 'mgs': 0, 'volt': 1.0303, 'depth': 3.598, 'time': 5, 'pitch': -6.31, 'roll': -0.46, 'pres': 211}
{'lipoC2': 0.0, 'lipoC3S1': 3.91, 'temp': 26.63, 'lipoC3S3': 11.84, 'lipoC3S2': 7.83, 'rot1': 0, 'rot0': 0, 'rot3': 0, 'rot2': 0, 'state': 'normal', 'yaw': -0.39, 'datetime': '2018-10-03 17:46:46.282266', 'mgs': 0, 'volt': 1.0303, 'depth': 3.598, 'time': 5, 'pitch': -6.31, 'roll': -0.43, 'pres': 211}
{'lipoC2': 0.0, 'lipoC3S1': 3.91, 'temp': 26.63, 'lipoC3S3': 11.84, 'lipoC3S2': 7.83, 'rot1': 0, 'rot0': 0, 'rot3': 0, 'rot2': 0, 'state': 'normal', 'yaw': -0.34, 'datetime': '2018-10-03 17:46:46.292253', 'mgs': 0, 'volt': 1.0303, 'depth': 3.598, 'time': 5, 'pitch': -6.3, 'roll': -0.4, 'pres': 211}
{'lipoC2': 0.0, 'lipoC3S1': 3.91, 'temp': 26.5, 'lipoC3S3': 11.84, 'lipoC3S2': 7.83, 'rot1': 0, 'rot0': 0, 'rot3': 0, 'rot2': 0, 'state': 'normal', 'yaw': -0.34, 'datetime': '2018-10-03 17:46:46.302170', 'mgs': 0, 'volt': 1.0303, 'depth': 3.598, 'time': 5, 'pitch': -6.29, 'roll': -0.35, 'pres': 211}
{'lipoC2': 0.0, 'lipoC3S1': 3.91, 'temp': 26.5, 'lipoC3S3': 11.84, 'lipoC3S2': 7.83, 'rot1': 0, 'rot0': 0, 'rot3': 0, 'rot2': 0, 'state': 'normal', 'yaw': -0.35, 'datetime': '2018-10-03 17:46:46.312208', 'mgs': 0, 'volt': 1.0303, 'depth': 3.598, 'time': 5, 'pitch': -6.27, 'roll': -0.34, 'pres': 211}
{'lipoC2': 0.0, 'lipoC3S1': 3.91, 'temp': 26.56, 'lipoC3S3': 11.84, 'lipoC3S2': 7.83, 'rot1': 0, 'rot0': 0, 'rot3': 0, 'rot2': 0, 'state': 'normal', 'yaw': -0.35, 'datetime': '2018-10-03 17:46:46.322120', 'mgs': 0, 'volt': 1.0303, 'depth': 3.598, 'time': 5, 'pitch': -6.26, 'roll': -0.43, 'pres': 211}
{'lipoC2': 0.0, 'lipoC3S1': 3.91, 'temp': 26.56, 'lipoC3S3': 11.84, 'lipoC3S2': 7.83, 'rot1': 0, 'rot0': 0, 'rot3': 0, 'rot2': 0, 'state': 'normal', 'yaw': -0.34, 'datetime': '2018-10-03 17:46:46.332007', 'mgs': 0, 'volt': 1.0303, 'depth': 3.598, 'time': 5, 'pitch': -6.31, 'roll': -0.55, 'pres': 211}
{'lipoC2': 0.0, 'lipoC3S1': 3.91, 'temp': 26.56, 'lipoC3S3': 11.84, 'lipoC3S2': 7.83, 'rot1': 0, 'rot0': 0, 'rot3': 0, 'rot2': 0, 'state': 'normal', 'yaw': -0.34, 'datetime': '2018-10-03 17:46:46.341851', 'mgs': 0, 'volt': 1.0303, 'depth': 3.598, 'time': 5, 'pitch': -6.4, 'roll': -0.7, 'pres': 211}
{'lipoC2': 0.0, 'lipoC3S1': 3.91, 'temp': 26.56, 'lipoC3S3': 11.84, 'lipoC3S2': 7.83, 'rot1': 0, 'rot0': 0, 'rot3': 0, 'rot2': 0, 'state': 'normal', 'yaw': -0.34, 'datetime': '2018-10-03 17:46:46.351570', 'mgs': 0, 'volt': 1.0303, 'depth': 3.598, 'time': 5, 'pitch': -6.41, 'roll': -0.72, 'pres': 211}
{'lipoC2': 0.0, 'lipoC3S1': 3.91, 'temp': 26.56, 'lipoC3S3': 11.84, 'lipoC3S2': 7.83, 'rot1': 0, 'rot0': 0, 'rot3': 0, 'rot2': 0, 'state': 'normal', 'yaw': -0.34, 'datetime': '2018-10-03 17:46:46.360905', 'mgs': 0, 'volt': 1.0303, 'depth': 3.598, 'time': 6, 'pitch': -6.41, 'roll': -0.66, 'pres': 211}
{'lipoC2': 0.0, 'lipoC3S1': 3.91, 'temp': 26.56, 'lipoC3S3': 11.84, 'lipoC3S2': 7.83, 'rot1': 0, 'rot0': 0, 'rot3': 0, 'rot2': 0, 'state': 'normal', 'yaw': -0.34, 'datetime': '2018-10-03 17:46:46.370281', 'mgs': 0, 'volt': 1.0303, 'depth': 3.598, 'time': 6, 'pitch': -6.41, 'roll': -0.56, 'pres': 211}
{'lipoC2': 0.0, 'lipoC3S1': 3.91, 'temp': 26.56, 'lipoC3S3': 11.84, 'lipoC3S2': 7.83, 'rot1': 0, 'rot0': 0, 'rot3': 0, 'rot2': 0, 'state': 'normal', 'yaw': -0.34, 'datetime': '2018-10-03 17:46:46.379679', 'mgs': 0, 'volt': 1.0303, 'depth': 3.598, 'time': 6, 'pitch': -6.41, 'roll': -0.45, 'pres': 211}
{'lipoC2': 0.0, 'lipoC3S1': 3.91, 'temp': 26.56, 'lipoC3S3': 11.84, 'lipoC3S2': 7.83, 'rot1': 0, 'rot0': 0, 'rot3': 0, 'rot2': 0, 'state': 'normal', 'yaw': -0.34, 'datetime': '2018-10-03 17:46:46.389110', 'mgs': 0, 'volt': 1.0303, 'depth': 3.598, 'time': 6, 'pitch': -6.41, 'roll': -0.31, 'pres': 211}
{'lipoC2': 0.0, 'lipoC3S1': 3.91, 'temp': 26.56, 'lipoC3S3': 11.84, 'lipoC3S2': 7.83, 'rot1': 0, 'rot0': 0, 'rot3': 0, 'rot2': 0, 'state': 'normal', 'yaw': -0.35, 'datetime': '2018-10-03 17:46:46.398456', 'mgs': 0, 'volt': 1.0303, 'depth': 3.598, 'time': 6, 'pitch': -6.4, 'roll': -0.16, 'pres': 211}
{'lipoC2': 0.0, 'lipoC3S1': 3.91, 'temp': 26.56, 'lipoC3S3': 11.84, 'lipoC3S2': 7.83, 'rot1': 0, 'rot0': 0, 'rot3': 0, 'rot2': 0, 'state': 'normal', 'yaw': -0.36, 'datetime': '2018-10-03 17:46:46.407797', 'mgs': 0, 'volt': 1.0303, 'depth': 3.598, 'time': 6, 'pitch': -6.43, 'roll': -0.04, 'pres': 211}
{'lipoC2': 0.0, 'lipoC3S1': 3.91, 'temp': 26.56, 'lipoC3S3': 11.84, 'lipoC3S2': 7.83, 'rot1': 0, 'rot0': 0, 'rot3': 0, 'rot2': 0, 'state': 'normal', 'yaw': -0.37, 'datetime': '2018-10-03 17:46:46.417154', 'mgs': 0, 'volt': 1.0303, 'depth': 3.598, 'time': 6, 'pitch': -6.52, 'roll': 0.05, 'pres': 211}
{'lipoC2': 0.0, 'lipoC3S1': 3.91, 'temp': 26.56, 'lipoC3S3': 11.84, 'lipoC3S2': 7.83, 'rot1': 0, 'rot0': 0, 'rot3': 0, 'rot2': 0, 'state': 'normal', 'yaw': -0.37, 'datetime': '2018-10-03 17:46:46.426489', 'mgs': 0, 'volt': 1.0303, 'depth': 3.598, 'time': 6, 'pitch': -6.62, 'roll': 0.13, 'pres': 211}
