{'lipoC2': 7.41, 'lipoC3S1': 3.92, 'temp': 26.75, 'lipoC3S3': 11.84, 'lipoC3S2': 7.84, 'rot1': 81, 'rot0': 92, 'rot3': 209, 'rot2': 197, 'state': 'normal', 'yaw': -35.18, 'datetime': '2018-10-09 14:36:22.425958', 'mgs': 0, 'volt': 0.8838, 'depth': 1.309, 'time': 69, 'pitch': -1.65, 'roll': -2.78, 'pres': 181}
{'lipoC2': 7.41, 'lipoC3S1': 3.92, 'temp': 26.75, 'lipoC3S3': 11.84, 'lipoC3S2': 7.84, 'rot1': 81, 'rot0': 92, 'rot3': 209, 'rot2': 197, 'state': 'normal', 'yaw': -35.51, 'datetime': '2018-10-09 14:36:25.455795', 'mgs': 0, 'volt': 0.8838, 'depth': 1.309, 'time': 69, 'pitch': -1.31, 'roll': -3.02, 'pres': 181}
{'lipoC2': 7.41, 'lipoC3S1': 3.92, 'temp': 26.81, 'lipoC3S3': 11.84, 'lipoC3S2': 7.83, 'rot1': 81, 'rot0': 92, 'rot3': 209, 'rot2': 197, 'state': 'normal', 'yaw': -35.72, 'datetime': '2018-10-09 14:36:28.500258', 'mgs': 0, 'volt': 0.8887, 'depth': 1.385, 'time': 69, 'pitch': -0.67, 'roll': -3.37, 'pres': 182}
{'lipoC2': 7.41, 'lipoC3S1': 3.92, 'temp': 26.81, 'lipoC3S3': 11.84, 'lipoC3S2': 7.83, 'rot1': 81, 'rot0': 92, 'rot3': 209, 'rot2': 197, 'state': 'normal', 'yaw': -35.57, 'datetime': '2018-10-09 14:36:28.531602', 'mgs': 0, 'volt': 0.8838, 'depth': 1.309, 'time': 69, 'pitch': -0.15, 'roll': -3.91, 'pres': 181}
{'lipoC2': 7.41, 'lipoC3S1': 3.92, 'temp': 26.81, 'lipoC3S3': 11.84, 'lipoC3S2': 7.84, 'rot1': 81, 'rot0': 92, 'rot3': 209, 'rot2': 197, 'state': 'normal', 'yaw': -34.9, 'datetime': '2018-10-09 14:36:28.562525', 'mgs': 0, 'volt': 0.8789, 'depth': 1.233, 'time': 69, 'pitch': -0.84, 'roll': -4.61, 'pres': 180}
{'lipoC2': 7.41, 'lipoC3S1': 3.92, 'temp': 26.81, 'lipoC3S3': 11.84, 'lipoC3S2': 7.84, 'rot1': 81, 'rot0': 92, 'rot3': 209, 'rot2': 197, 'state': 'normal', 'yaw': -33.54, 'datetime': '2018-10-09 14:36:28.593651', 'mgs': 0, 'volt': 0.8789, 'depth': 1.233, 'time': 69, 'pitch': -2.66, 'roll': -5.4, 'pres': 180}
{'lipoC2': 7.41, 'lipoC3S1': 3.92, 'temp': 26.81, 'lipoC3S3': 11.84, 'lipoC3S2': 7.83, 'rot1': 81, 'rot0': 92, 'rot3': 209, 'rot2': 197, 'state': 'normal', 'yaw': -32.02, 'datetime': '2018-10-09 14:36:28.612387', 'mgs': 0, 'volt': 0.874, 'depth': 1.157, 'time': 70, 'pitch': -4.77, 'roll': -5.93, 'pres': 179}
{'lipoC2': 7.41, 'lipoC3S1': 3.92, 'temp': 26.88, 'lipoC3S3': 11.84, 'lipoC3S2': 7.84, 'rot1': 81, 'rot0': 92, 'rot3': 209, 'rot2': 197, 'state': 'normal', 'yaw': -30.68, 'datetime': '2018-10-09 14:36:28.628578', 'mgs': 0, 'volt': 0.874, 'depth': 1.157, 'time': 70, 'pitch': -6.76, 'roll': -6.12, 'pres': 179}
{'lipoC2': 7.41, 'lipoC3S1': 3.92, 'temp': 26.88, 'lipoC3S3': 11.84, 'lipoC3S2': 7.84, 'rot1': 81, 'rot0': 92, 'rot3': 209, 'rot2': 197, 'state': 'normal', 'yaw': -29.34, 'datetime': '2018-10-09 14:36:28.644735', 'mgs': 0, 'volt': 0.8691, 'depth': 1.08, 'time': 70, 'pitch': -7.79, 'roll': -5.98, 'pres': 178}
{'lipoC2': 7.41, 'lipoC3S1': 3.92, 'temp': 26.88, 'lipoC3S3': 11.84, 'lipoC3S2': 7.83, 'rot1': 81, 'rot0': 92, 'rot3': 209, 'rot2': 197, 'state': 'normal', 'yaw': -28.3, 'datetime': '2018-10-09 14:36:28.660907', 'mgs': 0, 'volt': 0.8643, 'depth': 1.004, 'time': 70, 'pitch': -7.54, 'roll': -5.62, 'pres': 177}
{'lipoC2': 7.41, 'lipoC3S1': 3.92, 'temp': 26.88, 'lipoC3S3': 11.84, 'lipoC3S2': 7.83, 'rot1': 81, 'rot0': 92, 'rot3': 209, 'rot2': 197, 'state': 'normal', 'yaw': -27.31, 'datetime': '2018-10-09 14:36:28.677093', 'mgs': 0, 'volt': 0.8643, 'depth': 1.004, 'time': 70, 'pitch': -6.63, 'roll': -5.01, 'pres': 177}
{'lipoC2': 7.41, 'lipoC3S1': 3.92, 'temp': 26.88, 'lipoC3S3': 11.84, 'lipoC3S2': 7.83, 'rot1': 81, 'rot0': 92, 'rot3': 209, 'rot2': 197, 'state': 'normal', 'yaw': -26.44, 'datetime': '2018-10-09 14:36:28.693307', 'mgs': 0, 'volt': 0.8643, 'depth': 1.004, 'time': 70, 'pitch': -5.64, 'roll': -4.4, 'pres': 177}
{'lipoC2': 7.41, 'lipoC3S1': 3.92, 'temp': 26.88, 'lipoC3S3': 11.84, 'lipoC3S2': 7.83, 'rot1': 81, 'rot0': 92, 'rot3': 209, 'rot2': 197, 'state': 'normal', 'yaw': -25.6, 'datetime': '2018-10-09 14:36:28.709450', 'mgs': 0, 'volt': 0.8643, 'depth': 1.004, 'time': 70, 'pitch': -4.46, 'roll': -3.83, 'pres': 177}
{'lipoC2': 7.41, 'lipoC3S1': 3.92, 'temp': 26.88, 'lipoC3S3': 11.84, 'lipoC3S2': 7.83, 'rot1': 81, 'rot0': 92, 'rot3': 209, 'rot2': 197, 'state': 'normal', 'yaw': -24.85, 'datetime': '2018-10-09 14:36:28.725632', 'mgs': 0, 'volt': 0.8643, 'depth': 1.004, 'time': 70, 'pitch': -3.2, 'roll': -3.17, 'pres': 177}
{'lipoC2': 7.41, 'lipoC3S1': 3.92, 'temp': 26.81, 'lipoC3S3': 11.84, 'lipoC3S2': 7.83, 'rot1': 81, 'rot0': 92, 'rot3': 209, 'rot2': 197, 'state': 'normal', 'yaw': -24.23, 'datetime': '2018-10-09 14:36:28.741956', 'mgs': 0, 'volt': 0.8594, 'depth': 0.928, 'time': 70, 'pitch': -2.62, 'roll': -2.65, 'pres': 176}
{'lipoC2': 7.41, 'lipoC3S1': 3.92, 'temp': 26.81, 'lipoC3S3': 11.84, 'lipoC3S2': 7.83, 'rot1': 81, 'rot0': 92, 'rot3': 209, 'rot2': 197, 'state': 'normal', 'yaw': -23.62, 'datetime': '2018-10-09 14:36:28.758077', 'mgs': 0, 'volt': 0.8545, 'depth': 0.851, 'time': 71, 'pitch': -2.65, 'roll': -2.26, 'pres': 175}
{'lipoC2': 7.41, 'lipoC3S1': 3.92, 'temp': 26.81, 'lipoC3S3': 11.84, 'lipoC3S2': 7.83, 'rot1': 81, 'rot0': 92, 'rot3': 209, 'rot2': 197, 'state': 'normal', 'yaw': -22.97, 'datetime': '2018-10-09 14:36:28.774254', 'mgs': 0, 'volt': 0.8545, 'depth': 0.851, 'time': 71, 'pitch': -2.75, 'roll': -1.94, 'pres': 175}
{'lipoC2': 7.41, 'lipoC3S1': 3.92, 'temp': 26.81, 'lipoC3S3': 11.84, 'lipoC3S2': 7.83, 'rot1': 81, 'rot0': 92, 'rot3': 209, 'rot2': 197, 'state': 'normal', 'yaw': -22.58, 'datetime': '2018-10-09 14:36:28.790448', 'mgs': 0, 'volt': 0.8545, 'depth': 0.851, 'time': 71, 'pitch': -2.38, 'roll': -1.61, 'pres': 175}
{'lipoC2': 7.41, 'lipoC3S1': 3.92, 'temp': 26.81, 'lipoC3S3': 11.84, 'lipoC3S2': 7.83, 'rot1': 81, 'rot0': 92, 'rot3': 209, 'rot2': 197, 'state': 'normal', 'yaw': -22.38, 'datetime': '2018-10-09 14:36:28.806624', 'mgs': 0, 'volt': 0.8447, 'depth': 0.699, 'time': 71, 'pitch': -1.81, 'roll': -1.18, 'pres': 173}
{'lipoC2': 7.41, 'lipoC3S1': 3.92, 'temp': 26.81, 'lipoC3S3': 11.84, 'lipoC3S2': 7.83, 'rot1': 81, 'rot0': 92, 'rot3': 209, 'rot2': 197, 'state': 'normal', 'yaw': -22.08, 'datetime': '2018-10-09 14:36:28.822783', 'mgs': 0, 'volt': 0.8398, 'depth': 0.623, 'time': 71, 'pitch': -1.89, 'roll': -1.11, 'pres': 172}
{'lipoC2': 7.41, 'lipoC3S1': 3.92, 'temp': 26.81, 'lipoC3S3': 11.84, 'lipoC3S2': 7.83, 'rot1': 81, 'rot0': 92, 'rot3': 209, 'rot2': 197, 'state': 'normal', 'yaw': -21.59, 'datetime': '2018-10-09 14:36:28.838980', 'mgs': 0, 'volt': 0.8398, 'depth': 0.623, 'time': 71, 'pitch': -2.43, 'roll': -1.46, 'pres': 172}
{'lipoC2': 7.41, 'lipoC3S1': 3.92, 'temp': 26.81, 'lipoC3S3': 11.84, 'lipoC3S2': 7.83, 'rot1': 81, 'rot0': 92, 'rot3': 209, 'rot2': 197, 'state': 'normal', 'yaw': -20.97, 'datetime': '2018-10-09 14:36:28.855119', 'mgs': 0, 'volt': 0.835, 'depth': 0.546, 'time': 71, 'pitch': -2.94, 'roll': -2.16, 'pres': 171}
{'lipoC2': 7.41, 'lipoC3S1': 3.92, 'temp': 26.81, 'lipoC3S3': 11.84, 'lipoC3S2': 7.83, 'rot1': 81, 'rot0': 92, 'rot3': 209, 'rot2': 197, 'state': 'normal', 'yaw': -20.61, 'datetime': '2018-10-09 14:36:28.871291', 'mgs': 0, 'volt': 0.8301, 'depth': 0.47, 'time': 71, 'pitch': -3.09, 'roll': -2.79, 'pres': 170}
{'lipoC2': 7.41, 'lipoC3S1': 3.92, 'temp': 26.81, 'lipoC3S3': 11.84, 'lipoC3S2': 7.83, 'rot1': 81, 'rot0': 92, 'rot3': 209, 'rot2': 197, 'state': 'normal', 'yaw': -20.53, 'datetime': '2018-10-09 14:36:28.887437', 'mgs': 0, 'volt': 0.8301, 'depth': 0.47, 'time': 71, 'pitch': -2.68, 'roll': -3.27, 'pres': 170}
{'lipoC2': 7.41, 'lipoC3S1': 3.92, 'temp': 26.81, 'lipoC3S3': 11.84, 'lipoC3S2': 7.83, 'rot1': 81, 'rot0': 92, 'rot3': 209, 'rot2': 197, 'state': 'normal', 'yaw': -20.78, 'datetime': '2018-10-09 14:36:28.903589', 'mgs': 0, 'volt': 0.8252, 'depth': 0.394, 'time': 71, 'pitch': -2.06, 'roll': -3.42, 'pres': 169}
{'lipoC2': 7.41, 'lipoC3S1': 3.92, 'temp': 26.81, 'lipoC3S3': 11.84, 'lipoC3S2': 7.83, 'rot1': 81, 'rot0': 92, 'rot3': 209, 'rot2': 197, 'state': 'normal', 'yaw': -21.36, 'datetime': '2018-10-09 14:36:28.919701', 'mgs': 0, 'volt': 0.8252, 'depth': 0.394, 'time': 72, 'pitch': -1.59, 'roll': -3.35, 'pres': 169}
{'lipoC2': 7.41, 'lipoC3S1': 3.92, 'temp': 26.81, 'lipoC3S3': 11.84, 'lipoC3S2': 7.83, 'rot1': 81, 'rot0': 92, 'rot3': 209, 'rot2': 197, 'state': 'normal', 'yaw': -21.92, 'datetime': '2018-10-09 14:36:28.935810', 'mgs': 0, 'volt': 0.8252, 'depth': 0.394, 'time': 72, 'pitch': -1.54, 'roll': -3.37, 'pres': 169}
{'lipoC2': 7.41, 'lipoC3S1': 3.92, 'temp': 26.81, 'lipoC3S3': 11.84, 'lipoC3S2': 7.83, 'rot1': 81, 'rot0': 92, 'rot3': 209, 'rot2': 197, 'state': 'normal', 'yaw': -22.26, 'datetime': '2018-10-09 14:36:28.952162', 'mgs': 0, 'volt': 0.8252, 'depth': 0.394, 'time': 72, 'pitch': -1.8, 'roll': -3.67, 'pres': 169}
{'lipoC2': 7.41, 'lipoC3S1': 3.92, 'temp': 26.81, 'lipoC3S3': 11.84, 'lipoC3S2': 7.83, 'rot1': 81, 'rot0': 92, 'rot3': 209, 'rot2': 197, 'state': 'normal', 'yaw': -22.65, 'datetime': '2018-10-09 14:36:28.968334', 'mgs': 0, 'volt': 0.8203, 'depth': 0.317, 'time': 72, 'pitch': -1.81, 'roll': -3.98, 'pres': 168}
{'lipoC2': 7.41, 'lipoC3S1': 3.92, 'temp': 26.81, 'lipoC3S3': 11.84, 'lipoC3S2': 7.83, 'rot1': 81, 'rot0': 92, 'rot3': 209, 'rot2': 197, 'state': 'normal', 'yaw': -23.43, 'datetime': '2018-10-09 14:36:28.984522', 'mgs': 0, 'volt': 0.8252, 'depth': 0.394, 'time': 72, 'pitch': -1.36, 'roll': -3.99, 'pres': 169}
{'lipoC2': 7.41, 'lipoC3S1': 3.92, 'temp': 26.81, 'lipoC3S3': 11.84, 'lipoC3S2': 7.83, 'rot1': 81, 'rot0': 92, 'rot3': 209, 'rot2': 197, 'state': 'normal', 'yaw': -24.32, 'datetime': '2018-10-09 14:36:29.000669', 'mgs': 0, 'volt': 0.8252, 'depth': 0.394, 'time': 72, 'pitch': -0.76, 'roll': -3.65, 'pres': 169}
{'lipoC2': 7.41, 'lipoC3S1': 3.92, 'temp': 26.81, 'lipoC3S3': 11.84, 'lipoC3S2': 7.83, 'rot1': 81, 'rot0': 92, 'rot3': 209, 'rot2': 197, 'state': 'normal', 'yaw': -25.27, 'datetime': '2018-10-09 14:36:29.016842', 'mgs': 0, 'volt': 0.8252, 'depth': 0.394, 'time': 72, 'pitch': -0.75, 'roll': -3.17, 'pres': 169}
{'lipoC2': 7.41, 'lipoC3S1': 3.92, 'temp': 26.81, 'lipoC3S3': 11.84, 'lipoC3S2': 7.83, 'rot1': 81, 'rot0': 92, 'rot3': 209, 'rot2': 197, 'state': 'normal', 'yaw': -25.79, 'datetime': '2018-10-09 14:36:29.033018', 'mgs': 0, 'volt': 0.8252, 'depth': 0.394, 'time': 72, 'pitch': -1.32, 'roll': -2.99, 'pres': 169}
{'lipoC2': 7.41, 'lipoC3S1': 3.92, 'temp': 26.81, 'lipoC3S3': 11.84, 'lipoC3S2': 7.83, 'rot1': 81, 'rot0': 92, 'rot3': 209, 'rot2': 197, 'state': 'normal', 'yaw': -26.25, 'datetime': '2018-10-09 14:36:29.049146', 'mgs': 0, 'volt': 0.8301, 'depth': 0.47, 'time': 72, 'pitch': -1.96, 'roll': -2.96, 'pres': 170}
{'lipoC2': 7.41, 'lipoC3S1': 3.92, 'temp': 26.81, 'lipoC3S3': 11.84, 'lipoC3S2': 7.83, 'rot1': 81, 'rot0': 92, 'rot3': 209, 'rot2': 197, 'state': 'normal', 'yaw': -26.45, 'datetime': '2018-10-09 14:36:29.065316', 'mgs': 0, 'volt': 0.8252, 'depth': 0.394, 'time': 73, 'pitch': -2.74, 'roll': -3.11, 'pres': 169}
{'lipoC2': 7.41, 'lipoC3S1': 3.92, 'temp': 26.81, 'lipoC3S3': 11.84, 'lipoC3S2': 7.83, 'rot1': 81, 'rot0': 92, 'rot3': 209, 'rot2': 197, 'state': 'normal', 'yaw': -26.49, 'datetime': '2018-10-09 14:36:29.081508', 'mgs': 0, 'volt': 0.8301, 'depth': 0.47, 'time': 73, 'pitch': -3.98, 'roll': -3.31, 'pres': 170}
{'lipoC2': 7.41, 'lipoC3S1': 3.92, 'temp': 26.81, 'lipoC3S3': 11.84, 'lipoC3S2': 7.83, 'rot1': 81, 'rot0': 92, 'rot3': 209, 'rot2': 197, 'state': 'normal', 'yaw': -26.07, 'datetime': '2018-10-09 14:36:29.097674', 'mgs': 0, 'volt': 0.8301, 'depth': 0.47, 'time': 73, 'pitch': -4.93, 'roll': -3.55, 'pres': 170}
{'lipoC2': 7.41, 'lipoC3S1': 3.92, 'temp': 26.88, 'lipoC3S3': 11.84, 'lipoC3S2': 7.83, 'rot1': 81, 'rot0': 92, 'rot3': 209, 'rot2': 197, 'state': 'normal', 'yaw': -25.77, 'datetime': '2018-10-09 14:36:29.113804', 'mgs': 0, 'volt': 0.8301, 'depth': 0.47, 'time': 73, 'pitch': -5.26, 'roll': -3.42, 'pres': 170}
{'lipoC2': 7.41, 'lipoC3S1': 3.92, 'temp': 26.88, 'lipoC3S3': 11.84, 'lipoC3S2': 7.83, 'rot1': 81, 'rot0': 92, 'rot3': 209, 'rot2': 197, 'state': 'normal', 'yaw': -25.72, 'datetime': '2018-10-09 14:36:29.129939', 'mgs': 0, 'volt': 0.835, 'depth': 0.546, 'time': 73, 'pitch': -5.4, 'roll': -2.89, 'pres': 171}
{'lipoC2': 7.41, 'lipoC3S1': 3.92, 'temp': 26.81, 'lipoC3S3': 11.84, 'lipoC3S2': 7.83, 'rot1': 81, 'rot0': 92, 'rot3': 209, 'rot2': 197, 'state': 'normal', 'yaw': -25.87, 'datetime': '2018-10-09 14:36:29.146155', 'mgs': 0, 'volt': 0.835, 'depth': 0.546, 'time': 73, 'pitch': -5.57, 'roll': -2.07, 'pres': 171}
{'lipoC2': 7.41, 'lipoC3S1': 3.92, 'temp': 26.81, 'lipoC3S3': 11.84, 'lipoC3S2': 7.83, 'rot1': 81, 'rot0': 92, 'rot3': 209, 'rot2': 197, 'state': 'normal', 'yaw': -26.2, 'datetime': '2018-10-09 14:36:29.162443', 'mgs': 0, 'volt': 0.8398, 'depth': 0.623, 'time': 73, 'pitch': -5.99, 'roll': -1.29, 'pres': 172}
{'lipoC2': 7.41, 'lipoC3S1': 3.92, 'temp': 26.81, 'lipoC3S3': 11.84, 'lipoC3S2': 7.83, 'rot1': 81, 'rot0': 92, 'rot3': 209, 'rot2': 197, 'state': 'normal', 'yaw': -26.42, 'datetime': '2018-10-09 14:36:29.178683', 'mgs': 0, 'volt': 0.8398, 'depth': 0.623, 'time': 73, 'pitch': -6.37, 'roll': -0.82, 'pres': 172}
{'lipoC2': 7.41, 'lipoC3S1': 3.92, 'temp': 26.81, 'lipoC3S3': 11.84, 'lipoC3S2': 7.83, 'rot1': 81, 'rot0': 92, 'rot3': 209, 'rot2': 197, 'state': 'normal', 'yaw': -26.46, 'datetime': '2018-10-09 14:36:29.194861', 'mgs': 0, 'volt': 0.8398, 'depth': 0.623, 'time': 73, 'pitch': -6.61, 'roll': -0.59, 'pres': 172}
{'lipoC2': 7.41, 'lipoC3S1': 3.92, 'temp': 26.81, 'lipoC3S3': 11.84, 'lipoC3S2': 7.83, 'rot1': 81, 'rot0': 92, 'rot3': 209, 'rot2': 197, 'state': 'normal', 'yaw': -26.35, 'datetime': '2018-10-09 14:36:29.211076', 'mgs': 0, 'volt': 0.8398, 'depth': 0.623, 'time': 73, 'pitch': -6.65, 'roll': -0.63, 'pres': 172}
{'lipoC2': 7.41, 'lipoC3S1': 3.92, 'temp': 26.81, 'lipoC3S3': 11.84, 'lipoC3S2': 7.83, 'rot1': 81, 'rot0': 92, 'rot3': 209, 'rot2': 197, 'state': 'normal', 'yaw': -26.28, 'datetime': '2018-10-09 14:36:29.227257', 'mgs': 0, 'volt': 0.8398, 'depth': 0.623, 'time': 74, 'pitch': -6.69, 'roll': -0.78, 'pres': 172}
{'lipoC2': 7.41, 'lipoC3S1': 3.92, 'temp': 26.81, 'lipoC3S3': 11.84, 'lipoC3S2': 7.83, 'rot1': 81, 'rot0': 92, 'rot3': 209, 'rot2': 197, 'state': 'normal', 'yaw': -26.3, 'datetime': '2018-10-09 14:36:29.243369', 'mgs': 0, 'volt': 0.8447, 'depth': 0.699, 'time': 74, 'pitch': -6.87, 'roll': -0.92, 'pres': 173}
{'lipoC2': 7.41, 'lipoC3S1': 3.92, 'temp': 26.81, 'lipoC3S3': 11.84, 'lipoC3S2': 7.83, 'rot1': 81, 'rot0': 92, 'rot3': 209, 'rot2': 197, 'state': 'normal', 'yaw': -26.41, 'datetime': '2018-10-09 14:36:29.259490', 'mgs': 0, 'volt': 0.8447, 'depth': 0.699, 'time': 74, 'pitch': -7.2, 'roll': -1.14, 'pres': 173}
{'lipoC2': 7.41, 'lipoC3S1': 3.92, 'temp': 26.81, 'lipoC3S3': 11.84, 'lipoC3S2': 7.83, 'rot1': 81, 'rot0': 92, 'rot3': 209, 'rot2': 197, 'state': 'normal', 'yaw': -26.54, 'datetime': '2018-10-09 14:36:29.275658', 'mgs': 0, 'volt': 0.8447, 'depth': 0.699, 'time': 74, 'pitch': -7.3, 'roll': -1.44, 'pres': 173}
{'lipoC2': 7.41, 'lipoC3S1': 3.92, 'temp': 26.81, 'lipoC3S3': 11.84, 'lipoC3S2': 7.83, 'rot1': 81, 'rot0': 92, 'rot3': 209, 'rot2': 197, 'state': 'normal', 'yaw': -26.71, 'datetime': '2018-10-09 14:36:29.291804', 'mgs': 0, 'volt': 0.8447, 'depth': 0.699, 'time': 74, 'pitch': -7.0, 'roll': -1.83, 'pres': 173}
{'lipoC2': 7.41, 'lipoC3S1': 3.92, 'temp': 26.81, 'lipoC3S3': 11.84, 'lipoC3S2': 7.83, 'rot1': 81, 'rot0': 92, 'rot3': 209, 'rot2': 197, 'state': 'normal', 'yaw': -26.95, 'datetime': '2018-10-09 14:36:29.307952', 'mgs': 0, 'volt': 0.8496, 'depth': 0.775, 'time': 74, 'pitch': -6.35, 'roll': -2.31, 'pres': 174}
{'lipoC2': 7.41, 'lipoC3S1': 3.92, 'temp': 26.81, 'lipoC3S3': 11.84, 'lipoC3S2': 7.83, 'rot1': 81, 'rot0': 92, 'rot3': 209, 'rot2': 197, 'state': 'normal', 'yaw': -27.26, 'datetime': '2018-10-09 14:36:29.324095', 'mgs': 0, 'volt': 0.8496, 'depth': 0.775, 'time': 74, 'pitch': -5.66, 'roll': -2.73, 'pres': 174}
{'lipoC2': 7.41, 'lipoC3S1': 3.92, 'temp': 26.81, 'lipoC3S3': 11.84, 'lipoC3S2': 7.83, 'rot1': 81, 'rot0': 92, 'rot3': 209, 'rot2': 197, 'state': 'normal', 'yaw': -27.63, 'datetime': '2018-10-09 14:36:29.340228', 'mgs': 0, 'volt': 0.8496, 'depth': 0.775, 'time': 74, 'pitch': -5.07, 'roll': -3.1, 'pres': 174}
{'lipoC2': 7.41, 'lipoC3S1': 3.92, 'temp': 26.81, 'lipoC3S3': 11.84, 'lipoC3S2': 7.83, 'rot1': 81, 'rot0': 92, 'rot3': 209, 'rot2': 197, 'state': 'normal', 'yaw': -28.02, 'datetime': '2018-10-09 14:36:29.356410', 'mgs': 0, 'volt': 0.8496, 'depth': 0.775, 'time': 74, 'pitch': -4.56, 'roll': -3.52, 'pres': 174}
{'lipoC2': 7.41, 'lipoC3S1': 3.92, 'temp': 26.81, 'lipoC3S3': 11.84, 'lipoC3S2': 7.83, 'rot1': 81, 'rot0': 92, 'rot3': 209, 'rot2': 197, 'state': 'normal', 'yaw': -28.4, 'datetime': '2018-10-09 14:36:29.372687', 'mgs': 0, 'volt': 0.8496, 'depth': 0.775, 'time': 74, 'pitch': -4.23, 'roll': -3.85, 'pres': 174}
{'lipoC2': 7.41, 'lipoC3S1': 3.92, 'temp': 26.81, 'lipoC3S3': 11.84, 'lipoC3S2': 7.83, 'rot1': 81, 'rot0': 92, 'rot3': 209, 'rot2': 197, 'state': 'normal', 'yaw': -28.83, 'datetime': '2018-10-09 14:36:29.388894', 'mgs': 0, 'volt': 0.8545, 'depth': 0.851, 'time': 75, 'pitch': -4.19, 'roll': -4.07, 'pres': 175}
{'lipoC2': 7.41, 'lipoC3S1': 3.92, 'temp': 26.81, 'lipoC3S3': 11.84, 'lipoC3S2': 7.83, 'rot1': 0, 'rot0': 0, 'rot3': 0, 'rot2': 0, 'state': 'normal', 'yaw': 0.0, 'datetime': '2018-10-09 14:36:29.404859', 'mgs': 0, 'volt': 0.8496, 'depth': 0.775, 'time': 1, 'pitch': -7.12, 'roll': -1.75, 'pres': 174}
{'lipoC2': 7.41, 'lipoC3S1': 3.92, 'temp': 26.81, 'lipoC3S3': 11.84, 'lipoC3S2': 7.83, 'rot1': 0, 'rot0': 0, 'rot3': 0, 'rot2': 0, 'state': 'normal', 'yaw': 0.19, 'datetime': '2018-10-09 14:36:29.420729', 'mgs': 0, 'volt': 0.8496, 'depth': 0.775, 'time': 1, 'pitch': -7.25, 'roll': -1.2, 'pres': 174}
{'lipoC2': 7.41, 'lipoC3S1': 3.92, 'temp': 26.88, 'lipoC3S3': 11.84, 'lipoC3S2': 7.83, 'rot1': 0, 'rot0': 0, 'rot3': 0, 'rot2': 0, 'state': 'normal', 'yaw': 0.33, 'datetime': '2018-10-09 14:36:29.436695', 'mgs': 0, 'volt': 0.8496, 'depth': 0.775, 'time': 1, 'pitch': -7.4, 'roll': -0.82, 'pres': 174}
{'lipoC2': 7.41, 'lipoC3S1': 3.92, 'temp': 26.88, 'lipoC3S3': 11.84, 'lipoC3S2': 7.84, 'rot1': 0, 'rot0': 0, 'rot3': 0, 'rot2': 0, 'state': 'normal', 'yaw': 0.4, 'datetime': '2018-10-09 14:36:29.452613', 'mgs': 0, 'volt': 0.8496, 'depth': 0.775, 'time': 1, 'pitch': -7.38, 'roll': -0.52, 'pres': 174}
{'lipoC2': 7.41, 'lipoC3S1': 3.92, 'temp': 26.88, 'lipoC3S3': 11.84, 'lipoC3S2': 7.84, 'rot1': 0, 'rot0': 0, 'rot3': 0, 'rot2': 0, 'state': 'normal', 'yaw': 0.33, 'datetime': '2018-10-09 14:36:29.468509', 'mgs': 0, 'volt': 0.8496, 'depth': 0.775, 'time': 1, 'pitch': -7.19, 'roll': -0.24, 'pres': 174}
{'lipoC2': 7.41, 'lipoC3S1': 3.92, 'temp': 26.88, 'lipoC3S3': 11.85, 'lipoC3S2': 7.84, 'rot1': 0, 'rot0': 0, 'rot3': 0, 'rot2': 0, 'state': 'normal', 'yaw': 0.11, 'datetime': '2018-10-09 14:36:29.484445', 'mgs': 0, 'volt': 0.8496, 'depth': 0.775, 'time': 1, 'pitch': -7.01, 'roll': -0.02, 'pres': 174}
{'lipoC2': 7.41, 'lipoC3S1': 3.92, 'temp': 26.88, 'lipoC3S3': 11.84, 'lipoC3S2': 7.84, 'rot1': 0, 'rot0': 0, 'rot3': 0, 'rot2': 0, 'state': 'normal', 'yaw': -0.15, 'datetime': '2018-10-09 14:36:29.500330', 'mgs': 0, 'volt': 0.8496, 'depth': 0.775, 'time': 1, 'pitch': -6.84, 'roll': 0.09, 'pres': 174}
{'lipoC2': 7.41, 'lipoC3S1': 3.92, 'temp': 26.81, 'lipoC3S3': 11.84, 'lipoC3S2': 7.83, 'rot1': 0, 'rot0': 0, 'rot3': 0, 'rot2': 0, 'state': 'normal', 'yaw': -0.39, 'datetime': '2018-10-09 14:36:29.516296', 'mgs': 0, 'volt': 0.8447, 'depth': 0.699, 'time': 1, 'pitch': -6.67, 'roll': 0.1, 'pres': 173}
{'lipoC2': 7.41, 'lipoC3S1': 3.92, 'temp': 26.81, 'lipoC3S3': 11.84, 'lipoC3S2': 7.83, 'rot1': 0, 'rot0': 0, 'rot3': 0, 'rot2': 0, 'state': 'normal', 'yaw': -0.59, 'datetime': '2018-10-09 14:36:29.532209', 'mgs': 0, 'volt': 0.8447, 'depth': 0.699, 'time': 2, 'pitch': -6.55, 'roll': -0.09, 'pres': 173}
{'lipoC2': 7.41, 'lipoC3S1': 3.92, 'temp': 26.75, 'lipoC3S3': 11.84, 'lipoC3S2': 7.83, 'rot1': 0, 'rot0': 0, 'rot3': 0, 'rot2': 0, 'state': 'normal', 'yaw': -0.67, 'datetime': '2018-10-09 14:36:29.548124', 'mgs': 0, 'volt': 0.8447, 'depth': 0.699, 'time': 2, 'pitch': -6.42, 'roll': -0.44, 'pres': 173}
{'lipoC2': 7.41, 'lipoC3S1': 3.92, 'temp': 26.75, 'lipoC3S3': 11.84, 'lipoC3S2': 7.83, 'rot1': 0, 'rot0': 0, 'rot3': 0, 'rot2': 0, 'state': 'normal', 'yaw': -0.68, 'datetime': '2018-10-09 14:36:29.564040', 'mgs': 0, 'volt': 0.8447, 'depth': 0.699, 'time': 2, 'pitch': -6.24, 'roll': -0.91, 'pres': 173}
{'lipoC2': 7.41, 'lipoC3S1': 3.92, 'temp': 26.75, 'lipoC3S3': 11.84, 'lipoC3S2': 7.83, 'rot1': 0, 'rot0': 0, 'rot3': 0, 'rot2': 0, 'state': 'normal', 'yaw': -0.74, 'datetime': '2018-10-09 14:36:29.579964', 'mgs': 0, 'volt': 0.8447, 'depth': 0.699, 'time': 2, 'pitch': -6.02, 'roll': -1.48, 'pres': 173}
{'lipoC2': 7.41, 'lipoC3S1': 3.92, 'temp': 26.81, 'lipoC3S3': 11.84, 'lipoC3S2': 7.84, 'rot1': 0, 'rot0': 0, 'rot3': 0, 'rot2': 0, 'state': 'normal', 'yaw': -0.89, 'datetime': '2018-10-09 14:36:29.595987', 'mgs': 0, 'volt': 0.8398, 'depth': 0.623, 'time': 2, 'pitch': -5.84, 'roll': -1.98, 'pres': 172}
{'lipoC2': 7.41, 'lipoC3S1': 3.92, 'temp': 26.81, 'lipoC3S3': 11.85, 'lipoC3S2': 7.84, 'rot1': 0, 'rot0': 0, 'rot3': 0, 'rot2': 0, 'state': 'normal', 'yaw': -1.06, 'datetime': '2018-10-09 14:36:29.611888', 'mgs': 0, 'volt': 0.8398, 'depth': 0.623, 'time': 2, 'pitch': -5.68, 'roll': -2.44, 'pres': 172}
{'lipoC2': 7.41, 'lipoC3S1': 3.92, 'temp': 26.81, 'lipoC3S3': 11.84, 'lipoC3S2': 7.84, 'rot1': 0, 'rot0': 0, 'rot3': 0, 'rot2': 0, 'state': 'normal', 'yaw': -1.23, 'datetime': '2018-10-09 14:36:29.627778', 'mgs': 0, 'volt': 0.8398, 'depth': 0.623, 'time': 2, 'pitch': -5.59, 'roll': -2.88, 'pres': 172}
{'lipoC2': 7.41, 'lipoC3S1': 3.92, 'temp': 26.81, 'lipoC3S3': 11.85, 'lipoC3S2': 7.84, 'rot1': 0, 'rot0': 0, 'rot3': 0, 'rot2': 0, 'state': 'normal', 'yaw': -1.28, 'datetime': '2018-10-09 14:36:29.643719', 'mgs': 0, 'volt': 0.8398, 'depth': 0.623, 'time': 2, 'pitch': -5.54, 'roll': -3.26, 'pres': 172}
{'lipoC2': 7.41, 'lipoC3S1': 3.92, 'temp': 26.88, 'lipoC3S3': 11.84, 'lipoC3S2': 7.84, 'rot1': 0, 'rot0': 0, 'rot3': 0, 'rot2': 0, 'state': 'normal', 'yaw': -1.1, 'datetime': '2018-10-09 14:36:29.659587', 'mgs': 0, 'volt': 0.835, 'depth': 0.546, 'time': 2, 'pitch': -5.38, 'roll': -3.7, 'pres': 171}
{'lipoC2': 7.4, 'lipoC3S1': 3.89, 'temp': 26.88, 'lipoC3S3': 11.64, 'lipoC3S2': 7.69, 'rot1': 0, 'rot0': 0, 'rot3': 0, 'rot2': 0, 'state': 'normal', 'yaw': -0.89, 'datetime': '2018-10-09 14:36:29.675514', 'mgs': 0, 'volt': 0.8496, 'depth': 0.775, 'time': 3, 'pitch': -5.18, 'roll': -4.01, 'pres': 174}
{'lipoC2': 7.41, 'lipoC3S1': 3.87, 'temp': 26.88, 'lipoC3S3': 11.76, 'lipoC3S2': 7.75, 'rot1': 0, 'rot0': 0, 'rot3': 1, 'rot2': 1, 'state': 'normal', 'yaw': -0.73, 'datetime': '2018-10-09 14:36:29.692134', 'mgs': 0, 'volt': 0.8301, 'depth': 0.47, 'time': 3, 'pitch': -4.86, 'roll': -4.09, 'pres': 170}
{'lipoC2': 7.41, 'lipoC3S1': 3.87, 'temp': 26.81, 'lipoC3S3': 11.75, 'lipoC3S2': 7.76, 'rot1': 0, 'rot0': 0, 'rot3': 2, 'rot2': 2, 'state': 'normal', 'yaw': -0.75, 'datetime': '2018-10-09 14:36:29.708062', 'mgs': 0, 'volt': 0.8301, 'depth': 0.47, 'time': 3, 'pitch': -4.17, 'roll': -3.82, 'pres': 170}
{'lipoC2': 7.41, 'lipoC3S1': 3.88, 'temp': 26.81, 'lipoC3S3': 11.77, 'lipoC3S2': 7.76, 'rot1': 0, 'rot0': 0, 'rot3': 2, 'rot2': 3, 'state': 'normal', 'yaw': -0.82, 'datetime': '2018-10-09 14:36:29.724088', 'mgs': 0, 'volt': 0.8447, 'depth': 0.699, 'time': 3, 'pitch': -3.11, 'roll': -3.35, 'pres': 173}
{'lipoC2': 7.41, 'lipoC3S1': 3.89, 'temp': 26.75, 'lipoC3S3': 11.79, 'lipoC3S2': 7.79, 'rot1': 0, 'rot0': 0, 'rot3': 3, 'rot2': 3, 'state': 'normal', 'yaw': -0.87, 'datetime': '2018-10-09 14:36:29.739970', 'mgs': 0, 'volt': 0.8398, 'depth': 0.623, 'time': 3, 'pitch': -2.12, 'roll': -2.81, 'pres': 172}
{'lipoC2': 7.41, 'lipoC3S1': 3.9, 'temp': 26.75, 'lipoC3S3': 11.73, 'lipoC3S2': 7.75, 'rot1': 0, 'rot0': 0, 'rot3': 4, 'rot2': 4, 'state': 'normal', 'yaw': -0.87, 'datetime': '2018-10-09 14:36:29.755845', 'mgs': 0, 'volt': 0.8301, 'depth': 0.47, 'time': 3, 'pitch': -1.38, 'roll': -2.15, 'pres': 170}
{'lipoC2': 7.41, 'lipoC3S1': 3.88, 'temp': 26.81, 'lipoC3S3': 11.76, 'lipoC3S2': 7.76, 'rot1': 0, 'rot0': 0, 'rot3': 5, 'rot2': 5, 'state': 'normal', 'yaw': -0.69, 'datetime': '2018-10-09 14:36:29.771694', 'mgs': 0, 'volt': 0.8203, 'depth': 0.317, 'time': 3, 'pitch': -0.89, 'roll': -1.62, 'pres': 168}
{'lipoC2': 7.41, 'lipoC3S1': 3.89, 'temp': 26.81, 'lipoC3S3': 11.79, 'lipoC3S2': 7.78, 'rot1': 0, 'rot0': 0, 'rot3': 6, 'rot2': 6, 'state': 'normal', 'yaw': -0.51, 'datetime': '2018-10-09 14:36:29.787595', 'mgs': 0, 'volt': 0.835, 'depth': 0.546, 'time': 3, 'pitch': -0.5, 'roll': -1.48, 'pres': 171}
{'lipoC2': 7.41, 'lipoC3S1': 3.88, 'temp': 26.81, 'lipoC3S3': 11.76, 'lipoC3S2': 7.77, 'rot1': 0, 'rot0': 0, 'rot3': 8, 'rot2': 7, 'state': 'normal', 'yaw': -0.38, 'datetime': '2018-10-09 14:36:29.803570', 'mgs': 0, 'volt': 0.8203, 'depth': 0.317, 'time': 3, 'pitch': -0.0, 'roll': -1.51, 'pres': 168}
{'lipoC2': 7.41, 'lipoC3S1': 3.9, 'temp': 26.81, 'lipoC3S3': 11.79, 'lipoC3S2': 7.79, 'rot1': 0, 'rot0': 0, 'rot3': 9, 'rot2': 8, 'state': 'normal', 'yaw': -0.23, 'datetime': '2018-10-09 14:36:29.819535', 'mgs': 0, 'volt': 0.8252, 'depth': 0.394, 'time': 3, 'pitch': 0.64, 'roll': -1.68, 'pres': 169}
{'lipoC2': 7.4, 'lipoC3S1': 3.9, 'temp': 26.81, 'lipoC3S3': 11.75, 'lipoC3S2': 7.8, 'rot1': 0, 'rot0': 0, 'rot3': 10, 'rot2': 9, 'state': 'normal', 'yaw': -0.18, 'datetime': '2018-10-09 14:36:29.835773', 'mgs': 0, 'volt': 0.8252, 'depth': 0.394, 'time': 4, 'pitch': 1.21, 'roll': -1.84, 'pres': 169}
{'lipoC2': 7.41, 'lipoC3S1': 3.89, 'temp': 26.81, 'lipoC3S3': 11.79, 'lipoC3S2': 7.78, 'rot1': 0, 'rot0': 0, 'rot3': 11, 'rot2': 10, 'state': 'normal', 'yaw': -0.2, 'datetime': '2018-10-09 14:36:29.851761', 'mgs': 0, 'volt': 0.8301, 'depth': 0.47, 'time': 4, 'pitch': 1.58, 'roll': -2.0, 'pres': 170}
{'lipoC2': 7.41, 'lipoC3S1': 3.88, 'temp': 26.81, 'lipoC3S3': 11.77, 'lipoC3S2': 7.77, 'rot1': 0, 'rot0': 0, 'rot3': 12, 'rot2': 11, 'state': 'normal', 'yaw': -0.25, 'datetime': '2018-10-09 14:36:29.867711', 'mgs': 0, 'volt': 0.8154, 'depth': 0.241, 'time': 4, 'pitch': 1.84, 'roll': -2.18, 'pres': 167}
{'lipoC2': 7.41, 'lipoC3S1': 3.91, 'temp': 26.81, 'lipoC3S3': 11.75, 'lipoC3S2': 7.79, 'rot1': 0, 'rot0': 0, 'rot3': 13, 'rot2': 12, 'state': 'normal', 'yaw': -0.36, 'datetime': '2018-10-09 14:36:29.883701', 'mgs': 0, 'volt': 0.8301, 'depth': 0.47, 'time': 4, 'pitch': 2.05, 'roll': -2.32, 'pres': 170}
{'lipoC2': 7.41, 'lipoC3S1': 3.88, 'temp': 26.81, 'lipoC3S3': 11.76, 'lipoC3S2': 7.77, 'rot1': 0, 'rot0': 0, 'rot3': 15, 'rot2': 13, 'state': 'normal', 'yaw': -0.49, 'datetime': '2018-10-09 14:36:29.899653', 'mgs': 0, 'volt': 0.8203, 'depth': 0.317, 'time': 4, 'pitch': 2.29, 'roll': -2.45, 'pres': 168}
{'lipoC2': 7.41, 'lipoC3S1': 3.9, 'temp': 26.81, 'lipoC3S3': 11.75, 'lipoC3S2': 7.78, 'rot1': 0, 'rot0': 0, 'rot3': 16, 'rot2': 14, 'state': 'normal', 'yaw': -0.65, 'datetime': '2018-10-09 14:36:29.915940', 'mgs': 0, 'volt': 0.8252, 'depth': 0.394, 'time': 4, 'pitch': 2.66, 'roll': -2.55, 'pres': 169}
{'lipoC2': 7.41, 'lipoC3S1': 3.89, 'temp': 26.75, 'lipoC3S3': 11.76, 'lipoC3S2': 7.8, 'rot1': 0, 'rot0': 0, 'rot3': 17, 'rot2': 15, 'state': 'normal', 'yaw': -0.8, 'datetime': '2018-10-09 14:36:29.931944', 'mgs': 0, 'volt': 0.8301, 'depth': 0.47, 'time': 4, 'pitch': 3.14, 'roll': -2.61, 'pres': 170}
{'lipoC2': 7.41, 'lipoC3S1': 3.9, 'temp': 26.75, 'lipoC3S3': 11.79, 'lipoC3S2': 7.8, 'rot1': 0, 'rot0': 0, 'rot3': 18, 'rot2': 15, 'state': 'normal', 'yaw': -0.96, 'datetime': '2018-10-09 14:36:29.947883', 'mgs': 0, 'volt': 0.835, 'depth': 0.546, 'time': 4, 'pitch': 3.7, 'roll': -2.7, 'pres': 171}
{'lipoC2': 7.41, 'lipoC3S1': 3.89, 'temp': 26.81, 'lipoC3S3': 11.79, 'lipoC3S2': 7.79, 'rot1': 0, 'rot0': 0, 'rot3': 19, 'rot2': 16, 'state': 'normal', 'yaw': -1.15, 'datetime': '2018-10-09 14:36:29.963837', 'mgs': 0, 'volt': 0.835, 'depth': 0.546, 'time': 4, 'pitch': 4.29, 'roll': -2.83, 'pres': 171}
{'lipoC2': 7.41, 'lipoC3S1': 3.89, 'temp': 26.81, 'lipoC3S3': 11.79, 'lipoC3S2': 7.78, 'rot1': 0, 'rot0': 0, 'rot3': 20, 'rot2': 17, 'state': 'normal', 'yaw': -1.32, 'datetime': '2018-10-09 14:36:29.979780', 'mgs': 0, 'volt': 0.835, 'depth': 0.546, 'time': 4, 'pitch': 4.69, 'roll': -2.87, 'pres': 171}
{'lipoC2': 7.41, 'lipoC3S1': 3.92, 'temp': 26.81, 'lipoC3S3': 11.75, 'lipoC3S2': 7.78, 'rot1': 0, 'rot0': 0, 'rot3': 22, 'rot2': 18, 'state': 'normal', 'yaw': -1.48, 'datetime': '2018-10-09 14:36:29.995742', 'mgs': 0, 'volt': 0.8252, 'depth': 0.394, 'time': 5, 'pitch': 4.88, 'roll': -2.82, 'pres': 169}
{'lipoC2': 7.4, 'lipoC3S1': 3.9, 'temp': 26.81, 'lipoC3S3': 11.75, 'lipoC3S2': 7.76, 'rot1': 0, 'rot0': 0, 'rot3': 23, 'rot2': 19, 'state': 'normal', 'yaw': -1.65, 'datetime': '2018-10-09 14:36:30.011677', 'mgs': 0, 'volt': 0.8301, 'depth': 0.47, 'time': 5, 'pitch': 4.89, 'roll': -2.68, 'pres': 170}
{'lipoC2': 7.41, 'lipoC3S1': 3.88, 'temp': 26.81, 'lipoC3S3': 11.79, 'lipoC3S2': 7.77, 'rot1': 0, 'rot0': 0, 'rot3': 24, 'rot2': 20, 'state': 'normal', 'yaw': -1.81, 'datetime': '2018-10-09 14:36:30.027751', 'mgs': 0, 'volt': 0.835, 'depth': 0.546, 'time': 5, 'pitch': 4.81, 'roll': -2.52, 'pres': 171}
{'lipoC2': 7.41, 'lipoC3S1': 3.89, 'temp': 26.81, 'lipoC3S3': 11.77, 'lipoC3S2': 7.78, 'rot1': 0, 'rot0': 0, 'rot3': 25, 'rot2': 21, 'state': 'normal', 'yaw': -1.99, 'datetime': '2018-10-09 14:36:30.043687', 'mgs': 0, 'volt': 0.835, 'depth': 0.546, 'time': 5, 'pitch': 4.77, 'roll': -2.36, 'pres': 171}
{'lipoC2': 7.41, 'lipoC3S1': 3.89, 'temp': 26.81, 'lipoC3S3': 11.79, 'lipoC3S2': 7.79, 'rot1': 0, 'rot0': 0, 'rot3': 26, 'rot2': 22, 'state': 'normal', 'yaw': -2.13, 'datetime': '2018-10-09 14:36:30.059605', 'mgs': 0, 'volt': 0.8301, 'depth': 0.47, 'time': 5, 'pitch': 4.76, 'roll': -2.28, 'pres': 170}
{'lipoC2': 7.41, 'lipoC3S1': 3.88, 'temp': 26.75, 'lipoC3S3': 11.77, 'lipoC3S2': 7.77, 'rot1': 0, 'rot0': 0, 'rot3': 27, 'rot2': 23, 'state': 'normal', 'yaw': -2.27, 'datetime': '2018-10-09 14:36:30.075553', 'mgs': 0, 'volt': 0.8203, 'depth': 0.317, 'time': 5, 'pitch': 4.83, 'roll': -2.3, 'pres': 168}
{'lipoC2': 7.41, 'lipoC3S1': 3.88, 'temp': 26.75, 'lipoC3S3': 11.76, 'lipoC3S2': 7.77, 'rot1': 0, 'rot0': 0, 'rot3': 29, 'rot2': 24, 'state': 'normal', 'yaw': -2.41, 'datetime': '2018-10-09 14:36:30.091524', 'mgs': 0, 'volt': 0.8252, 'depth': 0.394, 'time': 5, 'pitch': 4.95, 'roll': -2.41, 'pres': 169}
{'lipoC2': 7.41, 'lipoC3S1': 3.9, 'temp': 26.81, 'lipoC3S3': 11.79, 'lipoC3S2': 7.8, 'rot1': 0, 'rot0': 0, 'rot3': 30, 'rot2': 25, 'state': 'normal', 'yaw': -2.53, 'datetime': '2018-10-09 14:36:30.107462', 'mgs': 0, 'volt': 0.835, 'depth': 0.546, 'time': 5, 'pitch': 5.08, 'roll': -2.5, 'pres': 171}
{'lipoC2': 7.41, 'lipoC3S1': 3.89, 'temp': 26.81, 'lipoC3S3': 11.79, 'lipoC3S2': 7.78, 'rot1': 0, 'rot0': 0, 'rot3': 31, 'rot2': 26, 'state': 'normal', 'yaw': -2.66, 'datetime': '2018-10-09 14:36:30.123403', 'mgs': 0, 'volt': 0.835, 'depth': 0.546, 'time': 5, 'pitch': 5.23, 'roll': -2.61, 'pres': 171}
{'lipoC2': 7.41, 'lipoC3S1': 3.89, 'temp': 26.81, 'lipoC3S3': 11.77, 'lipoC3S2': 7.78, 'rot1': 0, 'rot0': 0, 'rot3': 32, 'rot2': 27, 'state': 'normal', 'yaw': -2.76, 'datetime': '2018-10-09 14:36:30.138809', 'mgs': 0, 'volt': 0.8154, 'depth': 0.241, 'time': 6, 'pitch': 5.33, 'roll': -2.7, 'pres': 167}
{'lipoC2': 7.4, 'lipoC3S1': 3.88, 'temp': 26.81, 'lipoC3S3': 11.73, 'lipoC3S2': 7.76, 'rot1': 0, 'rot0': 0, 'rot3': 33, 'rot2': 27, 'state': 'normal', 'yaw': -2.79, 'datetime': '2018-10-09 14:36:30.154204', 'mgs': 0, 'volt': 0.8252, 'depth': 0.394, 'time': 6, 'pitch': 5.42, 'roll': -2.84, 'pres': 169}
{'lipoC2': 7.4, 'lipoC3S1': 3.9, 'temp': 26.81, 'lipoC3S3': 11.73, 'lipoC3S2': 7.75, 'rot1': 1, 'rot0': 1, 'rot3': 34, 'rot2': 28, 'state': 'normal', 'yaw': -2.33, 'datetime': '2018-10-09 14:36:30.169625', 'mgs': 0, 'volt': 0.7715, 'depth': -0.446, 'time': 6, 'pitch': 5.47, 'roll': -3.0, 'pres': 158}
{'lipoC2': 7.4, 'lipoC3S1': 3.9, 'temp': 26.81, 'lipoC3S3': 11.75, 'lipoC3S2': 7.79, 'rot1': 1, 'rot0': 1, 'rot3': 36, 'rot2': 29, 'state': 'normal', 'yaw': -1.64, 'datetime': '2018-10-09 14:36:30.185062', 'mgs': 0, 'volt': 0.835, 'depth': 0.546, 'time': 6, 'pitch': 5.51, 'roll': -3.13, 'pres': 171}
{'lipoC2': 7.4, 'lipoC3S1': 3.89, 'temp': 26.81, 'lipoC3S3': 11.77, 'lipoC3S2': 7.73, 'rot1': 2, 'rot0': 2, 'rot3': 37, 'rot2': 30, 'state': 'normal', 'yaw': -0.77, 'datetime': '2018-10-09 14:36:30.200408', 'mgs': 0, 'volt': 0.835, 'depth': 0.546, 'time': 6, 'pitch': 5.55, 'roll': -3.19, 'pres': 171}
{'lipoC2': 7.41, 'lipoC3S1': 3.88, 'temp': 26.75, 'lipoC3S3': 11.76, 'lipoC3S2': 7.77, 'rot1': 2, 'rot0': 2, 'rot3': 38, 'rot2': 31, 'state': 'normal', 'yaw': 0.34, 'datetime': '2018-10-09 14:36:30.215813', 'mgs': 0, 'volt': 0.8398, 'depth': 0.623, 'time': 6, 'pitch': 5.51, 'roll': -3.17, 'pres': 172}
{'lipoC2': 7.41, 'lipoC3S1': 3.89, 'temp': 26.75, 'lipoC3S3': 11.76, 'lipoC3S2': 7.76, 'rot1': 3, 'rot0': 3, 'rot3': 39, 'rot2': 32, 'state': 'normal', 'yaw': 1.54, 'datetime': '2018-10-09 14:36:30.231376', 'mgs': 0, 'volt': 0.8203, 'depth': 0.317, 'time': 6, 'pitch': 5.43, 'roll': -3.08, 'pres': 168}
{'lipoC2': 7.4, 'lipoC3S1': 3.9, 'temp': 26.75, 'lipoC3S3': 11.73, 'lipoC3S2': 7.78, 'rot1': 3, 'rot0': 4, 'rot3': 40, 'rot2': 33, 'state': 'normal', 'yaw': 2.93, 'datetime': '2018-10-09 14:36:30.246784', 'mgs': 0, 'volt': 0.835, 'depth': 0.546, 'time': 6, 'pitch': 5.41, 'roll': -3.02, 'pres': 171}
{'lipoC2': 7.4, 'lipoC3S1': 3.89, 'temp': 26.81, 'lipoC3S3': 11.73, 'lipoC3S2': 7.78, 'rot1': 4, 'rot0': 4, 'rot3': 42, 'rot2': 34, 'state': 'normal', 'yaw': 4.69, 'datetime': '2018-10-09 14:36:30.262194', 'mgs': 0, 'volt': 0.835, 'depth': 0.546, 'time': 6, 'pitch': 5.49, 'roll': -2.94, 'pres': 171}
{'lipoC2': 7.4, 'lipoC3S1': 3.88, 'temp': 26.81, 'lipoC3S3': 11.77, 'lipoC3S2': 7.77, 'rot1': 4, 'rot0': 5, 'rot3': 43, 'rot2': 35, 'state': 'normal', 'yaw': 6.47, 'datetime': '2018-10-09 14:36:30.277607', 'mgs': 0, 'volt': 0.8398, 'depth': 0.623, 'time': 6, 'pitch': 5.65, 'roll': -2.78, 'pres': 172}
{'lipoC2': 7.4, 'lipoC3S1': 3.89, 'temp': 26.75, 'lipoC3S3': 11.76, 'lipoC3S2': 7.77, 'rot1': 5, 'rot0': 5, 'rot3': 44, 'rot2': 36, 'state': 'normal', 'yaw': 8.3, 'datetime': '2018-10-09 14:36:30.293019', 'mgs': 0, 'volt': 0.8252, 'depth': 0.394, 'time': 7, 'pitch': 5.85, 'roll': -2.54, 'pres': 169}
{'lipoC2': 7.4, 'lipoC3S1': 3.9, 'temp': 26.75, 'lipoC3S3': 11.73, 'lipoC3S2': 7.75, 'rot1': 5, 'rot0': 5, 'rot3': 45, 'rot2': 37, 'state': 'normal', 'yaw': 10.21, 'datetime': '2018-10-09 14:36:30.308381', 'mgs': 0, 'volt': 0.8252, 'depth': 0.394, 'time': 7, 'pitch': 6.01, 'roll': -2.17, 'pres': 169}
{'lipoC2': 7.4, 'lipoC3S1': 3.88, 'temp': 26.81, 'lipoC3S3': 11.75, 'lipoC3S2': 7.78, 'rot1': 5, 'rot0': 6, 'rot3': 46, 'rot2': 38, 'state': 'normal', 'yaw': 11.91, 'datetime': '2018-10-09 14:36:30.323711', 'mgs': 0, 'volt': 0.8398, 'depth': 0.623, 'time': 7, 'pitch': 6.08, 'roll': -1.84, 'pres': 172}
{'lipoC2': 7.4, 'lipoC3S1': 3.88, 'temp': 26.81, 'lipoC3S3': 11.75, 'lipoC3S2': 7.76, 'rot1': 5, 'rot0': 6, 'rot3': 47, 'rot2': 38, 'state': 'normal', 'yaw': 13.73, 'datetime': '2018-10-09 14:36:30.343700', 'mgs': 0, 'volt': 0.8252, 'depth': 0.394, 'time': 7, 'pitch': 6.09, 'roll': -1.53, 'pres': 169}
{'lipoC2': 7.4, 'lipoC3S1': 3.91, 'temp': 26.81, 'lipoC3S3': 11.75, 'lipoC3S2': 7.76, 'rot1': 6, 'rot0': 6, 'rot3': 49, 'rot2': 39, 'state': 'normal', 'yaw': 15.34, 'datetime': '2018-10-09 14:36:30.353203', 'mgs': 0, 'volt': 0.8447, 'depth': 0.699, 'time': 7, 'pitch': 6.0, 'roll': -1.36, 'pres': 173}
{'lipoC2': 7.4, 'lipoC3S1': 3.9, 'temp': 26.81, 'lipoC3S3': 11.75, 'lipoC3S2': 7.75, 'rot1': 6, 'rot0': 6, 'rot3': 50, 'rot2': 40, 'state': 'normal', 'yaw': 16.92, 'datetime': '2018-10-09 14:36:30.368602', 'mgs': 0, 'volt': 0.8301, 'depth': 0.47, 'time': 7, 'pitch': 5.89, 'roll': -1.3, 'pres': 170}
{'lipoC2': 7.4, 'lipoC3S1': 3.9, 'temp': 26.81, 'lipoC3S3': 11.73, 'lipoC3S2': 7.78, 'rot1': 6, 'rot0': 7, 'rot3': 51, 'rot2': 41, 'state': 'normal', 'yaw': 18.47, 'datetime': '2018-10-09 14:36:30.384027', 'mgs': 0, 'volt': 0.8301, 'depth': 0.47, 'time': 7, 'pitch': 5.83, 'roll': -1.32, 'pres': 170}
{'lipoC2': 7.4, 'lipoC3S1': 3.89, 'temp': 26.75, 'lipoC3S3': 11.77, 'lipoC3S2': 7.81, 'rot1': 6, 'rot0': 7, 'rot3': 52, 'rot2': 42, 'state': 'normal', 'yaw': 20.14, 'datetime': '2018-10-09 14:36:30.393583', 'mgs': 0, 'volt': 0.835, 'depth': 0.546, 'time': 7, 'pitch': 5.86, 'roll': -1.34, 'pres': 171}
{'lipoC2': 7.41, 'lipoC3S1': 3.82, 'temp': 26.75, 'lipoC3S3': 11.71, 'lipoC3S2': 7.63, 'rot1': 7, 'rot0': 7, 'rot3': 53, 'rot2': 43, 'state': 'normal', 'yaw': 21.6, 'datetime': '2018-10-09 14:36:30.408969', 'mgs': 0, 'volt': 0.874, 'depth': 1.157, 'time': 7, 'pitch': 5.94, 'roll': -1.31, 'pres': 179}
{'lipoC2': 7.41, 'lipoC3S1': 3.85, 'temp': 26.75, 'lipoC3S3': 11.61, 'lipoC3S2': 7.72, 'rot1': 7, 'rot0': 8, 'rot3': 53, 'rot2': 43, 'state': 'normal', 'yaw': 22.95, 'datetime': '2018-10-09 14:36:30.501721', 'mgs': 0, 'volt': 0.8252, 'depth': 0.394, 'time': 7, 'pitch': 6.17, 'roll': -1.24, 'pres': 169}
{'lipoC2': 7.4, 'lipoC3S1': 3.89, 'temp': 26.75, 'lipoC3S3': 11.61, 'lipoC3S2': 7.72, 'rot1': 8, 'rot0': 9, 'rot3': 54, 'rot2': 44, 'state': 'normal', 'yaw': 23.59, 'datetime': '2018-10-09 14:36:30.605301', 'mgs': 0, 'volt': 0.8252, 'depth': 0.394, 'time': 8, 'pitch': 6.75, 'roll': -1.2, 'pres': 169}
{'lipoC2': 7.41, 'lipoC3S1': 3.83, 'temp': 26.75, 'lipoC3S3': 11.75, 'lipoC3S2': 7.77, 'rot1': 8, 'rot0': 10, 'rot3': 55, 'rot2': 45, 'state': 'normal', 'yaw': 23.7, 'datetime': '2018-10-09 14:36:30.710312', 'mgs': 0, 'volt': 0.8447, 'depth': 0.699, 'time': 8, 'pitch': 7.51, 'roll': -1.26, 'pres': 173}
{'lipoC2': 7.41, 'lipoC3S1': 3.87, 'temp': 26.75, 'lipoC3S3': 11.71, 'lipoC3S2': 7.69, 'rot1': 9, 'rot0': 11, 'rot3': 56, 'rot2': 45, 'state': 'normal', 'yaw': 23.34, 'datetime': '2018-10-09 14:36:30.814719', 'mgs': 0, 'volt': 0.835, 'depth': 0.546, 'time': 8, 'pitch': 8.17, 'roll': -1.48, 'pres': 171}
{'lipoC2': 7.41, 'lipoC3S1': 3.86, 'temp': 26.75, 'lipoC3S3': 11.71, 'lipoC3S2': 7.74, 'rot1': 10, 'rot0': 13, 'rot3': 56, 'rot2': 46, 'state': 'normal', 'yaw': 22.47, 'datetime': '2018-10-09 14:36:30.919362', 'mgs': 0, 'volt': 0.8398, 'depth': 0.623, 'time': 8, 'pitch': 8.41, 'roll': -1.8, 'pres': 172}
{'lipoC2': 7.4, 'lipoC3S1': 3.89, 'temp': 26.75, 'lipoC3S3': 11.64, 'lipoC3S2': 7.72, 'rot1': 10, 'rot0': 14, 'rot3': 57, 'rot2': 47, 'state': 'normal', 'yaw': 21.15, 'datetime': '2018-10-09 14:36:31.023838', 'mgs': 0, 'volt': 0.8398, 'depth': 0.623, 'time': 8, 'pitch': 8.42, 'roll': -2.28, 'pres': 172}
{'lipoC2': 7.41, 'lipoC3S1': 3.85, 'temp': 26.75, 'lipoC3S3': 11.75, 'lipoC3S2': 7.77, 'rot1': 11, 'rot0': 15, 'rot3': 58, 'rot2': 47, 'state': 'normal', 'yaw': 19.26, 'datetime': '2018-10-09 14:36:31.127725', 'mgs': 0, 'volt': 0.8545, 'depth': 0.851, 'time': 8, 'pitch': 8.41, 'roll': -2.83, 'pres': 175}
{'lipoC2': 7.41, 'lipoC3S1': 3.89, 'temp': 26.81, 'lipoC3S3': 11.67, 'lipoC3S2': 7.76, 'rot1': 11, 'rot0': 16, 'rot3': 59, 'rot2': 48, 'state': 'normal', 'yaw': 17.32, 'datetime': '2018-10-09 14:36:31.232941', 'mgs': 0, 'volt': 0.8887, 'depth': 1.385, 'time': 8, 'pitch': 8.58, 'roll': -3.24, 'pres': 182}
{'lipoC2': 7.41, 'lipoC3S1': 3.86, 'temp': 26.81, 'lipoC3S3': 11.77, 'lipoC3S2': 7.71, 'rot1': 12, 'rot0': 17, 'rot3': 60, 'rot2': 49, 'state': 'normal', 'yaw': 15.02, 'datetime': '2018-10-09 14:36:31.336836', 'mgs': 0, 'volt': 0.8496, 'depth': 0.775, 'time': 8, 'pitch': 8.97, 'roll': -3.6, 'pres': 174}
{'lipoC2': 7.4, 'lipoC3S1': 3.9, 'temp': 26.81, 'lipoC3S3': 11.76, 'lipoC3S2': 7.77, 'rot1': 13, 'rot0': 18, 'rot3': 60, 'rot2': 49, 'state': 'normal', 'yaw': 12.82, 'datetime': '2018-10-09 14:36:31.440724', 'mgs': 0, 'volt': 0.8838, 'depth': 1.309, 'time': 8, 'pitch': 9.43, 'roll': -3.91, 'pres': 181}
{'lipoC2': 7.41, 'lipoC3S1': 3.89, 'temp': 26.81, 'lipoC3S3': 11.69, 'lipoC3S2': 7.71, 'rot1': 14, 'rot0': 20, 'rot3': 61, 'rot2': 50, 'state': 'normal', 'yaw': 10.64, 'datetime': '2018-10-09 14:36:31.549294', 'mgs': 0, 'volt': 0.8594, 'depth': 0.928, 'time': 9, 'pitch': 9.93, 'roll': -4.17, 'pres': 176}
{'lipoC2': 7.41, 'lipoC3S1': 3.86, 'temp': 26.81, 'lipoC3S3': 11.73, 'lipoC3S2': 7.77, 'rot1': 15, 'rot0': 21, 'rot3': 62, 'rot2': 51, 'state': 'normal', 'yaw': 8.29, 'datetime': '2018-10-09 14:36:31.654963', 'mgs': 0, 'volt': 0.8447, 'depth': 0.699, 'time': 9, 'pitch': 10.46, 'roll': -4.42, 'pres': 173}
{'lipoC2': 7.41, 'lipoC3S1': 3.85, 'temp': 26.81, 'lipoC3S3': 11.63, 'lipoC3S2': 7.71, 'rot1': 16, 'rot0': 22, 'rot3': 62, 'rot2': 51, 'state': 'normal', 'yaw': 6.23, 'datetime': '2018-10-09 14:36:31.758829', 'mgs': 0, 'volt': 0.8643, 'depth': 1.004, 'time': 9, 'pitch': 10.88, 'roll': -4.61, 'pres': 177}
{'lipoC2': 7.41, 'lipoC3S1': 3.83, 'temp': 26.81, 'lipoC3S3': 11.73, 'lipoC3S2': 7.77, 'rot1': 17, 'rot0': 23, 'rot3': 63, 'rot2': 52, 'state': 'normal', 'yaw': 4.14, 'datetime': '2018-10-09 14:36:31.862966', 'mgs': 0, 'volt': 0.8838, 'depth': 1.309, 'time': 9, 'pitch': 11.3, 'roll': -4.75, 'pres': 181}
{'lipoC2': 7.41, 'lipoC3S1': 3.89, 'temp': 26.81, 'lipoC3S3': 11.59, 'lipoC3S2': 7.71, 'rot1': 18, 'rot0': 24, 'rot3': 64, 'rot2': 53, 'state': 'normal', 'yaw': 2.38, 'datetime': '2018-10-09 14:36:31.966785', 'mgs': 0, 'volt': 0.8691, 'depth': 1.08, 'time': 9, 'pitch': 11.66, 'roll': -4.82, 'pres': 178}
{'lipoC2': 7.41, 'lipoC3S1': 3.85, 'temp': 26.81, 'lipoC3S3': 11.75, 'lipoC3S2': 7.66, 'rot1': 19, 'rot0': 26, 'rot3': 65, 'rot2': 53, 'state': 'normal', 'yaw': 0.69, 'datetime': '2018-10-09 14:36:32.071913', 'mgs': 0, 'volt': 0.874, 'depth': 1.157, 'time': 9, 'pitch': 11.96, 'roll': -4.84, 'pres': 179}
{'lipoC2': 7.39, 'lipoC3S1': 3.89, 'temp': 26.81, 'lipoC3S3': 11.67, 'lipoC3S2': 7.75, 'rot1': 20, 'rot0': 27, 'rot3': 65, 'rot2': 54, 'state': 'normal', 'yaw': -0.99, 'datetime': '2018-10-09 14:36:32.175846', 'mgs': 0, 'volt': 0.8984, 'depth': 1.538, 'time': 9, 'pitch': 12.26, 'roll': -4.86, 'pres': 184}
{'lipoC2': 7.41, 'lipoC3S1': 3.89, 'temp': 26.81, 'lipoC3S3': 11.58, 'lipoC3S2': 7.71, 'rot1': 21, 'rot0': 28, 'rot3': 66, 'rot2': 54, 'state': 'normal', 'yaw': -2.33, 'datetime': '2018-10-09 14:36:32.280971', 'mgs': 0, 'volt': 0.8789, 'depth': 1.233, 'time': 9, 'pitch': 12.54, 'roll': -4.9, 'pres': 180}
{'lipoC2': 7.41, 'lipoC3S1': 3.84, 'temp': 26.81, 'lipoC3S3': 11.73, 'lipoC3S2': 7.77, 'rot1': 22, 'rot0': 29, 'rot3': 67, 'rot2': 55, 'state': 'normal', 'yaw': -3.69, 'datetime': '2018-10-09 14:36:32.384835', 'mgs': 0, 'volt': 0.9033, 'depth': 1.614, 'time': 9, 'pitch': 12.87, 'roll': -4.94, 'pres': 185}
{'lipoC2': 7.41, 'lipoC3S1': 3.89, 'temp': 26.88, 'lipoC3S3': 11.58, 'lipoC3S2': 7.71, 'rot1': 23, 'rot0': 30, 'rot3': 67, 'rot2': 56, 'state': 'normal', 'yaw': -4.76, 'datetime': '2018-10-09 14:36:32.488798', 'mgs': 0, 'volt': 0.8838, 'depth': 1.309, 'time': 9, 'pitch': 13.1, 'roll': -4.99, 'pres': 181}
{'lipoC2': 7.4, 'lipoC3S1': 3.89, 'temp': 26.88, 'lipoC3S3': 11.51, 'lipoC3S2': 7.78, 'rot1': 24, 'rot0': 32, 'rot3': 68, 'rot2': 56, 'state': 'normal', 'yaw': -5.69, 'datetime': '2018-10-09 14:36:32.594383', 'mgs': 0, 'volt': 0.8887, 'depth': 1.385, 'time': 10, 'pitch': 13.27, 'roll': -5.03, 'pres': 182}
{'lipoC2': 7.41, 'lipoC3S1': 3.88, 'temp': 26.81, 'lipoC3S3': 11.75, 'lipoC3S2': 7.7, 'rot1': 25, 'rot0': 33, 'rot3': 68, 'rot2': 57, 'state': 'normal', 'yaw': -6.6, 'datetime': '2018-10-09 14:36:32.698423', 'mgs': 0, 'volt': 0.8887, 'depth': 1.385, 'time': 10, 'pitch': 13.35, 'roll': -5.1, 'pres': 182}
{'lipoC2': 7.41, 'lipoC3S1': 3.89, 'temp': 26.81, 'lipoC3S3': 11.73, 'lipoC3S2': 7.77, 'rot1': 26, 'rot0': 34, 'rot3': 69, 'rot2': 57, 'state': 'normal', 'yaw': -7.2, 'datetime': '2018-10-09 14:36:32.802501', 'mgs': 0, 'volt': 0.9375, 'depth': 2.148, 'time': 10, 'pitch': 13.3, 'roll': -5.2, 'pres': 192}
{'lipoC2': 7.41, 'lipoC3S1': 3.89, 'temp': 26.81, 'lipoC3S3': 11.56, 'lipoC3S2': 7.76, 'rot1': 28, 'rot0': 35, 'rot3': 70, 'rot2': 58, 'state': 'normal', 'yaw': -7.58, 'datetime': '2018-10-09 14:36:32.906658', 'mgs': 0, 'volt': 0.8887, 'depth': 1.385, 'time': 10, 'pitch': 13.13, 'roll': -5.29, 'pres': 182}
{'lipoC2': 7.41, 'lipoC3S1': 3.78, 'temp': 26.81, 'lipoC3S3': 11.76, 'lipoC3S2': 7.74, 'rot1': 29, 'rot0': 36, 'rot3': 70, 'rot2': 58, 'state': 'normal', 'yaw': -7.82, 'datetime': '2018-10-09 14:36:33.010498', 'mgs': 0, 'volt': 0.8936, 'depth': 1.462, 'time': 10, 'pitch': 12.85, 'roll': -5.35, 'pres': 183}
{'lipoC2': 7.4, 'lipoC3S1': 3.89, 'temp': 26.81, 'lipoC3S3': 11.73, 'lipoC3S2': 7.77, 'rot1': 30, 'rot0': 37, 'rot3': 71, 'rot2': 59, 'state': 'normal', 'yaw': -7.85, 'datetime': '2018-10-09 14:36:33.114582', 'mgs': 0, 'volt': 0.9229, 'depth': 1.92, 'time': 10, 'pitch': 12.52, 'roll': -5.43, 'pres': 189}
{'lipoC2': 7.41, 'lipoC3S1': 3.89, 'temp': 26.81, 'lipoC3S3': 11.64, 'lipoC3S2': 7.72, 'rot1': 31, 'rot0': 38, 'rot3': 71, 'rot2': 59, 'state': 'normal', 'yaw': -7.75, 'datetime': '2018-10-09 14:36:33.218630', 'mgs': 0, 'volt': 0.8984, 'depth': 1.538, 'time': 10, 'pitch': 12.09, 'roll': -5.55, 'pres': 184}
{'lipoC2': 7.41, 'lipoC3S1': 3.89, 'temp': 26.81, 'lipoC3S3': 11.6, 'lipoC3S2': 7.71, 'rot1': 32, 'rot0': 39, 'rot3': 72, 'rot2': 60, 'state': 'normal', 'yaw': -7.52, 'datetime': '2018-10-09 14:36:33.323124', 'mgs': 0, 'volt': 0.8984, 'depth': 1.538, 'time': 10, 'pitch': 11.72, 'roll': -5.68, 'pres': 184}
{'lipoC2': 7.41, 'lipoC3S1': 3.89, 'temp': 26.81, 'lipoC3S3': 11.58, 'lipoC3S2': 7.71, 'rot1': 33, 'rot0': 40, 'rot3': 72, 'rot2': 60, 'state': 'normal', 'yaw': -7.22, 'datetime': '2018-10-09 14:36:33.427656', 'mgs': 0, 'volt': 0.8984, 'depth': 1.538, 'time': 10, 'pitch': 11.37, 'roll': -5.81, 'pres': 184}
{'lipoC2': 7.41, 'lipoC3S1': 3.8, 'temp': 26.81, 'lipoC3S3': 11.73, 'lipoC3S2': 7.8, 'rot1': 34, 'rot0': 41, 'rot3': 73, 'rot2': 61, 'state': 'normal', 'yaw': -6.85, 'datetime': '2018-10-09 14:36:33.531539', 'mgs': 0, 'volt': 0.9229, 'depth': 1.92, 'time': 11, 'pitch': 11.02, 'roll': -5.93, 'pres': 189}
{'lipoC2': 7.41, 'lipoC3S1': 3.82, 'temp': 26.81, 'lipoC3S3': 11.75, 'lipoC3S2': 7.77, 'rot1': 35, 'rot0': 42, 'rot3': 73, 'rot2': 61, 'state': 'normal', 'yaw': -6.44, 'datetime': '2018-10-09 14:36:33.636880', 'mgs': 0, 'volt': 0.918, 'depth': 1.843, 'time': 11, 'pitch': 10.69, 'roll': -6.06, 'pres': 188}
{'lipoC2': 7.4, 'lipoC3S1': 3.89, 'temp': 26.81, 'lipoC3S3': 11.67, 'lipoC3S2': 7.76, 'rot1': 36, 'rot0': 43, 'rot3': 74, 'rot2': 62, 'state': 'normal', 'yaw': -5.91, 'datetime': '2018-10-09 14:36:33.740871', 'mgs': 0, 'volt': 0.9082, 'depth': 1.691, 'time': 11, 'pitch': 10.36, 'roll': -6.2, 'pres': 186}
{'lipoC2': 7.4, 'lipoC3S1': 3.89, 'temp': 26.81, 'lipoC3S3': 11.67, 'lipoC3S2': 7.76, 'rot1': 38, 'rot0': 44, 'rot3': 75, 'rot2': 62, 'state': 'normal', 'yaw': -5.41, 'datetime': '2018-10-09 14:36:33.847958', 'mgs': 0, 'volt': 0.9033, 'depth': 1.614, 'time': 11, 'pitch': 10.11, 'roll': -6.33, 'pres': 185}
{'lipoC2': 7.41, 'lipoC3S1': 3.87, 'temp': 26.81, 'lipoC3S3': 11.75, 'lipoC3S2': 7.7, 'rot1': 39, 'rot0': 45, 'rot3': 75, 'rot2': 63, 'state': 'normal', 'yaw': -4.9, 'datetime': '2018-10-09 14:36:33.950182', 'mgs': 0, 'volt': 0.9033, 'depth': 1.614, 'time': 11, 'pitch': 9.97, 'roll': -6.46, 'pres': 185}
{'lipoC2': 7.4, 'lipoC3S1': 3.89, 'temp': 26.81, 'lipoC3S3': 11.73, 'lipoC3S2': 7.77, 'rot1': 40, 'rot0': 46, 'rot3': 76, 'rot2': 64, 'state': 'normal', 'yaw': -4.48, 'datetime': '2018-10-09 14:36:34.054278', 'mgs': 0, 'volt': 0.957, 'depth': 2.454, 'time': 11, 'pitch': 9.97, 'roll': -6.6, 'pres': 196}
{'lipoC2': 7.41, 'lipoC3S1': 3.9, 'temp': 26.81, 'lipoC3S3': 11.65, 'lipoC3S2': 7.77, 'rot1': 41, 'rot0': 47, 'rot3': 76, 'rot2': 64, 'state': 'normal', 'yaw': -4.05, 'datetime': '2018-10-09 14:36:34.158224', 'mgs': 0, 'volt': 0.9082, 'depth': 1.691, 'time': 11, 'pitch': 10.03, 'roll': -6.71, 'pres': 186}
{'lipoC2': 7.41, 'lipoC3S1': 3.83, 'temp': 26.81, 'lipoC3S3': 11.76, 'lipoC3S2': 7.78, 'rot1': 42, 'rot0': 48, 'rot3': 76, 'rot2': 64, 'state': 'normal', 'yaw': -3.58, 'datetime': '2018-10-09 14:36:34.262310', 'mgs': 0, 'volt': 0.9082, 'depth': 1.691, 'time': 11, 'pitch': 10.25, 'roll': -6.79, 'pres': 186}
{'lipoC2': 7.4, 'lipoC3S1': 3.9, 'temp': 26.81, 'lipoC3S3': 11.73, 'lipoC3S2': 7.77, 'rot1': 43, 'rot0': 49, 'rot3': 76, 'rot2': 64, 'state': 'normal', 'yaw': -3.3, 'datetime': '2018-10-09 14:36:34.366514', 'mgs': 0, 'volt': 0.9229, 'depth': 1.92, 'time': 11, 'pitch': 10.56, 'roll': -6.87, 'pres': 189}
{'lipoC2': 7.4, 'lipoC3S1': 3.89, 'temp': 26.81, 'lipoC3S3': 11.52, 'lipoC3S2': 7.74, 'rot1': 44, 'rot0': 50, 'rot3': 76, 'rot2': 64, 'state': 'normal', 'yaw': -3.17, 'datetime': '2018-10-09 14:36:34.470462', 'mgs': 0, 'volt': 0.9082, 'depth': 1.691, 'time': 11, 'pitch': 10.93, 'roll': -6.94, 'pres': 186}
{'lipoC2': 7.41, 'lipoC3S1': 3.77, 'temp': 26.81, 'lipoC3S3': 11.75, 'lipoC3S2': 7.71, 'rot1': 45, 'rot0': 52, 'rot3': 77, 'rot2': 64, 'state': 'normal', 'yaw': -3.19, 'datetime': '2018-10-09 14:36:34.574594', 'mgs': 0, 'volt': 0.9131, 'depth': 1.767, 'time': 12, 'pitch': 11.3, 'roll': -7.06, 'pres': 187}
{'lipoC2': 7.41, 'lipoC3S1': 3.78, 'temp': 26.81, 'lipoC3S3': 11.73, 'lipoC3S2': 7.73, 'rot1': 47, 'rot0': 53, 'rot3': 77, 'rot2': 65, 'state': 'normal', 'yaw': -3.33, 'datetime': '2018-10-09 14:36:34.679909', 'mgs': 0, 'volt': 0.9131, 'depth': 1.767, 'time': 12, 'pitch': 11.61, 'roll': -7.18, 'pres': 187}
{'lipoC2': 7.39, 'lipoC3S1': 3.89, 'temp': 26.81, 'lipoC3S3': 11.72, 'lipoC3S2': 7.76, 'rot1': 48, 'rot0': 54, 'rot3': 78, 'rot2': 66, 'state': 'normal', 'yaw': -3.53, 'datetime': '2018-10-09 14:36:34.783845', 'mgs': 0, 'volt': 0.9473, 'depth': 2.301, 'time': 12, 'pitch': 11.96, 'roll': -7.29, 'pres': 194}
{'lipoC2': 7.39, 'lipoC3S1': 3.89, 'temp': 26.81, 'lipoC3S3': 11.71, 'lipoC3S2': 7.76, 'rot1': 49, 'rot0': 55, 'rot3': 78, 'rot2': 66, 'state': 'normal', 'yaw': -3.74, 'datetime': '2018-10-09 14:36:34.889225', 'mgs': 0, 'volt': 0.9424, 'depth': 2.225, 'time': 12, 'pitch': 12.27, 'roll': -7.36, 'pres': 193}
{'lipoC2': 7.41, 'lipoC3S1': 3.88, 'temp': 26.81, 'lipoC3S3': 11.67, 'lipoC3S2': 7.6, 'rot1': 50, 'rot0': 56, 'rot3': 79, 'rot2': 67, 'state': 'normal', 'yaw': -3.99, 'datetime': '2018-10-09 14:36:34.993314', 'mgs': 0, 'volt': 0.918, 'depth': 1.843, 'time': 12, 'pitch': 12.57, 'roll': -7.42, 'pres': 188}
{'lipoC2': 7.41, 'lipoC3S1': 3.88, 'temp': 26.81, 'lipoC3S3': 11.64, 'lipoC3S2': 7.73, 'rot1': 51, 'rot0': 58, 'rot3': 80, 'rot2': 67, 'state': 'normal', 'yaw': -4.26, 'datetime': '2018-10-09 14:36:35.098603', 'mgs': 0, 'volt': 0.918, 'depth': 1.843, 'time': 12, 'pitch': 12.78, 'roll': -7.48, 'pres': 188}
{'lipoC2': 7.41, 'lipoC3S1': 3.84, 'temp': 26.81, 'lipoC3S3': 11.75, 'lipoC3S2': 7.64, 'rot1': 52, 'rot0': 59, 'rot3': 80, 'rot2': 68, 'state': 'normal', 'yaw': -4.6, 'datetime': '2018-10-09 14:36:35.202881', 'mgs': 0, 'volt': 0.9229, 'depth': 1.92, 'time': 12, 'pitch': 12.95, 'roll': -7.55, 'pres': 189}
{'lipoC2': 7.41, 'lipoC3S1': 3.91, 'temp': 26.81, 'lipoC3S3': 11.72, 'lipoC3S2': 7.76, 'rot1': 53, 'rot0': 60, 'rot3': 81, 'rot2': 68, 'state': 'normal', 'yaw': -4.99, 'datetime': '2018-10-09 14:36:35.306952', 'mgs': 0, 'volt': 0.9912, 'depth': 2.988, 'time': 12, 'pitch': 13.04, 'roll': -7.62, 'pres': 203}
{'lipoC2': 7.4, 'lipoC3S1': 3.88, 'temp': 26.81, 'lipoC3S3': 11.47, 'lipoC3S2': 7.74, 'rot1': 55, 'rot0': 61, 'rot3': 81, 'rot2': 68, 'state': 'normal', 'yaw': -5.43, 'datetime': '2018-10-09 14:36:35.410967', 'mgs': 0, 'volt': 0.9229, 'depth': 1.92, 'time': 12, 'pitch': 13.03, 'roll': -7.68, 'pres': 189}
{'lipoC2': 7.41, 'lipoC3S1': 3.86, 'temp': 26.81, 'lipoC3S3': 11.75, 'lipoC3S2': 7.69, 'rot1': 56, 'rot0': 62, 'rot3': 82, 'rot2': 68, 'state': 'normal', 'yaw': -5.97, 'datetime': '2018-10-09 14:36:35.515076', 'mgs': 0, 'volt': 0.9229, 'depth': 1.92, 'time': 12, 'pitch': 13.16, 'roll': -7.68, 'pres': 189}
{'lipoC2': 7.4, 'lipoC3S1': 3.89, 'temp': 26.81, 'lipoC3S3': 11.73, 'lipoC3S2': 7.76, 'rot1': 57, 'rot0': 63, 'rot3': 82, 'rot2': 69, 'state': 'normal', 'yaw': -6.32, 'datetime': '2018-10-09 14:36:35.619300', 'mgs': 0, 'volt': 0.9814, 'depth': 2.835, 'time': 13, 'pitch': 13.37, 'roll': -7.65, 'pres': 201}
{'lipoC2': 7.4, 'lipoC3S1': 3.89, 'temp': 26.81, 'lipoC3S3': 11.72, 'lipoC3S2': 7.76, 'rot1': 58, 'rot0': 64, 'rot3': 83, 'rot2': 69, 'state': 'normal', 'yaw': -6.47, 'datetime': '2018-10-09 14:36:35.723359', 'mgs': 0, 'volt': 0.9473, 'depth': 2.301, 'time': 13, 'pitch': 13.65, 'roll': -7.63, 'pres': 194}
{'lipoC2': 7.41, 'lipoC3S1': 3.89, 'temp': 26.81, 'lipoC3S3': 11.65, 'lipoC3S2': 7.72, 'rot1': 59, 'rot0': 65, 'rot3': 83, 'rot2': 70, 'state': 'normal', 'yaw': -6.49, 'datetime': '2018-10-09 14:36:35.827530', 'mgs': 0, 'volt': 0.9229, 'depth': 1.92, 'time': 13, 'pitch': 14.0, 'roll': -7.62, 'pres': 189}
{'lipoC2': 7.41, 'lipoC3S1': 3.89, 'temp': 26.88, 'lipoC3S3': 11.59, 'lipoC3S2': 7.71, 'rot1': 60, 'rot0': 67, 'rot3': 84, 'rot2': 70, 'state': 'normal', 'yaw': -6.42, 'datetime': '2018-10-09 14:36:35.934575', 'mgs': 0, 'volt': 0.918, 'depth': 1.843, 'time': 13, 'pitch': 14.38, 'roll': -7.61, 'pres': 188}
{'lipoC2': 7.41, 'lipoC3S1': 3.86, 'temp': 26.88, 'lipoC3S3': 11.73, 'lipoC3S2': 7.68, 'rot1': 61, 'rot0': 68, 'rot3': 84, 'rot2': 70, 'state': 'normal', 'yaw': -6.27, 'datetime': '2018-10-09 14:36:36.036923', 'mgs': 0, 'volt': 0.9131, 'depth': 1.767, 'time': 13, 'pitch': 14.81, 'roll': -7.57, 'pres': 187}
{'lipoC2': 7.41, 'lipoC3S1': 3.88, 'temp': 26.81, 'lipoC3S3': 11.72, 'lipoC3S2': 7.6, 'rot1': 63, 'rot0': 69, 'rot3': 85, 'rot2': 70, 'state': 'normal', 'yaw': -6.02, 'datetime': '2018-10-09 14:36:36.142412', 'mgs': 0, 'volt': 0.918, 'depth': 1.843, 'time': 13, 'pitch': 15.0, 'roll': -7.6, 'pres': 188}
{'lipoC2': 7.41, 'lipoC3S1': 3.82, 'temp': 26.81, 'lipoC3S3': 11.73, 'lipoC3S2': 7.77, 'rot1': 64, 'rot0': 70, 'rot3': 85, 'rot2': 70, 'state': 'normal', 'yaw': -5.65, 'datetime': '2018-10-09 14:36:36.246648', 'mgs': 0, 'volt': 0.9082, 'depth': 1.691, 'time': 13, 'pitch': 14.94, 'roll': -7.63, 'pres': 186}
{'lipoC2': 7.41, 'lipoC3S1': 3.89, 'temp': 26.81, 'lipoC3S3': 11.73, 'lipoC3S2': 7.76, 'rot1': 65, 'rot0': 71, 'rot3': 86, 'rot2': 71, 'state': 'normal', 'yaw': -5.25, 'datetime': '2018-10-09 14:36:36.351709', 'mgs': 0, 'volt': 0.9619, 'depth': 2.53, 'time': 13, 'pitch': 14.75, 'roll': -7.67, 'pres': 197}
{'lipoC2': 7.41, 'lipoC3S1': 3.8, 'temp': 26.81, 'lipoC3S3': 11.73, 'lipoC3S2': 7.77, 'rot1': 66, 'rot0': 72, 'rot3': 86, 'rot2': 72, 'state': 'normal', 'yaw': -4.72, 'datetime': '2018-10-09 14:36:36.456272', 'mgs': 0, 'volt': 0.9082, 'depth': 1.691, 'time': 13, 'pitch': 14.45, 'roll': -7.75, 'pres': 186}
{'lipoC2': 7.41, 'lipoC3S1': 3.89, 'temp': 26.81, 'lipoC3S3': 11.72, 'lipoC3S2': 7.76, 'rot1': 67, 'rot0': 73, 'rot3': 87, 'rot2': 72, 'state': 'normal', 'yaw': -4.17, 'datetime': '2018-10-09 14:36:36.560449', 'mgs': 0, 'volt': 0.957, 'depth': 2.454, 'time': 14, 'pitch': 14.15, 'roll': -7.88, 'pres': 196}
{'lipoC2': 7.41, 'lipoC3S1': 3.89, 'temp': 26.81, 'lipoC3S3': 11.64, 'lipoC3S2': 7.76, 'rot1': 68, 'rot0': 74, 'rot3': 87, 'rot2': 72, 'state': 'normal', 'yaw': -3.61, 'datetime': '2018-10-09 14:36:36.664512', 'mgs': 0, 'volt': 0.9082, 'depth': 1.691, 'time': 14, 'pitch': 13.83, 'roll': -8.04, 'pres': 186}
{'lipoC2': 7.41, 'lipoC3S1': 3.82, 'temp': 26.81, 'lipoC3S3': 11.75, 'lipoC3S2': 7.77, 'rot1': 69, 'rot0': 75, 'rot3': 87, 'rot2': 72, 'state': 'normal', 'yaw': -2.96, 'datetime': '2018-10-09 14:36:36.768537', 'mgs': 0, 'volt': 0.9033, 'depth': 1.614, 'time': 14, 'pitch': 13.57, 'roll': -8.18, 'pres': 185}
{'lipoC2': 7.39, 'lipoC3S1': 3.89, 'temp': 26.88, 'lipoC3S3': 11.73, 'lipoC3S2': 7.77, 'rot1': 70, 'rot0': 76, 'rot3': 87, 'rot2': 72, 'state': 'normal', 'yaw': -2.51, 'datetime': '2018-10-09 14:36:36.872577', 'mgs': 0, 'volt': 0.9277, 'depth': 1.996, 'time': 14, 'pitch': 13.43, 'roll': -8.28, 'pres': 190}
{'lipoC2': 7.4, 'lipoC3S1': 3.88, 'temp': 26.88, 'lipoC3S3': 11.47, 'lipoC3S2': 7.74, 'rot1': 71, 'rot0': 77, 'rot3': 87, 'rot2': 73, 'state': 'normal', 'yaw': -2.2, 'datetime': '2018-10-09 14:36:36.976807', 'mgs': 0, 'volt': 0.9033, 'depth': 1.614, 'time': 14, 'pitch': 13.42, 'roll': -8.34, 'pres': 185}
{'lipoC2': 7.41, 'lipoC3S1': 3.86, 'temp': 26.81, 'lipoC3S3': 11.73, 'lipoC3S2': 7.68, 'rot1': 73, 'rot0': 78, 'rot3': 88, 'rot2': 73, 'state': 'normal', 'yaw': -2.0, 'datetime': '2018-10-09 14:36:37.080863', 'mgs': 0, 'volt': 0.9033, 'depth': 1.614, 'time': 14, 'pitch': 13.45, 'roll': -8.35, 'pres': 185}
{'lipoC2': 7.41, 'lipoC3S1': 3.74, 'temp': 26.81, 'lipoC3S3': 11.73, 'lipoC3S2': 7.71, 'rot1': 74, 'rot0': 80, 'rot3': 88, 'rot2': 74, 'state': 'normal', 'yaw': -1.93, 'datetime': '2018-10-09 14:36:37.186207', 'mgs': 0, 'volt': 0.9033, 'depth': 1.614, 'time': 14, 'pitch': 13.5, 'roll': -8.33, 'pres': 185}
{'lipoC2': 7.4, 'lipoC3S1': 3.89, 'temp': 26.88, 'lipoC3S3': 11.71, 'lipoC3S2': 7.75, 'rot1': 75, 'rot0': 81, 'rot3': 89, 'rot2': 74, 'state': 'normal', 'yaw': -1.96, 'datetime': '2018-10-09 14:36:37.290160', 'mgs': 0, 'volt': 0.9375, 'depth': 2.148, 'time': 14, 'pitch': 13.58, 'roll': -8.34, 'pres': 192}
{'lipoC2': 7.41, 'lipoC3S1': 3.88, 'temp': 26.88, 'lipoC3S3': 11.52, 'lipoC3S2': 7.76, 'rot1': 76, 'rot0': 82, 'rot3': 89, 'rot2': 75, 'state': 'normal', 'yaw': -2.08, 'datetime': '2018-10-09 14:36:37.395420', 'mgs': 0, 'volt': 0.9033, 'depth': 1.614, 'time': 14, 'pitch': 13.63, 'roll': -8.37, 'pres': 185}
{'lipoC2': 7.41, 'lipoC3S1': 3.77, 'temp': 26.88, 'lipoC3S3': 11.73, 'lipoC3S2': 7.72, 'rot1': 77, 'rot0': 83, 'rot3': 90, 'rot2': 75, 'state': 'normal', 'yaw': -2.32, 'datetime': '2018-10-09 14:36:37.499349', 'mgs': 0, 'volt': 0.9033, 'depth': 1.614, 'time': 14, 'pitch': 13.63, 'roll': -8.42, 'pres': 185}
{'lipoC2': 7.41, 'lipoC3S1': 3.91, 'temp': 26.88, 'lipoC3S3': 11.71, 'lipoC3S2': 7.62, 'rot1': 78, 'rot0': 84, 'rot3': 91, 'rot2': 76, 'state': 'normal', 'yaw': -2.58, 'datetime': '2018-10-09 14:36:37.603926', 'mgs': 0, 'volt': 0.9033, 'depth': 1.614, 'time': 15, 'pitch': 13.53, 'roll': -8.44, 'pres': 185}
{'lipoC2': 7.41, 'lipoC3S1': 3.78, 'temp': 26.88, 'lipoC3S3': 11.73, 'lipoC3S2': 7.71, 'rot1': 79, 'rot0': 86, 'rot3': 91, 'rot2': 76, 'state': 'normal', 'yaw': -2.9, 'datetime': '2018-10-09 14:36:37.709053', 'mgs': 0, 'volt': 0.9033, 'depth': 1.614, 'time': 15, 'pitch': 13.32, 'roll': -8.48, 'pres': 185}
{'lipoC2': 7.41, 'lipoC3S1': 3.89, 'temp': 26.81, 'lipoC3S3': 11.71, 'lipoC3S2': 7.75, 'rot1': 81, 'rot0': 87, 'rot3': 92, 'rot2': 77, 'state': 'normal', 'yaw': -3.21, 'datetime': '2018-10-09 14:36:37.813169', 'mgs': 0, 'volt': 0.9375, 'depth': 2.148, 'time': 15, 'pitch': 12.92, 'roll': -8.52, 'pres': 192}
{'lipoC2': 7.41, 'lipoC3S1': 3.88, 'temp': 26.81, 'lipoC3S3': 11.61, 'lipoC3S2': 7.7, 'rot1': 82, 'rot0': 88, 'rot3': 92, 'rot2': 77, 'state': 'normal', 'yaw': -3.48, 'datetime': '2018-10-09 14:36:37.917184', 'mgs': 0, 'volt': 0.8984, 'depth': 1.538, 'time': 15, 'pitch': 12.47, 'roll': -8.58, 'pres': 184}
{'lipoC2': 7.41, 'lipoC3S1': 3.81, 'temp': 26.88, 'lipoC3S3': 11.73, 'lipoC3S2': 7.76, 'rot1': 83, 'rot0': 89, 'rot3': 93, 'rot2': 78, 'state': 'normal', 'yaw': -3.76, 'datetime': '2018-10-09 14:36:38.022406', 'mgs': 0, 'volt': 0.9033, 'depth': 1.614, 'time': 15, 'pitch': 11.96, 'roll': -8.64, 'pres': 185}
{'lipoC2': 7.4, 'lipoC3S1': 3.89, 'temp': 26.88, 'lipoC3S3': 11.71, 'lipoC3S2': 7.75, 'rot1': 84, 'rot0': 90, 'rot3': 93, 'rot2': 78, 'state': 'normal', 'yaw': -4.01, 'datetime': '2018-10-09 14:36:38.125272', 'mgs': 0, 'volt': 0.8936, 'depth': 1.462, 'time': 15, 'pitch': 11.58, 'roll': -8.69, 'pres': 183}
{'lipoC2': 7.41, 'lipoC3S1': 3.84, 'temp': 26.88, 'lipoC3S3': 11.72, 'lipoC3S2': 7.62, 'rot1': 85, 'rot0': 91, 'rot3': 94, 'rot2': 79, 'state': 'normal', 'yaw': -4.24, 'datetime': '2018-10-09 14:36:38.229223', 'mgs': 0, 'volt': 0.9033, 'depth': 1.614, 'time': 15, 'pitch': 11.3, 'roll': -8.74, 'pres': 185}
