{'lipoC2': 7.29, 'lipoC3S1': 3.82, 'temp': 26.94, 'lipoC3S3': 11.55, 'lipoC3S2': 7.65, 'rot1': 25, 'rot0': 23, 'rot3': 15, 'rot2': 14, 'state': 'normal', 'yaw': 40.89, 'datetime': '2018-10-09 20:21:41.239857', 'mgs': 0, 'volt': 0.8936, 'depth': 1.462, 'time': 29, 'pitch': 6.71, 'roll': -1.78, 'pres': 183}
{'lipoC2': 7.28, 'lipoC3S1': 3.82, 'temp': 26.88, 'lipoC3S3': 11.56, 'lipoC3S2': 7.65, 'rot1': 25, 'rot0': 23, 'rot3': 15, 'rot2': 14, 'state': 'normal', 'yaw': 41.19, 'datetime': '2018-10-09 20:21:44.267871', 'mgs': 0, 'volt': 0.8936, 'depth': 1.462, 'time': 30, 'pitch': 6.55, 'roll': -2.12, 'pres': 183}
{'lipoC2': 7.29, 'lipoC3S1': 3.82, 'temp': 26.88, 'lipoC3S3': 11.55, 'lipoC3S2': 7.65, 'rot1': 25, 'rot0': 23, 'rot3': 15, 'rot2': 14, 'state': 'normal', 'yaw': 41.51, 'datetime': '2018-10-09 20:21:44.291613', 'mgs': 0, 'volt': 0.8887, 'depth': 1.385, 'time': 30, 'pitch': 6.31, 'roll': -2.47, 'pres': 182}
{'lipoC2': 7.28, 'lipoC3S1': 3.82, 'temp': 26.94, 'lipoC3S3': 11.56, 'lipoC3S2': 7.65, 'rot1': 25, 'rot0': 23, 'rot3': 15, 'rot2': 14, 'state': 'normal', 'yaw': 41.65, 'datetime': '2018-10-09 20:21:44.322953', 'mgs': 0, 'volt': 0.8936, 'depth': 1.462, 'time': 30, 'pitch': 6.07, 'roll': -2.7, 'pres': 183}
{'lipoC2': 7.29, 'lipoC3S1': 3.82, 'temp': 26.94, 'lipoC3S3': 11.56, 'lipoC3S2': 7.65, 'rot1': 25, 'rot0': 23, 'rot3': 15, 'rot2': 14, 'state': 'normal', 'yaw': 41.63, 'datetime': '2018-10-09 20:21:44.354520', 'mgs': 0, 'volt': 0.8936, 'depth': 1.462, 'time': 30, 'pitch': 6.02, 'roll': -2.74, 'pres': 183}
{'lipoC2': 7.29, 'lipoC3S1': 3.82, 'temp': 26.94, 'lipoC3S3': 11.56, 'lipoC3S2': 7.65, 'rot1': 25, 'rot0': 23, 'rot3': 15, 'rot2': 14, 'state': 'normal', 'yaw': 41.55, 'datetime': '2018-10-09 20:21:44.377932', 'mgs': 0, 'volt': 0.8936, 'depth': 1.462, 'time': 30, 'pitch': 6.01, 'roll': -2.74, 'pres': 183}
{'lipoC2': 7.29, 'lipoC3S1': 3.83, 'temp': 26.94, 'lipoC3S3': 11.55, 'lipoC3S2': 7.65, 'rot1': 25, 'rot0': 23, 'rot3': 15, 'rot2': 14, 'state': 'normal', 'yaw': 41.53, 'datetime': '2018-10-09 20:21:44.394226', 'mgs': 0, 'volt': 0.8936, 'depth': 1.462, 'time': 30, 'pitch': 5.95, 'roll': -2.66, 'pres': 183}
{'lipoC2': 7.29, 'lipoC3S1': 3.83, 'temp': 26.94, 'lipoC3S3': 11.56, 'lipoC3S2': 7.65, 'rot1': 25, 'rot0': 23, 'rot3': 15, 'rot2': 14, 'state': 'normal', 'yaw': 41.59, 'datetime': '2018-10-09 20:21:44.410504', 'mgs': 0, 'volt': 0.8984, 'depth': 1.538, 'time': 30, 'pitch': 5.76, 'roll': -2.63, 'pres': 184}
{'lipoC2': 7.29, 'lipoC3S1': 3.82, 'temp': 26.94, 'lipoC3S3': 11.56, 'lipoC3S2': 7.65, 'rot1': 25, 'rot0': 23, 'rot3': 15, 'rot2': 14, 'state': 'normal', 'yaw': 41.68, 'datetime': '2018-10-09 20:21:44.426892', 'mgs': 0, 'volt': 0.8984, 'depth': 1.538, 'time': 30, 'pitch': 5.43, 'roll': -2.54, 'pres': 184}
{'lipoC2': 7.29, 'lipoC3S1': 3.83, 'temp': 26.94, 'lipoC3S3': 11.56, 'lipoC3S2': 7.65, 'rot1': 25, 'rot0': 23, 'rot3': 15, 'rot2': 14, 'state': 'normal', 'yaw': 41.66, 'datetime': '2018-10-09 20:21:44.443069', 'mgs': 0, 'volt': 0.8984, 'depth': 1.538, 'time': 30, 'pitch': 5.22, 'roll': -2.34, 'pres': 184}
{'lipoC2': 7.29, 'lipoC3S1': 3.82, 'temp': 27.0, 'lipoC3S3': 11.55, 'lipoC3S2': 7.65, 'rot1': 25, 'rot0': 23, 'rot3': 15, 'rot2': 14, 'state': 'normal', 'yaw': 41.57, 'datetime': '2018-10-09 20:21:44.459292', 'mgs': 0, 'volt': 0.9033, 'depth': 1.614, 'time': 30, 'pitch': 5.37, 'roll': -2.12, 'pres': 185}
{'lipoC2': 7.28, 'lipoC3S1': 3.82, 'temp': 27.0, 'lipoC3S3': 11.55, 'lipoC3S2': 7.65, 'rot1': 25, 'rot0': 23, 'rot3': 15, 'rot2': 14, 'state': 'normal', 'yaw': 41.65, 'datetime': '2018-10-09 20:21:44.475486', 'mgs': 0, 'volt': 0.9033, 'depth': 1.614, 'time': 31, 'pitch': 5.81, 'roll': -1.98, 'pres': 185}
{'lipoC2': 7.29, 'lipoC3S1': 3.82, 'temp': 26.94, 'lipoC3S3': 11.55, 'lipoC3S2': 7.65, 'rot1': 25, 'rot0': 23, 'rot3': 15, 'rot2': 14, 'state': 'normal', 'yaw': 41.93, 'datetime': '2018-10-09 20:21:44.491702', 'mgs': 0, 'volt': 0.9033, 'depth': 1.614, 'time': 31, 'pitch': 6.13, 'roll': -2.0, 'pres': 185}
{'lipoC2': 7.29, 'lipoC3S1': 3.82, 'temp': 26.94, 'lipoC3S3': 11.55, 'lipoC3S2': 7.65, 'rot1': 25, 'rot0': 23, 'rot3': 15, 'rot2': 14, 'state': 'normal', 'yaw': 42.35, 'datetime': '2018-10-09 20:21:44.507900', 'mgs': 0, 'volt': 0.9033, 'depth': 1.614, 'time': 31, 'pitch': 6.39, 'roll': -2.1, 'pres': 185}
{'lipoC2': 7.28, 'lipoC3S1': 3.82, 'temp': 26.94, 'lipoC3S3': 11.55, 'lipoC3S2': 7.65, 'rot1': 25, 'rot0': 23, 'rot3': 15, 'rot2': 14, 'state': 'normal', 'yaw': 42.56, 'datetime': '2018-10-09 20:21:44.524364', 'mgs': 0, 'volt': 0.9033, 'depth': 1.614, 'time': 31, 'pitch': 6.79, 'roll': -2.09, 'pres': 185}
{'lipoC2': 7.28, 'lipoC3S1': 3.82, 'temp': 27.0, 'lipoC3S3': 11.55, 'lipoC3S2': 7.65, 'rot1': 25, 'rot0': 23, 'rot3': 15, 'rot2': 14, 'state': 'normal', 'yaw': 42.46, 'datetime': '2018-10-09 20:21:44.540641', 'mgs': 0, 'volt': 0.9033, 'depth': 1.614, 'time': 31, 'pitch': 7.03, 'roll': -1.92, 'pres': 185}
{'lipoC2': 7.28, 'lipoC3S1': 3.82, 'temp': 26.94, 'lipoC3S3': 11.55, 'lipoC3S2': 7.65, 'rot1': 0, 'rot0': 0, 'rot3': 0, 'rot2': 0, 'state': 'normal', 'yaw': 0.0, 'datetime': '2018-10-09 20:21:44.556728', 'mgs': 0, 'volt': 0.9131, 'depth': 1.767, 'time': 1, 'pitch': -2.51, 'roll': -1.5, 'pres': 187}
{'lipoC2': 7.28, 'lipoC3S1': 3.82, 'temp': 26.94, 'lipoC3S3': 11.55, 'lipoC3S2': 7.65, 'rot1': 0, 'rot0': 0, 'rot3': 0, 'rot2': 0, 'state': 'normal', 'yaw': 0.28, 'datetime': '2018-10-09 20:21:44.572779', 'mgs': 0, 'volt': 0.9131, 'depth': 1.767, 'time': 1, 'pitch': -3.22, 'roll': -1.46, 'pres': 187}
{'lipoC2': 7.28, 'lipoC3S1': 3.82, 'temp': 26.94, 'lipoC3S3': 11.56, 'lipoC3S2': 7.65, 'rot1': 0, 'rot0': 0, 'rot3': 0, 'rot2': 0, 'state': 'normal', 'yaw': 0.56, 'datetime': '2018-10-09 20:21:44.588817', 'mgs': 0, 'volt': 0.9131, 'depth': 1.767, 'time': 1, 'pitch': -3.61, 'roll': -1.44, 'pres': 187}
{'lipoC2': 7.28, 'lipoC3S1': 3.82, 'temp': 26.94, 'lipoC3S3': 11.56, 'lipoC3S2': 7.65, 'rot1': 0, 'rot0': 0, 'rot3': 0, 'rot2': 0, 'state': 'normal', 'yaw': 0.84, 'datetime': '2018-10-09 20:21:44.604667', 'mgs': 0, 'volt': 0.9082, 'depth': 1.691, 'time': 1, 'pitch': -4.02, 'roll': -1.44, 'pres': 186}
{'lipoC2': 7.28, 'lipoC3S1': 3.82, 'temp': 26.94, 'lipoC3S3': 11.56, 'lipoC3S2': 7.65, 'rot1': 0, 'rot0': 0, 'rot3': 0, 'rot2': 0, 'state': 'normal', 'yaw': 1.09, 'datetime': '2018-10-09 20:21:44.620164', 'mgs': 0, 'volt': 0.9131, 'depth': 1.767, 'time': 1, 'pitch': -4.42, 'roll': -1.43, 'pres': 187}
{'lipoC2': 7.29, 'lipoC3S1': 3.83, 'temp': 26.94, 'lipoC3S3': 11.56, 'lipoC3S2': 7.65, 'rot1': 0, 'rot0': 0, 'rot3': 0, 'rot2': 0, 'state': 'normal', 'yaw': 1.34, 'datetime': '2018-10-09 20:21:44.635742', 'mgs': 0, 'volt': 0.9082, 'depth': 1.691, 'time': 1, 'pitch': -4.81, 'roll': -1.42, 'pres': 186}
{'lipoC2': 7.29, 'lipoC3S1': 3.83, 'temp': 26.94, 'lipoC3S3': 11.56, 'lipoC3S2': 7.65, 'rot1': 0, 'rot0': 0, 'rot3': 0, 'rot2': 0, 'state': 'normal', 'yaw': 1.53, 'datetime': '2018-10-09 20:21:44.651229', 'mgs': 0, 'volt': 0.9082, 'depth': 1.691, 'time': 1, 'pitch': -5.02, 'roll': -1.42, 'pres': 186}
{'lipoC2': 7.28, 'lipoC3S1': 3.82, 'temp': 27.0, 'lipoC3S3': 11.55, 'lipoC3S2': 7.65, 'rot1': 0, 'rot0': 0, 'rot3': 0, 'rot2': 0, 'state': 'normal', 'yaw': 1.66, 'datetime': '2018-10-09 20:21:44.666635', 'mgs': 0, 'volt': 0.9082, 'depth': 1.691, 'time': 1, 'pitch': -5.27, 'roll': -1.42, 'pres': 186}
{'lipoC2': 7.28, 'lipoC3S1': 3.82, 'temp': 27.0, 'lipoC3S3': 11.55, 'lipoC3S2': 7.65, 'rot1': 0, 'rot0': 0, 'rot3': 0, 'rot2': 0, 'state': 'normal', 'yaw': 1.77, 'datetime': '2018-10-09 20:21:44.682237', 'mgs': 0, 'volt': 0.9082, 'depth': 1.691, 'time': 2, 'pitch': -5.4, 'roll': -1.4, 'pres': 186}
{'lipoC2': 7.28, 'lipoC3S1': 3.82, 'temp': 27.0, 'lipoC3S3': 11.55, 'lipoC3S2': 7.65, 'rot1': 0, 'rot0': 0, 'rot3': 0, 'rot2': 0, 'state': 'normal', 'yaw': 1.89, 'datetime': '2018-10-09 20:21:44.697885', 'mgs': 0, 'volt': 0.9131, 'depth': 1.767, 'time': 2, 'pitch': -5.23, 'roll': -1.43, 'pres': 187}
{'lipoC2': 7.28, 'lipoC3S1': 3.82, 'temp': 27.0, 'lipoC3S3': 11.55, 'lipoC3S2': 7.65, 'rot1': 0, 'rot0': 0, 'rot3': 0, 'rot2': 0, 'state': 'normal', 'yaw': 1.98, 'datetime': '2018-10-09 20:21:44.713483', 'mgs': 0, 'volt': 0.9082, 'depth': 1.691, 'time': 2, 'pitch': -4.93, 'roll': -1.45, 'pres': 186}
{'lipoC2': 7.29, 'lipoC3S1': 3.82, 'temp': 27.0, 'lipoC3S3': 11.56, 'lipoC3S2': 7.65, 'rot1': 0, 'rot0': 0, 'rot3': 0, 'rot2': 0, 'state': 'normal', 'yaw': 2.02, 'datetime': '2018-10-09 20:21:44.729237', 'mgs': 0, 'volt': 0.9082, 'depth': 1.691, 'time': 2, 'pitch': -4.67, 'roll': -1.45, 'pres': 186}
{'lipoC2': 7.28, 'lipoC3S1': 3.82, 'temp': 26.94, 'lipoC3S3': 11.56, 'lipoC3S2': 7.65, 'rot1': 0, 'rot0': 0, 'rot3': 0, 'rot2': 0, 'state': 'normal', 'yaw': 2.02, 'datetime': '2018-10-09 20:21:44.744871', 'mgs': 0, 'volt': 0.9082, 'depth': 1.691, 'time': 2, 'pitch': -4.46, 'roll': -1.47, 'pres': 186}
{'lipoC2': 7.28, 'lipoC3S1': 3.82, 'temp': 26.94, 'lipoC3S3': 11.56, 'lipoC3S2': 7.65, 'rot1': 0, 'rot0': 0, 'rot3': 0, 'rot2': 0, 'state': 'normal', 'yaw': 2.01, 'datetime': '2018-10-09 20:21:44.761746', 'mgs': 0, 'volt': 0.9082, 'depth': 1.691, 'time': 2, 'pitch': -4.3, 'roll': -1.49, 'pres': 186}
{'lipoC2': 7.28, 'lipoC3S1': 3.82, 'temp': 26.94, 'lipoC3S3': 11.56, 'lipoC3S2': 7.65, 'rot1': 0, 'rot0': 0, 'rot3': 0, 'rot2': 0, 'state': 'normal', 'yaw': 2.02, 'datetime': '2018-10-09 20:21:44.777311', 'mgs': 0, 'volt': 0.9131, 'depth': 1.767, 'time': 2, 'pitch': -4.2, 'roll': -1.51, 'pres': 187}
{'lipoC2': 7.29, 'lipoC3S1': 3.82, 'temp': 26.94, 'lipoC3S3': 11.56, 'lipoC3S2': 7.65, 'rot1': 0, 'rot0': 0, 'rot3': 0, 'rot2': 0, 'state': 'normal', 'yaw': 2.09, 'datetime': '2018-10-09 20:21:44.793344', 'mgs': 0, 'volt': 0.9082, 'depth': 1.691, 'time': 2, 'pitch': -4.24, 'roll': -1.55, 'pres': 186}
{'lipoC2': 7.28, 'lipoC3S1': 3.82, 'temp': 26.94, 'lipoC3S3': 11.55, 'lipoC3S2': 7.65, 'rot1': 0, 'rot0': 0, 'rot3': 0, 'rot2': 0, 'state': 'normal', 'yaw': 2.11, 'datetime': '2018-10-09 20:21:44.810896', 'mgs': 0, 'volt': 0.9033, 'depth': 1.614, 'time': 2, 'pitch': -4.32, 'roll': -1.55, 'pres': 185}
{'lipoC2': 7.28, 'lipoC3S1': 3.78, 'temp': 26.94, 'lipoC3S3': 11.55, 'lipoC3S2': 7.64, 'rot1': 0, 'rot0': 0, 'rot3': 0, 'rot2': 0, 'state': 'normal', 'yaw': 2.11, 'datetime': '2018-10-09 20:21:44.827295', 'mgs': 0, 'volt': 0.9033, 'depth': 1.614, 'time': 3, 'pitch': -4.37, 'roll': -1.55, 'pres': 185}
{'lipoC2': 7.27, 'lipoC3S1': 3.81, 'temp': 26.94, 'lipoC3S3': 11.48, 'lipoC3S2': 7.61, 'rot1': 0, 'rot0': 0, 'rot3': 0, 'rot2': 0, 'state': 'normal', 'yaw': 2.11, 'datetime': '2018-10-09 20:21:44.843804', 'mgs': 0, 'volt': 0.918, 'depth': 1.843, 'time': 3, 'pitch': -4.34, 'roll': -1.46, 'pres': 188}
{'lipoC2': 7.28, 'lipoC3S1': 3.81, 'temp': 27.0, 'lipoC3S3': 11.46, 'lipoC3S2': 7.62, 'rot1': 0, 'rot0': 0, 'rot3': 0, 'rot2': 0, 'state': 'normal', 'yaw': 1.96, 'datetime': '2018-10-09 20:21:44.860009', 'mgs': 0, 'volt': 0.9033, 'depth': 1.614, 'time': 3, 'pitch': -4.29, 'roll': -1.28, 'pres': 185}
{'lipoC2': 7.28, 'lipoC3S1': 3.83, 'temp': 27.0, 'lipoC3S3': 11.52, 'lipoC3S2': 7.59, 'rot1': 0, 'rot0': 0, 'rot3': 1, 'rot2': 1, 'state': 'normal', 'yaw': 1.78, 'datetime': '2018-10-09 20:21:44.876305', 'mgs': 0, 'volt': 0.9033, 'depth': 1.614, 'time': 3, 'pitch': -3.97, 'roll': -1.03, 'pres': 185}
{'lipoC2': 7.28, 'lipoC3S1': 3.79, 'temp': 26.94, 'lipoC3S3': 11.52, 'lipoC3S2': 7.59, 'rot1': 0, 'rot0': 0, 'rot3': 1, 'rot2': 2, 'state': 'normal', 'yaw': 1.72, 'datetime': '2018-10-09 20:21:44.892528', 'mgs': 0, 'volt': 0.9033, 'depth': 1.614, 'time': 3, 'pitch': -3.45, 'roll': -0.87, 'pres': 185}
{'lipoC2': 7.28, 'lipoC3S1': 3.77, 'temp': 26.94, 'lipoC3S3': 11.52, 'lipoC3S2': 7.62, 'rot1': 1, 'rot0': 1, 'rot3': 2, 'rot2': 2, 'state': 'normal', 'yaw': 1.73, 'datetime': '2018-10-09 20:21:44.917165', 'mgs': 0, 'volt': 0.918, 'depth': 1.843, 'time': 3, 'pitch': -2.76, 'roll': -0.76, 'pres': 188}
{'lipoC2': 7.28, 'lipoC3S1': 3.81, 'temp': 26.88, 'lipoC3S3': 11.51, 'lipoC3S2': 7.62, 'rot1': 1, 'rot0': 1, 'rot3': 3, 'rot2': 3, 'state': 'normal', 'yaw': 1.79, 'datetime': '2018-10-09 20:21:45.020410', 'mgs': 0, 'volt': 0.9082, 'depth': 1.691, 'time': 3, 'pitch': -1.95, 'roll': -0.7, 'pres': 186}
{'lipoC2': 7.28, 'lipoC3S1': 3.81, 'temp': 26.88, 'lipoC3S3': 11.46, 'lipoC3S2': 7.62, 'rot1': 1, 'rot0': 1, 'rot3': 3, 'rot2': 3, 'state': 'normal', 'yaw': 1.91, 'datetime': '2018-10-09 20:21:45.130149', 'mgs': 0, 'volt': 0.8936, 'depth': 1.462, 'time': 3, 'pitch': -1.23, 'roll': -0.66, 'pres': 183}
{'lipoC2': 7.28, 'lipoC3S1': 3.82, 'temp': 26.88, 'lipoC3S3': 11.54, 'lipoC3S2': 7.64, 'rot1': 1, 'rot0': 1, 'rot3': 4, 'rot2': 4, 'state': 'normal', 'yaw': 2.05, 'datetime': '2018-10-09 20:21:45.233382', 'mgs': 0, 'volt': 0.8936, 'depth': 1.462, 'time': 3, 'pitch': -0.57, 'roll': -0.64, 'pres': 183}
{'lipoC2': 7.28, 'lipoC3S1': 3.82, 'temp': 26.94, 'lipoC3S3': 11.55, 'lipoC3S2': 7.64, 'rot1': 1, 'rot0': 1, 'rot3': 4, 'rot2': 4, 'state': 'normal', 'yaw': 2.26, 'datetime': '2018-10-09 20:21:45.337145', 'mgs': 0, 'volt': 0.8887, 'depth': 1.385, 'time': 3, 'pitch': -0.08, 'roll': -0.68, 'pres': 182}
{'lipoC2': 7.28, 'lipoC3S1': 3.82, 'temp': 26.94, 'lipoC3S3': 11.54, 'lipoC3S2': 7.64, 'rot1': 2, 'rot0': 2, 'rot3': 4, 'rot2': 4, 'state': 'normal', 'yaw': 2.54, 'datetime': '2018-10-09 20:21:45.440373', 'mgs': 0, 'volt': 0.9082, 'depth': 1.691, 'time': 4, 'pitch': 0.18, 'roll': -0.77, 'pres': 186}
{'lipoC2': 7.28, 'lipoC3S1': 3.82, 'temp': 26.94, 'lipoC3S3': 11.55, 'lipoC3S2': 7.64, 'rot1': 2, 'rot0': 2, 'rot3': 4, 'rot2': 4, 'state': 'normal', 'yaw': 2.83, 'datetime': '2018-10-09 20:21:45.544244', 'mgs': 0, 'volt': 0.8887, 'depth': 1.385, 'time': 4, 'pitch': 0.24, 'roll': -0.88, 'pres': 182}
{'lipoC2': 7.28, 'lipoC3S1': 3.82, 'temp': 26.94, 'lipoC3S3': 11.55, 'lipoC3S2': 7.64, 'rot1': 2, 'rot0': 2, 'rot3': 4, 'rot2': 4, 'state': 'normal', 'yaw': 3.16, 'datetime': '2018-10-09 20:21:45.648155', 'mgs': 0, 'volt': 0.8838, 'depth': 1.309, 'time': 4, 'pitch': 0.17, 'roll': -0.99, 'pres': 181}
{'lipoC2': 7.28, 'lipoC3S1': 3.82, 'temp': 27.0, 'lipoC3S3': 11.55, 'lipoC3S2': 7.64, 'rot1': 2, 'rot0': 2, 'rot3': 4, 'rot2': 4, 'state': 'normal', 'yaw': 3.56, 'datetime': '2018-10-09 20:21:45.751328', 'mgs': 0, 'volt': 0.8838, 'depth': 1.309, 'time': 4, 'pitch': -0.08, 'roll': -1.13, 'pres': 181}
{'lipoC2': 7.28, 'lipoC3S1': 3.82, 'temp': 27.0, 'lipoC3S3': 11.55, 'lipoC3S2': 7.64, 'rot1': 2, 'rot0': 2, 'rot3': 4, 'rot2': 4, 'state': 'normal', 'yaw': 3.94, 'datetime': '2018-10-09 20:21:45.855817', 'mgs': 0, 'volt': 0.9033, 'depth': 1.614, 'time': 4, 'pitch': -0.44, 'roll': -1.23, 'pres': 185}
{'lipoC2': 7.28, 'lipoC3S1': 3.81, 'temp': 27.0, 'lipoC3S3': 11.55, 'lipoC3S2': 7.65, 'rot1': 2, 'rot0': 3, 'rot3': 4, 'rot2': 4, 'state': 'normal', 'yaw': 4.37, 'datetime': '2018-10-09 20:21:45.959190', 'mgs': 0, 'volt': 0.8789, 'depth': 1.233, 'time': 4, 'pitch': -0.86, 'roll': -1.37, 'pres': 180}
{'lipoC2': 7.28, 'lipoC3S1': 3.82, 'temp': 27.0, 'lipoC3S3': 11.55, 'lipoC3S2': 7.64, 'rot1': 3, 'rot0': 3, 'rot3': 4, 'rot2': 4, 'state': 'normal', 'yaw': 4.8, 'datetime': '2018-10-09 20:21:46.062546', 'mgs': 0, 'volt': 0.874, 'depth': 1.157, 'time': 4, 'pitch': -1.3, 'roll': -1.49, 'pres': 179}
{'lipoC2': 7.28, 'lipoC3S1': 3.82, 'temp': 27.0, 'lipoC3S3': 11.55, 'lipoC3S2': 7.64, 'rot1': 3, 'rot0': 3, 'rot3': 4, 'rot2': 4, 'state': 'normal', 'yaw': 5.25, 'datetime': '2018-10-09 20:21:46.165717', 'mgs': 0, 'volt': 0.874, 'depth': 1.157, 'time': 4, 'pitch': -1.73, 'roll': -1.59, 'pres': 179}
{'lipoC2': 7.28, 'lipoC3S1': 3.81, 'temp': 27.0, 'lipoC3S3': 11.44, 'lipoC3S2': 7.61, 'rot1': 3, 'rot0': 3, 'rot3': 5, 'rot2': 4, 'state': 'normal', 'yaw': 5.69, 'datetime': '2018-10-09 20:21:46.269317', 'mgs': 0, 'volt': 0.874, 'depth': 1.157, 'time': 4, 'pitch': -2.13, 'roll': -1.62, 'pres': 179}
{'lipoC2': 7.28, 'lipoC3S1': 3.81, 'temp': 27.0, 'lipoC3S3': 11.5, 'lipoC3S2': 7.58, 'rot1': 3, 'rot0': 3, 'rot3': 5, 'rot2': 5, 'state': 'normal', 'yaw': 6.19, 'datetime': '2018-10-09 20:21:46.372331', 'mgs': 0, 'volt': 0.874, 'depth': 1.157, 'time': 4, 'pitch': -2.63, 'roll': -1.63, 'pres': 179}
{'lipoC2': 7.28, 'lipoC3S1': 3.78, 'temp': 27.0, 'lipoC3S3': 11.52, 'lipoC3S2': 7.61, 'rot1': 3, 'rot0': 3, 'rot3': 6, 'rot2': 5, 'state': 'normal', 'yaw': 6.64, 'datetime': '2018-10-09 20:21:46.475564', 'mgs': 0, 'volt': 0.874, 'depth': 1.157, 'time': 5, 'pitch': -3.11, 'roll': -1.64, 'pres': 179}
{'lipoC2': 7.28, 'lipoC3S1': 3.8, 'temp': 27.0, 'lipoC3S3': 11.52, 'lipoC3S2': 7.63, 'rot1': 3, 'rot0': 3, 'rot3': 6, 'rot2': 6, 'state': 'normal', 'yaw': 7.11, 'datetime': '2018-10-09 20:21:46.578753', 'mgs': 0, 'volt': 0.8887, 'depth': 1.385, 'time': 5, 'pitch': -3.62, 'roll': -1.65, 'pres': 182}
{'lipoC2': 7.28, 'lipoC3S1': 3.82, 'temp': 27.0, 'lipoC3S3': 11.55, 'lipoC3S2': 7.64, 'rot1': 3, 'rot0': 3, 'rot3': 7, 'rot2': 6, 'state': 'normal', 'yaw': 7.6, 'datetime': '2018-10-09 20:21:46.682018', 'mgs': 0, 'volt': 0.874, 'depth': 1.157, 'time': 5, 'pitch': -4.04, 'roll': -1.66, 'pres': 179}
{'lipoC2': 7.28, 'lipoC3S1': 3.82, 'temp': 26.94, 'lipoC3S3': 11.54, 'lipoC3S2': 7.64, 'rot1': 4, 'rot0': 4, 'rot3': 7, 'rot2': 6, 'state': 'normal', 'yaw': 8.01, 'datetime': '2018-10-09 20:21:46.785155', 'mgs': 0, 'volt': 0.874, 'depth': 1.157, 'time': 5, 'pitch': -4.19, 'roll': -1.64, 'pres': 179}
{'lipoC2': 7.28, 'lipoC3S1': 3.81, 'temp': 26.94, 'lipoC3S3': 11.48, 'lipoC3S2': 7.56, 'rot1': 4, 'rot0': 4, 'rot3': 7, 'rot2': 6, 'state': 'normal', 'yaw': 8.41, 'datetime': '2018-10-09 20:21:46.888320', 'mgs': 0, 'volt': 0.874, 'depth': 1.157, 'time': 5, 'pitch': -4.15, 'roll': -1.57, 'pres': 179}
{'lipoC2': 7.28, 'lipoC3S1': 3.81, 'temp': 27.0, 'lipoC3S3': 11.5, 'lipoC3S2': 7.58, 'rot1': 4, 'rot0': 4, 'rot3': 7, 'rot2': 7, 'state': 'normal', 'yaw': 8.87, 'datetime': '2018-10-09 20:21:46.991793', 'mgs': 0, 'volt': 0.874, 'depth': 1.157, 'time': 5, 'pitch': -3.94, 'roll': -1.5, 'pres': 179}
{'lipoC2': 7.28, 'lipoC3S1': 3.78, 'temp': 27.0, 'lipoC3S3': 11.52, 'lipoC3S2': 7.61, 'rot1': 4, 'rot0': 4, 'rot3': 8, 'rot2': 7, 'state': 'normal', 'yaw': 9.27, 'datetime': '2018-10-09 20:21:47.095039', 'mgs': 0, 'volt': 0.8789, 'depth': 1.233, 'time': 5, 'pitch': -3.79, 'roll': -1.41, 'pres': 180}
{'lipoC2': 7.28, 'lipoC3S1': 3.81, 'temp': 26.88, 'lipoC3S3': 11.47, 'lipoC3S2': 7.62, 'rot1': 4, 'rot0': 4, 'rot3': 8, 'rot2': 8, 'state': 'normal', 'yaw': 9.67, 'datetime': '2018-10-09 20:21:47.199561', 'mgs': 0, 'volt': 0.8789, 'depth': 1.233, 'time': 5, 'pitch': -3.6, 'roll': -1.33, 'pres': 180}
{'lipoC2': 7.28, 'lipoC3S1': 3.82, 'temp': 26.88, 'lipoC3S3': 11.54, 'lipoC3S2': 7.64, 'rot1': 4, 'rot0': 4, 'rot3': 9, 'rot2': 8, 'state': 'normal', 'yaw': 10.09, 'datetime': '2018-10-09 20:21:47.302825', 'mgs': 0, 'volt': 0.8789, 'depth': 1.233, 'time': 5, 'pitch': -3.36, 'roll': -1.28, 'pres': 180}
{'lipoC2': 7.28, 'lipoC3S1': 3.82, 'temp': 26.88, 'lipoC3S3': 11.55, 'lipoC3S2': 7.64, 'rot1': 4, 'rot0': 4, 'rot3': 9, 'rot2': 8, 'state': 'normal', 'yaw': 10.49, 'datetime': '2018-10-09 20:21:47.406013', 'mgs': 0, 'volt': 0.8838, 'depth': 1.309, 'time': 6, 'pitch': -3.04, 'roll': -1.24, 'pres': 181}
{'lipoC2': 7.28, 'lipoC3S1': 3.82, 'temp': 26.94, 'lipoC3S3': 11.54, 'lipoC3S2': 7.64, 'rot1': 4, 'rot0': 4, 'rot3': 9, 'rot2': 8, 'state': 'normal', 'yaw': 10.84, 'datetime': '2018-10-09 20:21:47.510543', 'mgs': 0, 'volt': 0.8838, 'depth': 1.309, 'time': 6, 'pitch': -2.64, 'roll': -1.2, 'pres': 181}
{'lipoC2': 7.28, 'lipoC3S1': 3.82, 'temp': 26.94, 'lipoC3S3': 11.54, 'lipoC3S2': 7.64, 'rot1': 4, 'rot0': 4, 'rot3': 9, 'rot2': 8, 'state': 'normal', 'yaw': 11.23, 'datetime': '2018-10-09 20:21:47.613739', 'mgs': 0, 'volt': 0.8838, 'depth': 1.309, 'time': 6, 'pitch': -2.15, 'roll': -1.17, 'pres': 181}
{'lipoC2': 7.28, 'lipoC3S1': 3.82, 'temp': 27.0, 'lipoC3S3': 11.54, 'lipoC3S2': 7.64, 'rot1': 4, 'rot0': 4, 'rot3': 9, 'rot2': 8, 'state': 'normal', 'yaw': 11.56, 'datetime': '2018-10-09 20:21:47.717162', 'mgs': 0, 'volt': 0.8887, 'depth': 1.385, 'time': 6, 'pitch': -1.73, 'roll': -1.1, 'pres': 182}
{'lipoC2': 7.28, 'lipoC3S1': 3.82, 'temp': 27.0, 'lipoC3S3': 11.54, 'lipoC3S2': 7.64, 'rot1': 4, 'rot0': 4, 'rot3': 9, 'rot2': 8, 'state': 'normal', 'yaw': 11.89, 'datetime': '2018-10-09 20:21:47.820153', 'mgs': 0, 'volt': 0.8887, 'depth': 1.385, 'time': 6, 'pitch': -1.39, 'roll': -1.07, 'pres': 182}
{'lipoC2': 7.28, 'lipoC3S1': 3.82, 'temp': 27.0, 'lipoC3S3': 11.54, 'lipoC3S2': 7.64, 'rot1': 4, 'rot0': 4, 'rot3': 9, 'rot2': 8, 'state': 'normal', 'yaw': 12.22, 'datetime': '2018-10-09 20:21:47.923557', 'mgs': 0, 'volt': 0.8936, 'depth': 1.462, 'time': 6, 'pitch': -1.12, 'roll': -1.06, 'pres': 183}
{'lipoC2': 7.28, 'lipoC3S1': 3.82, 'temp': 27.0, 'lipoC3S3': 11.55, 'lipoC3S2': 7.64, 'rot1': 4, 'rot0': 4, 'rot3': 9, 'rot2': 8, 'state': 'normal', 'yaw': 12.57, 'datetime': '2018-10-09 20:21:48.026767', 'mgs': 0, 'volt': 0.8887, 'depth': 1.385, 'time': 6, 'pitch': -0.93, 'roll': -1.03, 'pres': 182}
{'lipoC2': 7.28, 'lipoC3S1': 3.82, 'temp': 27.0, 'lipoC3S3': 11.55, 'lipoC3S2': 7.64, 'rot1': 4, 'rot0': 4, 'rot3': 9, 'rot2': 8, 'state': 'normal', 'yaw': 12.91, 'datetime': '2018-10-09 20:21:48.130413', 'mgs': 0, 'volt': 0.8936, 'depth': 1.462, 'time': 6, 'pitch': -0.85, 'roll': -1.03, 'pres': 183}
{'lipoC2': 7.28, 'lipoC3S1': 3.82, 'temp': 26.88, 'lipoC3S3': 11.55, 'lipoC3S2': 7.64, 'rot1': 4, 'rot0': 4, 'rot3': 9, 'rot2': 8, 'state': 'normal', 'yaw': 13.24, 'datetime': '2018-10-09 20:21:48.233558', 'mgs': 0, 'volt': 0.8936, 'depth': 1.462, 'time': 6, 'pitch': -0.84, 'roll': -1.03, 'pres': 183}
{'lipoC2': 7.28, 'lipoC3S1': 3.82, 'temp': 26.88, 'lipoC3S3': 11.55, 'lipoC3S2': 7.64, 'rot1': 4, 'rot0': 4, 'rot3': 9, 'rot2': 8, 'state': 'normal', 'yaw': 13.6, 'datetime': '2018-10-09 20:21:48.336762', 'mgs': 0, 'volt': 0.8936, 'depth': 1.462, 'time': 6, 'pitch': -1.0, 'roll': -1.05, 'pres': 183}
{'lipoC2': 7.28, 'lipoC3S1': 3.82, 'temp': 26.94, 'lipoC3S3': 11.55, 'lipoC3S2': 7.64, 'rot1': 4, 'rot0': 4, 'rot3': 9, 'rot2': 8, 'state': 'normal', 'yaw': 13.94, 'datetime': '2018-10-09 20:21:48.439905', 'mgs': 0, 'volt': 0.8936, 'depth': 1.462, 'time': 7, 'pitch': -1.25, 'roll': -1.08, 'pres': 183}
{'lipoC2': 7.28, 'lipoC3S1': 3.82, 'temp': 26.94, 'lipoC3S3': 11.55, 'lipoC3S2': 7.64, 'rot1': 4, 'rot0': 4, 'rot3': 9, 'rot2': 8, 'state': 'normal', 'yaw': 14.26, 'datetime': '2018-10-09 20:21:48.543208', 'mgs': 0, 'volt': 0.8936, 'depth': 1.462, 'time': 7, 'pitch': -1.59, 'roll': -1.11, 'pres': 183}
{'lipoC2': 7.28, 'lipoC3S1': 3.82, 'temp': 26.94, 'lipoC3S3': 11.55, 'lipoC3S2': 7.64, 'rot1': 4, 'rot0': 4, 'rot3': 9, 'rot2': 8, 'state': 'normal', 'yaw': 14.62, 'datetime': '2018-10-09 20:21:48.646370', 'mgs': 0, 'volt': 0.8936, 'depth': 1.462, 'time': 7, 'pitch': -2.02, 'roll': -1.17, 'pres': 183}
{'lipoC2': 7.28, 'lipoC3S1': 3.82, 'temp': 26.94, 'lipoC3S3': 11.55, 'lipoC3S2': 7.64, 'rot1': 4, 'rot0': 4, 'rot3': 9, 'rot2': 8, 'state': 'normal', 'yaw': 14.95, 'datetime': '2018-10-09 20:21:48.744773', 'mgs': 0, 'volt': 0.8936, 'depth': 1.462, 'time': 7, 'pitch': -2.41, 'roll': -1.24, 'pres': 183}
{'lipoC2': 7.28, 'lipoC3S1': 3.82, 'temp': 26.94, 'lipoC3S3': 11.55, 'lipoC3S2': 7.64, 'rot1': 4, 'rot0': 4, 'rot3': 9, 'rot2': 8, 'state': 'normal', 'yaw': 15.27, 'datetime': '2018-10-09 20:21:48.854070', 'mgs': 0, 'volt': 0.8984, 'depth': 1.538, 'time': 7, 'pitch': -2.76, 'roll': -1.31, 'pres': 184}
{'lipoC2': 7.28, 'lipoC3S1': 3.82, 'temp': 26.94, 'lipoC3S3': 11.55, 'lipoC3S2': 7.64, 'rot1': 4, 'rot0': 4, 'rot3': 9, 'rot2': 8, 'state': 'normal', 'yaw': 15.62, 'datetime': '2018-10-09 20:21:48.957199', 'mgs': 0, 'volt': 0.8984, 'depth': 1.538, 'time': 7, 'pitch': -3.1, 'roll': -1.4, 'pres': 184}
{'lipoC2': 7.28, 'lipoC3S1': 3.82, 'temp': 26.94, 'lipoC3S3': 11.55, 'lipoC3S2': 7.64, 'rot1': 4, 'rot0': 4, 'rot3': 9, 'rot2': 8, 'state': 'normal', 'yaw': 15.94, 'datetime': '2018-10-09 20:21:49.060429', 'mgs': 0, 'volt': 0.8984, 'depth': 1.538, 'time': 7, 'pitch': -3.35, 'roll': -1.45, 'pres': 184}
{'lipoC2': 7.28, 'lipoC3S1': 3.82, 'temp': 26.94, 'lipoC3S3': 11.55, 'lipoC3S2': 7.64, 'rot1': 4, 'rot0': 4, 'rot3': 9, 'rot2': 8, 'state': 'normal', 'yaw': 16.25, 'datetime': '2018-10-09 20:21:49.164952', 'mgs': 0, 'volt': 0.8936, 'depth': 1.462, 'time': 7, 'pitch': -3.54, 'roll': -1.48, 'pres': 183}
{'lipoC2': 7.28, 'lipoC3S1': 3.82, 'temp': 26.94, 'lipoC3S3': 11.55, 'lipoC3S2': 7.64, 'rot1': 4, 'rot0': 4, 'rot3': 9, 'rot2': 8, 'state': 'normal', 'yaw': 16.57, 'datetime': '2018-10-09 20:21:49.268230', 'mgs': 0, 'volt': 0.8984, 'depth': 1.538, 'time': 7, 'pitch': -3.76, 'roll': -1.46, 'pres': 184}
{'lipoC2': 7.28, 'lipoC3S1': 3.82, 'temp': 26.94, 'lipoC3S3': 11.54, 'lipoC3S2': 7.64, 'rot1': 4, 'rot0': 4, 'rot3': 9, 'rot2': 8, 'state': 'normal', 'yaw': 16.87, 'datetime': '2018-10-09 20:21:49.371465', 'mgs': 0, 'volt': 0.8984, 'depth': 1.538, 'time': 7, 'pitch': -3.86, 'roll': -1.43, 'pres': 184}
{'lipoC2': 7.28, 'lipoC3S1': 3.82, 'temp': 26.94, 'lipoC3S3': 11.54, 'lipoC3S2': 7.64, 'rot1': 4, 'rot0': 4, 'rot3': 9, 'rot2': 8, 'state': 'normal', 'yaw': 17.15, 'datetime': '2018-10-09 20:21:49.474604', 'mgs': 0, 'volt': 0.8984, 'depth': 1.538, 'time': 8, 'pitch': -3.87, 'roll': -1.43, 'pres': 184}
{'lipoC2': 7.28, 'lipoC3S1': 3.82, 'temp': 26.94, 'lipoC3S3': 11.55, 'lipoC3S2': 7.64, 'rot1': 4, 'rot0': 4, 'rot3': 9, 'rot2': 8, 'state': 'normal', 'yaw': 17.44, 'datetime': '2018-10-09 20:21:49.577963', 'mgs': 0, 'volt': 0.8984, 'depth': 1.538, 'time': 8, 'pitch': -3.76, 'roll': -1.41, 'pres': 184}
{'lipoC2': 7.28, 'lipoC3S1': 3.82, 'temp': 26.94, 'lipoC3S3': 11.55, 'lipoC3S2': 7.64, 'rot1': 4, 'rot0': 4, 'rot3': 9, 'rot2': 8, 'state': 'normal', 'yaw': 17.74, 'datetime': '2018-10-09 20:21:49.681149', 'mgs': 0, 'volt': 0.8984, 'depth': 1.538, 'time': 8, 'pitch': -3.54, 'roll': -1.4, 'pres': 184}
{'lipoC2': 7.28, 'lipoC3S1': 3.82, 'temp': 26.94, 'lipoC3S3': 11.55, 'lipoC3S2': 7.64, 'rot1': 4, 'rot0': 4, 'rot3': 9, 'rot2': 8, 'state': 'normal', 'yaw': 18.03, 'datetime': '2018-10-09 20:21:49.784373', 'mgs': 0, 'volt': 0.9033, 'depth': 1.614, 'time': 8, 'pitch': -3.27, 'roll': -1.38, 'pres': 185}
{'lipoC2': 7.28, 'lipoC3S1': 3.82, 'temp': 26.94, 'lipoC3S3': 11.52, 'lipoC3S2': 7.64, 'rot1': 4, 'rot0': 4, 'rot3': 9, 'rot2': 8, 'state': 'normal', 'yaw': 18.3, 'datetime': '2018-10-09 20:21:49.888214', 'mgs': 0, 'volt': 0.9033, 'depth': 1.614, 'time': 8, 'pitch': -2.99, 'roll': -1.33, 'pres': 185}
{'lipoC2': 7.28, 'lipoC3S1': 3.78, 'temp': 26.94, 'lipoC3S3': 11.51, 'lipoC3S2': 7.63, 'rot1': 4, 'rot0': 4, 'rot3': 9, 'rot2': 8, 'state': 'normal', 'yaw': 18.6, 'datetime': '2018-10-09 20:21:49.990715', 'mgs': 0, 'volt': 0.8984, 'depth': 1.538, 'time': 8, 'pitch': -2.66, 'roll': -1.28, 'pres': 184}
{'lipoC2': 7.28, 'lipoC3S1': 3.82, 'temp': 26.94, 'lipoC3S3': 11.51, 'lipoC3S2': 7.63, 'rot1': 4, 'rot0': 4, 'rot3': 10, 'rot2': 8, 'state': 'normal', 'yaw': 18.86, 'datetime': '2018-10-09 20:21:50.094169', 'mgs': 0, 'volt': 0.9229, 'depth': 1.92, 'time': 8, 'pitch': -2.3, 'roll': -1.16, 'pres': 189}
{'lipoC2': 7.28, 'lipoC3S1': 3.78, 'temp': 26.94, 'lipoC3S3': 11.52, 'lipoC3S2': 7.62, 'rot1': 4, 'rot0': 4, 'rot3': 10, 'rot2': 9, 'state': 'normal', 'yaw': 19.11, 'datetime': '2018-10-09 20:21:50.197803', 'mgs': 0, 'volt': 0.9033, 'depth': 1.614, 'time': 8, 'pitch': -1.87, 'roll': -1.06, 'pres': 185}
{'lipoC2': 7.28, 'lipoC3S1': 3.78, 'temp': 26.94, 'lipoC3S3': 11.52, 'lipoC3S2': 7.62, 'rot1': 4, 'rot0': 4, 'rot3': 11, 'rot2': 9, 'state': 'normal', 'yaw': 19.38, 'datetime': '2018-10-09 20:21:50.301092', 'mgs': 0, 'volt': 0.9033, 'depth': 1.614, 'time': 8, 'pitch': -1.31, 'roll': -1.04, 'pres': 185}
{'lipoC2': 7.28, 'lipoC3S1': 3.78, 'temp': 26.94, 'lipoC3S3': 11.51, 'lipoC3S2': 7.62, 'rot1': 4, 'rot0': 4, 'rot3': 12, 'rot2': 10, 'state': 'normal', 'yaw': 19.6, 'datetime': '2018-10-09 20:21:50.404744', 'mgs': 0, 'volt': 0.8984, 'depth': 1.538, 'time': 9, 'pitch': -0.82, 'roll': -1.04, 'pres': 184}
{'lipoC2': 7.28, 'lipoC3S1': 3.82, 'temp': 26.94, 'lipoC3S3': 11.54, 'lipoC3S2': 7.64, 'rot1': 4, 'rot0': 4, 'rot3': 12, 'rot2': 10, 'state': 'normal', 'yaw': 19.8, 'datetime': '2018-10-09 20:21:50.509705', 'mgs': 0, 'volt': 0.9033, 'depth': 1.614, 'time': 9, 'pitch': -0.41, 'roll': -1.04, 'pres': 185}
{'lipoC2': 7.28, 'lipoC3S1': 3.82, 'temp': 26.94, 'lipoC3S3': 11.55, 'lipoC3S2': 7.64, 'rot1': 4, 'rot0': 4, 'rot3': 12, 'rot2': 10, 'state': 'normal', 'yaw': 20.02, 'datetime': '2018-10-09 20:21:50.613120', 'mgs': 0, 'volt': 0.8984, 'depth': 1.538, 'time': 9, 'pitch': -0.23, 'roll': -1.01, 'pres': 184}
{'lipoC2': 7.28, 'lipoC3S1': 3.82, 'temp': 26.94, 'lipoC3S3': 11.55, 'lipoC3S2': 7.64, 'rot1': 4, 'rot0': 4, 'rot3': 12, 'rot2': 10, 'state': 'normal', 'yaw': 20.25, 'datetime': '2018-10-09 20:21:50.717237', 'mgs': 0, 'volt': 0.8984, 'depth': 1.538, 'time': 9, 'pitch': -0.31, 'roll': -0.97, 'pres': 184}
{'lipoC2': 7.28, 'lipoC3S1': 3.82, 'temp': 26.94, 'lipoC3S3': 11.55, 'lipoC3S2': 7.64, 'rot1': 4, 'rot0': 4, 'rot3': 12, 'rot2': 10, 'state': 'normal', 'yaw': 20.5, 'datetime': '2018-10-09 20:21:50.821836', 'mgs': 0, 'volt': 0.8984, 'depth': 1.538, 'time': 9, 'pitch': -0.56, 'roll': -0.98, 'pres': 184}
{'lipoC2': 7.28, 'lipoC3S1': 3.82, 'temp': 27.0, 'lipoC3S3': 11.55, 'lipoC3S2': 7.64, 'rot1': 4, 'rot0': 4, 'rot3': 12, 'rot2': 10, 'state': 'normal', 'yaw': 20.77, 'datetime': '2018-10-09 20:21:50.933546', 'mgs': 0, 'volt': 0.8936, 'depth': 1.462, 'time': 9, 'pitch': -0.98, 'roll': -1.05, 'pres': 183}
{'lipoC2': 7.28, 'lipoC3S1': 3.82, 'temp': 27.0, 'lipoC3S3': 11.55, 'lipoC3S2': 7.64, 'rot1': 4, 'rot0': 4, 'rot3': 12, 'rot2': 10, 'state': 'normal', 'yaw': 21.03, 'datetime': '2018-10-09 20:21:51.022387', 'mgs': 0, 'volt': 0.8936, 'depth': 1.462, 'time': 9, 'pitch': -1.46, 'roll': -1.12, 'pres': 183}
{'lipoC2': 7.28, 'lipoC3S1': 3.82, 'temp': 26.94, 'lipoC3S3': 11.55, 'lipoC3S2': 7.64, 'rot1': 4, 'rot0': 4, 'rot3': 12, 'rot2': 10, 'state': 'normal', 'yaw': 21.28, 'datetime': '2018-10-09 20:21:51.126212', 'mgs': 0, 'volt': 0.8936, 'depth': 1.462, 'time': 9, 'pitch': -2.0, 'roll': -1.21, 'pres': 183}
{'lipoC2': 7.28, 'lipoC3S1': 3.82, 'temp': 26.94, 'lipoC3S3': 11.55, 'lipoC3S2': 7.64, 'rot1': 4, 'rot0': 4, 'rot3': 12, 'rot2': 10, 'state': 'normal', 'yaw': 21.55, 'datetime': '2018-10-09 20:21:51.229786', 'mgs': 0, 'volt': 0.8887, 'depth': 1.385, 'time': 9, 'pitch': -2.61, 'roll': -1.31, 'pres': 182}
{'lipoC2': 7.28, 'lipoC3S1': 3.82, 'temp': 26.94, 'lipoC3S3': 11.55, 'lipoC3S2': 7.64, 'rot1': 4, 'rot0': 4, 'rot3': 12, 'rot2': 10, 'state': 'normal', 'yaw': 21.8, 'datetime': '2018-10-09 20:21:51.333347', 'mgs': 0, 'volt': 0.8887, 'depth': 1.385, 'time': 9, 'pitch': -3.15, 'roll': -1.38, 'pres': 182}
{'lipoC2': 7.28, 'lipoC3S1': 3.82, 'temp': 26.94, 'lipoC3S3': 11.55, 'lipoC3S2': 7.64, 'rot1': 4, 'rot0': 4, 'rot3': 12, 'rot2': 10, 'state': 'normal', 'yaw': 22.04, 'datetime': '2018-10-09 20:21:51.437285', 'mgs': 0, 'volt': 0.8887, 'depth': 1.385, 'time': 10, 'pitch': -3.62, 'roll': -1.44, 'pres': 182}
{'lipoC2': 7.28, 'lipoC3S1': 3.82, 'temp': 26.94, 'lipoC3S3': 11.55, 'lipoC3S2': 7.64, 'rot1': 4, 'rot0': 4, 'rot3': 12, 'rot2': 10, 'state': 'normal', 'yaw': 22.3, 'datetime': '2018-10-09 20:21:51.540942', 'mgs': 0, 'volt': 0.8838, 'depth': 1.309, 'time': 10, 'pitch': -4.01, 'roll': -1.47, 'pres': 181}
{'lipoC2': 7.28, 'lipoC3S1': 3.82, 'temp': 26.88, 'lipoC3S3': 11.55, 'lipoC3S2': 7.64, 'rot1': 4, 'rot0': 4, 'rot3': 12, 'rot2': 10, 'state': 'normal', 'yaw': 22.52, 'datetime': '2018-10-09 20:21:51.644630', 'mgs': 0, 'volt': 0.8838, 'depth': 1.309, 'time': 10, 'pitch': -4.18, 'roll': -1.48, 'pres': 181}
{'lipoC2': 7.28, 'lipoC3S1': 3.82, 'temp': 26.88, 'lipoC3S3': 11.55, 'lipoC3S2': 7.64, 'rot1': 4, 'rot0': 4, 'rot3': 12, 'rot2': 10, 'state': 'normal', 'yaw': 22.75, 'datetime': '2018-10-09 20:21:51.758897', 'mgs': 0, 'volt': 0.8838, 'depth': 1.309, 'time': 10, 'pitch': -4.2, 'roll': -1.5, 'pres': 181}
{'lipoC2': 7.28, 'lipoC3S1': 3.82, 'temp': 26.94, 'lipoC3S3': 11.55, 'lipoC3S2': 7.64, 'rot1': 4, 'rot0': 4, 'rot3': 12, 'rot2': 10, 'state': 'normal', 'yaw': 22.96, 'datetime': '2018-10-09 20:21:51.862566', 'mgs': 0, 'volt': 0.8838, 'depth': 1.309, 'time': 10, 'pitch': -4.06, 'roll': -1.51, 'pres': 181}
{'lipoC2': 7.28, 'lipoC3S1': 3.82, 'temp': 26.94, 'lipoC3S3': 11.55, 'lipoC3S2': 7.64, 'rot1': 4, 'rot0': 4, 'rot3': 12, 'rot2': 10, 'state': 'normal', 'yaw': 23.17, 'datetime': '2018-10-09 20:21:51.961204', 'mgs': 0, 'volt': 0.8838, 'depth': 1.309, 'time': 10, 'pitch': -3.81, 'roll': -1.53, 'pres': 181}
{'lipoC2': 7.28, 'lipoC3S1': 3.82, 'temp': 27.0, 'lipoC3S3': 11.54, 'lipoC3S2': 7.64, 'rot1': 4, 'rot0': 4, 'rot3': 12, 'rot2': 10, 'state': 'normal', 'yaw': 23.39, 'datetime': '2018-10-09 20:21:52.064849', 'mgs': 0, 'volt': 0.8838, 'depth': 1.309, 'time': 10, 'pitch': -3.46, 'roll': -1.52, 'pres': 181}
{'lipoC2': 7.28, 'lipoC3S1': 3.82, 'temp': 27.0, 'lipoC3S3': 11.55, 'lipoC3S2': 7.64, 'rot1': 4, 'rot0': 4, 'rot3': 12, 'rot2': 10, 'state': 'normal', 'yaw': 23.59, 'datetime': '2018-10-09 20:21:52.168962', 'mgs': 0, 'volt': 0.8838, 'depth': 1.309, 'time': 10, 'pitch': -3.07, 'roll': -1.51, 'pres': 181}
{'lipoC2': 7.28, 'lipoC3S1': 3.82, 'temp': 27.0, 'lipoC3S3': 11.55, 'lipoC3S2': 7.64, 'rot1': 4, 'rot0': 4, 'rot3': 12, 'rot2': 10, 'state': 'normal', 'yaw': 23.79, 'datetime': '2018-10-09 20:21:52.273363', 'mgs': 0, 'volt': 0.8887, 'depth': 1.385, 'time': 10, 'pitch': -2.75, 'roll': -1.42, 'pres': 182}
{'lipoC2': 7.28, 'lipoC3S1': 3.82, 'temp': 26.94, 'lipoC3S3': 11.55, 'lipoC3S2': 7.64, 'rot1': 4, 'rot0': 4, 'rot3': 12, 'rot2': 10, 'state': 'normal', 'yaw': 24.01, 'datetime': '2018-10-09 20:21:52.376854', 'mgs': 0, 'volt': 0.8887, 'depth': 1.385, 'time': 10, 'pitch': -2.35, 'roll': -1.37, 'pres': 182}
{'lipoC2': 7.28, 'lipoC3S1': 3.82, 'temp': 26.94, 'lipoC3S3': 11.55, 'lipoC3S2': 7.64, 'rot1': 4, 'rot0': 4, 'rot3': 12, 'rot2': 10, 'state': 'normal', 'yaw': 24.21, 'datetime': '2018-10-09 20:21:52.480622', 'mgs': 0, 'volt': 0.8838, 'depth': 1.309, 'time': 11, 'pitch': -1.97, 'roll': -1.33, 'pres': 181}
{'lipoC2': 7.28, 'lipoC3S1': 3.82, 'temp': 26.88, 'lipoC3S3': 11.55, 'lipoC3S2': 7.64, 'rot1': 4, 'rot0': 4, 'rot3': 12, 'rot2': 10, 'state': 'normal', 'yaw': 24.42, 'datetime': '2018-10-09 20:21:52.584344', 'mgs': 0, 'volt': 0.8887, 'depth': 1.385, 'time': 11, 'pitch': -1.62, 'roll': -1.29, 'pres': 182}
{'lipoC2': 7.28, 'lipoC3S1': 3.82, 'temp': 26.88, 'lipoC3S3': 11.55, 'lipoC3S2': 7.64, 'rot1': 4, 'rot0': 4, 'rot3': 12, 'rot2': 10, 'state': 'normal', 'yaw': 24.64, 'datetime': '2018-10-09 20:21:52.694631', 'mgs': 0, 'volt': 0.8887, 'depth': 1.385, 'time': 11, 'pitch': -1.3, 'roll': -1.25, 'pres': 182}
{'lipoC2': 7.28, 'lipoC3S1': 3.82, 'temp': 26.94, 'lipoC3S3': 11.55, 'lipoC3S2': 7.64, 'rot1': 4, 'rot0': 4, 'rot3': 12, 'rot2': 10, 'state': 'normal', 'yaw': 24.86, 'datetime': '2018-10-09 20:21:52.798243', 'mgs': 0, 'volt': 0.8887, 'depth': 1.385, 'time': 11, 'pitch': -1.08, 'roll': -1.2, 'pres': 182}
{'lipoC2': 7.28, 'lipoC3S1': 3.82, 'temp': 26.94, 'lipoC3S3': 11.55, 'lipoC3S2': 7.64, 'rot1': 4, 'rot0': 4, 'rot3': 12, 'rot2': 10, 'state': 'normal', 'yaw': 25.09, 'datetime': '2018-10-09 20:21:52.902319', 'mgs': 0, 'volt': 0.8838, 'depth': 1.309, 'time': 11, 'pitch': -0.93, 'roll': -1.16, 'pres': 181}
{'lipoC2': 7.28, 'lipoC3S1': 3.82, 'temp': 26.94, 'lipoC3S3': 11.55, 'lipoC3S2': 7.64, 'rot1': 4, 'rot0': 4, 'rot3': 12, 'rot2': 10, 'state': 'normal', 'yaw': 25.31, 'datetime': '2018-10-09 20:21:53.005602', 'mgs': 0, 'volt': 0.8887, 'depth': 1.385, 'time': 11, 'pitch': -0.87, 'roll': -1.13, 'pres': 182}
{'lipoC2': 7.28, 'lipoC3S1': 3.82, 'temp': 26.94, 'lipoC3S3': 11.55, 'lipoC3S2': 7.64, 'rot1': 4, 'rot0': 4, 'rot3': 12, 'rot2': 10, 'state': 'normal', 'yaw': 25.54, 'datetime': '2018-10-09 20:21:53.109393', 'mgs': 0, 'volt': 0.8887, 'depth': 1.385, 'time': 11, 'pitch': -0.9, 'roll': -1.1, 'pres': 182}
{'lipoC2': 7.28, 'lipoC3S1': 3.82, 'temp': 26.94, 'lipoC3S3': 11.55, 'lipoC3S2': 7.64, 'rot1': 4, 'rot0': 4, 'rot3': 12, 'rot2': 10, 'state': 'normal', 'yaw': 25.78, 'datetime': '2018-10-09 20:21:53.212938', 'mgs': 0, 'volt': 0.8887, 'depth': 1.385, 'time': 11, 'pitch': -1.02, 'roll': -1.15, 'pres': 182}
{'lipoC2': 7.28, 'lipoC3S1': 3.82, 'temp': 26.94, 'lipoC3S3': 11.55, 'lipoC3S2': 7.64, 'rot1': 4, 'rot0': 4, 'rot3': 12, 'rot2': 10, 'state': 'normal', 'yaw': 25.99, 'datetime': '2018-10-09 20:21:53.316765', 'mgs': 0, 'volt': 0.8887, 'depth': 1.385, 'time': 11, 'pitch': -1.21, 'roll': -1.23, 'pres': 182}
{'lipoC2': 7.28, 'lipoC3S1': 3.82, 'temp': 26.94, 'lipoC3S3': 11.55, 'lipoC3S2': 7.64, 'rot1': 4, 'rot0': 4, 'rot3': 12, 'rot2': 10, 'state': 'normal', 'yaw': 26.22, 'datetime': '2018-10-09 20:21:53.421586', 'mgs': 0, 'volt': 0.8838, 'depth': 1.309, 'time': 12, 'pitch': -1.48, 'roll': -1.31, 'pres': 181}
{'lipoC2': 7.28, 'lipoC3S1': 3.82, 'temp': 26.88, 'lipoC3S3': 11.55, 'lipoC3S2': 7.64, 'rot1': 4, 'rot0': 4, 'rot3': 12, 'rot2': 10, 'state': 'normal', 'yaw': 26.46, 'datetime': '2018-10-09 20:21:53.525371', 'mgs': 0, 'volt': 0.8887, 'depth': 1.385, 'time': 12, 'pitch': -1.82, 'roll': -1.33, 'pres': 182}
{'lipoC2': 7.28, 'lipoC3S1': 3.82, 'temp': 26.88, 'lipoC3S3': 11.51, 'lipoC3S2': 7.64, 'rot1': 4, 'rot0': 4, 'rot3': 12, 'rot2': 10, 'state': 'normal', 'yaw': 26.67, 'datetime': '2018-10-09 20:21:53.630472', 'mgs': 0, 'volt': 0.8887, 'depth': 1.385, 'time': 12, 'pitch': -2.14, 'roll': -1.34, 'pres': 182}
{'lipoC2': 7.28, 'lipoC3S1': 3.82, 'temp': 26.88, 'lipoC3S3': 11.55, 'lipoC3S2': 7.64, 'rot1': 4, 'rot0': 4, 'rot3': 12, 'rot2': 10, 'state': 'normal', 'yaw': 26.9, 'datetime': '2018-10-09 20:21:53.734700', 'mgs': 0, 'volt': 0.8887, 'depth': 1.385, 'time': 12, 'pitch': -2.47, 'roll': -1.35, 'pres': 182}
{'lipoC2': 7.28, 'lipoC3S1': 3.82, 'temp': 26.94, 'lipoC3S3': 11.51, 'lipoC3S2': 7.64, 'rot1': 4, 'rot0': 4, 'rot3': 12, 'rot2': 10, 'state': 'normal', 'yaw': 27.11, 'datetime': '2018-10-09 20:21:53.838279', 'mgs': 0, 'volt': 0.8838, 'depth': 1.309, 'time': 12, 'pitch': -2.72, 'roll': -1.35, 'pres': 181}
{'lipoC2': 7.28, 'lipoC3S1': 3.82, 'temp': 26.94, 'lipoC3S3': 11.55, 'lipoC3S2': 7.64, 'rot1': 4, 'rot0': 4, 'rot3': 12, 'rot2': 10, 'state': 'normal', 'yaw': 27.33, 'datetime': '2018-10-09 20:21:53.941836', 'mgs': 0, 'volt': 0.8887, 'depth': 1.385, 'time': 12, 'pitch': -2.92, 'roll': -1.37, 'pres': 182}
{'lipoC2': 7.28, 'lipoC3S1': 3.79, 'temp': 26.94, 'lipoC3S3': 11.54, 'lipoC3S2': 7.64, 'rot1': 4, 'rot0': 4, 'rot3': 12, 'rot2': 10, 'state': 'normal', 'yaw': 27.4, 'datetime': '2018-10-09 20:21:54.045494', 'mgs': 0, 'volt': 0.8887, 'depth': 1.385, 'time': 12, 'pitch': -2.98, 'roll': -1.31, 'pres': 182}
{'lipoC2': 7.28, 'lipoC3S1': 3.82, 'temp': 26.94, 'lipoC3S3': 11.54, 'lipoC3S2': 7.64, 'rot1': 4, 'rot0': 4, 'rot3': 12, 'rot2': 10, 'state': 'normal', 'yaw': 27.12, 'datetime': '2018-10-09 20:21:54.142816', 'mgs': 0, 'volt': 0.8887, 'depth': 1.385, 'time': 12, 'pitch': -2.64, 'roll': -1.01, 'pres': 182}
{'lipoC2': 7.28, 'lipoC3S1': 3.82, 'temp': 26.94, 'lipoC3S3': 11.55, 'lipoC3S2': 7.64, 'rot1': 4, 'rot0': 4, 'rot3': 12, 'rot2': 10, 'state': 'normal', 'yaw': 26.38, 'datetime': '2018-10-09 20:21:54.252875', 'mgs': 0, 'volt': 0.8887, 'depth': 1.385, 'time': 12, 'pitch': -1.94, 'roll': -0.37, 'pres': 182}
{'lipoC2': 7.28, 'lipoC3S1': 3.82, 'temp': 26.94, 'lipoC3S3': 11.55, 'lipoC3S2': 7.64, 'rot1': 4, 'rot0': 4, 'rot3': 12, 'rot2': 10, 'state': 'normal', 'yaw': 25.43, 'datetime': '2018-10-09 20:21:54.356629', 'mgs': 0, 'volt': 0.8936, 'depth': 1.462, 'time': 12, 'pitch': -1.32, 'roll': 0.43, 'pres': 183}
{'lipoC2': 7.28, 'lipoC3S1': 3.82, 'temp': 26.94, 'lipoC3S3': 11.55, 'lipoC3S2': 7.65, 'rot1': 4, 'rot0': 4, 'rot3': 12, 'rot2': 10, 'state': 'normal', 'yaw': 24.99, 'datetime': '2018-10-09 20:21:54.460415', 'mgs': 0, 'volt': 0.8936, 'depth': 1.462, 'time': 13, 'pitch': -1.32, 'roll': 0.82, 'pres': 183}
{'lipoC2': 7.28, 'lipoC3S1': 3.82, 'temp': 26.88, 'lipoC3S3': 11.55, 'lipoC3S2': 7.64, 'rot1': 4, 'rot0': 4, 'rot3': 12, 'rot2': 10, 'state': 'normal', 'yaw': 25.06, 'datetime': '2018-10-09 20:21:54.563708', 'mgs': 0, 'volt': 0.8984, 'depth': 1.538, 'time': 13, 'pitch': -1.7, 'roll': 0.65, 'pres': 184}
{'lipoC2': 7.28, 'lipoC3S1': 3.82, 'temp': 26.88, 'lipoC3S3': 11.55, 'lipoC3S2': 7.64, 'rot1': 4, 'rot0': 4, 'rot3': 12, 'rot2': 10, 'state': 'normal', 'yaw': 25.33, 'datetime': '2018-10-09 20:21:54.667348', 'mgs': 0, 'volt': 0.8984, 'depth': 1.538, 'time': 13, 'pitch': -2.19, 'roll': 0.14, 'pres': 184}
{'lipoC2': 7.28, 'lipoC3S1': 3.82, 'temp': 26.94, 'lipoC3S3': 11.55, 'lipoC3S2': 7.64, 'rot1': 4, 'rot0': 4, 'rot3': 12, 'rot2': 10, 'state': 'normal', 'yaw': 25.41, 'datetime': '2018-10-09 20:21:54.771051', 'mgs': 0, 'volt': 0.8984, 'depth': 1.538, 'time': 13, 'pitch': -2.51, 'roll': -0.29, 'pres': 184}
{'lipoC2': 7.28, 'lipoC3S1': 3.82, 'temp': 26.94, 'lipoC3S3': 11.55, 'lipoC3S2': 7.64, 'rot1': 4, 'rot0': 4, 'rot3': 12, 'rot2': 10, 'state': 'normal', 'yaw': 25.23, 'datetime': '2018-10-09 20:21:54.876086', 'mgs': 0, 'volt': 0.9033, 'depth': 1.614, 'time': 13, 'pitch': -2.69, 'roll': -0.54, 'pres': 185}
{'lipoC2': 7.28, 'lipoC3S1': 3.82, 'temp': 26.94, 'lipoC3S3': 11.55, 'lipoC3S2': 7.64, 'rot1': 4, 'rot0': 4, 'rot3': 12, 'rot2': 10, 'state': 'normal', 'yaw': 24.97, 'datetime': '2018-10-09 20:21:54.979761', 'mgs': 0, 'volt': 0.9033, 'depth': 1.614, 'time': 13, 'pitch': -2.82, 'roll': -0.75, 'pres': 185}
{'lipoC2': 7.28, 'lipoC3S1': 3.81, 'temp': 26.94, 'lipoC3S3': 11.44, 'lipoC3S2': 7.61, 'rot1': 4, 'rot0': 4, 'rot3': 12, 'rot2': 11, 'state': 'normal', 'yaw': 24.9, 'datetime': '2018-10-09 20:21:55.084691', 'mgs': 0, 'volt': 0.9082, 'depth': 1.691, 'time': 13, 'pitch': -2.86, 'roll': -1.01, 'pres': 186}
{'lipoC2': 7.28, 'lipoC3S1': 3.81, 'temp': 26.94, 'lipoC3S3': 11.52, 'lipoC3S2': 7.63, 'rot1': 4, 'rot0': 4, 'rot3': 13, 'rot2': 11, 'state': 'normal', 'yaw': 24.97, 'datetime': '2018-10-09 20:21:55.196453', 'mgs': 0, 'volt': 0.9229, 'depth': 1.92, 'time': 13, 'pitch': -2.67, 'roll': -1.37, 'pres': 189}
{'lipoC2': 7.28, 'lipoC3S1': 3.78, 'temp': 26.94, 'lipoC3S3': 11.52, 'lipoC3S2': 7.61, 'rot1': 4, 'rot0': 4, 'rot3': 13, 'rot2': 12, 'state': 'normal', 'yaw': 25.06, 'datetime': '2018-10-09 20:21:55.288055', 'mgs': 0, 'volt': 0.9082, 'depth': 1.691, 'time': 13, 'pitch': -2.37, 'roll': -1.68, 'pres': 186}
{'lipoC2': 7.28, 'lipoC3S1': 3.81, 'temp': 26.94, 'lipoC3S3': 11.48, 'lipoC3S2': 7.57, 'rot1': 4, 'rot0': 4, 'rot3': 14, 'rot2': 12, 'state': 'normal', 'yaw': 25.26, 'datetime': '2018-10-09 20:21:55.391647', 'mgs': 0, 'volt': 0.9082, 'depth': 1.691, 'time': 13, 'pitch': -2.0, 'roll': -2.03, 'pres': 186}
{'lipoC2': 7.28, 'lipoC3S1': 3.81, 'temp': 26.94, 'lipoC3S3': 11.51, 'lipoC3S2': 7.62, 'rot1': 4, 'rot0': 4, 'rot3': 15, 'rot2': 13, 'state': 'normal', 'yaw': 25.68, 'datetime': '2018-10-09 20:21:55.495319', 'mgs': 0, 'volt': 0.918, 'depth': 1.843, 'time': 14, 'pitch': -1.45, 'roll': -2.48, 'pres': 188}
{'lipoC2': 7.28, 'lipoC3S1': 3.79, 'temp': 26.94, 'lipoC3S3': 11.52, 'lipoC3S2': 7.63, 'rot1': 4, 'rot0': 4, 'rot3': 15, 'rot2': 13, 'state': 'normal', 'yaw': 26.21, 'datetime': '2018-10-09 20:21:55.598998', 'mgs': 0, 'volt': 0.9326, 'depth': 2.072, 'time': 14, 'pitch': -0.91, 'roll': -2.91, 'pres': 191}
{'lipoC2': 7.28, 'lipoC3S1': 3.77, 'temp': 26.94, 'lipoC3S3': 11.51, 'lipoC3S2': 7.59, 'rot1': 4, 'rot0': 4, 'rot3': 16, 'rot2': 14, 'state': 'normal', 'yaw': 26.82, 'datetime': '2018-10-09 20:21:55.702758', 'mgs': 0, 'volt': 0.9131, 'depth': 1.767, 'time': 14, 'pitch': -0.4, 'roll': -3.28, 'pres': 187}
{'lipoC2': 7.28, 'lipoC3S1': 3.81, 'temp': 26.94, 'lipoC3S3': 11.46, 'lipoC3S2': 7.61, 'rot1': 4, 'rot0': 4, 'rot3': 16, 'rot2': 15, 'state': 'normal', 'yaw': 27.62, 'datetime': '2018-10-09 20:21:55.806400', 'mgs': 0, 'volt': 0.9082, 'depth': 1.691, 'time': 14, 'pitch': 0.04, 'roll': -3.57, 'pres': 186}
{'lipoC2': 7.29, 'lipoC3S1': 3.82, 'temp': 26.94, 'lipoC3S3': 11.51, 'lipoC3S2': 7.63, 'rot1': 4, 'rot0': 4, 'rot3': 17, 'rot2': 15, 'state': 'normal', 'yaw': 28.47, 'datetime': '2018-10-09 20:21:55.910030', 'mgs': 0, 'volt': 0.9229, 'depth': 1.92, 'time': 14, 'pitch': 0.34, 'roll': -3.74, 'pres': 189}
{'lipoC2': 7.28, 'lipoC3S1': 3.78, 'temp': 26.94, 'lipoC3S3': 11.52, 'lipoC3S2': 7.61, 'rot1': 4, 'rot0': 4, 'rot3': 18, 'rot2': 16, 'state': 'normal', 'yaw': 29.45, 'datetime': '2018-10-09 20:21:56.013751', 'mgs': 0, 'volt': 0.9082, 'depth': 1.691, 'time': 14, 'pitch': 0.45, 'roll': -3.83, 'pres': 186}
{'lipoC2': 7.28, 'lipoC3S1': 3.81, 'temp': 26.94, 'lipoC3S3': 11.48, 'lipoC3S2': 7.57, 'rot1': 4, 'rot0': 4, 'rot3': 18, 'rot2': 16, 'state': 'normal', 'yaw': 30.74, 'datetime': '2018-10-09 20:21:56.117414', 'mgs': 0, 'volt': 0.9082, 'depth': 1.691, 'time': 14, 'pitch': 0.37, 'roll': -3.94, 'pres': 186}
{'lipoC2': 7.28, 'lipoC3S1': 3.81, 'temp': 26.94, 'lipoC3S3': 11.51, 'lipoC3S2': 7.62, 'rot1': 4, 'rot0': 4, 'rot3': 19, 'rot2': 17, 'state': 'normal', 'yaw': 32.07, 'datetime': '2018-10-09 20:21:56.221209', 'mgs': 0, 'volt': 0.9131, 'depth': 1.767, 'time': 14, 'pitch': 0.18, 'roll': -4.01, 'pres': 187}
{'lipoC2': 7.28, 'lipoC3S1': 3.79, 'temp': 26.94, 'lipoC3S3': 11.51, 'lipoC3S2': 7.62, 'rot1': 4, 'rot0': 4, 'rot3': 20, 'rot2': 18, 'state': 'normal', 'yaw': 33.64, 'datetime': '2018-10-09 20:21:56.325978', 'mgs': 0, 'volt': 0.9033, 'depth': 1.614, 'time': 14, 'pitch': -0.01, 'roll': -4.11, 'pres': 185}
{'lipoC2': 7.28, 'lipoC3S1': 3.81, 'temp': 26.88, 'lipoC3S3': 11.48, 'lipoC3S2': 7.57, 'rot1': 4, 'rot0': 4, 'rot3': 20, 'rot2': 18, 'state': 'normal', 'yaw': 35.83, 'datetime': '2018-10-09 20:21:56.428321', 'mgs': 0, 'volt': 0.8984, 'depth': 1.538, 'time': 15, 'pitch': -0.17, 'roll': -4.37, 'pres': 184}
{'lipoC2': 7.28, 'lipoC3S1': 3.82, 'temp': 26.88, 'lipoC3S3': 11.54, 'lipoC3S2': 7.6, 'rot1': 4, 'rot0': 4, 'rot3': 21, 'rot2': 19, 'state': 'normal', 'yaw': 38.19, 'datetime': '2018-10-09 20:21:56.534678', 'mgs': 0, 'volt': 0.8984, 'depth': 1.538, 'time': 15, 'pitch': -0.31, 'roll': -4.75, 'pres': 184}
{'lipoC2': 7.28, 'lipoC3S1': 3.82, 'temp': 26.88, 'lipoC3S3': 11.54, 'lipoC3S2': 7.64, 'rot1': 4, 'rot0': 4, 'rot3': 21, 'rot2': 19, 'state': 'normal', 'yaw': 41.25, 'datetime': '2018-10-09 20:21:56.638281', 'mgs': 0, 'volt': 0.8984, 'depth': 1.538, 'time': 15, 'pitch': -0.52, 'roll': -5.36, 'pres': 184}
{'lipoC2': 7.28, 'lipoC3S1': 3.82, 'temp': 26.94, 'lipoC3S3': 11.54, 'lipoC3S2': 7.64, 'rot1': 4, 'rot0': 4, 'rot3': 21, 'rot2': 19, 'state': 'normal', 'yaw': 44.6, 'datetime': '2018-10-09 20:21:56.739882', 'mgs': 0, 'volt': 0.9131, 'depth': 1.767, 'time': 15, 'pitch': -0.83, 'roll': -6.11, 'pres': 187}
{'lipoC2': 7.28, 'lipoC3S1': 3.78, 'temp': 26.94, 'lipoC3S3': 11.54, 'lipoC3S2': 7.64, 'rot1': 4, 'rot0': 4, 'rot3': 21, 'rot2': 19, 'state': 'normal', 'yaw': 48.47, 'datetime': '2018-10-09 20:21:56.845751', 'mgs': 0, 'volt': 0.8887, 'depth': 1.385, 'time': 15, 'pitch': -1.1, 'roll': -7.01, 'pres': 182}
{'lipoC2': 7.28, 'lipoC3S1': 3.82, 'temp': 26.94, 'lipoC3S3': 11.54, 'lipoC3S2': 7.63, 'rot1': 5, 'rot0': 4, 'rot3': 21, 'rot2': 19, 'state': 'normal', 'yaw': 52.81, 'datetime': '2018-10-09 20:21:56.950055', 'mgs': 0, 'volt': 0.8887, 'depth': 1.385, 'time': 15, 'pitch': -1.32, 'roll': -7.82, 'pres': 182}
{'lipoC2': 7.27, 'lipoC3S1': 3.81, 'temp': 26.94, 'lipoC3S3': 11.54, 'lipoC3S2': 7.64, 'rot1': 5, 'rot0': 4, 'rot3': 21, 'rot2': 19, 'state': 'normal', 'yaw': 56.35, 'datetime': '2018-10-09 20:21:57.047273', 'mgs': 0, 'volt': 0.8887, 'depth': 1.385, 'time': 15, 'pitch': -1.56, 'roll': -8.03, 'pres': 182}
{'lipoC2': 7.28, 'lipoC3S1': 3.82, 'temp': 26.94, 'lipoC3S3': 11.54, 'lipoC3S2': 7.64, 'rot1': 5, 'rot0': 4, 'rot3': 21, 'rot2': 19, 'state': 'normal', 'yaw': 59.47, 'datetime': '2018-10-09 20:21:57.155571', 'mgs': 0, 'volt': 0.8887, 'depth': 1.385, 'time': 15, 'pitch': -1.84, 'roll': -7.67, 'pres': 182}
{'lipoC2': 7.28, 'lipoC3S1': 3.81, 'temp': 26.94, 'lipoC3S3': 11.54, 'lipoC3S2': 7.59, 'rot1': 6, 'rot0': 5, 'rot3': 21, 'rot2': 19, 'state': 'normal', 'yaw': 62.45, 'datetime': '2018-10-09 20:21:57.260416', 'mgs': 0, 'volt': 0.8838, 'depth': 1.309, 'time': 15, 'pitch': -2.15, 'roll': -6.73, 'pres': 181}
{'lipoC2': 7.28, 'lipoC3S1': 3.81, 'temp': 26.94, 'lipoC3S3': 11.52, 'lipoC3S2': 7.63, 'rot1': 6, 'rot0': 5, 'rot3': 21, 'rot2': 19, 'state': 'normal', 'yaw': 64.74, 'datetime': '2018-10-09 20:21:57.364205', 'mgs': 0, 'volt': 0.8838, 'depth': 1.309, 'time': 15, 'pitch': -2.44, 'roll': -5.48, 'pres': 181}
{'lipoC2': 7.28, 'lipoC3S1': 3.82, 'temp': 26.94, 'lipoC3S3': 11.54, 'lipoC3S2': 7.63, 'rot1': 7, 'rot0': 6, 'rot3': 21, 'rot2': 19, 'state': 'normal', 'yaw': 66.68, 'datetime': '2018-10-09 20:21:57.467909', 'mgs': 0, 'volt': 0.9229, 'depth': 1.92, 'time': 16, 'pitch': -2.68, 'roll': -4.02, 'pres': 189}
{'lipoC2': 7.28, 'lipoC3S1': 3.78, 'temp': 26.94, 'lipoC3S3': 11.5, 'lipoC3S2': 7.61, 'rot1': 8, 'rot0': 6, 'rot3': 21, 'rot2': 19, 'state': 'normal', 'yaw': 68.39, 'datetime': '2018-10-09 20:21:57.571735', 'mgs': 0, 'volt': 0.9131, 'depth': 1.767, 'time': 16, 'pitch': -2.87, 'roll': -2.29, 'pres': 187}
{'lipoC2': 7.28, 'lipoC3S1': 3.81, 'temp': 26.94, 'lipoC3S3': 11.4, 'lipoC3S2': 7.57, 'rot1': 8, 'rot0': 7, 'rot3': 21, 'rot2': 19, 'state': 'normal', 'yaw': 69.58, 'datetime': '2018-10-09 20:21:57.675281', 'mgs': 0, 'volt': 0.8887, 'depth': 1.385, 'time': 16, 'pitch': -2.81, 'roll': -0.74, 'pres': 182}
{'lipoC2': 7.28, 'lipoC3S1': 3.81, 'temp': 26.94, 'lipoC3S3': 11.52, 'lipoC3S2': 7.63, 'rot1': 9, 'rot0': 7, 'rot3': 22, 'rot2': 20, 'state': 'normal', 'yaw': 70.45, 'datetime': '2018-10-09 20:21:57.779984', 'mgs': 0, 'volt': 0.918, 'depth': 1.843, 'time': 16, 'pitch': -2.48, 'roll': 0.67, 'pres': 188}
{'lipoC2': 7.28, 'lipoC3S1': 3.83, 'temp': 26.94, 'lipoC3S3': 11.52, 'lipoC3S2': 7.63, 'rot1': 9, 'rot0': 8, 'rot3': 22, 'rot2': 20, 'state': 'normal', 'yaw': 71.07, 'datetime': '2018-10-09 20:21:57.883669', 'mgs': 0, 'volt': 0.8887, 'depth': 1.385, 'time': 16, 'pitch': -2.01, 'roll': 1.94, 'pres': 182}
{'lipoC2': 7.28, 'lipoC3S1': 3.81, 'temp': 26.94, 'lipoC3S3': 11.52, 'lipoC3S2': 7.63, 'rot1': 10, 'rot0': 9, 'rot3': 22, 'rot2': 20, 'state': 'normal', 'yaw': 71.28, 'datetime': '2018-10-09 20:21:57.988821', 'mgs': 0, 'volt': 0.9131, 'depth': 1.767, 'time': 16, 'pitch': -1.6, 'roll': 2.85, 'pres': 187}
{'lipoC2': 7.28, 'lipoC3S1': 3.81, 'temp': 26.94, 'lipoC3S3': 11.52, 'lipoC3S2': 7.58, 'rot1': 11, 'rot0': 9, 'rot3': 22, 'rot2': 20, 'state': 'normal', 'yaw': 71.13, 'datetime': '2018-10-09 20:21:58.092801', 'mgs': 0, 'volt': 0.8936, 'depth': 1.462, 'time': 16, 'pitch': -1.16, 'roll': 3.57, 'pres': 183}
{'lipoC2': 7.28, 'lipoC3S1': 3.81, 'temp': 26.94, 'lipoC3S3': 11.52, 'lipoC3S2': 7.63, 'rot1': 12, 'rot0': 10, 'rot3': 22, 'rot2': 20, 'state': 'normal', 'yaw': 70.71, 'datetime': '2018-10-09 20:21:58.197257', 'mgs': 0, 'volt': 0.8936, 'depth': 1.462, 'time': 16, 'pitch': -0.81, 'roll': 3.93, 'pres': 183}
{'lipoC2': 7.28, 'lipoC3S1': 3.81, 'temp': 26.94, 'lipoC3S3': 11.52, 'lipoC3S2': 7.65, 'rot1': 12, 'rot0': 11, 'rot3': 22, 'rot2': 20, 'state': 'normal', 'yaw': 70.04, 'datetime': '2018-10-09 20:21:58.300640', 'mgs': 0, 'volt': 0.8936, 'depth': 1.462, 'time': 16, 'pitch': -0.51, 'roll': 4.01, 'pres': 183}
{'lipoC2': 7.28, 'lipoC3S1': 3.81, 'temp': 26.94, 'lipoC3S3': 11.52, 'lipoC3S2': 7.63, 'rot1': 13, 'rot0': 11, 'rot3': 22, 'rot2': 20, 'state': 'normal', 'yaw': 69.0, 'datetime': '2018-10-09 20:21:58.404651', 'mgs': 0, 'volt': 0.8936, 'depth': 1.462, 'time': 16, 'pitch': -0.28, 'roll': 3.81, 'pres': 183}
{'lipoC2': 7.28, 'lipoC3S1': 3.81, 'temp': 26.94, 'lipoC3S3': 11.52, 'lipoC3S2': 7.63, 'rot1': 14, 'rot0': 12, 'rot3': 22, 'rot2': 20, 'state': 'normal', 'yaw': 67.83, 'datetime': '2018-10-09 20:21:58.508590', 'mgs': 0, 'volt': 0.8936, 'depth': 1.462, 'time': 17, 'pitch': -0.2, 'roll': 3.39, 'pres': 183}
{'lipoC2': 7.28, 'lipoC3S1': 3.81, 'temp': 26.94, 'lipoC3S3': 11.48, 'lipoC3S2': 7.63, 'rot1': 14, 'rot0': 12, 'rot3': 22, 'rot2': 20, 'state': 'normal', 'yaw': 66.51, 'datetime': '2018-10-09 20:21:58.612793', 'mgs': 0, 'volt': 0.8936, 'depth': 1.462, 'time': 17, 'pitch': -0.23, 'roll': 2.78, 'pres': 183}
{'lipoC2': 7.28, 'lipoC3S1': 3.78, 'temp': 26.94, 'lipoC3S3': 11.52, 'lipoC3S2': 7.63, 'rot1': 15, 'rot0': 13, 'rot3': 22, 'rot2': 20, 'state': 'normal', 'yaw': 64.91, 'datetime': '2018-10-09 20:21:58.716862', 'mgs': 0, 'volt': 0.8936, 'depth': 1.462, 'time': 17, 'pitch': -0.42, 'roll': 1.98, 'pres': 183}
{'lipoC2': 7.28, 'lipoC3S1': 3.81, 'temp': 26.94, 'lipoC3S3': 11.54, 'lipoC3S2': 7.63, 'rot1': 16, 'rot0': 14, 'rot3': 22, 'rot2': 20, 'state': 'normal', 'yaw': 63.34, 'datetime': '2018-10-09 20:21:58.821117', 'mgs': 0, 'volt': 0.8887, 'depth': 1.385, 'time': 17, 'pitch': -0.68, 'roll': 1.17, 'pres': 182}
{'lipoC2': 7.28, 'lipoC3S1': 3.81, 'temp': 26.88, 'lipoC3S3': 11.52, 'lipoC3S2': 7.63, 'rot1': 16, 'rot0': 14, 'rot3': 22, 'rot2': 20, 'state': 'normal', 'yaw': 61.47, 'datetime': '2018-10-09 20:21:58.925166', 'mgs': 0, 'volt': 0.8887, 'depth': 1.385, 'time': 17, 'pitch': -1.04, 'roll': 0.27, 'pres': 182}
{'lipoC2': 7.28, 'lipoC3S1': 3.81, 'temp': 26.88, 'lipoC3S3': 11.52, 'lipoC3S2': 7.63, 'rot1': 17, 'rot0': 15, 'rot3': 22, 'rot2': 20, 'state': 'normal', 'yaw': 59.67, 'datetime': '2018-10-09 20:21:59.029568', 'mgs': 0, 'volt': 0.8887, 'depth': 1.385, 'time': 17, 'pitch': -1.42, 'roll': -0.5, 'pres': 182}
{'lipoC2': 7.28, 'lipoC3S1': 3.82, 'temp': 26.94, 'lipoC3S3': 11.52, 'lipoC3S2': 7.63, 'rot1': 17, 'rot0': 15, 'rot3': 22, 'rot2': 20, 'state': 'normal', 'yaw': 57.79, 'datetime': '2018-10-09 20:21:59.134291', 'mgs': 0, 'volt': 0.8887, 'depth': 1.385, 'time': 17, 'pitch': -1.82, 'roll': -1.18, 'pres': 182}
{'lipoC2': 7.28, 'lipoC3S1': 3.81, 'temp': 26.94, 'lipoC3S3': 11.52, 'lipoC3S2': 7.63, 'rot1': 18, 'rot0': 16, 'rot3': 22, 'rot2': 20, 'state': 'normal', 'yaw': 55.65, 'datetime': '2018-10-09 20:21:59.238192', 'mgs': 0, 'volt': 0.8838, 'depth': 1.309, 'time': 17, 'pitch': -2.28, 'roll': -1.8, 'pres': 181}
{'lipoC2': 7.28, 'lipoC3S1': 3.81, 'temp': 26.94, 'lipoC3S3': 11.54, 'lipoC3S2': 7.63, 'rot1': 19, 'rot0': 16, 'rot3': 22, 'rot2': 20, 'state': 'normal', 'yaw': 53.65, 'datetime': '2018-10-09 20:21:59.343463', 'mgs': 0, 'volt': 0.8838, 'depth': 1.309, 'time': 17, 'pitch': -2.65, 'roll': -2.23, 'pres': 181}
{'lipoC2': 7.28, 'lipoC3S1': 3.82, 'temp': 26.94, 'lipoC3S3': 11.54, 'lipoC3S2': 7.63, 'rot1': 19, 'rot0': 17, 'rot3': 22, 'rot2': 20, 'state': 'normal', 'yaw': 51.43, 'datetime': '2018-10-09 20:21:59.447419', 'mgs': 0, 'volt': 0.8838, 'depth': 1.309, 'time': 18, 'pitch': -3.01, 'roll': -2.57, 'pres': 181}
{'lipoC2': 7.28, 'lipoC3S1': 3.81, 'temp': 26.94, 'lipoC3S3': 11.54, 'lipoC3S2': 7.64, 'rot1': 20, 'rot0': 17, 'rot3': 22, 'rot2': 20, 'state': 'normal', 'yaw': 49.39, 'datetime': '2018-10-09 20:21:59.554398', 'mgs': 0, 'volt': 0.8887, 'depth': 1.385, 'time': 18, 'pitch': -3.26, 'roll': -2.73, 'pres': 182}
{'lipoC2': 7.28, 'lipoC3S1': 3.82, 'temp': 26.94, 'lipoC3S3': 11.54, 'lipoC3S2': 7.63, 'rot1': 20, 'rot0': 17, 'rot3': 22, 'rot2': 20, 'state': 'normal', 'yaw': 47.35, 'datetime': '2018-10-09 20:21:59.655694', 'mgs': 0, 'volt': 0.8838, 'depth': 1.309, 'time': 18, 'pitch': -3.43, 'roll': -2.76, 'pres': 181}
{'lipoC2': 7.28, 'lipoC3S1': 3.81, 'temp': 26.94, 'lipoC3S3': 11.54, 'lipoC3S2': 7.63, 'rot1': 21, 'rot0': 18, 'rot3': 22, 'rot2': 20, 'state': 'normal', 'yaw': 45.11, 'datetime': '2018-10-09 20:21:59.759497', 'mgs': 0, 'volt': 0.8838, 'depth': 1.309, 'time': 18, 'pitch': -3.55, 'roll': -2.64, 'pres': 181}
{'lipoC2': 7.28, 'lipoC3S1': 3.82, 'temp': 26.94, 'lipoC3S3': 11.54, 'lipoC3S2': 7.64, 'rot1': 21, 'rot0': 18, 'rot3': 22, 'rot2': 20, 'state': 'normal', 'yaw': 43.12, 'datetime': '2018-10-09 20:21:59.863486', 'mgs': 0, 'volt': 0.9082, 'depth': 1.691, 'time': 18, 'pitch': -3.54, 'roll': -2.46, 'pres': 186}
{'lipoC2': 7.28, 'lipoC3S1': 3.82, 'temp': 26.94, 'lipoC3S3': 11.48, 'lipoC3S2': 7.64, 'rot1': 21, 'rot0': 18, 'rot3': 22, 'rot2': 20, 'state': 'normal', 'yaw': 41.01, 'datetime': '2018-10-09 20:21:59.967424', 'mgs': 0, 'volt': 0.8887, 'depth': 1.385, 'time': 18, 'pitch': -3.42, 'roll': -2.2, 'pres': 182}
{'lipoC2': 7.28, 'lipoC3S1': 3.78, 'temp': 26.94, 'lipoC3S3': 11.54, 'lipoC3S2': 7.64, 'rot1': 22, 'rot0': 19, 'rot3': 22, 'rot2': 20, 'state': 'normal', 'yaw': 39.18, 'datetime': '2018-10-09 20:22:00.071478', 'mgs': 0, 'volt': 0.8887, 'depth': 1.385, 'time': 18, 'pitch': -3.22, 'roll': -1.95, 'pres': 182}
{'lipoC2': 7.28, 'lipoC3S1': 3.82, 'temp': 26.94, 'lipoC3S3': 11.54, 'lipoC3S2': 7.64, 'rot1': 22, 'rot0': 19, 'rot3': 22, 'rot2': 20, 'state': 'normal', 'yaw': 37.41, 'datetime': '2018-10-09 20:22:00.175465', 'mgs': 0, 'volt': 0.8887, 'depth': 1.385, 'time': 18, 'pitch': -2.97, 'roll': -1.69, 'pres': 182}
{'lipoC2': 7.28, 'lipoC3S1': 3.82, 'temp': 26.94, 'lipoC3S3': 11.54, 'lipoC3S2': 7.64, 'rot1': 22, 'rot0': 19, 'rot3': 22, 'rot2': 20, 'state': 'normal', 'yaw': 35.56, 'datetime': '2018-10-09 20:22:00.279516', 'mgs': 0, 'volt': 0.8887, 'depth': 1.385, 'time': 18, 'pitch': -2.68, 'roll': -1.43, 'pres': 182}
{'lipoC2': 7.28, 'lipoC3S1': 3.82, 'temp': 26.94, 'lipoC3S3': 11.54, 'lipoC3S2': 7.64, 'rot1': 22, 'rot0': 20, 'rot3': 22, 'rot2': 20, 'state': 'normal', 'yaw': 33.95, 'datetime': '2018-10-09 20:22:00.384288', 'mgs': 0, 'volt': 0.8887, 'depth': 1.385, 'time': 18, 'pitch': -2.45, 'roll': -1.24, 'pres': 182}
{'lipoC2': 7.28, 'lipoC3S1': 3.82, 'temp': 26.94, 'lipoC3S3': 11.54, 'lipoC3S2': 7.64, 'rot1': 23, 'rot0': 20, 'rot3': 22, 'rot2': 20, 'state': 'normal', 'yaw': 32.28, 'datetime': '2018-10-09 20:22:00.488304', 'mgs': 0, 'volt': 0.8887, 'depth': 1.385, 'time': 19, 'pitch': -2.24, 'roll': -1.1, 'pres': 182}
{'lipoC2': 7.28, 'lipoC3S1': 3.82, 'temp': 26.94, 'lipoC3S3': 11.54, 'lipoC3S2': 7.64, 'rot1': 23, 'rot0': 20, 'rot3': 22, 'rot2': 20, 'state': 'normal', 'yaw': 30.84, 'datetime': '2018-10-09 20:22:00.592359', 'mgs': 0, 'volt': 0.8936, 'depth': 1.462, 'time': 19, 'pitch': -2.14, 'roll': -1.0, 'pres': 183}
{'lipoC2': 7.28, 'lipoC3S1': 3.82, 'temp': 26.94, 'lipoC3S3': 11.54, 'lipoC3S2': 7.64, 'rot1': 23, 'rot0': 20, 'rot3': 22, 'rot2': 20, 'state': 'normal', 'yaw': 29.48, 'datetime': '2018-10-09 20:22:00.697777', 'mgs': 0, 'volt': 0.8936, 'depth': 1.462, 'time': 19, 'pitch': -2.13, 'roll': -0.96, 'pres': 183}
{'lipoC2': 7.28, 'lipoC3S1': 3.82, 'temp': 26.94, 'lipoC3S3': 11.54, 'lipoC3S2': 7.64, 'rot1': 23, 'rot0': 20, 'rot3': 22, 'rot2': 20, 'state': 'normal', 'yaw': 28.06, 'datetime': '2018-10-09 20:22:00.801812', 'mgs': 0, 'volt': 0.8936, 'depth': 1.462, 'time': 19, 'pitch': -2.16, 'roll': -1.02, 'pres': 183}
{'lipoC2': 7.28, 'lipoC3S1': 3.82, 'temp': 26.94, 'lipoC3S3': 11.54, 'lipoC3S2': 7.64, 'rot1': 23, 'rot0': 20, 'rot3': 22, 'rot2': 20, 'state': 'normal', 'yaw': 26.83, 'datetime': '2018-10-09 20:22:00.905861', 'mgs': 0, 'volt': 0.8936, 'depth': 1.462, 'time': 19, 'pitch': -2.24, 'roll': -1.14, 'pres': 183}
{'lipoC2': 7.28, 'lipoC3S1': 3.82, 'temp': 26.94, 'lipoC3S3': 11.54, 'lipoC3S2': 7.6, 'rot1': 23, 'rot0': 20, 'rot3': 22, 'rot2': 20, 'state': 'normal', 'yaw': 25.57, 'datetime': '2018-10-09 20:22:01.009907', 'mgs': 0, 'volt': 0.8936, 'depth': 1.462, 'time': 19, 'pitch': -2.4, 'roll': -1.31, 'pres': 183}
{'lipoC2': 7.28, 'lipoC3S1': 3.82, 'temp': 26.94, 'lipoC3S3': 11.54, 'lipoC3S2': 7.64, 'rot1': 23, 'rot0': 20, 'rot3': 22, 'rot2': 20, 'state': 'normal', 'yaw': 24.48, 'datetime': '2018-10-09 20:22:01.113948', 'mgs': 0, 'volt': 0.8936, 'depth': 1.462, 'time': 19, 'pitch': -2.58, 'roll': -1.5, 'pres': 183}
{'lipoC2': 7.28, 'lipoC3S1': 3.82, 'temp': 26.94, 'lipoC3S3': 11.54, 'lipoC3S2': 7.64, 'rot1': 23, 'rot0': 20, 'rot3': 22, 'rot2': 20, 'state': 'normal', 'yaw': 23.44, 'datetime': '2018-10-09 20:22:01.218471', 'mgs': 0, 'volt': 0.8936, 'depth': 1.462, 'time': 19, 'pitch': -2.78, 'roll': -1.68, 'pres': 183}
{'lipoC2': 7.28, 'lipoC3S1': 3.82, 'temp': 26.94, 'lipoC3S3': 11.54, 'lipoC3S2': 7.64, 'rot1': 23, 'rot0': 20, 'rot3': 22, 'rot2': 20, 'state': 'normal', 'yaw': 22.34, 'datetime': '2018-10-09 20:22:01.321839', 'mgs': 0, 'volt': 0.8936, 'depth': 1.462, 'time': 19, 'pitch': -3.03, 'roll': -1.9, 'pres': 183}
