{'lipoC2': 7.25, 'lipoC3S1': 3.77, 'temp': 30.63, 'lipoC3S3': 11.39, 'lipoC3S2': 7.55, 'rot1': 0, 'rot0': 0, 'rot3': 0, 'rot2': 0, 'state': 'normal', 'yaw': 0.0, 'datetime': '2018-10-09 23:56:04.450463', 'mgs': 0, 'volt': 0.8398, 'depth': 0.623, 'time': 1, 'pitch': 3.32, 'roll': -0.43, 'pres': 172}
{'lipoC2': 7.26, 'lipoC3S1': 3.78, 'temp': 30.63, 'lipoC3S3': 11.4, 'lipoC3S2': 7.55, 'rot1': 0, 'rot0': 0, 'rot3': 0, 'rot2': 0, 'state': 'normal', 'yaw': -0.2, 'datetime': '2018-10-09 23:56:08.979952', 'mgs': 0, 'volt': 0.835, 'depth': 0.546, 'time': 1, 'pitch': 2.44, 'roll': -0.08, 'pres': 171}
{'lipoC2': 7.26, 'lipoC3S1': 3.77, 'temp': 30.63, 'lipoC3S3': 11.4, 'lipoC3S2': 7.55, 'rot1': 0, 'rot0': 0, 'rot3': 0, 'rot2': 0, 'state': 'normal', 'yaw': -0.15, 'datetime': '2018-10-09 23:56:12.035314', 'mgs': 0, 'volt': 0.835, 'depth': 0.546, 'time': 1, 'pitch': 1.95, 'roll': 0.24, 'pres': 171}
{'lipoC2': 7.26, 'lipoC3S1': 3.77, 'temp': 30.63, 'lipoC3S3': 11.4, 'lipoC3S2': 7.55, 'rot1': 0, 'rot0': 0, 'rot3': 0, 'rot2': 0, 'state': 'normal', 'yaw': 0.13, 'datetime': '2018-10-09 23:56:12.073767', 'mgs': 0, 'volt': 0.835, 'depth': 0.546, 'time': 1, 'pitch': 2.04, 'roll': 0.43, 'pres': 171}
{'lipoC2': 7.26, 'lipoC3S1': 3.78, 'temp': 30.63, 'lipoC3S3': 11.4, 'lipoC3S2': 7.55, 'rot1': 0, 'rot0': 0, 'rot3': 0, 'rot2': 0, 'state': 'normal', 'yaw': 0.65, 'datetime': '2018-10-09 23:56:12.094585', 'mgs': 0, 'volt': 0.835, 'depth': 0.546, 'time': 1, 'pitch': 2.92, 'roll': 0.41, 'pres': 171}
{'lipoC2': 7.26, 'lipoC3S1': 3.78, 'temp': 30.63, 'lipoC3S3': 11.4, 'lipoC3S2': 7.55, 'rot1': 0, 'rot0': 0, 'rot3': 0, 'rot2': 0, 'state': 'normal', 'yaw': 1.23, 'datetime': '2018-10-09 23:56:12.115448', 'mgs': 0, 'volt': 0.8301, 'depth': 0.47, 'time': 1, 'pitch': 3.98, 'roll': 0.19, 'pres': 170}
{'lipoC2': 7.26, 'lipoC3S1': 3.78, 'temp': 30.63, 'lipoC3S3': 11.4, 'lipoC3S2': 7.55, 'rot1': 0, 'rot0': 0, 'rot3': 0, 'rot2': 0, 'state': 'normal', 'yaw': 1.63, 'datetime': '2018-10-09 23:56:12.134894', 'mgs': 0, 'volt': 0.8301, 'depth': 0.47, 'time': 1, 'pitch': 4.28, 'roll': -0.13, 'pres': 170}
{'lipoC2': 7.26, 'lipoC3S1': 3.77, 'temp': 30.63, 'lipoC3S3': 11.4, 'lipoC3S2': 7.55, 'rot1': 0, 'rot0': 0, 'rot3': 0, 'rot2': 0, 'state': 'normal', 'yaw': 0.0, 'datetime': '2018-10-09 23:56:12.148488', 'mgs': 0, 'volt': 0.8447, 'depth': 0.699, 'time': 1, 'pitch': 6.73, 'roll': 0.15, 'pres': 173}
{'lipoC2': 7.26, 'lipoC3S1': 3.78, 'temp': 30.63, 'lipoC3S3': 11.4, 'lipoC3S2': 7.55, 'rot1': 0, 'rot0': 0, 'rot3': 0, 'rot2': 0, 'state': 'normal', 'yaw': 0.04, 'datetime': '2018-10-09 23:56:12.167989', 'mgs': 0, 'volt': 0.8447, 'depth': 0.699, 'time': 1, 'pitch': 8.16, 'roll': -0.08, 'pres': 173}
{'lipoC2': 7.25, 'lipoC3S1': 3.77, 'temp': 30.56, 'lipoC3S3': 11.4, 'lipoC3S2': 7.55, 'rot1': 0, 'rot0': 0, 'rot3': 0, 'rot2': 0, 'state': 'normal', 'yaw': 0.22, 'datetime': '2018-10-09 23:56:12.187434', 'mgs': 0, 'volt': 0.8496, 'depth': 0.775, 'time': 1, 'pitch': 8.52, 'roll': 0.02, 'pres': 174}
{'lipoC2': 7.26, 'lipoC3S1': 3.78, 'temp': 30.56, 'lipoC3S3': 11.4, 'lipoC3S2': 7.55, 'rot1': 0, 'rot0': 0, 'rot3': 0, 'rot2': 0, 'state': 'normal', 'yaw': 0.45, 'datetime': '2018-10-09 23:56:12.199877', 'mgs': 0, 'volt': 0.8447, 'depth': 0.699, 'time': 1, 'pitch': 7.99, 'roll': 0.46, 'pres': 173}
{'lipoC2': 7.25, 'lipoC3S1': 3.77, 'temp': 30.56, 'lipoC3S3': 11.4, 'lipoC3S2': 7.55, 'rot1': 0, 'rot0': 0, 'rot3': 0, 'rot2': 0, 'state': 'normal', 'yaw': 0.72, 'datetime': '2018-10-09 23:56:12.217308', 'mgs': 0, 'volt': 0.8496, 'depth': 0.775, 'time': 1, 'pitch': 6.98, 'roll': 1.06, 'pres': 174}
{'lipoC2': 7.25, 'lipoC3S1': 3.78, 'temp': 30.63, 'lipoC3S3': 11.4, 'lipoC3S2': 7.55, 'rot1': 0, 'rot0': 0, 'rot3': 0, 'rot2': 0, 'state': 'normal', 'yaw': 1.06, 'datetime': '2018-10-09 23:56:12.236601', 'mgs': 0, 'volt': 0.8496, 'depth': 0.775, 'time': 1, 'pitch': 5.82, 'roll': 1.53, 'pres': 174}
{'lipoC2': 7.26, 'lipoC3S1': 3.77, 'temp': 30.63, 'lipoC3S3': 11.4, 'lipoC3S2': 7.55, 'rot1': 0, 'rot0': 0, 'rot3': 0, 'rot2': 0, 'state': 'normal', 'yaw': 1.83, 'datetime': '2018-10-09 23:56:12.250189', 'mgs': 0, 'volt': 0.8496, 'depth': 0.775, 'time': 1, 'pitch': 5.21, 'roll': 1.64, 'pres': 174}
{'lipoC2': 7.26, 'lipoC3S1': 3.78, 'temp': 30.63, 'lipoC3S3': 11.4, 'lipoC3S2': 7.56, 'rot1': 0, 'rot0': 0, 'rot3': 0, 'rot2': 0, 'state': 'normal', 'yaw': 2.98, 'datetime': '2018-10-09 23:56:12.269868', 'mgs': 0, 'volt': 0.8545, 'depth': 0.851, 'time': 1, 'pitch': 5.29, 'roll': 1.44, 'pres': 175}
{'lipoC2': 7.26, 'lipoC3S1': 3.78, 'temp': 30.63, 'lipoC3S3': 11.4, 'lipoC3S2': 7.56, 'rot1': 0, 'rot0': 0, 'rot3': 0, 'rot2': 0, 'state': 'normal', 'yaw': 4.04, 'datetime': '2018-10-09 23:56:12.290442', 'mgs': 0, 'volt': 0.8545, 'depth': 0.851, 'time': 2, 'pitch': 5.43, 'roll': 1.19, 'pres': 175}
{'lipoC2': 7.26, 'lipoC3S1': 3.78, 'temp': 30.63, 'lipoC3S3': 11.4, 'lipoC3S2': 7.56, 'rot1': 0, 'rot0': 0, 'rot3': 0, 'rot2': 0, 'state': 'normal', 'yaw': 4.96, 'datetime': '2018-10-09 23:56:12.304085', 'mgs': 0, 'volt': 0.8545, 'depth': 0.851, 'time': 2, 'pitch': 5.38, 'roll': 1.13, 'pres': 175}
{'lipoC2': 7.26, 'lipoC3S1': 3.78, 'temp': 30.63, 'lipoC3S3': 11.4, 'lipoC3S2': 7.56, 'rot1': 0, 'rot0': 0, 'rot3': 0, 'rot2': 0, 'state': 'normal', 'yaw': 5.68, 'datetime': '2018-10-09 23:56:12.321359', 'mgs': 0, 'volt': 0.8594, 'depth': 0.928, 'time': 2, 'pitch': 5.36, 'roll': 1.4, 'pres': 176}
{'lipoC2': 7.26, 'lipoC3S1': 3.78, 'temp': 30.63, 'lipoC3S3': 11.4, 'lipoC3S2': 7.56, 'rot1': 0, 'rot0': 0, 'rot3': 0, 'rot2': 0, 'state': 'normal', 'yaw': 6.21, 'datetime': '2018-10-09 23:56:12.340734', 'mgs': 0, 'volt': 0.8594, 'depth': 0.928, 'time': 2, 'pitch': 5.55, 'roll': 1.85, 'pres': 176}
{'lipoC2': 7.26, 'lipoC3S1': 3.77, 'temp': 30.63, 'lipoC3S3': 11.4, 'lipoC3S2': 7.55, 'rot1': 0, 'rot0': 0, 'rot3': 0, 'rot2': 0, 'state': 'normal', 'yaw': 6.27, 'datetime': '2018-10-09 23:56:12.354434', 'mgs': 0, 'volt': 0.8594, 'depth': 0.928, 'time': 2, 'pitch': 6.01, 'roll': 2.19, 'pres': 176}
{'lipoC2': 7.26, 'lipoC3S1': 3.78, 'temp': 30.63, 'lipoC3S3': 11.4, 'lipoC3S2': 7.55, 'rot1': 0, 'rot0': 0, 'rot3': 0, 'rot2': 0, 'state': 'normal', 'yaw': 5.7, 'datetime': '2018-10-09 23:56:12.374136', 'mgs': 0, 'volt': 0.8594, 'depth': 0.928, 'time': 2, 'pitch': 6.59, 'roll': 2.24, 'pres': 176}
{'lipoC2': 7.26, 'lipoC3S1': 3.78, 'temp': 30.63, 'lipoC3S3': 11.4, 'lipoC3S2': 7.55, 'rot1': 0, 'rot0': 0, 'rot3': 0, 'rot2': 0, 'state': 'normal', 'yaw': 4.58, 'datetime': '2018-10-09 23:56:12.393569', 'mgs': 0, 'volt': 0.8643, 'depth': 1.004, 'time': 2, 'pitch': 6.99, 'roll': 2.19, 'pres': 177}
{'lipoC2': 7.25, 'lipoC3S1': 3.77, 'temp': 30.63, 'lipoC3S3': 11.4, 'lipoC3S2': 7.55, 'rot1': 0, 'rot0': 0, 'rot3': 0, 'rot2': 0, 'state': 'normal', 'yaw': 3.19, 'datetime': '2018-10-09 23:56:12.408296', 'mgs': 0, 'volt': 0.8643, 'depth': 1.004, 'time': 2, 'pitch': 7.06, 'roll': 2.06, 'pres': 177}
{'lipoC2': 7.26, 'lipoC3S1': 3.77, 'temp': 30.63, 'lipoC3S3': 11.4, 'lipoC3S2': 7.55, 'rot1': 0, 'rot0': 0, 'rot3': 0, 'rot2': 0, 'state': 'normal', 'yaw': 1.64, 'datetime': '2018-10-09 23:56:12.425955', 'mgs': 0, 'volt': 0.8691, 'depth': 1.08, 'time': 2, 'pitch': 6.53, 'roll': 1.91, 'pres': 178}
{'lipoC2': 7.26, 'lipoC3S1': 3.78, 'temp': 30.63, 'lipoC3S3': 11.4, 'lipoC3S2': 7.56, 'rot1': 0, 'rot0': 0, 'rot3': 0, 'rot2': 0, 'state': 'normal', 'yaw': 0.4, 'datetime': '2018-10-09 23:56:12.445233', 'mgs': 0, 'volt': 0.8691, 'depth': 1.08, 'time': 3, 'pitch': 5.8, 'roll': 1.9, 'pres': 178}
{'lipoC2': 7.25, 'lipoC3S1': 3.78, 'temp': 30.63, 'lipoC3S3': 11.4, 'lipoC3S2': 7.56, 'rot1': 0, 'rot0': 0, 'rot3': 0, 'rot2': 0, 'state': 'normal', 'yaw': -0.52, 'datetime': '2018-10-09 23:56:12.458849', 'mgs': 0, 'volt': 0.874, 'depth': 1.157, 'time': 3, 'pitch': 5.25, 'roll': 1.91, 'pres': 179}
{'lipoC2': 7.25, 'lipoC3S1': 3.78, 'temp': 30.63, 'lipoC3S3': 11.4, 'lipoC3S2': 7.56, 'rot1': 0, 'rot0': 0, 'rot3': 0, 'rot2': 0, 'state': 'normal', 'yaw': -1.09, 'datetime': '2018-10-09 23:56:12.478338', 'mgs': 0, 'volt': 0.874, 'depth': 1.157, 'time': 3, 'pitch': 5.22, 'roll': 1.83, 'pres': 179}
{'lipoC2': 7.25, 'lipoC3S1': 3.78, 'temp': 30.63, 'lipoC3S3': 11.4, 'lipoC3S2': 7.55, 'rot1': 0, 'rot0': 0, 'rot3': 0, 'rot2': 0, 'state': 'normal', 'yaw': -1.33, 'datetime': '2018-10-09 23:56:12.497857', 'mgs': 0, 'volt': 0.874, 'depth': 1.157, 'time': 3, 'pitch': 5.86, 'roll': 1.62, 'pres': 179}
{'lipoC2': 7.26, 'lipoC3S1': 3.78, 'temp': 30.63, 'lipoC3S3': 11.39, 'lipoC3S2': 7.55, 'rot1': 0, 'rot0': 0, 'rot3': 0, 'rot2': 0, 'state': 'normal', 'yaw': -1.64, 'datetime': '2018-10-09 23:56:12.511999', 'mgs': 0, 'volt': 0.874, 'depth': 1.157, 'time': 3, 'pitch': 6.56, 'roll': 1.34, 'pres': 179}
{'lipoC2': 7.26, 'lipoC3S1': 3.78, 'temp': 30.63, 'lipoC3S3': 11.4, 'lipoC3S2': 7.55, 'rot1': 0, 'rot0': 0, 'rot3': 0, 'rot2': 0, 'state': 'normal', 'yaw': -2.25, 'datetime': '2018-10-09 23:56:12.528957', 'mgs': 0, 'volt': 0.8789, 'depth': 1.233, 'time': 3, 'pitch': 6.61, 'roll': 1.13, 'pres': 180}
{'lipoC2': 7.26, 'lipoC3S1': 3.78, 'temp': 30.63, 'lipoC3S3': 11.4, 'lipoC3S2': 7.55, 'rot1': 0, 'rot0': 0, 'rot3': 0, 'rot2': 0, 'state': 'normal', 'yaw': -3.07, 'datetime': '2018-10-09 23:56:12.548506', 'mgs': 0, 'volt': 0.8789, 'depth': 1.233, 'time': 3, 'pitch': 5.88, 'roll': 1.09, 'pres': 180}
{'lipoC2': 7.26, 'lipoC3S1': 3.78, 'temp': 30.56, 'lipoC3S3': 11.39, 'lipoC3S2': 7.55, 'rot1': 0, 'rot0': 0, 'rot3': 0, 'rot2': 0, 'state': 'normal', 'yaw': -3.48, 'datetime': '2018-10-09 23:56:12.562092', 'mgs': 0, 'volt': 0.8789, 'depth': 1.233, 'time': 3, 'pitch': 4.92, 'roll': 1.19, 'pres': 180}
{'lipoC2': 7.26, 'lipoC3S1': 3.78, 'temp': 30.56, 'lipoC3S3': 11.39, 'lipoC3S2': 7.55, 'rot1': 0, 'rot0': 0, 'rot3': 0, 'rot2': 0, 'state': 'normal', 'yaw': -3.38, 'datetime': '2018-10-09 23:56:12.581628', 'mgs': 0, 'volt': 0.8789, 'depth': 1.233, 'time': 3, 'pitch': 4.01, 'roll': 1.45, 'pres': 180}
{'lipoC2': 7.26, 'lipoC3S1': 3.78, 'temp': 30.63, 'lipoC3S3': 11.4, 'lipoC3S2': 7.55, 'rot1': 0, 'rot0': 0, 'rot3': 0, 'rot2': 0, 'state': 'normal', 'yaw': -2.77, 'datetime': '2018-10-09 23:56:12.601184', 'mgs': 0, 'volt': 0.8838, 'depth': 1.309, 'time': 3, 'pitch': 3.34, 'roll': 1.78, 'pres': 181}
{'lipoC2': 7.26, 'lipoC3S1': 3.78, 'temp': 30.63, 'lipoC3S3': 11.4, 'lipoC3S2': 7.56, 'rot1': 0, 'rot0': 0, 'rot3': 0, 'rot2': 0, 'state': 'normal', 'yaw': -1.76, 'datetime': '2018-10-09 23:56:12.614194', 'mgs': 0, 'volt': 0.8789, 'depth': 1.233, 'time': 4, 'pitch': 2.95, 'roll': 2.1, 'pres': 180}
{'lipoC2': 7.26, 'lipoC3S1': 3.78, 'temp': 30.63, 'lipoC3S3': 11.4, 'lipoC3S2': 7.56, 'rot1': 0, 'rot0': 0, 'rot3': 0, 'rot2': 0, 'state': 'normal', 'yaw': -0.72, 'datetime': '2018-10-09 23:56:12.634056', 'mgs': 0, 'volt': 0.8789, 'depth': 1.233, 'time': 4, 'pitch': 2.61, 'roll': 2.35, 'pres': 180}
{'lipoC2': 7.26, 'lipoC3S1': 3.78, 'temp': 30.63, 'lipoC3S3': 11.4, 'lipoC3S2': 7.55, 'rot1': 0, 'rot0': 0, 'rot3': 0, 'rot2': 0, 'state': 'normal', 'yaw': 0.04, 'datetime': '2018-10-09 23:56:12.653598', 'mgs': 0, 'volt': 0.8789, 'depth': 1.233, 'time': 4, 'pitch': 1.6, 'roll': 2.54, 'pres': 180}
{'lipoC2': 7.26, 'lipoC3S1': 3.78, 'temp': 30.63, 'lipoC3S3': 11.4, 'lipoC3S2': 7.56, 'rot1': 0, 'rot0': 0, 'rot3': 0, 'rot2': 0, 'state': 'normal', 'yaw': 0.44, 'datetime': '2018-10-09 23:56:12.667163', 'mgs': 0, 'volt': 0.874, 'depth': 1.157, 'time': 4, 'pitch': -0.72, 'roll': 2.65, 'pres': 179}
{'lipoC2': 7.25, 'lipoC3S1': 3.77, 'temp': 30.63, 'lipoC3S3': 11.4, 'lipoC3S2': 7.55, 'rot1': 0, 'rot0': 0, 'rot3': 0, 'rot2': 0, 'state': 'normal', 'yaw': 0.58, 'datetime': '2018-10-09 23:56:12.686813', 'mgs': 0, 'volt': 0.874, 'depth': 1.157, 'time': 4, 'pitch': -3.01, 'roll': 2.52, 'pres': 179}
{'lipoC2': 7.25, 'lipoC3S1': 3.74, 'temp': 30.63, 'lipoC3S3': 11.34, 'lipoC3S2': 7.51, 'rot1': 0, 'rot0': 0, 'rot3': 0, 'rot2': 1, 'state': 'normal', 'yaw': 0.69, 'datetime': '2018-10-09 23:56:12.706214', 'mgs': 0, 'volt': 0.8691, 'depth': 1.08, 'time': 4, 'pitch': -4.76, 'roll': 2.25, 'pres': 178}
{'lipoC2': 7.25, 'lipoC3S1': 3.74, 'temp': 30.63, 'lipoC3S3': 11.34, 'lipoC3S2': 7.5, 'rot1': 0, 'rot0': 0, 'rot3': 1, 'rot2': 1, 'state': 'normal', 'yaw': 0.76, 'datetime': '2018-10-09 23:56:12.721991', 'mgs': 0, 'volt': 0.8691, 'depth': 1.08, 'time': 4, 'pitch': -5.78, 'roll': 2.07, 'pres': 178}
{'lipoC2': 7.25, 'lipoC3S1': 3.76, 'temp': 30.63, 'lipoC3S3': 11.38, 'lipoC3S2': 7.54, 'rot1': 0, 'rot0': 0, 'rot3': 2, 'rot2': 2, 'state': 'normal', 'yaw': 0.74, 'datetime': '2018-10-09 23:56:12.742264', 'mgs': 0, 'volt': 0.8789, 'depth': 1.233, 'time': 4, 'pitch': -6.35, 'roll': 2.07, 'pres': 180}
{'lipoC2': 7.25, 'lipoC3S1': 3.75, 'temp': 30.56, 'lipoC3S3': 11.36, 'lipoC3S2': 7.52, 'rot1': 0, 'rot0': 0, 'rot3': 3, 'rot2': 3, 'state': 'normal', 'yaw': 0.74, 'datetime': '2018-10-09 23:56:12.761959', 'mgs': 0, 'volt': 0.8594, 'depth': 0.928, 'time': 4, 'pitch': -6.25, 'roll': 2.24, 'pres': 176}
{'lipoC2': 7.25, 'lipoC3S1': 3.74, 'temp': 30.56, 'lipoC3S3': 11.36, 'lipoC3S2': 7.5, 'rot1': 0, 'rot0': 0, 'rot3': 4, 'rot2': 3, 'state': 'normal', 'yaw': 0.63, 'datetime': '2018-10-09 23:56:12.775641', 'mgs': 0, 'volt': 0.8496, 'depth': 0.775, 'time': 4, 'pitch': -5.65, 'roll': 2.51, 'pres': 174}
{'lipoC2': 7.25, 'lipoC3S1': 3.75, 'temp': 30.56, 'lipoC3S3': 11.36, 'lipoC3S2': 7.53, 'rot1': 0, 'rot0': 0, 'rot3': 5, 'rot2': 4, 'state': 'normal', 'yaw': 0.2, 'datetime': '2018-10-09 23:56:12.795122', 'mgs': 0, 'volt': 0.8691, 'depth': 1.08, 'time': 5, 'pitch': -5.04, 'roll': 2.82, 'pres': 178}
{'lipoC2': 7.25, 'lipoC3S1': 3.75, 'temp': 30.63, 'lipoC3S3': 11.35, 'lipoC3S2': 7.51, 'rot1': 0, 'rot0': 0, 'rot3': 6, 'rot2': 5, 'state': 'normal', 'yaw': -0.43, 'datetime': '2018-10-09 23:56:12.814880', 'mgs': 0, 'volt': 0.8398, 'depth': 0.623, 'time': 5, 'pitch': -5.02, 'roll': 3.18, 'pres': 172}
{'lipoC2': 7.25, 'lipoC3S1': 3.75, 'temp': 30.63, 'lipoC3S3': 11.36, 'lipoC3S2': 7.52, 'rot1': 0, 'rot0': 0, 'rot3': 7, 'rot2': 6, 'state': 'normal', 'yaw': -1.15, 'datetime': '2018-10-09 23:56:12.828684', 'mgs': 0, 'volt': 0.8545, 'depth': 0.851, 'time': 5, 'pitch': -5.22, 'roll': 3.64, 'pres': 175}
{'lipoC2': 7.25, 'lipoC3S1': 3.76, 'temp': 30.69, 'lipoC3S3': 11.32, 'lipoC3S2': 7.49, 'rot1': 0, 'rot0': 0, 'rot3': 8, 'rot2': 6, 'state': 'normal', 'yaw': -1.85, 'datetime': '2018-10-09 23:56:12.848522', 'mgs': 0, 'volt': 0.8398, 'depth': 0.623, 'time': 5, 'pitch': -5.27, 'roll': 4.27, 'pres': 172}
{'lipoC2': 7.25, 'lipoC3S1': 3.75, 'temp': 30.69, 'lipoC3S3': 11.38, 'lipoC3S2': 7.51, 'rot1': 0, 'rot0': 0, 'rot3': 8, 'rot2': 7, 'state': 'normal', 'yaw': -2.43, 'datetime': '2018-10-09 23:56:12.868077', 'mgs': 0, 'volt': 0.8496, 'depth': 0.775, 'time': 5, 'pitch': -4.59, 'roll': 4.99, 'pres': 174}
{'lipoC2': 7.25, 'lipoC3S1': 3.76, 'temp': 30.69, 'lipoC3S3': 11.31, 'lipoC3S2': 7.54, 'rot1': 0, 'rot0': 0, 'rot3': 9, 'rot2': 8, 'state': 'normal', 'yaw': -2.65, 'datetime': '2018-10-09 23:56:12.881518', 'mgs': 0, 'volt': 0.835, 'depth': 0.546, 'time': 5, 'pitch': -3.4, 'roll': 5.44, 'pres': 171}
{'lipoC2': 7.25, 'lipoC3S1': 3.74, 'temp': 30.69, 'lipoC3S3': 11.35, 'lipoC3S2': 7.5, 'rot1': 0, 'rot0': 0, 'rot3': 10, 'rot2': 8, 'state': 'normal', 'yaw': -2.57, 'datetime': '2018-10-09 23:56:12.901257', 'mgs': 0, 'volt': 0.8154, 'depth': 0.241, 'time': 5, 'pitch': -1.98, 'roll': 5.48, 'pres': 167}
{'lipoC2': 7.25, 'lipoC3S1': 3.75, 'temp': 30.69, 'lipoC3S3': 11.36, 'lipoC3S2': 7.51, 'rot1': 0, 'rot0': 0, 'rot3': 11, 'rot2': 9, 'state': 'normal', 'yaw': -2.22, 'datetime': '2018-10-09 23:56:12.921150', 'mgs': 0, 'volt': 0.835, 'depth': 0.546, 'time': 5, 'pitch': -0.54, 'roll': 5.07, 'pres': 171}
{'lipoC2': 7.25, 'lipoC3S1': 3.76, 'temp': 30.69, 'lipoC3S3': 11.38, 'lipoC3S2': 7.53, 'rot1': 0, 'rot0': 0, 'rot3': 13, 'rot2': 10, 'state': 'normal', 'yaw': -1.8, 'datetime': '2018-10-09 23:56:12.934051', 'mgs': 0, 'volt': 0.8252, 'depth': 0.394, 'time': 5, 'pitch': 0.3, 'roll': 4.11, 'pres': 169}
{'lipoC2': 7.25, 'lipoC3S1': 3.75, 'temp': 30.69, 'lipoC3S3': 11.38, 'lipoC3S2': 7.54, 'rot1': 0, 'rot0': 0, 'rot3': 14, 'rot2': 11, 'state': 'normal', 'yaw': -1.65, 'datetime': '2018-10-09 23:56:12.954068', 'mgs': 0, 'volt': 0.8057, 'depth': 0.089, 'time': 5, 'pitch': 0.18, 'roll': 3.05, 'pres': 165}
{'lipoC2': 7.26, 'lipoC3S1': 3.75, 'temp': 30.69, 'lipoC3S3': 11.38, 'lipoC3S2': 7.53, 'rot1': 0, 'rot0': 0, 'rot3': 15, 'rot2': 11, 'state': 'normal', 'yaw': -1.84, 'datetime': '2018-10-09 23:56:12.973596', 'mgs': 0, 'volt': 0.8057, 'depth': 0.089, 'time': 6, 'pitch': -0.51, 'roll': 2.3, 'pres': 165}
{'lipoC2': 7.26, 'lipoC3S1': 3.75, 'temp': 30.69, 'lipoC3S3': 11.38, 'lipoC3S2': 7.52, 'rot1': 0, 'rot0': 0, 'rot3': 16, 'rot2': 12, 'state': 'normal', 'yaw': -2.44, 'datetime': '2018-10-09 23:56:12.987342', 'mgs': 0, 'volt': 0.8057, 'depth': 0.089, 'time': 6, 'pitch': -1.4, 'roll': 2.09, 'pres': 165}
{'lipoC2': 7.25, 'lipoC3S1': 3.75, 'temp': 30.63, 'lipoC3S3': 11.38, 'lipoC3S2': 7.51, 'rot1': 0, 'rot0': 0, 'rot3': 17, 'rot2': 13, 'state': 'normal', 'yaw': -3.01, 'datetime': '2018-10-09 23:56:13.007041', 'mgs': 0, 'volt': 0.8057, 'depth': 0.089, 'time': 6, 'pitch': -1.92, 'roll': 2.55, 'pres': 165}
{'lipoC2': 7.26, 'lipoC3S1': 3.75, 'temp': 30.63, 'lipoC3S3': 11.36, 'lipoC3S2': 7.52, 'rot1': 0, 'rot0': 0, 'rot3': 18, 'rot2': 14, 'state': 'normal', 'yaw': -3.19, 'datetime': '2018-10-09 23:56:13.026833', 'mgs': 0, 'volt': 0.8203, 'depth': 0.317, 'time': 6, 'pitch': -2.13, 'roll': 3.47, 'pres': 168}
{'lipoC2': 7.26, 'lipoC3S1': 3.75, 'temp': 30.63, 'lipoC3S3': 11.36, 'lipoC3S2': 7.51, 'rot1': 0, 'rot0': 0, 'rot3': 19, 'rot2': 14, 'state': 'normal', 'yaw': -2.71, 'datetime': '2018-10-09 23:56:13.039952', 'mgs': 0, 'volt': 0.8154, 'depth': 0.241, 'time': 6, 'pitch': -1.69, 'roll': 4.03, 'pres': 167}
{'lipoC2': 7.25, 'lipoC3S1': 3.75, 'temp': 30.63, 'lipoC3S3': 11.35, 'lipoC3S2': 7.52, 'rot1': 0, 'rot0': 0, 'rot3': 21, 'rot2': 15, 'state': 'normal', 'yaw': -1.97, 'datetime': '2018-10-09 23:56:13.059668', 'mgs': 0, 'volt': 0.8008, 'depth': 0.012, 'time': 6, 'pitch': -0.78, 'roll': 3.96, 'pres': 164}
{'lipoC2': 7.25, 'lipoC3S1': 3.76, 'temp': 30.63, 'lipoC3S3': 11.34, 'lipoC3S2': 7.5, 'rot1': 0, 'rot0': 0, 'rot3': 22, 'rot2': 16, 'state': 'normal', 'yaw': -1.28, 'datetime': '2018-10-09 23:56:13.079175', 'mgs': 0, 'volt': 0.8057, 'depth': 0.089, 'time': 6, 'pitch': 0.43, 'roll': 3.53, 'pres': 165}
{'lipoC2': 7.25, 'lipoC3S1': 3.77, 'temp': 30.69, 'lipoC3S3': 11.35, 'lipoC3S2': 7.52, 'rot1': 0, 'rot0': 0, 'rot3': 23, 'rot2': 17, 'state': 'normal', 'yaw': -0.83, 'datetime': '2018-10-09 23:56:13.092942', 'mgs': 0, 'volt': 0.8008, 'depth': 0.012, 'time': 6, 'pitch': 1.03, 'roll': 2.55, 'pres': 164}
{'lipoC2': 7.25, 'lipoC3S1': 3.75, 'temp': 30.69, 'lipoC3S3': 11.35, 'lipoC3S2': 7.5, 'rot1': 0, 'rot0': 0, 'rot3': 24, 'rot2': 17, 'state': 'normal', 'yaw': -0.84, 'datetime': '2018-10-09 23:56:13.111921', 'mgs': 0, 'volt': 0.791, 'depth': -0.14, 'time': 6, 'pitch': 0.92, 'roll': 1.73, 'pres': 162}
{'lipoC2': 7.25, 'lipoC3S1': 3.77, 'temp': 30.63, 'lipoC3S3': 11.35, 'lipoC3S2': 7.51, 'rot1': 0, 'rot0': 0, 'rot3': 25, 'rot2': 18, 'state': 'normal', 'yaw': -1.24, 'datetime': '2018-10-09 23:56:13.129021', 'mgs': 0, 'volt': 0.7959, 'depth': -0.064, 'time': 7, 'pitch': 0.47, 'roll': 1.48, 'pres': 163}
{'lipoC2': 7.25, 'lipoC3S1': 3.76, 'temp': 30.63, 'lipoC3S3': 11.34, 'lipoC3S2': 7.5, 'rot1': 0, 'rot0': 0, 'rot3': 26, 'rot2': 19, 'state': 'normal', 'yaw': -2.04, 'datetime': '2018-10-09 23:56:13.139833', 'mgs': 0, 'volt': 0.8008, 'depth': 0.012, 'time': 7, 'pitch': -0.09, 'roll': 1.84, 'pres': 164}
{'lipoC2': 7.25, 'lipoC3S1': 3.75, 'temp': 30.63, 'lipoC3S3': 11.34, 'lipoC3S2': 7.5, 'rot1': 0, 'rot0': 0, 'rot3': 28, 'rot2': 20, 'state': 'normal', 'yaw': -2.75, 'datetime': '2018-10-09 23:56:13.155780', 'mgs': 0, 'volt': 0.7959, 'depth': -0.064, 'time': 7, 'pitch': -0.38, 'roll': 2.57, 'pres': 163}
{'lipoC2': 7.25, 'lipoC3S1': 3.76, 'temp': 30.69, 'lipoC3S3': 11.35, 'lipoC3S2': 7.51, 'rot1': 0, 'rot0': 0, 'rot3': 29, 'rot2': 21, 'state': 'normal', 'yaw': -3.27, 'datetime': '2018-10-09 23:56:13.171762', 'mgs': 0, 'volt': 0.8057, 'depth': 0.089, 'time': 7, 'pitch': -0.6, 'roll': 3.33, 'pres': 165}
{'lipoC2': 7.25, 'lipoC3S1': 3.77, 'temp': 30.69, 'lipoC3S3': 11.34, 'lipoC3S2': 7.5, 'rot1': 0, 'rot0': 0, 'rot3': 30, 'rot2': 21, 'state': 'normal', 'yaw': -3.3, 'datetime': '2018-10-09 23:56:13.181694', 'mgs': 0, 'volt': 0.8057, 'depth': 0.089, 'time': 7, 'pitch': -0.18, 'roll': 3.74, 'pres': 165}
{'lipoC2': 7.25, 'lipoC3S1': 3.77, 'temp': 30.63, 'lipoC3S3': 11.39, 'lipoC3S2': 7.55, 'rot1': 0, 'rot0': 0, 'rot3': 31, 'rot2': 22, 'state': 'normal', 'yaw': -2.97, 'datetime': '2018-10-09 23:56:13.197584', 'mgs': 0, 'volt': 0.8057, 'depth': 0.089, 'time': 7, 'pitch': 0.66, 'roll': 3.65, 'pres': 165}
{'lipoC2': 7.24, 'lipoC3S1': 3.76, 'temp': 30.63, 'lipoC3S3': 11.26, 'lipoC3S2': 7.52, 'rot1': 0, 'rot0': 0, 'rot3': 31, 'rot2': 22, 'state': 'normal', 'yaw': -2.7, 'datetime': '2018-10-09 23:56:13.213724', 'mgs': 0, 'volt': 0.8008, 'depth': 0.012, 'time': 7, 'pitch': 1.66, 'roll': 3.36, 'pres': 164}
{'lipoC2': 7.25, 'lipoC3S1': 3.7, 'temp': 30.56, 'lipoC3S3': 11.36, 'lipoC3S2': 7.51, 'rot1': 1, 'rot0': 1, 'rot3': 31, 'rot2': 22, 'state': 'normal', 'yaw': -2.78, 'datetime': '2018-10-09 23:56:13.223856', 'mgs': 0, 'volt': 0.8105, 'depth': 0.165, 'time': 7, 'pitch': 3.35, 'roll': 3.09, 'pres': 166}
{'lipoC2': 7.25, 'lipoC3S1': 3.69, 'temp': 30.56, 'lipoC3S3': 11.36, 'lipoC3S2': 7.51, 'rot1': 3, 'rot0': 3, 'rot3': 31, 'rot2': 22, 'state': 'normal', 'yaw': -3.15, 'datetime': '2018-10-09 23:56:13.242657', 'mgs': 0, 'volt': 0.8154, 'depth': 0.241, 'time': 7, 'pitch': 5.65, 'roll': 2.72, 'pres': 167}
{'lipoC2': 7.25, 'lipoC3S1': 3.75, 'temp': 30.56, 'lipoC3S3': 11.34, 'lipoC3S2': 7.42, 'rot1': 4, 'rot0': 4, 'rot3': 31, 'rot2': 22, 'state': 'normal', 'yaw': -3.68, 'datetime': '2018-10-09 23:56:13.258793', 'mgs': 0, 'volt': 0.8057, 'depth': 0.089, 'time': 7, 'pitch': 7.16, 'roll': 2.25, 'pres': 165}
{'lipoC2': 7.25, 'lipoC3S1': 3.75, 'temp': 30.56, 'lipoC3S3': 11.31, 'lipoC3S2': 7.41, 'rot1': 5, 'rot0': 5, 'rot3': 31, 'rot2': 22, 'state': 'normal', 'yaw': -4.33, 'datetime': '2018-10-09 23:56:13.268813', 'mgs': 0, 'volt': 0.8105, 'depth': 0.165, 'time': 8, 'pitch': 7.71, 'roll': 1.77, 'pres': 166}
{'lipoC2': 7.25, 'lipoC3S1': 3.75, 'temp': 30.56, 'lipoC3S3': 11.32, 'lipoC3S2': 7.4, 'rot1': 6, 'rot0': 7, 'rot3': 31, 'rot2': 22, 'state': 'normal', 'yaw': -4.92, 'datetime': '2018-10-09 23:56:13.284851', 'mgs': 0, 'volt': 0.8154, 'depth': 0.241, 'time': 8, 'pitch': 7.33, 'roll': 1.38, 'pres': 167}
{'lipoC2': 7.24, 'lipoC3S1': 3.76, 'temp': 30.5, 'lipoC3S3': 11.25, 'lipoC3S2': 7.52, 'rot1': 7, 'rot0': 8, 'rot3': 31, 'rot2': 22, 'state': 'normal', 'yaw': -5.48, 'datetime': '2018-10-09 23:56:13.300910', 'mgs': 0, 'volt': 0.8154, 'depth': 0.241, 'time': 8, 'pitch': 6.87, 'roll': 1.13, 'pres': 167}
{'lipoC2': 7.24, 'lipoC3S1': 3.76, 'temp': 30.5, 'lipoC3S3': 11.17, 'lipoC3S2': 7.52, 'rot1': 9, 'rot0': 9, 'rot3': 31, 'rot2': 22, 'state': 'normal', 'yaw': -6.13, 'datetime': '2018-10-09 23:56:13.311015', 'mgs': 0, 'volt': 0.8203, 'depth': 0.317, 'time': 8, 'pitch': 6.79, 'roll': 1.05, 'pres': 168}
{'lipoC2': 7.24, 'lipoC3S1': 3.76, 'temp': 30.5, 'lipoC3S3': 11.29, 'lipoC3S2': 7.52, 'rot1': 10, 'rot0': 11, 'rot3': 31, 'rot2': 22, 'state': 'normal', 'yaw': -6.85, 'datetime': '2018-10-09 23:56:13.327195', 'mgs': 0, 'volt': 0.8154, 'depth': 0.241, 'time': 8, 'pitch': 7.13, 'roll': 1.0, 'pres': 167}
{'lipoC2': 7.25, 'lipoC3S1': 3.76, 'temp': 30.5, 'lipoC3S3': 11.35, 'lipoC3S2': 7.53, 'rot1': 11, 'rot0': 12, 'rot3': 31, 'rot2': 22, 'state': 'normal', 'yaw': -7.67, 'datetime': '2018-10-09 23:56:13.346117', 'mgs': 0, 'volt': 0.8838, 'depth': 1.309, 'time': 8, 'pitch': 7.52, 'roll': 0.98, 'pres': 181}
{'lipoC2': 7.25, 'lipoC3S1': 3.66, 'temp': 30.5, 'lipoC3S3': 11.36, 'lipoC3S2': 7.45, 'rot1': 13, 'rot0': 14, 'rot3': 31, 'rot2': 22, 'state': 'normal', 'yaw': -8.54, 'datetime': '2018-10-09 23:56:13.357898', 'mgs': 0, 'volt': 0.8203, 'depth': 0.317, 'time': 8, 'pitch': 7.72, 'roll': 0.98, 'pres': 168}
{'lipoC2': 7.24, 'lipoC3S1': 3.76, 'temp': 30.56, 'lipoC3S3': 11.27, 'lipoC3S2': 7.52, 'rot1': 14, 'rot0': 15, 'rot3': 31, 'rot2': 22, 'state': 'normal', 'yaw': -9.5, 'datetime': '2018-10-09 23:56:13.374141', 'mgs': 0, 'volt': 0.8203, 'depth': 0.317, 'time': 8, 'pitch': 7.76, 'roll': 0.77, 'pres': 168}
{'lipoC2': 7.25, 'lipoC3S1': 3.76, 'temp': 30.56, 'lipoC3S3': 11.36, 'lipoC3S2': 7.53, 'rot1': 15, 'rot0': 16, 'rot3': 31, 'rot2': 22, 'state': 'normal', 'yaw': -10.19, 'datetime': '2018-10-09 23:56:13.457269', 'mgs': 0, 'volt': 0.8984, 'depth': 1.538, 'time': 8, 'pitch': 7.74, 'roll': 0.32, 'pres': 184}
{'lipoC2': 7.25, 'lipoC3S1': 3.72, 'temp': 30.56, 'lipoC3S3': 11.36, 'lipoC3S2': 7.46, 'rot1': 16, 'rot0': 18, 'rot3': 31, 'rot2': 22, 'state': 'normal', 'yaw': -10.55, 'datetime': '2018-10-09 23:56:13.560772', 'mgs': 0, 'volt': 0.8252, 'depth': 0.394, 'time': 8, 'pitch': 7.83, 'roll': -0.25, 'pres': 169}
{'lipoC2': 7.25, 'lipoC3S1': 3.76, 'temp': 30.56, 'lipoC3S3': 11.19, 'lipoC3S2': 7.52, 'rot1': 18, 'rot0': 19, 'rot3': 31, 'rot2': 22, 'state': 'normal', 'yaw': -10.53, 'datetime': '2018-10-09 23:56:13.664388', 'mgs': 0, 'volt': 0.8252, 'depth': 0.394, 'time': 9, 'pitch': 7.79, 'roll': -0.7, 'pres': 169}
{'lipoC2': 7.25, 'lipoC3S1': 3.77, 'temp': 30.63, 'lipoC3S3': 11.36, 'lipoC3S2': 7.53, 'rot1': 19, 'rot0': 20, 'rot3': 31, 'rot2': 22, 'state': 'normal', 'yaw': -10.29, 'datetime': '2018-10-09 23:56:13.767948', 'mgs': 0, 'volt': 0.8887, 'depth': 1.385, 'time': 9, 'pitch': 7.48, 'roll': -1.04, 'pres': 182}
{'lipoC2': 7.26, 'lipoC3S1': 3.75, 'temp': 30.63, 'lipoC3S3': 11.32, 'lipoC3S2': 7.41, 'rot1': 20, 'rot0': 21, 'rot3': 31, 'rot2': 22, 'state': 'normal', 'yaw': -9.93, 'datetime': '2018-10-09 23:56:13.872022', 'mgs': 0, 'volt': 0.8252, 'depth': 0.394, 'time': 9, 'pitch': 6.78, 'roll': -1.19, 'pres': 169}
{'lipoC2': 7.24, 'lipoC3S1': 3.76, 'temp': 30.63, 'lipoC3S3': 11.34, 'lipoC3S2': 7.53, 'rot1': 21, 'rot0': 22, 'rot3': 31, 'rot2': 22, 'state': 'normal', 'yaw': -9.61, 'datetime': '2018-10-09 23:56:13.975129', 'mgs': 0, 'volt': 0.8301, 'depth': 0.47, 'time': 9, 'pitch': 5.95, 'roll': -1.0, 'pres': 170}
{'lipoC2': 7.25, 'lipoC3S1': 3.76, 'temp': 30.63, 'lipoC3S3': 11.34, 'lipoC3S2': 7.42, 'rot1': 22, 'rot0': 24, 'rot3': 31, 'rot2': 22, 'state': 'normal', 'yaw': -9.37, 'datetime': '2018-10-09 23:56:14.079934', 'mgs': 0, 'volt': 0.8301, 'depth': 0.47, 'time': 9, 'pitch': 5.34, 'roll': -0.54, 'pres': 170}
{'lipoC2': 7.24, 'lipoC3S1': 3.76, 'temp': 30.63, 'lipoC3S3': 11.36, 'lipoC3S2': 7.52, 'rot1': 24, 'rot0': 25, 'rot3': 31, 'rot2': 22, 'state': 'normal', 'yaw': -9.24, 'datetime': '2018-10-09 23:56:14.183485', 'mgs': 0, 'volt': 0.8301, 'depth': 0.47, 'time': 9, 'pitch': 5.23, 'roll': 0.24, 'pres': 170}
{'lipoC2': 7.25, 'lipoC3S1': 3.74, 'temp': 30.63, 'lipoC3S3': 11.36, 'lipoC3S2': 7.53, 'rot1': 25, 'rot0': 26, 'rot3': 31, 'rot2': 22, 'state': 'normal', 'yaw': -9.13, 'datetime': '2018-10-09 23:56:14.297363', 'mgs': 0, 'volt': 0.8594, 'depth': 0.928, 'time': 9, 'pitch': 5.8, 'roll': 1.03, 'pres': 176}
{'lipoC2': 7.24, 'lipoC3S1': 3.76, 'temp': 30.63, 'lipoC3S3': 11.35, 'lipoC3S2': 7.53, 'rot1': 26, 'rot0': 27, 'rot3': 31, 'rot2': 22, 'state': 'normal', 'yaw': -8.94, 'datetime': '2018-10-09 23:56:14.402447', 'mgs': 0, 'volt': 0.8545, 'depth': 0.851, 'time': 9, 'pitch': 6.72, 'roll': 1.58, 'pres': 175}
{'lipoC2': 7.25, 'lipoC3S1': 3.71, 'temp': 30.69, 'lipoC3S3': 11.36, 'lipoC3S2': 7.53, 'rot1': 27, 'rot0': 28, 'rot3': 31, 'rot2': 22, 'state': 'normal', 'yaw': -8.57, 'datetime': '2018-10-09 23:56:14.505953', 'mgs': 0, 'volt': 0.8838, 'depth': 1.309, 'time': 9, 'pitch': 7.38, 'roll': 1.74, 'pres': 181}
{'lipoC2': 7.25, 'lipoC3S1': 3.76, 'temp': 30.69, 'lipoC3S3': 11.31, 'lipoC3S2': 7.38, 'rot1': 29, 'rot0': 30, 'rot3': 31, 'rot2': 22, 'state': 'normal', 'yaw': -8.06, 'datetime': '2018-10-09 23:56:14.614139', 'mgs': 0, 'volt': 0.835, 'depth': 0.546, 'time': 10, 'pitch': 7.34, 'roll': 1.49, 'pres': 171}
{'lipoC2': 7.25, 'lipoC3S1': 3.71, 'temp': 30.69, 'lipoC3S3': 11.36, 'lipoC3S2': 7.53, 'rot1': 30, 'rot0': 31, 'rot3': 31, 'rot2': 22, 'state': 'normal', 'yaw': -7.39, 'datetime': '2018-10-09 23:56:14.711973', 'mgs': 0, 'volt': 0.8887, 'depth': 1.385, 'time': 10, 'pitch': 6.75, 'roll': 0.92, 'pres': 182}
{'lipoC2': 7.25, 'lipoC3S1': 3.76, 'temp': 30.63, 'lipoC3S3': 11.19, 'lipoC3S2': 7.51, 'rot1': 31, 'rot0': 32, 'rot3': 31, 'rot2': 22, 'state': 'normal', 'yaw': -6.66, 'datetime': '2018-10-09 23:56:14.810839', 'mgs': 0, 'volt': 0.835, 'depth': 0.546, 'time': 10, 'pitch': 5.69, 'roll': 0.39, 'pres': 171}
{'lipoC2': 7.25, 'lipoC3S1': 3.72, 'temp': 30.63, 'lipoC3S3': 11.36, 'lipoC3S2': 7.53, 'rot1': 33, 'rot0': 33, 'rot3': 31, 'rot2': 22, 'state': 'normal', 'yaw': -6.08, 'datetime': '2018-10-09 23:56:14.914547', 'mgs': 0, 'volt': 0.8203, 'depth': 0.317, 'time': 10, 'pitch': 4.8, 'roll': 0.26, 'pres': 168}
{'lipoC2': 7.25, 'lipoC3S1': 3.76, 'temp': 30.63, 'lipoC3S3': 11.22, 'lipoC3S2': 7.51, 'rot1': 34, 'rot0': 35, 'rot3': 31, 'rot2': 22, 'state': 'normal', 'yaw': -5.63, 'datetime': '2018-10-09 23:56:15.018375', 'mgs': 0, 'volt': 0.8398, 'depth': 0.623, 'time': 10, 'pitch': 4.39, 'roll': 0.59, 'pres': 172}
{'lipoC2': 7.25, 'lipoC3S1': 3.74, 'temp': 30.63, 'lipoC3S3': 11.36, 'lipoC3S2': 7.53, 'rot1': 35, 'rot0': 36, 'rot3': 31, 'rot2': 22, 'state': 'normal', 'yaw': -5.36, 'datetime': '2018-10-09 23:56:15.121751', 'mgs': 0, 'volt': 0.9326, 'depth': 2.072, 'time': 10, 'pitch': 4.58, 'roll': 1.08, 'pres': 191}
{'lipoC2': 7.25, 'lipoC3S1': 3.7, 'temp': 30.69, 'lipoC3S3': 11.35, 'lipoC3S2': 7.52, 'rot1': 37, 'rot0': 37, 'rot3': 31, 'rot2': 22, 'state': 'normal', 'yaw': -5.22, 'datetime': '2018-10-09 23:56:15.226184', 'mgs': 0, 'volt': 0.8545, 'depth': 0.851, 'time': 10, 'pitch': 5.23, 'roll': 1.55, 'pres': 175}
{'lipoC2': 7.25, 'lipoC3S1': 3.75, 'temp': 30.69, 'lipoC3S3': 11.17, 'lipoC3S2': 7.46, 'rot1': 38, 'rot0': 38, 'rot3': 31, 'rot2': 23, 'state': 'normal', 'yaw': -5.14, 'datetime': '2018-10-09 23:56:15.329860', 'mgs': 0, 'volt': 0.8398, 'depth': 0.623, 'time': 10, 'pitch': 6.32, 'roll': 1.99, 'pres': 172}
{'lipoC2': 7.25, 'lipoC3S1': 3.72, 'temp': 30.69, 'lipoC3S3': 11.34, 'lipoC3S2': 7.52, 'rot1': 39, 'rot0': 40, 'rot3': 32, 'rot2': 23, 'state': 'normal', 'yaw': -5.06, 'datetime': '2018-10-09 23:56:15.433707', 'mgs': 0, 'volt': 0.9424, 'depth': 2.225, 'time': 10, 'pitch': 7.22, 'roll': 2.25, 'pres': 193}
{'lipoC2': 7.23, 'lipoC3S1': 3.76, 'temp': 30.69, 'lipoC3S3': 11.27, 'lipoC3S2': 7.51, 'rot1': 40, 'rot0': 41, 'rot3': 33, 'rot2': 24, 'state': 'normal', 'yaw': -4.89, 'datetime': '2018-10-09 23:56:15.538511', 'mgs': 0, 'volt': 0.8691, 'depth': 1.08, 'time': 10, 'pitch': 7.72, 'roll': 2.38, 'pres': 178}
{'lipoC2': 7.25, 'lipoC3S1': 3.68, 'temp': 30.69, 'lipoC3S3': 11.35, 'lipoC3S2': 7.4, 'rot1': 41, 'rot0': 42, 'rot3': 33, 'rot2': 24, 'state': 'normal', 'yaw': -4.62, 'datetime': '2018-10-09 23:56:15.642241', 'mgs': 0, 'volt': 0.8398, 'depth': 0.623, 'time': 11, 'pitch': 7.67, 'roll': 2.34, 'pres': 172}
{'lipoC2': 7.25, 'lipoC3S1': 3.68, 'temp': 30.69, 'lipoC3S3': 11.35, 'lipoC3S2': 7.52, 'rot1': 43, 'rot0': 44, 'rot3': 34, 'rot2': 25, 'state': 'normal', 'yaw': -4.39, 'datetime': '2018-10-09 23:56:15.747322', 'mgs': 0, 'volt': 0.8691, 'depth': 1.08, 'time': 11, 'pitch': 7.27, 'roll': 2.11, 'pres': 178}
{'lipoC2': 7.25, 'lipoC3S1': 3.76, 'temp': 30.69, 'lipoC3S3': 11.18, 'lipoC3S2': 7.52, 'rot1': 44, 'rot0': 45, 'rot3': 34, 'rot2': 25, 'state': 'normal', 'yaw': -4.2, 'datetime': '2018-10-09 23:56:15.851042', 'mgs': 0, 'volt': 0.8398, 'depth': 0.623, 'time': 11, 'pitch': 6.89, 'roll': 1.6, 'pres': 172}
{'lipoC2': 7.25, 'lipoC3S1': 3.68, 'temp': 30.63, 'lipoC3S3': 11.35, 'lipoC3S2': 7.51, 'rot1': 45, 'rot0': 46, 'rot3': 34, 'rot2': 25, 'state': 'normal', 'yaw': -4.03, 'datetime': '2018-10-09 23:56:15.954720', 'mgs': 0, 'volt': 0.8496, 'depth': 0.775, 'time': 11, 'pitch': 6.85, 'roll': 0.99, 'pres': 174}
{'lipoC2': 7.24, 'lipoC3S1': 3.76, 'temp': 30.63, 'lipoC3S3': 11.18, 'lipoC3S2': 7.51, 'rot1': 46, 'rot0': 48, 'rot3': 34, 'rot2': 25, 'state': 'normal', 'yaw': -3.9, 'datetime': '2018-10-09 23:56:16.058484', 'mgs': 0, 'volt': 0.8398, 'depth': 0.623, 'time': 11, 'pitch': 7.34, 'roll': 0.37, 'pres': 172}
{'lipoC2': 7.25, 'lipoC3S1': 3.69, 'temp': 30.63, 'lipoC3S3': 11.35, 'lipoC3S2': 7.51, 'rot1': 48, 'rot0': 49, 'rot3': 34, 'rot2': 25, 'state': 'normal', 'yaw': -3.88, 'datetime': '2018-10-09 23:56:16.162317', 'mgs': 0, 'volt': 0.8447, 'depth': 0.699, 'time': 11, 'pitch': 8.43, 'roll': -0.06, 'pres': 173}
{'lipoC2': 7.24, 'lipoC3S1': 3.76, 'temp': 30.63, 'lipoC3S3': 11.23, 'lipoC3S2': 7.51, 'rot1': 49, 'rot0': 51, 'rot3': 34, 'rot2': 25, 'state': 'normal', 'yaw': -4.04, 'datetime': '2018-10-09 23:56:16.265960', 'mgs': 0, 'volt': 0.835, 'depth': 0.546, 'time': 11, 'pitch': 9.48, 'roll': -0.18, 'pres': 171}
{'lipoC2': 7.25, 'lipoC3S1': 3.68, 'temp': 30.63, 'lipoC3S3': 11.35, 'lipoC3S2': 7.5, 'rot1': 50, 'rot0': 52, 'rot3': 34, 'rot2': 25, 'state': 'normal', 'yaw': -4.43, 'datetime': '2018-10-09 23:56:16.369533', 'mgs': 0, 'volt': 0.8398, 'depth': 0.623, 'time': 11, 'pitch': 10.13, 'roll': -0.07, 'pres': 172}
{'lipoC2': 7.24, 'lipoC3S1': 3.76, 'temp': 30.69, 'lipoC3S3': 11.15, 'lipoC3S2': 7.51, 'rot1': 51, 'rot0': 53, 'rot3': 34, 'rot2': 25, 'state': 'normal', 'yaw': -5.07, 'datetime': '2018-10-09 23:56:16.473307', 'mgs': 0, 'volt': 0.835, 'depth': 0.546, 'time': 11, 'pitch': 9.94, 'roll': 0.2, 'pres': 171}
{'lipoC2': 7.25, 'lipoC3S1': 3.71, 'temp': 30.69, 'lipoC3S3': 11.36, 'lipoC3S2': 7.41, 'rot1': 53, 'rot0': 55, 'rot3': 34, 'rot2': 25, 'state': 'normal', 'yaw': -5.65, 'datetime': '2018-10-09 23:56:16.577467', 'mgs': 0, 'volt': 0.835, 'depth': 0.546, 'time': 11, 'pitch': 8.85, 'roll': 0.48, 'pres': 171}
{'lipoC2': 7.25, 'lipoC3S1': 3.75, 'temp': 30.63, 'lipoC3S3': 11.27, 'lipoC3S2': 7.37, 'rot1': 54, 'rot0': 56, 'rot3': 34, 'rot2': 25, 'state': 'normal', 'yaw': -6.04, 'datetime': '2018-10-09 23:56:16.681566', 'mgs': 0, 'volt': 0.835, 'depth': 0.546, 'time': 12, 'pitch': 7.23, 'roll': 0.69, 'pres': 171}
{'lipoC2': 7.25, 'lipoC3S1': 3.76, 'temp': 30.63, 'lipoC3S3': 11.35, 'lipoC3S2': 7.52, 'rot1': 55, 'rot0': 57, 'rot3': 34, 'rot2': 25, 'state': 'normal', 'yaw': -6.35, 'datetime': '2018-10-09 23:56:16.785360', 'mgs': 0, 'volt': 0.8984, 'depth': 1.538, 'time': 12, 'pitch': 5.78, 'roll': 0.51, 'pres': 184}
{'lipoC2': 7.24, 'lipoC3S1': 3.76, 'temp': 30.63, 'lipoC3S3': 11.34, 'lipoC3S2': 7.52, 'rot1': 56, 'rot0': 59, 'rot3': 34, 'rot2': 25, 'state': 'normal', 'yaw': -6.52, 'datetime': '2018-10-09 23:56:16.890213', 'mgs': 0, 'volt': 0.8496, 'depth': 0.775, 'time': 12, 'pitch': 5.21, 'roll': 0.32, 'pres': 174}
{'lipoC2': 7.25, 'lipoC3S1': 3.67, 'temp': 30.69, 'lipoC3S3': 11.36, 'lipoC3S2': 7.48, 'rot1': 57, 'rot0': 60, 'rot3': 34, 'rot2': 25, 'state': 'normal', 'yaw': -6.62, 'datetime': '2018-10-09 23:56:16.993871', 'mgs': 0, 'volt': 0.835, 'depth': 0.546, 'time': 12, 'pitch': 5.32, 'roll': 0.21, 'pres': 171}
{'lipoC2': 7.24, 'lipoC3S1': 3.76, 'temp': 30.69, 'lipoC3S3': 11.35, 'lipoC3S2': 7.52, 'rot1': 59, 'rot0': 61, 'rot3': 34, 'rot2': 25, 'state': 'normal', 'yaw': -6.62, 'datetime': '2018-10-09 23:56:17.097674', 'mgs': 0, 'volt': 0.8398, 'depth': 0.623, 'time': 12, 'pitch': 5.75, 'roll': 0.23, 'pres': 172}
{'lipoC2': 7.25, 'lipoC3S1': 3.75, 'temp': 30.63, 'lipoC3S3': 11.31, 'lipoC3S2': 7.4, 'rot1': 60, 'rot0': 63, 'rot3': 34, 'rot2': 25, 'state': 'normal', 'yaw': -6.54, 'datetime': '2018-10-09 23:56:17.202558', 'mgs': 0, 'volt': 0.8398, 'depth': 0.623, 'time': 12, 'pitch': 6.27, 'roll': 0.38, 'pres': 172}
{'lipoC2': 7.26, 'lipoC3S1': 3.76, 'temp': 30.63, 'lipoC3S3': 11.35, 'lipoC3S2': 7.52, 'rot1': 61, 'rot0': 64, 'rot3': 34, 'rot2': 25, 'state': 'normal', 'yaw': -6.33, 'datetime': '2018-10-09 23:56:17.313146', 'mgs': 0, 'volt': 0.8936, 'depth': 1.462, 'time': 12, 'pitch': 6.62, 'roll': 0.48, 'pres': 183}
{'lipoC2': 7.26, 'lipoC3S1': 3.71, 'temp': 30.69, 'lipoC3S3': 11.3, 'lipoC3S2': 7.36, 'rot1': 63, 'rot0': 65, 'rot3': 34, 'rot2': 25, 'state': 'normal', 'yaw': -6.09, 'datetime': '2018-10-09 23:56:17.410032', 'mgs': 0, 'volt': 0.8398, 'depth': 0.623, 'time': 12, 'pitch': 6.71, 'roll': 0.44, 'pres': 172}
{'lipoC2': 7.25, 'lipoC3S1': 3.76, 'temp': 30.69, 'lipoC3S3': 11.34, 'lipoC3S2': 7.52, 'rot1': 64, 'rot0': 66, 'rot3': 35, 'rot2': 26, 'state': 'normal', 'yaw': -5.83, 'datetime': '2018-10-09 23:56:17.513869', 'mgs': 0, 'volt': 0.9229, 'depth': 1.92, 'time': 12, 'pitch': 6.84, 'roll': 0.34, 'pres': 189}
{'lipoC2': 7.25, 'lipoC3S1': 3.75, 'temp': 30.69, 'lipoC3S3': 11.27, 'lipoC3S2': 7.34, 'rot1': 65, 'rot0': 68, 'rot3': 35, 'rot2': 26, 'state': 'normal', 'yaw': -5.65, 'datetime': '2018-10-09 23:56:17.621558', 'mgs': 0, 'volt': 0.8447, 'depth': 0.699, 'time': 13, 'pitch': 7.14, 'roll': 0.2, 'pres': 173}
{'lipoC2': 7.26, 'lipoC3S1': 3.76, 'temp': 30.63, 'lipoC3S3': 11.35, 'lipoC3S2': 7.52, 'rot1': 66, 'rot0': 69, 'rot3': 36, 'rot2': 27, 'state': 'normal', 'yaw': -5.63, 'datetime': '2018-10-09 23:56:17.721256', 'mgs': 0, 'volt': 0.9082, 'depth': 1.691, 'time': 13, 'pitch': 7.6, 'roll': 0.11, 'pres': 186}
{'lipoC2': 7.26, 'lipoC3S1': 3.75, 'temp': 30.63, 'lipoC3S3': 11.27, 'lipoC3S2': 7.38, 'rot1': 67, 'rot0': 70, 'rot3': 36, 'rot2': 27, 'state': 'normal', 'yaw': -5.63, 'datetime': '2018-10-09 23:56:17.825026', 'mgs': 0, 'volt': 0.8496, 'depth': 0.775, 'time': 13, 'pitch': 7.97, 'roll': 0.1, 'pres': 174}
{'lipoC2': 7.25, 'lipoC3S1': 3.75, 'temp': 30.69, 'lipoC3S3': 11.35, 'lipoC3S2': 7.52, 'rot1': 69, 'rot0': 72, 'rot3': 36, 'rot2': 27, 'state': 'normal', 'yaw': -5.62, 'datetime': '2018-10-09 23:56:17.928581', 'mgs': 0, 'volt': 0.8789, 'depth': 1.233, 'time': 13, 'pitch': 8.05, 'roll': 0.14, 'pres': 180}
{'lipoC2': 7.24, 'lipoC3S1': 3.76, 'temp': 30.69, 'lipoC3S3': 11.34, 'lipoC3S2': 7.52, 'rot1': 70, 'rot0': 73, 'rot3': 36, 'rot2': 27, 'state': 'normal', 'yaw': -5.51, 'datetime': '2018-10-09 23:56:18.033725', 'mgs': 0, 'volt': 0.8789, 'depth': 1.233, 'time': 13, 'pitch': 8.0, 'roll': 0.15, 'pres': 180}
{'lipoC2': 7.25, 'lipoC3S1': 3.71, 'temp': 30.69, 'lipoC3S3': 11.36, 'lipoC3S2': 7.44, 'rot1': 71, 'rot0': 74, 'rot3': 36, 'rot2': 27, 'state': 'normal', 'yaw': -5.32, 'datetime': '2018-10-09 23:56:18.137479', 'mgs': 0, 'volt': 0.8496, 'depth': 0.775, 'time': 13, 'pitch': 7.9, 'roll': -0.05, 'pres': 174}
{'lipoC2': 7.25, 'lipoC3S1': 3.74, 'temp': 30.69, 'lipoC3S3': 11.35, 'lipoC3S2': 7.53, 'rot1': 72, 'rot0': 75, 'rot3': 36, 'rot2': 27, 'state': 'normal', 'yaw': -5.1, 'datetime': '2018-10-09 23:56:18.242184', 'mgs': 0, 'volt': 0.8838, 'depth': 1.309, 'time': 13, 'pitch': 7.81, 'roll': -0.37, 'pres': 181}
{'lipoC2': 7.25, 'lipoC3S1': 3.76, 'temp': 30.69, 'lipoC3S3': 11.22, 'lipoC3S2': 7.51, 'rot1': 74, 'rot0': 77, 'rot3': 36, 'rot2': 27, 'state': 'normal', 'yaw': -4.88, 'datetime': '2018-10-09 23:56:18.346127', 'mgs': 0, 'volt': 0.8545, 'depth': 0.851, 'time': 13, 'pitch': 7.68, 'roll': -0.71, 'pres': 175}
{'lipoC2': 7.25, 'lipoC3S1': 3.73, 'temp': 30.63, 'lipoC3S3': 11.35, 'lipoC3S2': 7.52, 'rot1': 75, 'rot0': 78, 'rot3': 36, 'rot2': 27, 'state': 'normal', 'yaw': -4.69, 'datetime': '2018-10-09 23:56:18.449801', 'mgs': 0, 'volt': 0.9521, 'depth': 2.377, 'time': 13, 'pitch': 7.57, 'roll': -0.88, 'pres': 195}
{'lipoC2': 7.23, 'lipoC3S1': 3.76, 'temp': 30.63, 'lipoC3S3': 11.34, 'lipoC3S2': 7.52, 'rot1': 76, 'rot0': 79, 'rot3': 36, 'rot2': 27, 'state': 'normal', 'yaw': -4.51, 'datetime': '2018-10-09 23:56:18.554691', 'mgs': 0, 'volt': 0.9033, 'depth': 1.614, 'time': 13, 'pitch': 7.63, 'roll': -0.86, 'pres': 185}
{'lipoC2': 7.26, 'lipoC3S1': 3.76, 'temp': 30.69, 'lipoC3S3': 11.3, 'lipoC3S2': 7.35, 'rot1': 77, 'rot0': 81, 'rot3': 36, 'rot2': 27, 'state': 'normal', 'yaw': -4.35, 'datetime': '2018-10-09 23:56:18.658611', 'mgs': 0, 'volt': 0.8594, 'depth': 0.928, 'time': 14, 'pitch': 8.05, 'roll': -0.68, 'pres': 176}
{'lipoC2': 7.23, 'lipoC3S1': 3.76, 'temp': 30.69, 'lipoC3S3': 11.32, 'lipoC3S2': 7.51, 'rot1': 79, 'rot0': 82, 'rot3': 37, 'rot2': 28, 'state': 'normal', 'yaw': -4.27, 'datetime': '2018-10-09 23:56:18.762151', 'mgs': 0, 'volt': 0.9326, 'depth': 2.072, 'time': 14, 'pitch': 8.74, 'roll': -0.35, 'pres': 191}
{'lipoC2': 7.24, 'lipoC3S1': 3.75, 'temp': 30.69, 'lipoC3S3': 11.21, 'lipoC3S2': 7.49, 'rot1': 80, 'rot0': 83, 'rot3': 37, 'rot2': 28, 'state': 'normal', 'yaw': -4.34, 'datetime': '2018-10-09 23:56:18.866125', 'mgs': 0, 'volt': 0.8594, 'depth': 0.928, 'time': 14, 'pitch': 9.54, 'roll': 0.01, 'pres': 176}
{'lipoC2': 7.25, 'lipoC3S1': 3.71, 'temp': 30.69, 'lipoC3S3': 11.35, 'lipoC3S2': 7.52, 'rot1': 81, 'rot0': 85, 'rot3': 38, 'rot2': 28, 'state': 'normal', 'yaw': -4.49, 'datetime': '2018-10-09 23:56:18.970078', 'mgs': 0, 'volt': 0.9521, 'depth': 2.377, 'time': 14, 'pitch': 10.27, 'roll': 0.32, 'pres': 195}
{'lipoC2': 7.25, 'lipoC3S1': 3.76, 'temp': 30.69, 'lipoC3S3': 11.18, 'lipoC3S2': 7.5, 'rot1': 82, 'rot0': 86, 'rot3': 38, 'rot2': 28, 'state': 'normal', 'yaw': -4.6, 'datetime': '2018-10-09 23:56:19.073590', 'mgs': 0, 'volt': 0.8594, 'depth': 0.928, 'time': 14, 'pitch': 10.67, 'roll': 0.31, 'pres': 176}
{'lipoC2': 7.25, 'lipoC3S1': 3.65, 'temp': 30.69, 'lipoC3S3': 11.35, 'lipoC3S2': 7.43, 'rot1': 84, 'rot0': 88, 'rot3': 38, 'rot2': 28, 'state': 'normal', 'yaw': -4.72, 'datetime': '2018-10-09 23:56:19.177626', 'mgs': 0, 'volt': 0.8594, 'depth': 0.928, 'time': 14, 'pitch': 10.87, 'roll': 0.07, 'pres': 176}
{'lipoC2': 7.25, 'lipoC3S1': 3.76, 'temp': 30.69, 'lipoC3S3': 11.32, 'lipoC3S2': 7.52, 'rot1': 85, 'rot0': 89, 'rot3': 38, 'rot2': 28, 'state': 'normal', 'yaw': -4.77, 'datetime': '2018-10-09 23:56:19.281309', 'mgs': 0, 'volt': 0.8887, 'depth': 1.385, 'time': 14, 'pitch': 11.02, 'roll': -0.38, 'pres': 182}
{'lipoC2': 7.25, 'lipoC3S1': 3.64, 'temp': 30.69, 'lipoC3S3': 11.35, 'lipoC3S2': 7.44, 'rot1': 86, 'rot0': 90, 'rot3': 38, 'rot2': 28, 'state': 'normal', 'yaw': -4.77, 'datetime': '2018-10-09 23:56:19.385030', 'mgs': 0, 'volt': 0.8594, 'depth': 0.928, 'time': 14, 'pitch': 11.21, 'roll': -0.97, 'pres': 176}
{'lipoC2': 7.24, 'lipoC3S1': 3.76, 'temp': 30.69, 'lipoC3S3': 11.34, 'lipoC3S2': 7.52, 'rot1': 87, 'rot0': 92, 'rot3': 38, 'rot2': 28, 'state': 'normal', 'yaw': -4.75, 'datetime': '2018-10-09 23:56:19.488636', 'mgs': 0, 'volt': 0.8838, 'depth': 1.309, 'time': 14, 'pitch': 11.4, 'roll': -1.6, 'pres': 181}
{'lipoC2': 7.25, 'lipoC3S1': 3.66, 'temp': 30.69, 'lipoC3S3': 11.35, 'lipoC3S2': 7.44, 'rot1': 88, 'rot0': 93, 'rot3': 38, 'rot2': 28, 'state': 'normal', 'yaw': -4.73, 'datetime': '2018-10-09 23:56:19.592598', 'mgs': 0, 'volt': 0.8594, 'depth': 0.928, 'time': 15, 'pitch': 11.53, 'roll': -2.01, 'pres': 176}
{'lipoC2': 7.25, 'lipoC3S1': 3.7, 'temp': 30.69, 'lipoC3S3': 11.35, 'lipoC3S2': 7.52, 'rot1': 90, 'rot0': 94, 'rot3': 38, 'rot2': 28, 'state': 'normal', 'yaw': -4.76, 'datetime': '2018-10-09 23:56:19.697528', 'mgs': 0, 'volt': 0.8594, 'depth': 0.928, 'time': 15, 'pitch': 11.65, 'roll': -2.19, 'pres': 176}
{'lipoC2': 7.25, 'lipoC3S1': 3.76, 'temp': 30.69, 'lipoC3S3': 11.17, 'lipoC3S2': 7.51, 'rot1': 91, 'rot0': 96, 'rot3': 38, 'rot2': 28, 'state': 'normal', 'yaw': -4.95, 'datetime': '2018-10-09 23:56:19.801084', 'mgs': 0, 'volt': 0.8545, 'depth': 0.851, 'time': 15, 'pitch': 11.86, 'roll': -2.2, 'pres': 175}
{'lipoC2': 7.26, 'lipoC3S1': 3.75, 'temp': 30.69, 'lipoC3S3': 11.35, 'lipoC3S2': 7.43, 'rot1': 92, 'rot0': 97, 'rot3': 38, 'rot2': 28, 'state': 'normal', 'yaw': -5.24, 'datetime': '2018-10-09 23:56:19.906078', 'mgs': 0, 'volt': 0.8545, 'depth': 0.851, 'time': 15, 'pitch': 12.1, 'roll': -2.16, 'pres': 175}
{'lipoC2': 7.24, 'lipoC3S1': 3.76, 'temp': 30.69, 'lipoC3S3': 11.32, 'lipoC3S2': 7.52, 'rot1': 93, 'rot0': 98, 'rot3': 38, 'rot2': 28, 'state': 'normal', 'yaw': -5.53, 'datetime': '2018-10-09 23:56:20.009737', 'mgs': 0, 'volt': 0.8838, 'depth': 1.309, 'time': 15, 'pitch': 12.35, 'roll': -2.03, 'pres': 181}
{'lipoC2': 7.25, 'lipoC3S1': 3.66, 'temp': 30.69, 'lipoC3S3': 11.35, 'lipoC3S2': 7.44, 'rot1': 95, 'rot0': 100, 'rot3': 38, 'rot2': 28, 'state': 'normal', 'yaw': -5.73, 'datetime': '2018-10-09 23:56:20.113592', 'mgs': 0, 'volt': 0.8545, 'depth': 0.851, 'time': 15, 'pitch': 12.42, 'roll': -1.82, 'pres': 175}
{'lipoC2': 7.25, 'lipoC3S1': 3.76, 'temp': 30.69, 'lipoC3S3': 11.34, 'lipoC3S2': 7.52, 'rot1': 96, 'rot0': 101, 'rot3': 38, 'rot2': 28, 'state': 'normal', 'yaw': -5.92, 'datetime': '2018-10-09 23:56:20.217360', 'mgs': 0, 'volt': 0.8984, 'depth': 1.538, 'time': 15, 'pitch': 12.25, 'roll': -1.56, 'pres': 184}
{'lipoC2': 7.26, 'lipoC3S1': 3.75, 'temp': 30.69, 'lipoC3S3': 11.29, 'lipoC3S2': 7.39, 'rot1': 97, 'rot0': 102, 'rot3': 38, 'rot2': 28, 'state': 'normal', 'yaw': -6.09, 'datetime': '2018-10-09 23:56:20.321219', 'mgs': 0, 'volt': 0.8447, 'depth': 0.699, 'time': 15, 'pitch': 11.76, 'roll': -1.25, 'pres': 173}
{'lipoC2': 7.25, 'lipoC3S1': 3.72, 'temp': 30.69, 'lipoC3S3': 11.34, 'lipoC3S2': 7.52, 'rot1': 99, 'rot0': 103, 'rot3': 38, 'rot2': 28, 'state': 'normal', 'yaw': -6.24, 'datetime': '2018-10-09 23:56:20.425085', 'mgs': 0, 'volt': 0.8594, 'depth': 0.928, 'time': 15, 'pitch': 11.11, 'roll': -1.0, 'pres': 176}
{'lipoC2': 7.24, 'lipoC3S1': 3.76, 'temp': 30.69, 'lipoC3S3': 11.15, 'lipoC3S2': 7.51, 'rot1': 100, 'rot0': 105, 'rot3': 38, 'rot2': 28, 'state': 'normal', 'yaw': -6.39, 'datetime': '2018-10-09 23:56:20.528982', 'mgs': 0, 'volt': 0.8447, 'depth': 0.699, 'time': 15, 'pitch': 10.3, 'roll': -0.76, 'pres': 173}
{'lipoC2': 7.25, 'lipoC3S1': 3.75, 'temp': 30.69, 'lipoC3S3': 11.34, 'lipoC3S2': 7.4, 'rot1': 101, 'rot0': 106, 'rot3': 38, 'rot2': 28, 'state': 'normal', 'yaw': -6.57, 'datetime': '2018-10-09 23:56:20.633043', 'mgs': 0, 'volt': 0.8447, 'depth': 0.699, 'time': 16, 'pitch': 9.22, 'roll': -0.6, 'pres': 173}
{'lipoC2': 7.25, 'lipoC3S1': 3.72, 'temp': 30.69, 'lipoC3S3': 11.35, 'lipoC3S2': 7.52, 'rot1': 102, 'rot0': 107, 'rot3': 38, 'rot2': 28, 'state': 'normal', 'yaw': -6.81, 'datetime': '2018-10-09 23:56:20.736743', 'mgs': 0, 'volt': 0.9229, 'depth': 1.92, 'time': 16, 'pitch': 8.21, 'roll': -0.55, 'pres': 189}
{'lipoC2': 7.25, 'lipoC3S1': 3.66, 'temp': 30.75, 'lipoC3S3': 11.35, 'lipoC3S2': 7.39, 'rot1': 104, 'rot0': 109, 'rot3': 38, 'rot2': 29, 'state': 'normal', 'yaw': -7.05, 'datetime': '2018-10-09 23:56:20.841162', 'mgs': 0, 'volt': 0.8447, 'depth': 0.699, 'time': 16, 'pitch': 7.27, 'roll': -0.43, 'pres': 173}
{'lipoC2': 7.25, 'lipoC3S1': 3.7, 'temp': 30.75, 'lipoC3S3': 11.34, 'lipoC3S2': 7.52, 'rot1': 105, 'rot0': 110, 'rot3': 38, 'rot2': 29, 'state': 'normal', 'yaw': -7.35, 'datetime': '2018-10-09 23:56:20.945183', 'mgs': 0, 'volt': 0.8545, 'depth': 0.851, 'time': 16, 'pitch': 6.64, 'roll': -0.08, 'pres': 175}
{'lipoC2': 7.25, 'lipoC3S1': 3.68, 'temp': 30.69, 'lipoC3S3': 11.34, 'lipoC3S2': 7.52, 'rot1': 106, 'rot0': 111, 'rot3': 39, 'rot2': 30, 'state': 'normal', 'yaw': -7.6, 'datetime': '2018-10-09 23:56:21.050375', 'mgs': 0, 'volt': 0.874, 'depth': 1.157, 'time': 16, 'pitch': 6.53, 'roll': 0.4, 'pres': 179}
{'lipoC2': 7.23, 'lipoC3S1': 3.76, 'temp': 30.69, 'lipoC3S3': 11.32, 'lipoC3S2': 7.52, 'rot1': 107, 'rot0': 112, 'rot3': 39, 'rot2': 30, 'state': 'normal', 'yaw': -7.8, 'datetime': '2018-10-09 23:56:21.154418', 'mgs': 0, 'volt': 0.8838, 'depth': 1.309, 'time': 16, 'pitch': 6.9, 'roll': 0.95, 'pres': 181}
{'lipoC2': 7.24, 'lipoC3S1': 3.76, 'temp': 30.69, 'lipoC3S3': 11.32, 'lipoC3S2': 7.52, 'rot1': 108, 'rot0': 114, 'rot3': 39, 'rot2': 30, 'state': 'normal', 'yaw': -7.9, 'datetime': '2018-10-09 23:56:21.259505', 'mgs': 0, 'volt': 0.8691, 'depth': 1.08, 'time': 16, 'pitch': 7.55, 'roll': 1.18, 'pres': 178}
{'lipoC2': 7.25, 'lipoC3S1': 3.75, 'temp': 30.69, 'lipoC3S3': 11.23, 'lipoC3S2': 7.45, 'rot1': 110, 'rot0': 115, 'rot3': 39, 'rot2': 30, 'state': 'normal', 'yaw': -7.99, 'datetime': '2018-10-09 23:56:21.363416', 'mgs': 0, 'volt': 0.8447, 'depth': 0.699, 'time': 16, 'pitch': 8.37, 'roll': 1.1, 'pres': 173}
{'lipoC2': 7.25, 'lipoC3S1': 3.72, 'temp': 30.69, 'lipoC3S3': 11.35, 'lipoC3S2': 7.48, 'rot1': 111, 'rot0': 116, 'rot3': 39, 'rot2': 30, 'state': 'normal', 'yaw': -8.08, 'datetime': '2018-10-09 23:56:21.467384', 'mgs': 0, 'volt': 0.8447, 'depth': 0.699, 'time': 16, 'pitch': 9.03, 'roll': 0.74, 'pres': 173}
{'lipoC2': 7.26, 'lipoC3S1': 3.76, 'temp': 30.69, 'lipoC3S3': 11.34, 'lipoC3S2': 7.52, 'rot1': 112, 'rot0': 117, 'rot3': 39, 'rot2': 30, 'state': 'normal', 'yaw': -8.24, 'datetime': '2018-10-09 23:56:21.571205', 'mgs': 0, 'volt': 0.8984, 'depth': 1.538, 'time': 16, 'pitch': 9.39, 'roll': 0.33, 'pres': 184}
{'lipoC2': 7.25, 'lipoC3S1': 3.76, 'temp': 30.69, 'lipoC3S3': 11.15, 'lipoC3S2': 7.51, 'rot1': 114, 'rot0': 119, 'rot3': 39, 'rot2': 30, 'state': 'normal', 'yaw': -8.57, 'datetime': '2018-10-09 23:56:21.675114', 'mgs': 0, 'volt': 0.8447, 'depth': 0.699, 'time': 17, 'pitch': 9.28, 'roll': 0.09, 'pres': 173}
{'lipoC2': 7.25, 'lipoC3S1': 3.76, 'temp': 30.69, 'lipoC3S3': 11.34, 'lipoC3S2': 7.42, 'rot1': 115, 'rot0': 120, 'rot3': 39, 'rot2': 30, 'state': 'normal', 'yaw': -9.04, 'datetime': '2018-10-09 23:56:21.779145', 'mgs': 0, 'volt': 0.8447, 'depth': 0.699, 'time': 17, 'pitch': 8.88, 'roll': 0.1, 'pres': 173}
{'lipoC2': 7.25, 'lipoC3S1': 3.65, 'temp': 30.69, 'lipoC3S3': 11.35, 'lipoC3S2': 7.45, 'rot1': 116, 'rot0': 121, 'rot3': 39, 'rot2': 30, 'state': 'normal', 'yaw': -9.64, 'datetime': '2018-10-09 23:56:21.883132', 'mgs': 0, 'volt': 0.8447, 'depth': 0.699, 'time': 17, 'pitch': 8.57, 'roll': 0.19, 'pres': 173}
{'lipoC2': 7.25, 'lipoC3S1': 3.74, 'temp': 30.69, 'lipoC3S3': 11.34, 'lipoC3S2': 7.52, 'rot1': 117, 'rot0': 123, 'rot3': 39, 'rot2': 30, 'state': 'normal', 'yaw': -10.21, 'datetime': '2018-10-09 23:56:21.987338', 'mgs': 0, 'volt': 0.8838, 'depth': 1.309, 'time': 17, 'pitch': 8.49, 'roll': 0.18, 'pres': 181}
{'lipoC2': 7.24, 'lipoC3S1': 3.76, 'temp': 30.69, 'lipoC3S3': 11.23, 'lipoC3S2': 7.51, 'rot1': 118, 'rot0': 124, 'rot3': 39, 'rot2': 30, 'state': 'normal', 'yaw': -10.61, 'datetime': '2018-10-09 23:56:22.091071', 'mgs': 0, 'volt': 0.8545, 'depth': 0.851, 'time': 17, 'pitch': 8.63, 'roll': 0.08, 'pres': 175}
{'lipoC2': 7.25, 'lipoC3S1': 3.75, 'temp': 30.69, 'lipoC3S3': 11.27, 'lipoC3S2': 7.39, 'rot1': 120, 'rot0': 125, 'rot3': 39, 'rot2': 30, 'state': 'normal', 'yaw': -10.95, 'datetime': '2018-10-09 23:56:22.195375', 'mgs': 0, 'volt': 0.8496, 'depth': 0.775, 'time': 17, 'pitch': 8.87, 'roll': -0.06, 'pres': 174}
{'lipoC2': 7.25, 'lipoC3S1': 3.75, 'temp': 30.75, 'lipoC3S3': 11.27, 'lipoC3S2': 7.37, 'rot1': 121, 'rot0': 126, 'rot3': 39, 'rot2': 30, 'state': 'normal', 'yaw': -11.18, 'datetime': '2018-10-09 23:56:22.299675', 'mgs': 0, 'volt': 0.8496, 'depth': 0.775, 'time': 17, 'pitch': 8.99, 'roll': -0.11, 'pres': 174}
{'lipoC2': 7.25, 'lipoC3S1': 3.74, 'temp': 30.75, 'lipoC3S3': 11.35, 'lipoC3S2': 7.49, 'rot1': 122, 'rot0': 127, 'rot3': 39, 'rot2': 30, 'state': 'normal', 'yaw': -11.29, 'datetime': '2018-10-09 23:56:22.404275', 'mgs': 0, 'volt': 0.8496, 'depth': 0.775, 'time': 17, 'pitch': 9.01, 'roll': -0.03, 'pres': 174}
{'lipoC2': 7.26, 'lipoC3S1': 3.76, 'temp': 30.75, 'lipoC3S3': 11.34, 'lipoC3S2': 7.52, 'rot1': 123, 'rot0': 129, 'rot3': 39, 'rot2': 30, 'state': 'normal', 'yaw': -11.24, 'datetime': '2018-10-09 23:56:22.508360', 'mgs': 0, 'volt': 0.9131, 'depth': 1.767, 'time': 17, 'pitch': 9.02, 'roll': 0.15, 'pres': 187}
{'lipoC2': 7.25, 'lipoC3S1': 3.75, 'temp': 30.75, 'lipoC3S3': 11.35, 'lipoC3S2': 7.52, 'rot1': 125, 'rot0': 130, 'rot3': 39, 'rot2': 30, 'state': 'normal', 'yaw': -11.1, 'datetime': '2018-10-09 23:56:22.613198', 'mgs': 0, 'volt': 0.918, 'depth': 1.843, 'time': 18, 'pitch': 9.01, 'roll': 0.38, 'pres': 188}
{'lipoC2': 7.23, 'lipoC3S1': 3.75, 'temp': 30.75, 'lipoC3S3': 11.27, 'lipoC3S2': 7.5, 'rot1': 126, 'rot0': 131, 'rot3': 39, 'rot2': 30, 'state': 'normal', 'yaw': -10.94, 'datetime': '2018-10-09 23:56:22.717367', 'mgs': 0, 'volt': 0.8594, 'depth': 0.928, 'time': 18, 'pitch': 8.74, 'roll': 0.61, 'pres': 176}
{'lipoC2': 7.25, 'lipoC3S1': 3.75, 'temp': 30.75, 'lipoC3S3': 11.22, 'lipoC3S2': 7.48, 'rot1': 127, 'rot0': 132, 'rot3': 40, 'rot2': 31, 'state': 'normal', 'yaw': -10.75, 'datetime': '2018-10-09 23:56:22.821220', 'mgs': 0, 'volt': 0.8496, 'depth': 0.775, 'time': 18, 'pitch': 8.23, 'roll': 0.67, 'pres': 174}
{'lipoC2': 7.25, 'lipoC3S1': 3.72, 'temp': 30.75, 'lipoC3S3': 11.29, 'lipoC3S2': 7.35, 'rot1': 129, 'rot0': 134, 'rot3': 41, 'rot2': 31, 'state': 'normal', 'yaw': -10.56, 'datetime': '2018-10-09 23:56:22.925233', 'mgs': 0, 'volt': 0.8545, 'depth': 0.851, 'time': 18, 'pitch': 7.56, 'roll': 0.59, 'pres': 175}
{'lipoC2': 7.25, 'lipoC3S1': 3.71, 'temp': 30.75, 'lipoC3S3': 11.35, 'lipoC3S2': 7.52, 'rot1': 130, 'rot0': 135, 'rot3': 41, 'rot2': 32, 'state': 'normal', 'yaw': -10.36, 'datetime': '2018-10-09 23:56:23.029307', 'mgs': 0, 'volt': 0.9082, 'depth': 1.691, 'time': 18, 'pitch': 7.01, 'roll': 0.32, 'pres': 186}
{'lipoC2': 7.23, 'lipoC3S1': 3.76, 'temp': 30.75, 'lipoC3S3': 11.34, 'lipoC3S2': 7.51, 'rot1': 131, 'rot0': 136, 'rot3': 41, 'rot2': 32, 'state': 'normal', 'yaw': -10.23, 'datetime': '2018-10-09 23:56:23.133160', 'mgs': 0, 'volt': 0.8936, 'depth': 1.462, 'time': 18, 'pitch': 6.93, 'roll': 0.0, 'pres': 183}
{'lipoC2': 7.25, 'lipoC3S1': 3.76, 'temp': 30.69, 'lipoC3S3': 11.25, 'lipoC3S2': 7.52, 'rot1': 132, 'rot0': 137, 'rot3': 41, 'rot2': 32, 'state': 'normal', 'yaw': -10.15, 'datetime': '2018-10-09 23:56:23.237115', 'mgs': 0, 'volt': 0.8545, 'depth': 0.851, 'time': 18, 'pitch': 7.43, 'roll': -0.22, 'pres': 175}
{'lipoC2': 7.25, 'lipoC3S1': 3.68, 'temp': 30.69, 'lipoC3S3': 11.35, 'lipoC3S2': 7.48, 'rot1': 134, 'rot0': 138, 'rot3': 41, 'rot2': 32, 'state': 'normal', 'yaw': -10.14, 'datetime': '2018-10-09 23:56:23.341061', 'mgs': 0, 'volt': 0.8594, 'depth': 0.928, 'time': 18, 'pitch': 8.19, 'roll': -0.3, 'pres': 176}
{'lipoC2': 7.25, 'lipoC3S1': 3.76, 'temp': 30.69, 'lipoC3S3': 11.34, 'lipoC3S2': 7.52, 'rot1': 135, 'rot0': 140, 'rot3': 41, 'rot2': 32, 'state': 'normal', 'yaw': -10.19, 'datetime': '2018-10-09 23:56:23.444878', 'mgs': 0, 'volt': 0.9131, 'depth': 1.767, 'time': 18, 'pitch': 9.03, 'roll': -0.18, 'pres': 187}
{'lipoC2': 7.25, 'lipoC3S1': 3.76, 'temp': 30.75, 'lipoC3S3': 11.25, 'lipoC3S2': 7.51, 'rot1': 136, 'rot0': 141, 'rot3': 41, 'rot2': 32, 'state': 'normal', 'yaw': -10.35, 'datetime': '2018-10-09 23:56:23.548840', 'mgs': 0, 'volt': 0.8545, 'depth': 0.851, 'time': 18, 'pitch': 9.77, 'roll': 0.13, 'pres': 175}
{'lipoC2': 7.25, 'lipoC3S1': 3.7, 'temp': 30.75, 'lipoC3S3': 11.35, 'lipoC3S2': 7.52, 'rot1': 138, 'rot0': 142, 'rot3': 41, 'rot2': 32, 'state': 'normal', 'yaw': -10.58, 'datetime': '2018-10-09 23:56:23.653696', 'mgs': 0, 'volt': 0.8594, 'depth': 0.928, 'time': 19, 'pitch': 10.0, 'roll': 0.35, 'pres': 176}
{'lipoC2': 7.25, 'lipoC3S1': 3.7, 'temp': 30.75, 'lipoC3S3': 11.35, 'lipoC3S2': 7.52, 'rot1': 139, 'rot0': 143, 'rot3': 41, 'rot2': 32, 'state': 'normal', 'yaw': -10.75, 'datetime': '2018-10-09 23:56:23.758035', 'mgs': 0, 'volt': 0.8643, 'depth': 1.004, 'time': 19, 'pitch': 9.6, 'roll': 0.33, 'pres': 177}
{'lipoC2': 7.24, 'lipoC3S1': 3.76, 'temp': 30.75, 'lipoC3S3': 11.34, 'lipoC3S2': 7.52, 'rot1': 140, 'rot0': 144, 'rot3': 41, 'rot2': 32, 'state': 'normal', 'yaw': -10.7, 'datetime': '2018-10-09 23:56:23.861597', 'mgs': 0, 'volt': 0.9082, 'depth': 1.691, 'time': 19, 'pitch': 8.84, 'roll': 0.03, 'pres': 186}
{'lipoC2': 7.25, 'lipoC3S1': 3.76, 'temp': 30.69, 'lipoC3S3': 11.32, 'lipoC3S2': 7.51, 'rot1': 142, 'rot0': 146, 'rot3': 41, 'rot2': 32, 'state': 'normal', 'yaw': -10.49, 'datetime': '2018-10-09 23:56:23.967588', 'mgs': 0, 'volt': 0.957, 'depth': 2.454, 'time': 19, 'pitch': 8.09, 'roll': -0.47, 'pres': 196}
{'lipoC2': 7.24, 'lipoC3S1': 3.75, 'temp': 30.69, 'lipoC3S3': 11.22, 'lipoC3S2': 7.5, 'rot1': 143, 'rot0': 147, 'rot3': 42, 'rot2': 32, 'state': 'normal', 'yaw': -10.18, 'datetime': '2018-10-09 23:56:24.070804', 'mgs': 0, 'volt': 0.8643, 'depth': 1.004, 'time': 19, 'pitch': 7.84, 'roll': -1.03, 'pres': 177}
{'lipoC2': 7.25, 'lipoC3S1': 3.74, 'temp': 30.69, 'lipoC3S3': 11.29, 'lipoC3S2': 7.36, 'rot1': 144, 'rot0': 148, 'rot3': 42, 'rot2': 33, 'state': 'normal', 'yaw': -10.07, 'datetime': '2018-10-09 23:56:24.174687', 'mgs': 0, 'volt': 0.8643, 'depth': 1.004, 'time': 19, 'pitch': 8.33, 'roll': -1.33, 'pres': 177}
{'lipoC2': 7.25, 'lipoC3S1': 3.75, 'temp': 30.75, 'lipoC3S3': 11.32, 'lipoC3S2': 7.42, 'rot1': 146, 'rot0': 149, 'rot3': 43, 'rot2': 33, 'state': 'normal', 'yaw': -10.25, 'datetime': '2018-10-09 23:56:24.278996', 'mgs': 0, 'volt': 0.8643, 'depth': 1.004, 'time': 19, 'pitch': 9.48, 'roll': -1.27, 'pres': 177}
{'lipoC2': 7.25, 'lipoC3S1': 3.71, 'temp': 30.75, 'lipoC3S3': 11.35, 'lipoC3S2': 7.52, 'rot1': 147, 'rot0': 151, 'rot3': 43, 'rot2': 33, 'state': 'normal', 'yaw': -10.56, 'datetime': '2018-10-09 23:56:24.382966', 'mgs': 0, 'volt': 0.8643, 'depth': 1.004, 'time': 19, 'pitch': 10.68, 'roll': -0.78, 'pres': 177}
{'lipoC2': 7.24, 'lipoC3S1': 3.76, 'temp': 30.75, 'lipoC3S3': 11.34, 'lipoC3S2': 7.52, 'rot1': 148, 'rot0': 152, 'rot3': 43, 'rot2': 33, 'state': 'normal', 'yaw': -10.89, 'datetime': '2018-10-09 23:56:24.486715', 'mgs': 0, 'volt': 0.9082, 'depth': 1.691, 'time': 19, 'pitch': 11.55, 'roll': -0.04, 'pres': 186}
{'lipoC2': 7.24, 'lipoC3S1': 3.75, 'temp': 30.75, 'lipoC3S3': 11.13, 'lipoC3S2': 7.44, 'rot1': 149, 'rot0': 153, 'rot3': 43, 'rot2': 33, 'state': 'normal', 'yaw': -11.16, 'datetime': '2018-10-09 23:56:24.590834', 'mgs': 0, 'volt': 0.8643, 'depth': 1.004, 'time': 19, 'pitch': 11.76, 'roll': 0.71, 'pres': 177}
{'lipoC2': 7.25, 'lipoC3S1': 3.69, 'temp': 30.69, 'lipoC3S3': 11.34, 'lipoC3S2': 7.42, 'rot1': 151, 'rot0': 154, 'rot3': 43, 'rot2': 34, 'state': 'normal', 'yaw': -11.17, 'datetime': '2018-10-09 23:56:24.694633', 'mgs': 0, 'volt': 0.8643, 'depth': 1.004, 'time': 20, 'pitch': 11.41, 'roll': 1.08, 'pres': 177}
{'lipoC2': 7.24, 'lipoC3S1': 3.75, 'temp': 30.69, 'lipoC3S3': 11.27, 'lipoC3S2': 7.5, 'rot1': 152, 'rot0': 155, 'rot3': 44, 'rot2': 34, 'state': 'normal', 'yaw': -10.97, 'datetime': '2018-10-09 23:56:24.799241', 'mgs': 0, 'volt': 0.8691, 'depth': 1.08, 'time': 20, 'pitch': 10.91, 'roll': 1.05, 'pres': 178}
{'lipoC2': 7.25, 'lipoC3S1': 3.75, 'temp': 30.69, 'lipoC3S3': 11.31, 'lipoC3S2': 7.41, 'rot1': 153, 'rot0': 157, 'rot3': 44, 'rot2': 35, 'state': 'normal', 'yaw': -10.65, 'datetime': '2018-10-09 23:56:24.903071', 'mgs': 0, 'volt': 0.8643, 'depth': 1.004, 'time': 20, 'pitch': 10.65, 'roll': 0.6, 'pres': 177}
{'lipoC2': 7.26, 'lipoC3S1': 3.75, 'temp': 30.75, 'lipoC3S3': 11.3, 'lipoC3S2': 7.4, 'rot1': 155, 'rot0': 158, 'rot3': 44, 'rot2': 35, 'state': 'normal', 'yaw': -10.36, 'datetime': '2018-10-09 23:56:25.008569', 'mgs': 0, 'volt': 0.8643, 'depth': 1.004, 'time': 20, 'pitch': 10.85, 'roll': 0.17, 'pres': 177}
{'lipoC2': 7.25, 'lipoC3S1': 3.7, 'temp': 30.75, 'lipoC3S3': 11.35, 'lipoC3S2': 7.52, 'rot1': 156, 'rot0': 159, 'rot3': 44, 'rot2': 35, 'state': 'normal', 'yaw': -10.19, 'datetime': '2018-10-09 23:56:25.112760', 'mgs': 0, 'volt': 0.8643, 'depth': 1.004, 'time': 20, 'pitch': 11.47, 'roll': -0.07, 'pres': 177}
{'lipoC2': 7.25, 'lipoC3S1': 3.68, 'temp': 30.75, 'lipoC3S3': 11.35, 'lipoC3S2': 7.5, 'rot1': 157, 'rot0': 160, 'rot3': 44, 'rot2': 35, 'state': 'normal', 'yaw': -10.16, 'datetime': '2018-10-09 23:56:25.216604', 'mgs': 0, 'volt': 0.8594, 'depth': 0.928, 'time': 20, 'pitch': 12.25, 'roll': -0.0, 'pres': 176}
{'lipoC2': 7.24, 'lipoC3S1': 3.76, 'temp': 30.75, 'lipoC3S3': 11.23, 'lipoC3S2': 7.51, 'rot1': 159, 'rot0': 161, 'rot3': 44, 'rot2': 35, 'state': 'normal', 'yaw': -10.23, 'datetime': '2018-10-09 23:56:25.327667', 'mgs': 0, 'volt': 0.8545, 'depth': 0.851, 'time': 20, 'pitch': 12.89, 'roll': 0.31, 'pres': 175}
{'lipoC2': 7.25, 'lipoC3S1': 3.75, 'temp': 30.75, 'lipoC3S3': 11.29, 'lipoC3S2': 7.39, 'rot1': 160, 'rot0': 163, 'rot3': 44, 'rot2': 35, 'state': 'normal', 'yaw': -10.36, 'datetime': '2018-10-09 23:56:25.431604', 'mgs': 0, 'volt': 0.8545, 'depth': 0.851, 'time': 20, 'pitch': 13.0, 'roll': 0.67, 'pres': 175}
