{'lipoC2': 0.0, 'lipoC3S1': 4.02, 'temp': 26.5, 'lipoC3S3': 12.17, 'lipoC3S2': 8.04, 'rot1': 0, 'rot0': 0, 'rot3': 24, 'rot2': 23, 'state': 'normal', 'yaw': -1.34, 'datetime': '2018-10-03 16:41:35.368018', 'mgs': 0, 'volt': 1.0107, 'depth': 3.293, 'time': 36, 'pitch': -4.09, 'roll': -0.63, 'pres': 207}
{'lipoC2': 0.0, 'lipoC3S1': 4.02, 'temp': 26.5, 'lipoC3S3': 12.17, 'lipoC3S2': 8.04, 'rot1': 0, 'rot0': 0, 'rot3': 24, 'rot2': 23, 'state': 'normal', 'yaw': -1.33, 'datetime': '2018-10-03 16:41:35.398157', 'mgs': 0, 'volt': 1.0107, 'depth': 3.293, 'time': 36, 'pitch': -4.09, 'roll': -0.51, 'pres': 207}
{'lipoC2': 0.0, 'lipoC3S1': 4.01, 'temp': 26.5, 'lipoC3S3': 12.17, 'lipoC3S2': 8.04, 'rot1': 0, 'rot0': 0, 'rot3': 0, 'rot2': 0, 'state': 'normal', 'yaw': -0.0, 'datetime': '2018-10-03 16:41:35.420296', 'mgs': 0, 'volt': 1.0107, 'depth': 3.293, 'time': 1, 'pitch': -6.13, 'roll': -0.38, 'pres': 207}
{'lipoC2': 0.0, 'lipoC3S1': 4.01, 'temp': 26.5, 'lipoC3S3': 12.16, 'lipoC3S2': 8.04, 'rot1': 0, 'rot0': 0, 'rot3': 0, 'rot2': 0, 'state': 'normal', 'yaw': 0.01, 'datetime': '2018-10-03 16:41:35.442163', 'mgs': 0, 'volt': 1.0107, 'depth': 3.293, 'time': 1, 'pitch': -6.29, 'roll': -0.36, 'pres': 207}
{'lipoC2': 0.0, 'lipoC3S1': 4.01, 'temp': 26.5, 'lipoC3S3': 12.16, 'lipoC3S2': 8.04, 'rot1': 0, 'rot0': 0, 'rot3': 0, 'rot2': 0, 'state': 'normal', 'yaw': 0.02, 'datetime': '2018-10-03 16:41:35.464152', 'mgs': 0, 'volt': 1.0059, 'depth': 3.217, 'time': 1, 'pitch': -6.34, 'roll': -0.26, 'pres': 206}
{'lipoC2': 0.0, 'lipoC3S1': 4.02, 'temp': 26.5, 'lipoC3S3': 12.17, 'lipoC3S2': 8.04, 'rot1': 0, 'rot0': 0, 'rot3': 0, 'rot2': 0, 'state': 'normal', 'yaw': 0.05, 'datetime': '2018-10-03 16:41:35.480743', 'mgs': 0, 'volt': 1.0059, 'depth': 3.217, 'time': 1, 'pitch': -6.33, 'roll': -0.14, 'pres': 206}
{'lipoC2': 0.0, 'lipoC3S1': 4.01, 'temp': 26.5, 'lipoC3S3': 12.17, 'lipoC3S2': 8.04, 'rot1': 0, 'rot0': 0, 'rot3': 0, 'rot2': 0, 'state': 'normal', 'yaw': 0.06, 'datetime': '2018-10-03 16:41:35.492223', 'mgs': 0, 'volt': 1.0107, 'depth': 3.293, 'time': 1, 'pitch': -6.22, 'roll': 0.01, 'pres': 207}
{'lipoC2': 0.0, 'lipoC3S1': 4.01, 'temp': 26.5, 'lipoC3S3': 12.16, 'lipoC3S2': 8.04, 'rot1': 0, 'rot0': 0, 'rot3': 0, 'rot2': 0, 'state': 'normal', 'yaw': 0.06, 'datetime': '2018-10-03 16:41:35.503256', 'mgs': 0, 'volt': 1.0107, 'depth': 3.293, 'time': 1, 'pitch': -6.06, 'roll': 0.18, 'pres': 207}
{'lipoC2': 0.0, 'lipoC3S1': 4.01, 'temp': 26.5, 'lipoC3S3': 12.17, 'lipoC3S2': 8.04, 'rot1': 0, 'rot0': 0, 'rot3': 0, 'rot2': 0, 'state': 'normal', 'yaw': 0.06, 'datetime': '2018-10-03 16:41:35.512897', 'mgs': 0, 'volt': 1.0107, 'depth': 3.293, 'time': 1, 'pitch': -5.85, 'roll': 0.32, 'pres': 207}
{'lipoC2': 0.0, 'lipoC3S1': 4.01, 'temp': 26.5, 'lipoC3S3': 12.16, 'lipoC3S2': 8.04, 'rot1': 0, 'rot0': 0, 'rot3': 0, 'rot2': 0, 'state': 'normal', 'yaw': 0.07, 'datetime': '2018-10-03 16:41:35.522382', 'mgs': 0, 'volt': 1.0107, 'depth': 3.293, 'time': 1, 'pitch': -5.62, 'roll': 0.43, 'pres': 207}
{'lipoC2': 0.0, 'lipoC3S1': 4.01, 'temp': 26.5, 'lipoC3S3': 12.17, 'lipoC3S2': 8.04, 'rot1': 0, 'rot0': 0, 'rot3': 0, 'rot2': 0, 'state': 'normal', 'yaw': 0.13, 'datetime': '2018-10-03 16:41:35.531998', 'mgs': 0, 'volt': 1.0107, 'depth': 3.293, 'time': 2, 'pitch': -5.42, 'roll': 0.42, 'pres': 207}
{'lipoC2': 0.0, 'lipoC3S1': 4.01, 'temp': 26.5, 'lipoC3S3': 12.17, 'lipoC3S2': 8.04, 'rot1': 0, 'rot0': 0, 'rot3': 0, 'rot2': 0, 'state': 'normal', 'yaw': 0.15, 'datetime': '2018-10-03 16:41:35.541483', 'mgs': 0, 'volt': 1.0107, 'depth': 3.293, 'time': 2, 'pitch': -5.29, 'roll': 0.4, 'pres': 207}
{'lipoC2': 0.0, 'lipoC3S1': 4.01, 'temp': 26.5, 'lipoC3S3': 12.17, 'lipoC3S2': 8.04, 'rot1': 0, 'rot0': 0, 'rot3': 0, 'rot2': 0, 'state': 'normal', 'yaw': 0.15, 'datetime': '2018-10-03 16:41:35.551093', 'mgs': 0, 'volt': 1.0107, 'depth': 3.293, 'time': 2, 'pitch': -5.2, 'roll': 0.29, 'pres': 207}
{'lipoC2': 0.0, 'lipoC3S1': 4.01, 'temp': 26.5, 'lipoC3S3': 12.16, 'lipoC3S2': 8.04, 'rot1': 0, 'rot0': 0, 'rot3': 0, 'rot2': 0, 'state': 'normal', 'yaw': 0.15, 'datetime': '2018-10-03 16:41:35.560573', 'mgs': 0, 'volt': 1.0107, 'depth': 3.293, 'time': 2, 'pitch': -5.19, 'roll': 0.17, 'pres': 207}
{'lipoC2': 0.0, 'lipoC3S1': 4.01, 'temp': 26.44, 'lipoC3S3': 12.16, 'lipoC3S2': 8.04, 'rot1': 0, 'rot0': 0, 'rot3': 0, 'rot2': 0, 'state': 'normal', 'yaw': 0.14, 'datetime': '2018-10-03 16:41:35.574950', 'mgs': 0, 'volt': 1.0107, 'depth': 3.293, 'time': 2, 'pitch': -5.21, 'roll': 0.06, 'pres': 207}
{'lipoC2': 0.0, 'lipoC3S1': 4.01, 'temp': 26.44, 'lipoC3S3': 12.16, 'lipoC3S2': 8.04, 'rot1': 0, 'rot0': 0, 'rot3': 0, 'rot2': 0, 'state': 'normal', 'yaw': 0.15, 'datetime': '2018-10-03 16:41:35.585592', 'mgs': 0, 'volt': 1.0107, 'depth': 3.293, 'time': 2, 'pitch': -5.23, 'roll': -0.03, 'pres': 207}
{'lipoC2': 0.0, 'lipoC3S1': 4.01, 'temp': 26.5, 'lipoC3S3': 12.16, 'lipoC3S2': 8.04, 'rot1': 0, 'rot0': 0, 'rot3': 0, 'rot2': 0, 'state': 'normal', 'yaw': 0.15, 'datetime': '2018-10-03 16:41:35.595419', 'mgs': 0, 'volt': 1.0107, 'depth': 3.293, 'time': 2, 'pitch': -5.32, 'roll': -0.06, 'pres': 207}
{'lipoC2': 0.0, 'lipoC3S1': 4.01, 'temp': 26.5, 'lipoC3S3': 12.17, 'lipoC3S2': 8.04, 'rot1': 0, 'rot0': 0, 'rot3': 0, 'rot2': 0, 'state': 'normal', 'yaw': 0.15, 'datetime': '2018-10-03 16:41:35.606017', 'mgs': 0, 'volt': 1.0107, 'depth': 3.293, 'time': 2, 'pitch': -5.44, 'roll': -0.06, 'pres': 207}
{'lipoC2': 0.0, 'lipoC3S1': 4.01, 'temp': 26.5, 'lipoC3S3': 12.16, 'lipoC3S2': 8.04, 'rot1': 0, 'rot0': 0, 'rot3': 0, 'rot2': 0, 'state': 'normal', 'yaw': 0.15, 'datetime': '2018-10-03 16:41:35.710339', 'mgs': 0, 'volt': 1.0107, 'depth': 3.293, 'time': 2, 'pitch': -5.57, 'roll': -0.06, 'pres': 207}
{'lipoC2': 0.0, 'lipoC3S1': 4.01, 'temp': 26.5, 'lipoC3S3': 12.17, 'lipoC3S2': 8.04, 'rot1': 0, 'rot0': 0, 'rot3': 0, 'rot2': 0, 'state': 'normal', 'yaw': 0.15, 'datetime': '2018-10-03 16:41:35.813456', 'mgs': 0, 'volt': 1.0107, 'depth': 3.293, 'time': 3, 'pitch': -5.76, 'roll': -0.06, 'pres': 207}
{'lipoC2': 0.0, 'lipoC3S1': 4.01, 'temp': 26.5, 'lipoC3S3': 12.16, 'lipoC3S2': 8.04, 'rot1': 0, 'rot0': 0, 'rot3': 0, 'rot2': 0, 'state': 'normal', 'yaw': 0.15, 'datetime': '2018-10-03 16:41:35.916600', 'mgs': 0, 'volt': 1.0107, 'depth': 3.293, 'time': 3, 'pitch': -5.96, 'roll': -0.07, 'pres': 207}
{'lipoC2': 0.0, 'lipoC3S1': 4.01, 'temp': 26.5, 'lipoC3S3': 12.17, 'lipoC3S2': 8.04, 'rot1': 0, 'rot0': 0, 'rot3': 0, 'rot2': 0, 'state': 'normal', 'yaw': 0.15, 'datetime': '2018-10-03 16:41:36.019701', 'mgs': 0, 'volt': 1.0107, 'depth': 3.293, 'time': 3, 'pitch': -6.13, 'roll': -0.1, 'pres': 207}
{'lipoC2': 0.0, 'lipoC3S1': 4.01, 'temp': 26.5, 'lipoC3S3': 12.17, 'lipoC3S2': 8.04, 'rot1': 0, 'rot0': 0, 'rot3': 0, 'rot2': 0, 'state': 'normal', 'yaw': 0.15, 'datetime': '2018-10-03 16:41:36.122842', 'mgs': 0, 'volt': 1.0059, 'depth': 3.217, 'time': 3, 'pitch': -6.3, 'roll': -0.1, 'pres': 206}
{'lipoC2': 0.0, 'lipoC3S1': 4.01, 'temp': 26.5, 'lipoC3S3': 12.17, 'lipoC3S2': 8.04, 'rot1': 0, 'rot0': 0, 'rot3': 0, 'rot2': 0, 'state': 'normal', 'yaw': 0.15, 'datetime': '2018-10-03 16:41:36.226682', 'mgs': 0, 'volt': 1.0107, 'depth': 3.293, 'time': 3, 'pitch': -6.37, 'roll': -0.1, 'pres': 207}
{'lipoC2': 0.0, 'lipoC3S1': 4.01, 'temp': 26.5, 'lipoC3S3': 12.17, 'lipoC3S2': 8.04, 'rot1': 0, 'rot0': 0, 'rot3': 0, 'rot2': 0, 'state': 'normal', 'yaw': 0.15, 'datetime': '2018-10-03 16:41:36.331030', 'mgs': 0, 'volt': 1.0107, 'depth': 3.293, 'time': 3, 'pitch': -6.43, 'roll': -0.1, 'pres': 207}
{'lipoC2': 0.0, 'lipoC3S1': 4.01, 'temp': 26.5, 'lipoC3S3': 12.17, 'lipoC3S2': 8.04, 'rot1': 0, 'rot0': 0, 'rot3': 0, 'rot2': 0, 'state': 'normal', 'yaw': 0.15, 'datetime': '2018-10-03 16:41:36.433434', 'mgs': 0, 'volt': 1.0107, 'depth': 3.293, 'time': 3, 'pitch': -6.46, 'roll': -0.09, 'pres': 207}
{'lipoC2': 0.0, 'lipoC3S1': 4.01, 'temp': 26.5, 'lipoC3S3': 12.16, 'lipoC3S2': 8.04, 'rot1': 0, 'rot0': 0, 'rot3': 0, 'rot2': 0, 'state': 'normal', 'yaw': 0.15, 'datetime': '2018-10-03 16:41:36.536550', 'mgs': 0, 'volt': 1.0107, 'depth': 3.293, 'time': 3, 'pitch': -6.4, 'roll': -0.04, 'pres': 207}
{'lipoC2': 0.0, 'lipoC3S1': 4.01, 'temp': 26.5, 'lipoC3S3': 12.16, 'lipoC3S2': 8.04, 'rot1': 0, 'rot0': 0, 'rot3': 0, 'rot2': 0, 'state': 'normal', 'yaw': 0.15, 'datetime': '2018-10-03 16:41:36.639680', 'mgs': 0, 'volt': 1.0107, 'depth': 3.293, 'time': 3, 'pitch': -6.28, 'roll': 0.02, 'pres': 207}
{'lipoC2': 0.0, 'lipoC3S1': 4.01, 'temp': 26.44, 'lipoC3S3': 12.17, 'lipoC3S2': 8.04, 'rot1': 0, 'rot0': 0, 'rot3': 0, 'rot2': 0, 'state': 'normal', 'yaw': 0.15, 'datetime': '2018-10-03 16:41:36.743396', 'mgs': 0, 'volt': 1.0156, 'depth': 3.369, 'time': 3, 'pitch': -6.14, 'roll': 0.1, 'pres': 208}
{'lipoC2': 0.0, 'lipoC3S1': 4.01, 'temp': 26.44, 'lipoC3S3': 12.16, 'lipoC3S2': 8.04, 'rot1': 0, 'rot0': 0, 'rot3': 0, 'rot2': 0, 'state': 'normal', 'yaw': 0.15, 'datetime': '2018-10-03 16:41:36.846516', 'mgs': 0, 'volt': 1.0107, 'depth': 3.293, 'time': 4, 'pitch': -5.98, 'roll': 0.14, 'pres': 207}
{'lipoC2': 0.0, 'lipoC3S1': 4.01, 'temp': 26.44, 'lipoC3S3': 12.16, 'lipoC3S2': 8.04, 'rot1': 0, 'rot0': 0, 'rot3': 0, 'rot2': 0, 'state': 'normal', 'yaw': 0.15, 'datetime': '2018-10-03 16:41:36.950593', 'mgs': 0, 'volt': 1.0107, 'depth': 3.293, 'time': 4, 'pitch': -5.85, 'roll': 0.14, 'pres': 207}
{'lipoC2': 0.0, 'lipoC3S1': 4.01, 'temp': 26.44, 'lipoC3S3': 12.16, 'lipoC3S2': 8.04, 'rot1': 0, 'rot0': 0, 'rot3': 0, 'rot2': 0, 'state': 'normal', 'yaw': 0.15, 'datetime': '2018-10-03 16:41:37.054323', 'mgs': 0, 'volt': 1.0156, 'depth': 3.369, 'time': 4, 'pitch': -5.75, 'roll': 0.13, 'pres': 208}
{'lipoC2': 0.0, 'lipoC3S1': 4.01, 'temp': 26.5, 'lipoC3S3': 12.16, 'lipoC3S2': 8.04, 'rot1': 0, 'rot0': 0, 'rot3': 0, 'rot2': 0, 'state': 'normal', 'yaw': 0.16, 'datetime': '2018-10-03 16:41:37.158191', 'mgs': 0, 'volt': 1.0156, 'depth': 3.369, 'time': 4, 'pitch': -5.73, 'roll': 0.12, 'pres': 208}
{'lipoC2': 0.0, 'lipoC3S1': 4.01, 'temp': 26.5, 'lipoC3S3': 12.17, 'lipoC3S2': 8.04, 'rot1': 0, 'rot0': 0, 'rot3': 0, 'rot2': 0, 'state': 'normal', 'yaw': 0.16, 'datetime': '2018-10-03 16:41:37.262560', 'mgs': 0, 'volt': 1.0107, 'depth': 3.293, 'time': 4, 'pitch': -5.77, 'roll': 0.11, 'pres': 207}
{'lipoC2': 0.0, 'lipoC3S1': 4.01, 'temp': 26.5, 'lipoC3S3': 12.16, 'lipoC3S2': 8.04, 'rot1': 0, 'rot0': 0, 'rot3': 0, 'rot2': 0, 'state': 'normal', 'yaw': 0.16, 'datetime': '2018-10-03 16:41:37.366165', 'mgs': 0, 'volt': 1.0107, 'depth': 3.293, 'time': 4, 'pitch': -5.89, 'roll': 0.12, 'pres': 207}
{'lipoC2': 0.0, 'lipoC3S1': 4.01, 'temp': 26.5, 'lipoC3S3': 12.17, 'lipoC3S2': 8.04, 'rot1': 0, 'rot0': 0, 'rot3': 0, 'rot2': 0, 'state': 'normal', 'yaw': 0.17, 'datetime': '2018-10-03 16:41:37.469273', 'mgs': 0, 'volt': 1.0107, 'depth': 3.293, 'time': 4, 'pitch': -6.11, 'roll': 0.12, 'pres': 207}
{'lipoC2': 0.0, 'lipoC3S1': 4.01, 'temp': 26.5, 'lipoC3S3': 12.17, 'lipoC3S2': 8.04, 'rot1': 0, 'rot0': 0, 'rot3': 0, 'rot2': 0, 'state': 'normal', 'yaw': 0.2, 'datetime': '2018-10-03 16:41:37.572409', 'mgs': 0, 'volt': 1.0107, 'depth': 3.293, 'time': 4, 'pitch': -6.33, 'roll': 0.13, 'pres': 207}
{'lipoC2': 0.0, 'lipoC3S1': 4.01, 'temp': 26.5, 'lipoC3S3': 12.17, 'lipoC3S2': 8.04, 'rot1': 0, 'rot0': 0, 'rot3': 0, 'rot2': 0, 'state': 'normal', 'yaw': 0.29, 'datetime': '2018-10-03 16:41:37.675721', 'mgs': 0, 'volt': 1.0107, 'depth': 3.293, 'time': 4, 'pitch': -6.54, 'roll': 0.12, 'pres': 207}
{'lipoC2': 0.0, 'lipoC3S1': 4.01, 'temp': 26.5, 'lipoC3S3': 12.16, 'lipoC3S2': 8.04, 'rot1': 0, 'rot0': 0, 'rot3': 0, 'rot2': 0, 'state': 'normal', 'yaw': 0.39, 'datetime': '2018-10-03 16:41:37.778571', 'mgs': 0, 'volt': 1.0107, 'depth': 3.293, 'time': 4, 'pitch': -6.72, 'roll': 0.13, 'pres': 207}
{'lipoC2': 0.0, 'lipoC3S1': 4.01, 'temp': 26.56, 'lipoC3S3': 12.16, 'lipoC3S2': 8.04, 'rot1': 0, 'rot0': 0, 'rot3': 0, 'rot2': 0, 'state': 'normal', 'yaw': 0.49, 'datetime': '2018-10-03 16:41:37.881005', 'mgs': 0, 'volt': 1.0107, 'depth': 3.293, 'time': 5, 'pitch': -6.88, 'roll': 0.18, 'pres': 207}
{'lipoC2': 0.0, 'lipoC3S1': 4.01, 'temp': 26.56, 'lipoC3S3': 12.16, 'lipoC3S2': 8.04, 'rot1': 0, 'rot0': 0, 'rot3': 0, 'rot2': 0, 'state': 'normal', 'yaw': 0.58, 'datetime': '2018-10-03 16:41:37.985391', 'mgs': 0, 'volt': 1.0107, 'depth': 3.293, 'time': 5, 'pitch': -6.95, 'roll': 0.26, 'pres': 207}
{'lipoC2': 0.0, 'lipoC3S1': 4.01, 'temp': 26.56, 'lipoC3S3': 12.16, 'lipoC3S2': 8.04, 'rot1': 0, 'rot0': 0, 'rot3': 0, 'rot2': 0, 'state': 'normal', 'yaw': 0.68, 'datetime': '2018-10-03 16:41:38.088527', 'mgs': 0, 'volt': 1.0059, 'depth': 3.217, 'time': 5, 'pitch': -6.97, 'roll': 0.4, 'pres': 206}
{'lipoC2': 0.0, 'lipoC3S1': 4.01, 'temp': 26.5, 'lipoC3S3': 12.17, 'lipoC3S2': 8.04, 'rot1': 0, 'rot0': 0, 'rot3': 0, 'rot2': 0, 'state': 'normal', 'yaw': 0.76, 'datetime': '2018-10-03 16:41:38.191652', 'mgs': 0, 'volt': 1.0059, 'depth': 3.217, 'time': 5, 'pitch': -6.89, 'roll': 0.57, 'pres': 206}
{'lipoC2': 0.0, 'lipoC3S1': 4.01, 'temp': 26.5, 'lipoC3S3': 12.17, 'lipoC3S2': 8.04, 'rot1': 0, 'rot0': 0, 'rot3': 0, 'rot2': 0, 'state': 'normal', 'yaw': 0.84, 'datetime': '2018-10-03 16:41:38.294794', 'mgs': 0, 'volt': 1.0059, 'depth': 3.217, 'time': 5, 'pitch': -6.74, 'roll': 0.76, 'pres': 206}
{'lipoC2': 0.0, 'lipoC3S1': 4.01, 'temp': 26.5, 'lipoC3S3': 12.16, 'lipoC3S2': 8.04, 'rot1': 0, 'rot0': 0, 'rot3': 0, 'rot2': 0, 'state': 'normal', 'yaw': 0.92, 'datetime': '2018-10-03 16:41:38.398271', 'mgs': 0, 'volt': 1.0107, 'depth': 3.293, 'time': 5, 'pitch': -6.54, 'roll': 0.9, 'pres': 207}
{'lipoC2': 0.0, 'lipoC3S1': 4.01, 'temp': 26.5, 'lipoC3S3': 12.17, 'lipoC3S2': 8.04, 'rot1': 0, 'rot0': 0, 'rot3': 0, 'rot2': 0, 'state': 'normal', 'yaw': 1.01, 'datetime': '2018-10-03 16:41:38.501382', 'mgs': 0, 'volt': 1.0107, 'depth': 3.293, 'time': 5, 'pitch': -6.3, 'roll': 0.98, 'pres': 207}
{'lipoC2': 0.0, 'lipoC3S1': 4.01, 'temp': 26.5, 'lipoC3S3': 12.16, 'lipoC3S2': 8.04, 'rot1': 0, 'rot0': 0, 'rot3': 0, 'rot2': 0, 'state': 'normal', 'yaw': 1.09, 'datetime': '2018-10-03 16:41:38.605305', 'mgs': 0, 'volt': 1.0107, 'depth': 3.293, 'time': 5, 'pitch': -6.08, 'roll': 1.06, 'pres': 207}
{'lipoC2': 0.0, 'lipoC3S1': 4.01, 'temp': 26.5, 'lipoC3S3': 12.16, 'lipoC3S2': 8.04, 'rot1': 0, 'rot0': 0, 'rot3': 0, 'rot2': 0, 'state': 'normal', 'yaw': 1.15, 'datetime': '2018-10-03 16:41:38.709268', 'mgs': 0, 'volt': 1.0107, 'depth': 3.293, 'time': 5, 'pitch': -5.85, 'roll': 1.07, 'pres': 207}
{'lipoC2': 0.0, 'lipoC3S1': 4.01, 'temp': 26.5, 'lipoC3S3': 12.16, 'lipoC3S2': 8.04, 'rot1': 0, 'rot0': 0, 'rot3': 0, 'rot2': 0, 'state': 'normal', 'yaw': 1.16, 'datetime': '2018-10-03 16:41:38.812397', 'mgs': 0, 'volt': 1.0156, 'depth': 3.369, 'time': 6, 'pitch': -5.59, 'roll': 1.06, 'pres': 208}
{'lipoC2': 0.0, 'lipoC3S1': 4.01, 'temp': 26.5, 'lipoC3S3': 12.16, 'lipoC3S2': 8.04, 'rot1': 0, 'rot0': 0, 'rot3': 0, 'rot2': 0, 'state': 'normal', 'yaw': 1.16, 'datetime': '2018-10-03 16:41:38.916125', 'mgs': 0, 'volt': 1.0156, 'depth': 3.369, 'time': 6, 'pitch': -5.38, 'roll': 1.04, 'pres': 208}
{'lipoC2': 0.0, 'lipoC3S1': 4.01, 'temp': 26.5, 'lipoC3S3': 12.16, 'lipoC3S2': 8.04, 'rot1': 0, 'rot0': 0, 'rot3': 0, 'rot2': 0, 'state': 'normal', 'yaw': 1.17, 'datetime': '2018-10-03 16:41:39.020287', 'mgs': 0, 'volt': 1.0156, 'depth': 3.369, 'time': 6, 'pitch': -5.19, 'roll': 0.97, 'pres': 208}
{'lipoC2': 0.0, 'lipoC3S1': 4.01, 'temp': 26.56, 'lipoC3S3': 12.16, 'lipoC3S2': 8.04, 'rot1': 0, 'rot0': 0, 'rot3': 0, 'rot2': 0, 'state': 'normal', 'yaw': 1.17, 'datetime': '2018-10-03 16:41:39.123430', 'mgs': 0, 'volt': 1.0156, 'depth': 3.369, 'time': 6, 'pitch': -5.06, 'roll': 0.9, 'pres': 208}
{'lipoC2': 0.0, 'lipoC3S1': 4.01, 'temp': 26.56, 'lipoC3S3': 12.17, 'lipoC3S2': 8.04, 'rot1': 0, 'rot0': 0, 'rot3': 0, 'rot2': 0, 'state': 'normal', 'yaw': 1.22, 'datetime': '2018-10-03 16:41:39.226497', 'mgs': 0, 'volt': 1.0107, 'depth': 3.293, 'time': 6, 'pitch': -5.08, 'roll': 0.81, 'pres': 207}
{'lipoC2': 0.0, 'lipoC3S1': 4.01, 'temp': 26.56, 'lipoC3S3': 12.16, 'lipoC3S2': 8.04, 'rot1': 0, 'rot0': 0, 'rot3': 0, 'rot2': 0, 'state': 'normal', 'yaw': 1.28, 'datetime': '2018-10-03 16:41:39.329656', 'mgs': 0, 'volt': 1.0107, 'depth': 3.293, 'time': 6, 'pitch': -5.17, 'roll': 0.7, 'pres': 207}
{'lipoC2': 0.0, 'lipoC3S1': 4.01, 'temp': 26.5, 'lipoC3S3': 12.17, 'lipoC3S2': 8.04, 'rot1': 0, 'rot0': 0, 'rot3': 0, 'rot2': 0, 'state': 'normal', 'yaw': 1.37, 'datetime': '2018-10-03 16:41:39.432813', 'mgs': 0, 'volt': 1.0156, 'depth': 3.369, 'time': 6, 'pitch': -5.38, 'roll': 0.6, 'pres': 208}
{'lipoC2': 0.0, 'lipoC3S1': 4.01, 'temp': 26.5, 'lipoC3S3': 12.17, 'lipoC3S2': 8.04, 'rot1': 0, 'rot0': 0, 'rot3': 0, 'rot2': 0, 'state': 'normal', 'yaw': 1.44, 'datetime': '2018-10-03 16:41:39.535978', 'mgs': 0, 'volt': 1.0107, 'depth': 3.293, 'time': 6, 'pitch': -5.6, 'roll': 0.56, 'pres': 207}
{'lipoC2': 0.0, 'lipoC3S1': 4.01, 'temp': 26.5, 'lipoC3S3': 12.16, 'lipoC3S2': 8.04, 'rot1': 0, 'rot0': 0, 'rot3': 0, 'rot2': 0, 'state': 'normal', 'yaw': 1.43, 'datetime': '2018-10-03 16:41:39.639005', 'mgs': 0, 'volt': 1.0107, 'depth': 3.293, 'time': 6, 'pitch': -5.82, 'roll': 0.56, 'pres': 207}
{'lipoC2': 0.0, 'lipoC3S1': 4.01, 'temp': 26.5, 'lipoC3S3': 12.16, 'lipoC3S2': 8.04, 'rot1': 0, 'rot0': 0, 'rot3': 0, 'rot2': 0, 'state': 'normal', 'yaw': 1.43, 'datetime': '2018-10-03 16:41:39.745771', 'mgs': 0, 'volt': 1.0107, 'depth': 3.293, 'time': 6, 'pitch': -6.04, 'roll': 0.57, 'pres': 207}
{'lipoC2': 0.0, 'lipoC3S1': 4.01, 'temp': 26.5, 'lipoC3S3': 12.17, 'lipoC3S2': 8.04, 'rot1': 0, 'rot0': 0, 'rot3': 0, 'rot2': 0, 'state': 'normal', 'yaw': 1.44, 'datetime': '2018-10-03 16:41:39.851814', 'mgs': 0, 'volt': 1.0107, 'depth': 3.293, 'time': 7, 'pitch': -6.13, 'roll': 0.65, 'pres': 207}
{'lipoC2': 0.0, 'lipoC3S1': 4.01, 'temp': 26.5, 'lipoC3S3': 12.17, 'lipoC3S2': 8.04, 'rot1': 0, 'rot0': 0, 'rot3': 0, 'rot2': 0, 'state': 'normal', 'yaw': 1.45, 'datetime': '2018-10-03 16:41:39.956022', 'mgs': 0, 'volt': 1.0107, 'depth': 3.293, 'time': 7, 'pitch': -6.19, 'roll': 0.73, 'pres': 207}
{'lipoC2': 0.0, 'lipoC3S1': 4.01, 'temp': 26.5, 'lipoC3S3': 12.16, 'lipoC3S2': 8.04, 'rot1': 0, 'rot0': 0, 'rot3': 0, 'rot2': 0, 'state': 'normal', 'yaw': 1.44, 'datetime': '2018-10-03 16:41:40.059473', 'mgs': 0, 'volt': 1.0107, 'depth': 3.293, 'time': 7, 'pitch': -6.24, 'roll': 0.78, 'pres': 207}
{'lipoC2': 0.0, 'lipoC3S1': 4.01, 'temp': 26.5, 'lipoC3S3': 12.16, 'lipoC3S2': 8.04, 'rot1': 0, 'rot0': 0, 'rot3': 0, 'rot2': 0, 'state': 'normal', 'yaw': 1.26, 'datetime': '2018-10-03 16:41:40.162650', 'mgs': 0, 'volt': 1.0107, 'depth': 3.293, 'time': 7, 'pitch': -6.18, 'roll': 0.92, 'pres': 207}
{'lipoC2': 0.0, 'lipoC3S1': 4.01, 'temp': 26.5, 'lipoC3S3': 12.16, 'lipoC3S2': 8.04, 'rot1': 0, 'rot0': 0, 'rot3': 0, 'rot2': 0, 'state': 'normal', 'yaw': 0.62, 'datetime': '2018-10-03 16:41:40.266615', 'mgs': 0, 'volt': 1.0107, 'depth': 3.293, 'time': 7, 'pitch': -6.16, 'roll': 1.07, 'pres': 207}
{'lipoC2': 0.0, 'lipoC3S1': 4.01, 'temp': 26.5, 'lipoC3S3': 12.16, 'lipoC3S2': 8.04, 'rot1': 0, 'rot0': 0, 'rot3': 0, 'rot2': 0, 'state': 'normal', 'yaw': -1.01, 'datetime': '2018-10-03 16:41:40.370397', 'mgs': 0, 'volt': 1.0059, 'depth': 3.217, 'time': 7, 'pitch': -6.43, 'roll': 1.44, 'pres': 206}
{'lipoC2': 0.0, 'lipoC3S1': 4.01, 'temp': 26.5, 'lipoC3S3': 12.16, 'lipoC3S2': 8.04, 'rot1': 0, 'rot0': 0, 'rot3': 0, 'rot2': 0, 'state': 'normal', 'yaw': -4.48, 'datetime': '2018-10-03 16:41:40.473435', 'mgs': 0, 'volt': 1.0059, 'depth': 3.217, 'time': 7, 'pitch': -7.19, 'roll': 1.96, 'pres': 206}
{'lipoC2': 0.0, 'lipoC3S1': 4.01, 'temp': 26.5, 'lipoC3S3': 12.16, 'lipoC3S2': 8.04, 'rot1': 0, 'rot0': 0, 'rot3': 0, 'rot2': 0, 'state': 'normal', 'yaw': -9.09, 'datetime': '2018-10-03 16:41:40.578265', 'mgs': 0, 'volt': 1.001, 'depth': 3.14, 'time': 7, 'pitch': -7.55, 'roll': 3.08, 'pres': 205}
{'lipoC2': 0.0, 'lipoC3S1': 4.01, 'temp': 26.5, 'lipoC3S3': 12.16, 'lipoC3S2': 8.04, 'rot1': 0, 'rot0': 0, 'rot3': 0, 'rot2': 0, 'state': 'normal', 'yaw': -14.64, 'datetime': '2018-10-03 16:41:40.681539', 'mgs': 0, 'volt': 1.001, 'depth': 3.14, 'time': 7, 'pitch': -7.85, 'roll': 4.18, 'pres': 205}
{'lipoC2': 0.0, 'lipoC3S1': 4.01, 'temp': 26.5, 'lipoC3S3': 12.17, 'lipoC3S2': 8.04, 'rot1': 0, 'rot0': 0, 'rot3': 0, 'rot2': 0, 'state': 'normal', 'yaw': -20.03, 'datetime': '2018-10-03 16:41:40.784532', 'mgs': 0, 'volt': 1.0059, 'depth': 3.217, 'time': 7, 'pitch': -8.13, 'roll': 5.43, 'pres': 206}
{'lipoC2': 0.0, 'lipoC3S1': 4.01, 'temp': 26.5, 'lipoC3S3': 12.17, 'lipoC3S2': 8.04, 'rot1': 0, 'rot0': 0, 'rot3': 0, 'rot2': 0, 'state': 'normal', 'yaw': -25.29, 'datetime': '2018-10-03 16:41:40.887693', 'mgs': 0, 'volt': 1.0059, 'depth': 3.217, 'time': 8, 'pitch': -8.14, 'roll': 6.57, 'pres': 206}
{'lipoC2': 0.0, 'lipoC3S1': 4.01, 'temp': 26.5, 'lipoC3S3': 12.17, 'lipoC3S2': 8.04, 'rot1': 0, 'rot0': 0, 'rot3': 0, 'rot2': 0, 'state': 'normal', 'yaw': -30.25, 'datetime': '2018-10-03 16:41:40.987856', 'mgs': 0, 'volt': 1.001, 'depth': 3.14, 'time': 8, 'pitch': -7.87, 'roll': 7.11, 'pres': 205}
{'lipoC2': 0.0, 'lipoC3S1': 4.01, 'temp': 26.5, 'lipoC3S3': 12.16, 'lipoC3S2': 8.04, 'rot1': 0, 'rot0': 0, 'rot3': 0, 'rot2': 0, 'state': 'normal', 'yaw': -35.87, 'datetime': '2018-10-03 16:41:41.091035', 'mgs': 0, 'volt': 1.001, 'depth': 3.14, 'time': 8, 'pitch': -7.27, 'roll': 7.57, 'pres': 205}
{'lipoC2': 0.0, 'lipoC3S1': 4.01, 'temp': 26.5, 'lipoC3S3': 12.17, 'lipoC3S2': 8.04, 'rot1': 0, 'rot0': 0, 'rot3': 0, 'rot2': 0, 'state': 'normal', 'yaw': -41.11, 'datetime': '2018-10-03 16:41:41.194149', 'mgs': 0, 'volt': 1.001, 'depth': 3.14, 'time': 8, 'pitch': -6.47, 'roll': 7.92, 'pres': 205}
{'lipoC2': 0.0, 'lipoC3S1': 4.01, 'temp': 26.5, 'lipoC3S3': 12.16, 'lipoC3S2': 8.04, 'rot1': 0, 'rot0': 0, 'rot3': 0, 'rot2': 0, 'state': 'normal', 'yaw': -45.92, 'datetime': '2018-10-03 16:41:41.297412', 'mgs': 0, 'volt': 0.9961, 'depth': 3.064, 'time': 8, 'pitch': -6.28, 'roll': 7.84, 'pres': 204}
{'lipoC2': 0.0, 'lipoC3S1': 4.01, 'temp': 26.5, 'lipoC3S3': 12.17, 'lipoC3S2': 8.04, 'rot1': 0, 'rot0': 0, 'rot3': 0, 'rot2': 0, 'state': 'normal', 'yaw': -50.77, 'datetime': '2018-10-03 16:41:41.400319', 'mgs': 0, 'volt': 0.9912, 'depth': 2.988, 'time': 8, 'pitch': -6.92, 'roll': 7.13, 'pres': 203}
{'lipoC2': 0.0, 'lipoC3S1': 4.01, 'temp': 26.5, 'lipoC3S3': 12.16, 'lipoC3S2': 8.04, 'rot1': 0, 'rot0': 0, 'rot3': 0, 'rot2': 0, 'state': 'normal', 'yaw': -54.76, 'datetime': '2018-10-03 16:41:41.503541', 'mgs': 0, 'volt': 0.9863, 'depth': 2.911, 'time': 8, 'pitch': -7.87, 'roll': 6.24, 'pres': 202}
{'lipoC2': 0.0, 'lipoC3S1': 4.01, 'temp': 26.5, 'lipoC3S3': 12.17, 'lipoC3S2': 8.04, 'rot1': 0, 'rot0': 0, 'rot3': 0, 'rot2': 0, 'state': 'normal', 'yaw': -57.93, 'datetime': '2018-10-03 16:41:41.607062', 'mgs': 0, 'volt': 0.9814, 'depth': 2.835, 'time': 8, 'pitch': -8.58, 'roll': 4.86, 'pres': 201}
{'lipoC2': 0.0, 'lipoC3S1': 4.01, 'temp': 26.5, 'lipoC3S3': 12.16, 'lipoC3S2': 8.04, 'rot1': 0, 'rot0': 0, 'rot3': 0, 'rot2': 0, 'state': 'normal', 'yaw': -59.99, 'datetime': '2018-10-03 16:41:41.710373', 'mgs': 0, 'volt': 0.9814, 'depth': 2.835, 'time': 8, 'pitch': -8.75, 'roll': 2.89, 'pres': 201}
{'lipoC2': 0.0, 'lipoC3S1': 4.01, 'temp': 26.5, 'lipoC3S3': 12.17, 'lipoC3S2': 8.04, 'rot1': 0, 'rot0': 0, 'rot3': 0, 'rot2': 0, 'state': 'normal', 'yaw': -60.82, 'datetime': '2018-10-03 16:41:41.813361', 'mgs': 0, 'volt': 0.9717, 'depth': 2.682, 'time': 9, 'pitch': -7.99, 'roll': -0.07, 'pres': 199}
{'lipoC2': 0.0, 'lipoC3S1': 4.01, 'temp': 26.5, 'lipoC3S3': 12.17, 'lipoC3S2': 8.04, 'rot1': 0, 'rot0': 0, 'rot3': 0, 'rot2': 0, 'state': 'normal', 'yaw': -60.61, 'datetime': '2018-10-03 16:41:41.916561', 'mgs': 0, 'volt': 0.9668, 'depth': 2.606, 'time': 9, 'pitch': -6.72, 'roll': -3.0, 'pres': 198}
{'lipoC2': 0.0, 'lipoC3S1': 4.01, 'temp': 26.44, 'lipoC3S3': 12.17, 'lipoC3S2': 8.04, 'rot1': 0, 'rot0': 0, 'rot3': 0, 'rot2': 0, 'state': 'normal', 'yaw': -59.56, 'datetime': '2018-10-03 16:41:42.020953', 'mgs': 0, 'volt': 0.9619, 'depth': 2.53, 'time': 9, 'pitch': -5.38, 'roll': -5.87, 'pres': 197}
{'lipoC2': 0.0, 'lipoC3S1': 4.01, 'temp': 26.44, 'lipoC3S3': 12.16, 'lipoC3S2': 8.04, 'rot1': 0, 'rot0': 0, 'rot3': 0, 'rot2': 0, 'state': 'normal', 'yaw': -57.62, 'datetime': '2018-10-03 16:41:42.124163', 'mgs': 0, 'volt': 0.957, 'depth': 2.454, 'time': 9, 'pitch': -4.06, 'roll': -8.56, 'pres': 196}
{'lipoC2': 0.0, 'lipoC3S1': 4.01, 'temp': 26.44, 'lipoC3S3': 12.16, 'lipoC3S2': 8.04, 'rot1': 0, 'rot0': 0, 'rot3': 0, 'rot2': 0, 'state': 'normal', 'yaw': -55.59, 'datetime': '2018-10-03 16:41:42.227281', 'mgs': 0, 'volt': 0.9521, 'depth': 2.377, 'time': 9, 'pitch': -2.96, 'roll': -10.18, 'pres': 195}
{'lipoC2': 0.0, 'lipoC3S1': 4.01, 'temp': 26.5, 'lipoC3S3': 12.17, 'lipoC3S2': 8.04, 'rot1': 0, 'rot0': 0, 'rot3': 0, 'rot2': 0, 'state': 'normal', 'yaw': -53.13, 'datetime': '2018-10-03 16:41:42.331969', 'mgs': 0, 'volt': 0.9521, 'depth': 2.377, 'time': 9, 'pitch': -2.05, 'roll': -11.08, 'pres': 195}
{'lipoC2': 0.0, 'lipoC3S1': 4.01, 'temp': 26.5, 'lipoC3S3': 12.16, 'lipoC3S2': 8.04, 'rot1': 0, 'rot0': 0, 'rot3': 0, 'rot2': 0, 'state': 'normal', 'yaw': -50.29, 'datetime': '2018-10-03 16:41:42.435112', 'mgs': 0, 'volt': 0.9473, 'depth': 2.301, 'time': 9, 'pitch': -1.27, 'roll': -11.06, 'pres': 194}
{'lipoC2': 0.0, 'lipoC3S1': 4.01, 'temp': 26.5, 'lipoC3S3': 12.17, 'lipoC3S2': 8.04, 'rot1': 0, 'rot0': 0, 'rot3': 0, 'rot2': 0, 'state': 'normal', 'yaw': -47.71, 'datetime': '2018-10-03 16:41:42.538220', 'mgs': 0, 'volt': 0.9473, 'depth': 2.301, 'time': 9, 'pitch': -0.62, 'roll': -10.11, 'pres': 194}
{'lipoC2': 0.0, 'lipoC3S1': 4.01, 'temp': 26.5, 'lipoC3S3': 12.17, 'lipoC3S2': 8.04, 'rot1': 0, 'rot0': 0, 'rot3': 0, 'rot2': 0, 'state': 'normal', 'yaw': -45.01, 'datetime': '2018-10-03 16:41:42.641280', 'mgs': 0, 'volt': 0.9521, 'depth': 2.377, 'time': 9, 'pitch': 0.06, 'roll': -8.47, 'pres': 195}
{'lipoC2': 0.0, 'lipoC3S1': 4.01, 'temp': 26.5, 'lipoC3S3': 12.16, 'lipoC3S2': 8.04, 'rot1': 0, 'rot0': 0, 'rot3': 0, 'rot2': 0, 'state': 'normal', 'yaw': -42.14, 'datetime': '2018-10-03 16:41:42.744956', 'mgs': 0, 'volt': 0.9521, 'depth': 2.377, 'time': 9, 'pitch': 0.96, 'roll': -6.01, 'pres': 195}
{'lipoC2': 0.0, 'lipoC3S1': 4.01, 'temp': 26.5, 'lipoC3S3': 12.16, 'lipoC3S2': 8.04, 'rot1': 0, 'rot0': 0, 'rot3': 0, 'rot2': 0, 'state': 'normal', 'yaw': -39.81, 'datetime': '2018-10-03 16:41:42.847776', 'mgs': 0, 'volt': 0.9521, 'depth': 2.377, 'time': 10, 'pitch': 1.6, 'roll': -3.23, 'pres': 195}
{'lipoC2': 0.0, 'lipoC3S1': 4.01, 'temp': 26.5, 'lipoC3S3': 12.16, 'lipoC3S2': 8.04, 'rot1': 0, 'rot0': 0, 'rot3': 0, 'rot2': 0, 'state': 'normal', 'yaw': -37.65, 'datetime': '2018-10-03 16:41:42.950883', 'mgs': 0, 'volt': 0.9521, 'depth': 2.377, 'time': 10, 'pitch': 1.23, 'roll': -0.32, 'pres': 195}
{'lipoC2': 0.0, 'lipoC3S1': 4.01, 'temp': 26.5, 'lipoC3S3': 12.16, 'lipoC3S2': 8.04, 'rot1': 0, 'rot0': 0, 'rot3': 0, 'rot2': 0, 'state': 'normal', 'yaw': -35.22, 'datetime': '2018-10-03 16:41:43.055540', 'mgs': 0, 'volt': 0.9521, 'depth': 2.377, 'time': 10, 'pitch': 0.01, 'roll': 2.19, 'pres': 195}
{'lipoC2': 0.0, 'lipoC3S1': 4.01, 'temp': 26.5, 'lipoC3S3': 12.17, 'lipoC3S2': 8.04, 'rot1': 0, 'rot0': 0, 'rot3': 0, 'rot2': 0, 'state': 'normal', 'yaw': -32.65, 'datetime': '2018-10-03 16:41:43.157539', 'mgs': 0, 'volt': 0.9521, 'depth': 2.377, 'time': 10, 'pitch': -1.19, 'roll': 4.54, 'pres': 195}
{'lipoC2': 0.0, 'lipoC3S1': 4.01, 'temp': 26.56, 'lipoC3S3': 12.16, 'lipoC3S2': 8.04, 'rot1': 0, 'rot0': 0, 'rot3': 0, 'rot2': 0, 'state': 'normal', 'yaw': -30.63, 'datetime': '2018-10-03 16:41:43.260681', 'mgs': 0, 'volt': 0.9521, 'depth': 2.377, 'time': 10, 'pitch': -2.53, 'roll': 6.38, 'pres': 195}
{'lipoC2': 0.0, 'lipoC3S1': 4.01, 'temp': 26.56, 'lipoC3S3': 12.17, 'lipoC3S2': 8.04, 'rot1': 0, 'rot0': 0, 'rot3': 0, 'rot2': 0, 'state': 'normal', 'yaw': -28.72, 'datetime': '2018-10-03 16:41:43.364621', 'mgs': 0, 'volt': 0.9473, 'depth': 2.301, 'time': 10, 'pitch': -4.05, 'roll': 7.75, 'pres': 194}
{'lipoC2': 0.0, 'lipoC3S1': 4.01, 'temp': 26.44, 'lipoC3S3': 12.17, 'lipoC3S2': 8.04, 'rot1': 0, 'rot0': 0, 'rot3': 0, 'rot2': 0, 'state': 'normal', 'yaw': -26.71, 'datetime': '2018-10-03 16:41:43.467875', 'mgs': 0, 'volt': 0.9473, 'depth': 2.301, 'time': 10, 'pitch': -5.71, 'roll': 8.68, 'pres': 194}
{'lipoC2': 0.0, 'lipoC3S1': 4.01, 'temp': 26.44, 'lipoC3S3': 12.17, 'lipoC3S2': 8.04, 'rot1': 0, 'rot0': 0, 'rot3': 0, 'rot2': 0, 'state': 'normal', 'yaw': -24.93, 'datetime': '2018-10-03 16:41:43.571259', 'mgs': 0, 'volt': 0.9424, 'depth': 2.225, 'time': 10, 'pitch': -7.15, 'roll': 9.0, 'pres': 193}
{'lipoC2': 0.0, 'lipoC3S1': 4.01, 'temp': 26.44, 'lipoC3S3': 12.16, 'lipoC3S2': 8.04, 'rot1': 0, 'rot0': 0, 'rot3': 0, 'rot2': 0, 'state': 'normal', 'yaw': -23.18, 'datetime': '2018-10-03 16:41:43.675816', 'mgs': 0, 'volt': 0.9424, 'depth': 2.225, 'time': 10, 'pitch': -8.49, 'roll': 8.85, 'pres': 193}
{'lipoC2': 0.0, 'lipoC3S1': 4.01, 'temp': 26.5, 'lipoC3S3': 12.16, 'lipoC3S2': 8.04, 'rot1': 0, 'rot0': 0, 'rot3': 0, 'rot2': 0, 'state': 'normal', 'yaw': -21.28, 'datetime': '2018-10-03 16:41:43.778991', 'mgs': 0, 'volt': 0.9375, 'depth': 2.148, 'time': 10, 'pitch': -9.84, 'roll': 8.23, 'pres': 192}
{'lipoC2': 0.0, 'lipoC3S1': 4.01, 'temp': 26.5, 'lipoC3S3': 12.16, 'lipoC3S2': 8.04, 'rot1': 0, 'rot0': 0, 'rot3': 0, 'rot2': 0, 'state': 'normal', 'yaw': -19.61, 'datetime': '2018-10-03 16:41:43.883538', 'mgs': 0, 'volt': 0.9375, 'depth': 2.148, 'time': 11, 'pitch': -10.75, 'roll': 7.33, 'pres': 192}
{'lipoC2': 0.0, 'lipoC3S1': 4.01, 'temp': 26.5, 'lipoC3S3': 12.16, 'lipoC3S2': 8.04, 'rot1': 0, 'rot0': 0, 'rot3': 0, 'rot2': 0, 'state': 'normal', 'yaw': -18.25, 'datetime': '2018-10-03 16:41:43.987367', 'mgs': 0, 'volt': 0.9375, 'depth': 2.148, 'time': 11, 'pitch': -10.98, 'roll': 6.07, 'pres': 192}
{'lipoC2': 0.0, 'lipoC3S1': 4.01, 'temp': 26.5, 'lipoC3S3': 12.17, 'lipoC3S2': 8.04, 'rot1': 0, 'rot0': 0, 'rot3': 0, 'rot2': 0, 'state': 'normal', 'yaw': -17.24, 'datetime': '2018-10-03 16:41:44.090756', 'mgs': 0, 'volt': 0.9375, 'depth': 2.148, 'time': 11, 'pitch': -10.43, 'roll': 4.7, 'pres': 192}
{'lipoC2': 0.0, 'lipoC3S1': 4.01, 'temp': 26.5, 'lipoC3S3': 12.16, 'lipoC3S2': 8.04, 'rot1': 0, 'rot0': 0, 'rot3': 0, 'rot2': 0, 'state': 'normal', 'yaw': -16.84, 'datetime': '2018-10-03 16:41:44.193810', 'mgs': 0, 'volt': 0.9424, 'depth': 2.225, 'time': 11, 'pitch': -9.36, 'roll': 3.56, 'pres': 193}
{'lipoC2': 0.0, 'lipoC3S1': 4.01, 'temp': 26.5, 'lipoC3S3': 12.16, 'lipoC3S2': 8.04, 'rot1': 0, 'rot0': 0, 'rot3': 0, 'rot2': 0, 'state': 'normal', 'yaw': -16.95, 'datetime': '2018-10-03 16:41:44.297667', 'mgs': 0, 'volt': 0.9473, 'depth': 2.301, 'time': 11, 'pitch': -7.57, 'roll': 2.79, 'pres': 194}
{'lipoC2': 0.0, 'lipoC3S1': 4.01, 'temp': 26.5, 'lipoC3S3': 12.17, 'lipoC3S2': 8.04, 'rot1': 0, 'rot0': 0, 'rot3': 0, 'rot2': 0, 'state': 'normal', 'yaw': -17.03, 'datetime': '2018-10-03 16:41:44.400627', 'mgs': 0, 'volt': 0.9521, 'depth': 2.377, 'time': 11, 'pitch': -5.65, 'roll': 1.9, 'pres': 195}
{'lipoC2': 0.0, 'lipoC3S1': 4.01, 'temp': 26.5, 'lipoC3S3': 12.17, 'lipoC3S2': 8.04, 'rot1': 0, 'rot0': 0, 'rot3': 0, 'rot2': 0, 'state': 'normal', 'yaw': -16.83, 'datetime': '2018-10-03 16:41:44.504161', 'mgs': 0, 'volt': 0.9521, 'depth': 2.377, 'time': 11, 'pitch': -4.69, 'roll': 0.57, 'pres': 195}
{'lipoC2': 0.0, 'lipoC3S1': 4.01, 'temp': 26.5, 'lipoC3S3': 12.17, 'lipoC3S2': 8.04, 'rot1': 0, 'rot0': 0, 'rot3': 0, 'rot2': 0, 'state': 'normal', 'yaw': -16.32, 'datetime': '2018-10-03 16:41:44.608448', 'mgs': 0, 'volt': 0.9619, 'depth': 2.53, 'time': 11, 'pitch': -4.57, 'roll': -1.22, 'pres': 197}
{'lipoC2': 0.0, 'lipoC3S1': 4.01, 'temp': 26.5, 'lipoC3S3': 12.16, 'lipoC3S2': 8.04, 'rot1': 0, 'rot0': 0, 'rot3': 0, 'rot2': 0, 'state': 'normal', 'yaw': -15.87, 'datetime': '2018-10-03 16:41:44.711553', 'mgs': 0, 'volt': 0.9668, 'depth': 2.606, 'time': 11, 'pitch': -4.55, 'roll': -2.97, 'pres': 198}
{'lipoC2': 0.0, 'lipoC3S1': 4.01, 'temp': 26.5, 'lipoC3S3': 12.17, 'lipoC3S2': 8.04, 'rot1': 0, 'rot0': 0, 'rot3': 0, 'rot2': 0, 'state': 'normal', 'yaw': -15.88, 'datetime': '2018-10-03 16:41:44.814821', 'mgs': 0, 'volt': 0.9717, 'depth': 2.682, 'time': 11, 'pitch': -4.2, 'roll': -3.44, 'pres': 199}
{'lipoC2': 0.0, 'lipoC3S1': 4.01, 'temp': 26.5, 'lipoC3S3': 12.17, 'lipoC3S2': 8.04, 'rot1': 0, 'rot0': 0, 'rot3': 0, 'rot2': 0, 'state': 'normal', 'yaw': -15.98, 'datetime': '2018-10-03 16:41:44.918754', 'mgs': 0, 'volt': 0.9766, 'depth': 2.759, 'time': 12, 'pitch': -3.49, 'roll': -3.12, 'pres': 200}
{'lipoC2': 0.0, 'lipoC3S1': 4.01, 'temp': 26.5, 'lipoC3S3': 12.16, 'lipoC3S2': 8.04, 'rot1': 0, 'rot0': 0, 'rot3': 0, 'rot2': 0, 'state': 'normal', 'yaw': -15.82, 'datetime': '2018-10-03 16:41:45.022027', 'mgs': 0, 'volt': 0.9863, 'depth': 2.911, 'time': 12, 'pitch': -2.4, 'roll': -2.64, 'pres': 202}
{'lipoC2': 0.0, 'lipoC3S1': 4.01, 'temp': 26.5, 'lipoC3S3': 12.16, 'lipoC3S2': 8.04, 'rot1': 0, 'rot0': 0, 'rot3': 0, 'rot2': 0, 'state': 'normal', 'yaw': -15.5, 'datetime': '2018-10-03 16:41:45.128817', 'mgs': 0, 'volt': 0.9912, 'depth': 2.988, 'time': 12, 'pitch': -1.39, 'roll': -2.09, 'pres': 203}
{'lipoC2': 0.0, 'lipoC3S1': 4.01, 'temp': 26.5, 'lipoC3S3': 12.16, 'lipoC3S2': 8.04, 'rot1': 0, 'rot0': 0, 'rot3': 0, 'rot2': 0, 'state': 'normal', 'yaw': -15.04, 'datetime': '2018-10-03 16:41:45.230012', 'mgs': 0, 'volt': 0.9961, 'depth': 3.064, 'time': 12, 'pitch': -0.54, 'roll': -1.29, 'pres': 204}
{'lipoC2': 0.0, 'lipoC3S1': 4.01, 'temp': 26.5, 'lipoC3S3': 12.16, 'lipoC3S2': 8.04, 'rot1': 0, 'rot0': 0, 'rot3': 0, 'rot2': 0, 'state': 'normal', 'yaw': -14.37, 'datetime': '2018-10-03 16:41:45.333116', 'mgs': 0, 'volt': 1.0059, 'depth': 3.217, 'time': 12, 'pitch': 0.33, 'roll': -0.29, 'pres': 206}
{'lipoC2': 0.0, 'lipoC3S1': 4.01, 'temp': 26.5, 'lipoC3S3': 12.17, 'lipoC3S2': 8.04, 'rot1': 0, 'rot0': 0, 'rot3': 0, 'rot2': 0, 'state': 'normal', 'yaw': -13.65, 'datetime': '2018-10-03 16:41:45.436453', 'mgs': 0, 'volt': 1.0107, 'depth': 3.293, 'time': 12, 'pitch': 0.99, 'roll': 0.6, 'pres': 207}
{'lipoC2': 0.0, 'lipoC3S1': 4.01, 'temp': 26.5, 'lipoC3S3': 12.17, 'lipoC3S2': 8.04, 'rot1': 0, 'rot0': 0, 'rot3': 0, 'rot2': 0, 'state': 'normal', 'yaw': -13.02, 'datetime': '2018-10-03 16:41:45.540859', 'mgs': 0, 'volt': 0.9961, 'depth': 3.064, 'time': 12, 'pitch': 1.36, 'roll': 1.62, 'pres': 204}
{'lipoC2': 0.0, 'lipoC3S1': 4.01, 'temp': 26.5, 'lipoC3S3': 12.16, 'lipoC3S2': 8.04, 'rot1': 0, 'rot0': 0, 'rot3': 0, 'rot2': 0, 'state': 'normal', 'yaw': -12.53, 'datetime': '2018-10-03 16:41:45.643541', 'mgs': 0, 'volt': 1.0156, 'depth': 3.369, 'time': 12, 'pitch': 0.62, 'roll': 0.3, 'pres': 208}
{'lipoC2': 0.0, 'lipoC3S1': 4.01, 'temp': 26.5, 'lipoC3S3': 12.17, 'lipoC3S2': 8.04, 'rot1': 0, 'rot0': 0, 'rot3': 0, 'rot2': 0, 'state': 'normal', 'yaw': -12.65, 'datetime': '2018-10-03 16:41:45.751042', 'mgs': 0, 'volt': 1.0156, 'depth': 3.369, 'time': 12, 'pitch': 0.2, 'roll': -0.05, 'pres': 208}
{'lipoC2': 0.0, 'lipoC3S1': 4.01, 'temp': 26.5, 'lipoC3S3': 12.16, 'lipoC3S2': 8.04, 'rot1': 0, 'rot0': 0, 'rot3': 0, 'rot2': 0, 'state': 'normal', 'yaw': -13.04, 'datetime': '2018-10-03 16:41:45.853635', 'mgs': 0, 'volt': 1.0156, 'depth': 3.369, 'time': 13, 'pitch': -0.03, 'roll': -0.4, 'pres': 208}
{'lipoC2': 0.0, 'lipoC3S1': 4.01, 'temp': 26.5, 'lipoC3S3': 12.17, 'lipoC3S2': 8.04, 'rot1': 0, 'rot0': 0, 'rot3': 0, 'rot2': 0, 'state': 'normal', 'yaw': -13.58, 'datetime': '2018-10-03 16:41:45.956864', 'mgs': 0, 'volt': 1.0156, 'depth': 3.369, 'time': 13, 'pitch': 0.03, 'roll': -0.2, 'pres': 208}
{'lipoC2': 0.0, 'lipoC3S1': 4.01, 'temp': 26.5, 'lipoC3S3': 12.16, 'lipoC3S2': 8.04, 'rot1': 0, 'rot0': 0, 'rot3': 0, 'rot2': 0, 'state': 'normal', 'yaw': -14.16, 'datetime': '2018-10-03 16:41:46.060053', 'mgs': 0, 'volt': 1.0156, 'depth': 3.369, 'time': 13, 'pitch': 0.31, 'roll': 0.17, 'pres': 208}
{'lipoC2': 0.0, 'lipoC3S1': 4.01, 'temp': 26.5, 'lipoC3S3': 12.16, 'lipoC3S2': 8.04, 'rot1': 0, 'rot0': 0, 'rot3': 0, 'rot2': 0, 'state': 'normal', 'yaw': -14.66, 'datetime': '2018-10-03 16:41:46.163410', 'mgs': 0, 'volt': 1.0156, 'depth': 3.369, 'time': 13, 'pitch': 0.53, 'roll': 0.3, 'pres': 208}
{'lipoC2': 0.0, 'lipoC3S1': 4.01, 'temp': 26.5, 'lipoC3S3': 12.17, 'lipoC3S2': 8.04, 'rot1': 0, 'rot0': 0, 'rot3': 0, 'rot2': 0, 'state': 'normal', 'yaw': -14.94, 'datetime': '2018-10-03 16:41:46.266541', 'mgs': 0, 'volt': 1.0156, 'depth': 3.369, 'time': 13, 'pitch': 0.71, 'roll': 0.31, 'pres': 208}
{'lipoC2': 0.0, 'lipoC3S1': 4.01, 'temp': 26.56, 'lipoC3S3': 12.17, 'lipoC3S2': 8.04, 'rot1': 0, 'rot0': 0, 'rot3': 0, 'rot2': 0, 'state': 'normal', 'yaw': -14.94, 'datetime': '2018-10-03 16:41:46.369761', 'mgs': 0, 'volt': 1.0156, 'depth': 3.369, 'time': 13, 'pitch': 0.65, 'roll': 0.3, 'pres': 208}
{'lipoC2': 0.0, 'lipoC3S1': 4.01, 'temp': 26.56, 'lipoC3S3': 12.17, 'lipoC3S2': 8.04, 'rot1': 0, 'rot0': 0, 'rot3': 0, 'rot2': 0, 'state': 'normal', 'yaw': -14.94, 'datetime': '2018-10-03 16:41:46.473028', 'mgs': 0, 'volt': 1.0156, 'depth': 3.369, 'time': 13, 'pitch': 0.39, 'roll': 0.39, 'pres': 208}
{'lipoC2': 0.0, 'lipoC3S1': 4.01, 'temp': 26.56, 'lipoC3S3': 12.16, 'lipoC3S2': 8.04, 'rot1': 0, 'rot0': 0, 'rot3': 0, 'rot2': 0, 'state': 'normal', 'yaw': -14.95, 'datetime': '2018-10-03 16:41:46.577044', 'mgs': 0, 'volt': 1.0156, 'depth': 3.369, 'time': 13, 'pitch': -0.26, 'roll': 0.5, 'pres': 208}
{'lipoC2': 0.0, 'lipoC3S1': 4.01, 'temp': 26.5, 'lipoC3S3': 12.17, 'lipoC3S2': 8.04, 'rot1': 0, 'rot0': 0, 'rot3': 0, 'rot2': 0, 'state': 'normal', 'yaw': -14.96, 'datetime': '2018-10-03 16:41:46.680147', 'mgs': 0, 'volt': 1.0156, 'depth': 3.369, 'time': 13, 'pitch': -1.31, 'roll': 0.64, 'pres': 208}
{'lipoC2': 0.0, 'lipoC3S1': 4.01, 'temp': 26.5, 'lipoC3S3': 12.16, 'lipoC3S2': 8.04, 'rot1': 0, 'rot0': 0, 'rot3': 0, 'rot2': 0, 'state': 'normal', 'yaw': -15.0, 'datetime': '2018-10-03 16:41:46.784216', 'mgs': 0, 'volt': 1.0156, 'depth': 3.369, 'time': 13, 'pitch': -2.45, 'roll': 0.81, 'pres': 208}
{'lipoC2': 0.0, 'lipoC3S1': 4.01, 'temp': 26.5, 'lipoC3S3': 12.16, 'lipoC3S2': 8.04, 'rot1': 0, 'rot0': 0, 'rot3': 0, 'rot2': 0, 'state': 'normal', 'yaw': -15.08, 'datetime': '2018-10-03 16:41:46.887919', 'mgs': 0, 'volt': 1.0107, 'depth': 3.293, 'time': 14, 'pitch': -3.69, 'roll': 1.0, 'pres': 207}
{'lipoC2': 0.0, 'lipoC3S1': 4.01, 'temp': 26.5, 'lipoC3S3': 12.16, 'lipoC3S2': 8.04, 'rot1': 0, 'rot0': 0, 'rot3': 0, 'rot2': 0, 'state': 'normal', 'yaw': -15.11, 'datetime': '2018-10-03 16:41:46.991064', 'mgs': 0, 'volt': 1.0107, 'depth': 3.293, 'time': 14, 'pitch': -5.11, 'roll': 1.21, 'pres': 207}
{'lipoC2': 0.0, 'lipoC3S1': 4.01, 'temp': 26.5, 'lipoC3S3': 12.16, 'lipoC3S2': 8.04, 'rot1': 0, 'rot0': 0, 'rot3': 0, 'rot2': 0, 'state': 'normal', 'yaw': -15.14, 'datetime': '2018-10-03 16:41:47.095495', 'mgs': 0, 'volt': 1.0107, 'depth': 3.293, 'time': 14, 'pitch': -6.35, 'roll': 1.43, 'pres': 207}
{'lipoC2': 0.0, 'lipoC3S1': 4.01, 'temp': 26.5, 'lipoC3S3': 12.16, 'lipoC3S2': 8.04, 'rot1': 0, 'rot0': 0, 'rot3': 0, 'rot2': 0, 'state': 'normal', 'yaw': -15.24, 'datetime': '2018-10-03 16:41:47.199334', 'mgs': 0, 'volt': 1.0107, 'depth': 3.293, 'time': 14, 'pitch': -7.13, 'roll': 1.36, 'pres': 207}
{'lipoC2': 0.0, 'lipoC3S1': 4.01, 'temp': 26.5, 'lipoC3S3': 12.17, 'lipoC3S2': 8.04, 'rot1': 0, 'rot0': 0, 'rot3': 0, 'rot2': 0, 'state': 'normal', 'yaw': -15.38, 'datetime': '2018-10-03 16:41:47.298137', 'mgs': 0, 'volt': 1.0107, 'depth': 3.293, 'time': 14, 'pitch': -7.25, 'roll': 0.91, 'pres': 207}
{'lipoC2': 0.0, 'lipoC3S1': 4.01, 'temp': 26.5, 'lipoC3S3': 12.17, 'lipoC3S2': 8.04, 'rot1': 0, 'rot0': 0, 'rot3': 0, 'rot2': 0, 'state': 'normal', 'yaw': -15.45, 'datetime': '2018-10-03 16:41:47.399628', 'mgs': 0, 'volt': 1.0107, 'depth': 3.293, 'time': 14, 'pitch': -7.44, 'roll': 0.59, 'pres': 207}
{'lipoC2': 0.0, 'lipoC3S1': 4.01, 'temp': 26.5, 'lipoC3S3': 12.16, 'lipoC3S2': 8.04, 'rot1': 0, 'rot0': 0, 'rot3': 0, 'rot2': 0, 'state': 'normal', 'yaw': -15.55, 'datetime': '2018-10-03 16:41:47.503602', 'mgs': 0, 'volt': 1.0107, 'depth': 3.293, 'time': 14, 'pitch': -7.47, 'roll': 0.31, 'pres': 207}
{'lipoC2': 0.0, 'lipoC3S1': 4.01, 'temp': 26.5, 'lipoC3S3': 12.16, 'lipoC3S2': 8.04, 'rot1': 0, 'rot0': 0, 'rot3': 0, 'rot2': 0, 'state': 'normal', 'yaw': -15.67, 'datetime': '2018-10-03 16:41:47.606370', 'mgs': 0, 'volt': 1.0107, 'depth': 3.293, 'time': 14, 'pitch': -7.48, 'roll': 0.04, 'pres': 207}
{'lipoC2': 0.0, 'lipoC3S1': 4.01, 'temp': 26.5, 'lipoC3S3': 12.16, 'lipoC3S2': 8.04, 'rot1': 0, 'rot0': 0, 'rot3': 0, 'rot2': 0, 'state': 'normal', 'yaw': -15.76, 'datetime': '2018-10-03 16:41:47.709632', 'mgs': 0, 'volt': 1.0107, 'depth': 3.293, 'time': 14, 'pitch': -7.42, 'roll': -0.09, 'pres': 207}
{'lipoC2': 0.0, 'lipoC3S1': 4.01, 'temp': 26.5, 'lipoC3S3': 12.16, 'lipoC3S2': 8.04, 'rot1': 0, 'rot0': 0, 'rot3': 0, 'rot2': 0, 'state': 'normal', 'yaw': -15.93, 'datetime': '2018-10-03 16:41:47.812906', 'mgs': 0, 'volt': 1.0107, 'depth': 3.293, 'time': 14, 'pitch': -7.32, 'roll': 0.22, 'pres': 207}
{'lipoC2': 0.0, 'lipoC3S1': 4.01, 'temp': 26.5, 'lipoC3S3': 12.16, 'lipoC3S2': 8.04, 'rot1': 0, 'rot0': 0, 'rot3': 0, 'rot2': 0, 'state': 'normal', 'yaw': -15.95, 'datetime': '2018-10-03 16:41:47.916139', 'mgs': 0, 'volt': 1.0107, 'depth': 3.293, 'time': 15, 'pitch': -7.04, 'roll': 0.37, 'pres': 207}
{'lipoC2': 0.0, 'lipoC3S1': 4.01, 'temp': 26.5, 'lipoC3S3': 12.17, 'lipoC3S2': 8.04, 'rot1': 0, 'rot0': 0, 'rot3': 0, 'rot2': 0, 'state': 'normal', 'yaw': -15.94, 'datetime': '2018-10-03 16:41:48.019366', 'mgs': 0, 'volt': 1.0107, 'depth': 3.293, 'time': 15, 'pitch': -6.89, 'roll': 0.5, 'pres': 207}
{'lipoC2': 0.0, 'lipoC3S1': 4.01, 'temp': 26.5, 'lipoC3S3': 12.16, 'lipoC3S2': 8.04, 'rot1': 0, 'rot0': 0, 'rot3': 0, 'rot2': 0, 'state': 'normal', 'yaw': -15.94, 'datetime': '2018-10-03 16:41:48.123883', 'mgs': 0, 'volt': 1.0107, 'depth': 3.293, 'time': 15, 'pitch': -6.89, 'roll': 0.44, 'pres': 207}
{'lipoC2': 0.0, 'lipoC3S1': 4.01, 'temp': 26.5, 'lipoC3S3': 12.16, 'lipoC3S2': 8.04, 'rot1': 0, 'rot0': 0, 'rot3': 0, 'rot2': 0, 'state': 'normal', 'yaw': -16.05, 'datetime': '2018-10-03 16:41:48.227119', 'mgs': 0, 'volt': 1.0107, 'depth': 3.293, 'time': 15, 'pitch': -7.02, 'roll': 0.27, 'pres': 207}
{'lipoC2': 0.0, 'lipoC3S1': 4.01, 'temp': 26.5, 'lipoC3S3': 12.16, 'lipoC3S2': 8.04, 'rot1': 0, 'rot0': 0, 'rot3': 0, 'rot2': 0, 'state': 'normal', 'yaw': -16.03, 'datetime': '2018-10-03 16:41:48.330394', 'mgs': 0, 'volt': 1.0059, 'depth': 3.217, 'time': 15, 'pitch': -6.95, 'roll': 0.33, 'pres': 206}
{'lipoC2': 0.0, 'lipoC3S1': 4.01, 'temp': 26.5, 'lipoC3S3': 12.16, 'lipoC3S2': 8.04, 'rot1': 0, 'rot0': 0, 'rot3': 0, 'rot2': 0, 'state': 'normal', 'yaw': -16.08, 'datetime': '2018-10-03 16:41:48.434909', 'mgs': 0, 'volt': 1.0107, 'depth': 3.293, 'time': 15, 'pitch': -6.95, 'roll': 0.36, 'pres': 207}
{'lipoC2': 0.0, 'lipoC3S1': 4.01, 'temp': 26.5, 'lipoC3S3': 12.16, 'lipoC3S2': 8.04, 'rot1': 0, 'rot0': 0, 'rot3': 0, 'rot2': 0, 'state': 'normal', 'yaw': -16.12, 'datetime': '2018-10-03 16:41:48.538191', 'mgs': 0, 'volt': 1.0107, 'depth': 3.293, 'time': 15, 'pitch': -7.01, 'roll': 0.35, 'pres': 207}
{'lipoC2': 0.0, 'lipoC3S1': 4.01, 'temp': 26.5, 'lipoC3S3': 12.16, 'lipoC3S2': 8.04, 'rot1': 0, 'rot0': 0, 'rot3': 0, 'rot2': 0, 'state': 'normal', 'yaw': -16.21, 'datetime': '2018-10-03 16:41:48.641417', 'mgs': 0, 'volt': 1.0107, 'depth': 3.293, 'time': 15, 'pitch': -6.89, 'roll': 0.41, 'pres': 207}
{'lipoC2': 0.0, 'lipoC3S1': 4.01, 'temp': 26.5, 'lipoC3S3': 12.17, 'lipoC3S2': 8.04, 'rot1': 0, 'rot0': 0, 'rot3': 0, 'rot2': 0, 'state': 'normal', 'yaw': -16.32, 'datetime': '2018-10-03 16:41:48.747813', 'mgs': 0, 'volt': 1.0107, 'depth': 3.293, 'time': 15, 'pitch': -6.67, 'roll': 0.52, 'pres': 207}
{'lipoC2': 0.0, 'lipoC3S1': 4.01, 'temp': 26.5, 'lipoC3S3': 12.17, 'lipoC3S2': 8.04, 'rot1': 0, 'rot0': 0, 'rot3': 0, 'rot2': 0, 'state': 'normal', 'yaw': -16.44, 'datetime': '2018-10-03 16:41:48.849215', 'mgs': 0, 'volt': 1.0107, 'depth': 3.293, 'time': 16, 'pitch': -6.34, 'roll': 0.71, 'pres': 207}
{'lipoC2': 0.0, 'lipoC3S1': 4.01, 'temp': 26.5, 'lipoC3S3': 12.17, 'lipoC3S2': 8.04, 'rot1': 0, 'rot0': 0, 'rot3': 0, 'rot2': 0, 'state': 'normal', 'yaw': -16.53, 'datetime': '2018-10-03 16:41:48.956813', 'mgs': 0, 'volt': 1.0107, 'depth': 3.293, 'time': 16, 'pitch': -6.1, 'roll': 0.93, 'pres': 207}
{'lipoC2': 0.0, 'lipoC3S1': 4.01, 'temp': 26.44, 'lipoC3S3': 12.17, 'lipoC3S2': 8.04, 'rot1': 0, 'rot0': 0, 'rot3': 0, 'rot2': 0, 'state': 'normal', 'yaw': -16.55, 'datetime': '2018-10-03 16:41:49.061672', 'mgs': 0, 'volt': 1.0107, 'depth': 3.293, 'time': 16, 'pitch': -6.05, 'roll': 1.19, 'pres': 207}
{'lipoC2': 0.0, 'lipoC3S1': 4.01, 'temp': 26.44, 'lipoC3S3': 12.17, 'lipoC3S2': 8.04, 'rot1': 0, 'rot0': 0, 'rot3': 0, 'rot2': 0, 'state': 'normal', 'yaw': -16.47, 'datetime': '2018-10-03 16:41:49.164976', 'mgs': 0, 'volt': 1.0107, 'depth': 3.293, 'time': 16, 'pitch': -6.43, 'roll': 1.16, 'pres': 207}
{'lipoC2': 0.0, 'lipoC3S1': 4.01, 'temp': 26.44, 'lipoC3S3': 12.17, 'lipoC3S2': 8.04, 'rot1': 0, 'rot0': 0, 'rot3': 0, 'rot2': 0, 'state': 'normal', 'yaw': -16.42, 'datetime': '2018-10-03 16:41:49.265629', 'mgs': 0, 'volt': 1.0107, 'depth': 3.293, 'time': 16, 'pitch': -6.85, 'roll': 0.99, 'pres': 207}
{'lipoC2': 0.0, 'lipoC3S1': 4.01, 'temp': 26.5, 'lipoC3S3': 12.17, 'lipoC3S2': 8.04, 'rot1': 0, 'rot0': 0, 'rot3': 0, 'rot2': 0, 'state': 'normal', 'yaw': -16.32, 'datetime': '2018-10-03 16:41:49.371489', 'mgs': 0, 'volt': 1.0059, 'depth': 3.217, 'time': 16, 'pitch': -7.2, 'roll': 0.59, 'pres': 206}
{'lipoC2': 0.0, 'lipoC3S1': 4.01, 'temp': 26.5, 'lipoC3S3': 12.16, 'lipoC3S2': 8.04, 'rot1': 0, 'rot0': 0, 'rot3': 0, 'rot2': 0, 'state': 'normal', 'yaw': -16.29, 'datetime': '2018-10-03 16:41:49.475120', 'mgs': 0, 'volt': 1.0059, 'depth': 3.217, 'time': 16, 'pitch': -7.36, 'roll': 0.26, 'pres': 206}
{'lipoC2': 0.0, 'lipoC3S1': 4.01, 'temp': 26.5, 'lipoC3S3': 12.17, 'lipoC3S2': 8.04, 'rot1': 0, 'rot0': 0, 'rot3': 0, 'rot2': 0, 'state': 'normal', 'yaw': -16.28, 'datetime': '2018-10-03 16:41:49.578258', 'mgs': 0, 'volt': 1.0059, 'depth': 3.217, 'time': 16, 'pitch': -7.45, 'roll': 0.18, 'pres': 206}
{'lipoC2': 0.0, 'lipoC3S1': 4.01, 'temp': 26.5, 'lipoC3S3': 12.17, 'lipoC3S2': 8.04, 'rot1': 0, 'rot0': 0, 'rot3': 0, 'rot2': 0, 'state': 'normal', 'yaw': -16.23, 'datetime': '2018-10-03 16:41:49.681509', 'mgs': 0, 'volt': 1.0107, 'depth': 3.293, 'time': 16, 'pitch': -7.65, 'roll': 0.21, 'pres': 207}
{'lipoC2': 0.0, 'lipoC3S1': 4.01, 'temp': 26.5, 'lipoC3S3': 12.16, 'lipoC3S2': 8.04, 'rot1': 0, 'rot0': 0, 'rot3': 0, 'rot2': 0, 'state': 'normal', 'yaw': -16.17, 'datetime': '2018-10-03 16:41:49.785599', 'mgs': 0, 'volt': 1.0059, 'depth': 3.217, 'time': 16, 'pitch': -7.7, 'roll': 0.36, 'pres': 206}
{'lipoC2': 0.0, 'lipoC3S1': 4.01, 'temp': 26.5, 'lipoC3S3': 12.17, 'lipoC3S2': 8.04, 'rot1': 0, 'rot0': 0, 'rot3': 0, 'rot2': 0, 'state': 'normal', 'yaw': -16.09, 'datetime': '2018-10-03 16:41:49.888851', 'mgs': 0, 'volt': 1.0059, 'depth': 3.217, 'time': 17, 'pitch': -7.69, 'roll': 0.54, 'pres': 206}
{'lipoC2': 0.0, 'lipoC3S1': 4.01, 'temp': 26.5, 'lipoC3S3': 12.16, 'lipoC3S2': 8.04, 'rot1': 0, 'rot0': 0, 'rot3': 0, 'rot2': 0, 'state': 'normal', 'yaw': -16.01, 'datetime': '2018-10-03 16:41:49.993169', 'mgs': 0, 'volt': 1.0059, 'depth': 3.217, 'time': 17, 'pitch': -7.71, 'roll': 0.68, 'pres': 206}
{'lipoC2': 0.0, 'lipoC3S1': 4.01, 'temp': 26.5, 'lipoC3S3': 12.17, 'lipoC3S2': 8.04, 'rot1': 0, 'rot0': 0, 'rot3': 0, 'rot2': 0, 'state': 'normal', 'yaw': -15.95, 'datetime': '2018-10-03 16:41:50.096787', 'mgs': 0, 'volt': 1.0059, 'depth': 3.217, 'time': 17, 'pitch': -7.73, 'roll': 0.71, 'pres': 206}
{'lipoC2': 0.0, 'lipoC3S1': 4.01, 'temp': 26.5, 'lipoC3S3': 12.17, 'lipoC3S2': 8.04, 'rot1': 0, 'rot0': 0, 'rot3': 0, 'rot2': 0, 'state': 'normal', 'yaw': -15.92, 'datetime': '2018-10-03 16:41:50.200027', 'mgs': 0, 'volt': 1.0059, 'depth': 3.217, 'time': 17, 'pitch': -7.74, 'roll': 0.62, 'pres': 206}
{'lipoC2': 0.0, 'lipoC3S1': 4.01, 'temp': 26.5, 'lipoC3S3': 12.17, 'lipoC3S2': 8.04, 'rot1': 0, 'rot0': 0, 'rot3': 0, 'rot2': 0, 'state': 'normal', 'yaw': -15.92, 'datetime': '2018-10-03 16:41:50.297865', 'mgs': 0, 'volt': 1.0059, 'depth': 3.217, 'time': 17, 'pitch': -7.76, 'roll': 0.37, 'pres': 206}
{'lipoC2': 0.0, 'lipoC3S1': 4.01, 'temp': 26.5, 'lipoC3S3': 12.16, 'lipoC3S2': 8.04, 'rot1': 0, 'rot0': 0, 'rot3': 0, 'rot2': 0, 'state': 'normal', 'yaw': -15.85, 'datetime': '2018-10-03 16:41:50.401347', 'mgs': 0, 'volt': 1.0059, 'depth': 3.217, 'time': 17, 'pitch': -7.7, 'roll': 0.21, 'pres': 206}
{'lipoC2': 0.0, 'lipoC3S1': 4.01, 'temp': 26.5, 'lipoC3S3': 12.16, 'lipoC3S2': 8.04, 'rot1': 0, 'rot0': 0, 'rot3': 0, 'rot2': 0, 'state': 'normal', 'yaw': -15.7, 'datetime': '2018-10-03 16:41:50.504587', 'mgs': 0, 'volt': 1.0059, 'depth': 3.217, 'time': 17, 'pitch': -7.76, 'roll': 0.26, 'pres': 206}
{'lipoC2': 0.0, 'lipoC3S1': 4.01, 'temp': 26.5, 'lipoC3S3': 12.16, 'lipoC3S2': 8.04, 'rot1': 0, 'rot0': 0, 'rot3': 0, 'rot2': 0, 'state': 'normal', 'yaw': -15.65, 'datetime': '2018-10-03 16:41:50.607901', 'mgs': 0, 'volt': 1.0107, 'depth': 3.293, 'time': 17, 'pitch': -7.69, 'roll': 0.31, 'pres': 207}
{'lipoC2': 0.0, 'lipoC3S1': 4.01, 'temp': 26.5, 'lipoC3S3': 12.17, 'lipoC3S2': 8.04, 'rot1': 0, 'rot0': 0, 'rot3': 0, 'rot2': 0, 'state': 'normal', 'yaw': -15.62, 'datetime': '2018-10-03 16:41:50.711665', 'mgs': 0, 'volt': 1.0059, 'depth': 3.217, 'time': 17, 'pitch': -7.72, 'roll': 0.25, 'pres': 206}
{'lipoC2': 0.0, 'lipoC3S1': 4.01, 'temp': 26.5, 'lipoC3S3': 12.16, 'lipoC3S2': 8.04, 'rot1': 0, 'rot0': 0, 'rot3': 0, 'rot2': 0, 'state': 'normal', 'yaw': -15.56, 'datetime': '2018-10-03 16:41:50.814914', 'mgs': 0, 'volt': 1.0107, 'depth': 3.293, 'time': 17, 'pitch': -7.74, 'roll': 0.24, 'pres': 207}
{'lipoC2': 0.0, 'lipoC3S1': 4.01, 'temp': 26.5, 'lipoC3S3': 12.16, 'lipoC3S2': 8.04, 'rot1': 0, 'rot0': 0, 'rot3': 0, 'rot2': 0, 'state': 'normal', 'yaw': -15.57, 'datetime': '2018-10-03 16:41:50.919517', 'mgs': 0, 'volt': 1.0107, 'depth': 3.293, 'time': 18, 'pitch': -7.75, 'roll': 0.22, 'pres': 207}
{'lipoC2': 0.0, 'lipoC3S1': 4.01, 'temp': 26.44, 'lipoC3S3': 12.16, 'lipoC3S2': 8.04, 'rot1': 0, 'rot0': 0, 'rot3': 0, 'rot2': 0, 'state': 'normal', 'yaw': -15.62, 'datetime': '2018-10-03 16:41:51.029517', 'mgs': 0, 'volt': 1.0059, 'depth': 3.217, 'time': 18, 'pitch': -7.89, 'roll': 0.23, 'pres': 206}
{'lipoC2': 0.0, 'lipoC3S1': 4.01, 'temp': 26.44, 'lipoC3S3': 12.17, 'lipoC3S2': 8.04, 'rot1': 0, 'rot0': 0, 'rot3': 0, 'rot2': 0, 'state': 'normal', 'yaw': -15.62, 'datetime': '2018-10-03 16:41:51.126037', 'mgs': 0, 'volt': 1.0107, 'depth': 3.293, 'time': 18, 'pitch': -8.06, 'roll': 0.23, 'pres': 207}
{'lipoC2': 0.0, 'lipoC3S1': 4.01, 'temp': 26.5, 'lipoC3S3': 12.17, 'lipoC3S2': 8.04, 'rot1': 0, 'rot0': 0, 'rot3': 0, 'rot2': 0, 'state': 'normal', 'yaw': -15.7, 'datetime': '2018-10-03 16:41:51.229257', 'mgs': 0, 'volt': 1.0059, 'depth': 3.217, 'time': 18, 'pitch': -8.04, 'roll': 0.22, 'pres': 206}
{'lipoC2': 0.0, 'lipoC3S1': 4.01, 'temp': 26.5, 'lipoC3S3': 12.17, 'lipoC3S2': 8.04, 'rot1': 0, 'rot0': 0, 'rot3': 0, 'rot2': 0, 'state': 'normal', 'yaw': -15.81, 'datetime': '2018-10-03 16:41:51.333086', 'mgs': 0, 'volt': 1.0107, 'depth': 3.293, 'time': 18, 'pitch': -7.87, 'roll': 0.2, 'pres': 207}
{'lipoC2': 0.0, 'lipoC3S1': 4.01, 'temp': 26.5, 'lipoC3S3': 12.17, 'lipoC3S2': 8.04, 'rot1': 0, 'rot0': 0, 'rot3': 0, 'rot2': 0, 'state': 'normal', 'yaw': -15.94, 'datetime': '2018-10-03 16:41:51.436347', 'mgs': 0, 'volt': 1.0059, 'depth': 3.217, 'time': 18, 'pitch': -7.57, 'roll': 0.27, 'pres': 206}
{'lipoC2': 0.0, 'lipoC3S1': 4.01, 'temp': 26.5, 'lipoC3S3': 12.17, 'lipoC3S2': 8.04, 'rot1': 0, 'rot0': 0, 'rot3': 0, 'rot2': 0, 'state': 'normal', 'yaw': -16.04, 'datetime': '2018-10-03 16:41:51.539618', 'mgs': 0, 'volt': 1.0107, 'depth': 3.293, 'time': 18, 'pitch': -7.23, 'roll': 0.4, 'pres': 207}
{'lipoC2': 0.0, 'lipoC3S1': 4.01, 'temp': 26.5, 'lipoC3S3': 12.17, 'lipoC3S2': 8.04, 'rot1': 0, 'rot0': 0, 'rot3': 0, 'rot2': 0, 'state': 'normal', 'yaw': -16.15, 'datetime': '2018-10-03 16:41:51.643806', 'mgs': 0, 'volt': 1.0107, 'depth': 3.293, 'time': 18, 'pitch': -6.84, 'roll': 0.56, 'pres': 207}
{'lipoC2': 0.0, 'lipoC3S1': 4.01, 'temp': 26.5, 'lipoC3S3': 12.17, 'lipoC3S2': 8.04, 'rot1': 0, 'rot0': 0, 'rot3': 0, 'rot2': 0, 'state': 'normal', 'yaw': -16.25, 'datetime': '2018-10-03 16:41:51.747112', 'mgs': 0, 'volt': 1.0107, 'depth': 3.293, 'time': 18, 'pitch': -6.37, 'roll': 0.78, 'pres': 207}
{'lipoC2': 0.0, 'lipoC3S1': 4.01, 'temp': 26.5, 'lipoC3S3': 12.16, 'lipoC3S2': 8.04, 'rot1': 0, 'rot0': 0, 'rot3': 0, 'rot2': 0, 'state': 'normal', 'yaw': -16.35, 'datetime': '2018-10-03 16:41:51.854559', 'mgs': 0, 'volt': 1.0107, 'depth': 3.293, 'time': 19, 'pitch': -5.91, 'roll': 1.02, 'pres': 207}
{'lipoC2': 0.0, 'lipoC3S1': 4.01, 'temp': 26.5, 'lipoC3S3': 12.17, 'lipoC3S2': 8.04, 'rot1': 0, 'rot0': 0, 'rot3': 0, 'rot2': 0, 'state': 'normal', 'yaw': -16.45, 'datetime': '2018-10-03 16:41:51.962110', 'mgs': 0, 'volt': 1.0107, 'depth': 3.293, 'time': 19, 'pitch': -5.46, 'roll': 1.27, 'pres': 207}
{'lipoC2': 0.0, 'lipoC3S1': 4.01, 'temp': 26.5, 'lipoC3S3': 12.17, 'lipoC3S2': 8.04, 'rot1': 0, 'rot0': 0, 'rot3': 0, 'rot2': 0, 'state': 'normal', 'yaw': -16.41, 'datetime': '2018-10-03 16:41:52.065287', 'mgs': 0, 'volt': 1.0107, 'depth': 3.293, 'time': 19, 'pitch': -5.36, 'roll': 1.24, 'pres': 207}
{'lipoC2': 0.0, 'lipoC3S1': 4.01, 'temp': 26.5, 'lipoC3S3': 12.16, 'lipoC3S2': 8.04, 'rot1': 0, 'rot0': 0, 'rot3': 0, 'rot2': 0, 'state': 'normal', 'yaw': -16.33, 'datetime': '2018-10-03 16:41:52.168562', 'mgs': 0, 'volt': 1.0107, 'depth': 3.293, 'time': 19, 'pitch': -5.37, 'roll': 1.16, 'pres': 207}
{'lipoC2': 0.0, 'lipoC3S1': 4.01, 'temp': 26.5, 'lipoC3S3': 12.17, 'lipoC3S2': 8.04, 'rot1': 0, 'rot0': 0, 'rot3': 0, 'rot2': 0, 'state': 'normal', 'yaw': -16.26, 'datetime': '2018-10-03 16:41:52.272458', 'mgs': 0, 'volt': 1.0107, 'depth': 3.293, 'time': 19, 'pitch': -5.36, 'roll': 1.07, 'pres': 207}
{'lipoC2': 0.0, 'lipoC3S1': 4.01, 'temp': 26.5, 'lipoC3S3': 12.17, 'lipoC3S2': 8.04, 'rot1': 0, 'rot0': 0, 'rot3': 0, 'rot2': 0, 'state': 'normal', 'yaw': -16.22, 'datetime': '2018-10-03 16:41:52.375720', 'mgs': 0, 'volt': 1.0107, 'depth': 3.293, 'time': 19, 'pitch': -5.37, 'roll': 1.02, 'pres': 207}
{'lipoC2': 0.0, 'lipoC3S1': 4.01, 'temp': 26.5, 'lipoC3S3': 12.17, 'lipoC3S2': 8.04, 'rot1': 0, 'rot0': 0, 'rot3': 0, 'rot2': 0, 'state': 'normal', 'yaw': -16.2, 'datetime': '2018-10-03 16:41:52.480288', 'mgs': 0, 'volt': 1.0107, 'depth': 3.293, 'time': 19, 'pitch': -5.36, 'roll': 1.01, 'pres': 207}
{'lipoC2': 0.0, 'lipoC3S1': 4.01, 'temp': 26.5, 'lipoC3S3': 12.17, 'lipoC3S2': 8.04, 'rot1': 0, 'rot0': 0, 'rot3': 0, 'rot2': 0, 'state': 'normal', 'yaw': -16.2, 'datetime': '2018-10-03 16:41:52.583762', 'mgs': 0, 'volt': 1.0107, 'depth': 3.293, 'time': 19, 'pitch': -5.37, 'roll': 1.01, 'pres': 207}
{'lipoC2': 0.0, 'lipoC3S1': 4.01, 'temp': 26.44, 'lipoC3S3': 12.17, 'lipoC3S2': 8.04, 'rot1': 0, 'rot0': 0, 'rot3': 0, 'rot2': 0, 'state': 'normal', 'yaw': -16.2, 'datetime': '2018-10-03 16:41:52.686981', 'mgs': 0, 'volt': 1.0107, 'depth': 3.293, 'time': 19, 'pitch': -5.39, 'roll': 1.01, 'pres': 207}
{'lipoC2': 0.0, 'lipoC3S1': 4.01, 'temp': 26.44, 'lipoC3S3': 12.17, 'lipoC3S2': 8.04, 'rot1': 0, 'rot0': 0, 'rot3': 0, 'rot2': 0, 'state': 'normal', 'yaw': -16.2, 'datetime': '2018-10-03 16:41:52.791480', 'mgs': 0, 'volt': 1.0107, 'depth': 3.293, 'time': 19, 'pitch': -5.41, 'roll': 1.01, 'pres': 207}
{'lipoC2': 0.0, 'lipoC3S1': 4.01, 'temp': 26.44, 'lipoC3S3': 12.17, 'lipoC3S2': 8.04, 'rot1': 0, 'rot0': 0, 'rot3': 0, 'rot2': 0, 'state': 'normal', 'yaw': -16.2, 'datetime': '2018-10-03 16:41:52.894788', 'mgs': 0, 'volt': 1.0107, 'depth': 3.293, 'time': 20, 'pitch': -5.4, 'roll': 1.04, 'pres': 207}
{'lipoC2': 0.0, 'lipoC3S1': 4.01, 'temp': 26.5, 'lipoC3S3': 12.16, 'lipoC3S2': 8.04, 'rot1': 0, 'rot0': 0, 'rot3': 0, 'rot2': 0, 'state': 'normal', 'yaw': -16.2, 'datetime': '2018-10-03 16:41:52.998058', 'mgs': 0, 'volt': 1.0107, 'depth': 3.293, 'time': 20, 'pitch': -5.4, 'roll': 0.98, 'pres': 207}
{'lipoC2': 0.0, 'lipoC3S1': 4.01, 'temp': 26.5, 'lipoC3S3': 12.17, 'lipoC3S2': 8.04, 'rot1': 0, 'rot0': 0, 'rot3': 0, 'rot2': 0, 'state': 'normal', 'yaw': -16.19, 'datetime': '2018-10-03 16:41:53.102516', 'mgs': 0, 'volt': 1.0107, 'depth': 3.293, 'time': 20, 'pitch': -5.43, 'roll': 0.84, 'pres': 207}
{'lipoC2': 0.0, 'lipoC3S1': 4.01, 'temp': 26.5, 'lipoC3S3': 12.17, 'lipoC3S2': 8.04, 'rot1': 0, 'rot0': 0, 'rot3': 0, 'rot2': 0, 'state': 'normal', 'yaw': -16.21, 'datetime': '2018-10-03 16:41:53.205776', 'mgs': 0, 'volt': 1.0107, 'depth': 3.293, 'time': 20, 'pitch': -5.55, 'roll': 0.66, 'pres': 207}
{'lipoC2': 0.0, 'lipoC3S1': 4.01, 'temp': 26.5, 'lipoC3S3': 12.16, 'lipoC3S2': 8.04, 'rot1': 0, 'rot0': 0, 'rot3': 0, 'rot2': 0, 'state': 'normal', 'yaw': -16.23, 'datetime': '2018-10-03 16:41:53.309086', 'mgs': 0, 'volt': 1.0107, 'depth': 3.293, 'time': 20, 'pitch': -5.63, 'roll': 0.58, 'pres': 207}
{'lipoC2': 0.0, 'lipoC3S1': 4.01, 'temp': 26.5, 'lipoC3S3': 12.16, 'lipoC3S2': 8.04, 'rot1': 0, 'rot0': 0, 'rot3': 0, 'rot2': 0, 'state': 'normal', 'yaw': -16.22, 'datetime': '2018-10-03 16:41:53.413495', 'mgs': 0, 'volt': 1.0107, 'depth': 3.293, 'time': 20, 'pitch': -5.69, 'roll': 0.67, 'pres': 207}
{'lipoC2': 0.0, 'lipoC3S1': 4.01, 'temp': 26.5, 'lipoC3S3': 12.16, 'lipoC3S2': 8.04, 'rot1': 0, 'rot0': 0, 'rot3': 0, 'rot2': 0, 'state': 'normal', 'yaw': -16.22, 'datetime': '2018-10-03 16:41:53.516772', 'mgs': 0, 'volt': 1.0107, 'depth': 3.293, 'time': 20, 'pitch': -5.75, 'roll': 0.66, 'pres': 207}
{'lipoC2': 0.0, 'lipoC3S1': 4.01, 'temp': 26.5, 'lipoC3S3': 12.16, 'lipoC3S2': 8.04, 'rot1': 0, 'rot0': 0, 'rot3': 0, 'rot2': 0, 'state': 'normal', 'yaw': -16.26, 'datetime': '2018-10-03 16:41:53.620042', 'mgs': 0, 'volt': 1.0107, 'depth': 3.293, 'time': 20, 'pitch': -5.81, 'roll': 0.62, 'pres': 207}
{'lipoC2': 0.0, 'lipoC3S1': 4.01, 'temp': 26.5, 'lipoC3S3': 12.17, 'lipoC3S2': 8.04, 'rot1': 0, 'rot0': 0, 'rot3': 0, 'rot2': 0, 'state': 'normal', 'yaw': -16.26, 'datetime': '2018-10-03 16:41:53.723264', 'mgs': 0, 'volt': 1.0107, 'depth': 3.293, 'time': 20, 'pitch': -5.88, 'roll': 0.61, 'pres': 207}
{'lipoC2': 0.0, 'lipoC3S1': 4.01, 'temp': 26.5, 'lipoC3S3': 12.17, 'lipoC3S2': 8.04, 'rot1': 0, 'rot0': 0, 'rot3': 0, 'rot2': 0, 'state': 'normal', 'yaw': -16.25, 'datetime': '2018-10-03 16:41:53.827075', 'mgs': 1, 'volt': 1.0107, 'depth': 3.293, 'time': 20, 'pitch': -5.94, 'roll': 0.57, 'pres': 207}
{'lipoC2': 0.0, 'lipoC3S1': 4.01, 'temp': 26.5, 'lipoC3S3': 12.17, 'lipoC3S2': 8.04, 'rot1': 0, 'rot0': 0, 'rot3': 0, 'rot2': 0, 'state': 'normal', 'yaw': 0.0, 'datetime': '2018-10-03 16:41:59.861710', 'mgs': 1, 'volt': 1.0156, 'depth': 3.369, 'time': 1, 'pitch': -5.36, 'roll': 0.76, 'pres': 208}
{'lipoC2': 0.0, 'lipoC3S1': 4.01, 'temp': 26.5, 'lipoC3S3': 12.16, 'lipoC3S2': 8.04, 'rot1': 0, 'rot0': 0, 'rot3': 0, 'rot2': 0, 'state': 'normal', 'yaw': -0.13, 'datetime': '2018-10-03 16:42:02.904006', 'mgs': 1, 'volt': 1.0107, 'depth': 3.293, 'time': 1, 'pitch': -5.39, 'roll': 0.82, 'pres': 207}
{'lipoC2': 0.0, 'lipoC3S1': 4.02, 'temp': 26.5, 'lipoC3S3': 12.17, 'lipoC3S2': 8.04, 'rot1': 0, 'rot0': 0, 'rot3': 0, 'rot2': 0, 'state': 'normal', 'yaw': -0.23, 'datetime': '2018-10-03 16:42:02.934602', 'mgs': 1, 'volt': 1.0156, 'depth': 3.369, 'time': 1, 'pitch': -5.51, 'roll': 0.89, 'pres': 208}
{'lipoC2': 0.0, 'lipoC3S1': 4.02, 'temp': 26.5, 'lipoC3S3': 12.17, 'lipoC3S2': 8.04, 'rot1': 0, 'rot0': 0, 'rot3': 0, 'rot2': 0, 'state': 'normal', 'yaw': -0.32, 'datetime': '2018-10-03 16:42:02.970279', 'mgs': 1, 'volt': 1.0107, 'depth': 3.293, 'time': 1, 'pitch': -5.69, 'roll': 0.93, 'pres': 207}
{'lipoC2': 0.0, 'lipoC3S1': 4.02, 'temp': 26.5, 'lipoC3S3': 12.17, 'lipoC3S2': 8.04, 'rot1': 0, 'rot0': 0, 'rot3': 0, 'rot2': 0, 'state': 'normal', 'yaw': -0.41, 'datetime': '2018-10-03 16:42:03.000784', 'mgs': 1, 'volt': 1.0156, 'depth': 3.369, 'time': 1, 'pitch': -5.93, 'roll': 0.96, 'pres': 208}
