{'lipoC2': 7.53, 'lipoC3S1': 4.04, 'temp': 30.0, 'lipoC3S3': 12.21, 'lipoC3S2': 8.09, 'rot1': 0, 'rot0': 0, 'rot3': 0, 'rot2': 0, 'state': 'normal', 'yaw': -0.2, 'datetime': '2018-10-10 00:40:52.604167', 'mgs': 0, 'volt': 0.8301, 'depth': 0.47, 'time': 1, 'pitch': -7.92, 'roll': -3.7, 'pres': 170}
{'lipoC2': 7.53, 'lipoC3S1': 4.04, 'temp': 30.06, 'lipoC3S3': 12.21, 'lipoC3S2': 8.09, 'rot1': 0, 'rot0': 0, 'rot3': 0, 'rot2': 0, 'state': 'normal', 'yaw': 0.19, 'datetime': '2018-10-10 00:40:52.625918', 'mgs': 0, 'volt': 0.835, 'depth': 0.546, 'time': 1, 'pitch': -8.17, 'roll': -2.91, 'pres': 171}
{'lipoC2': 7.53, 'lipoC3S1': 4.04, 'temp': 30.06, 'lipoC3S3': 12.21, 'lipoC3S2': 8.09, 'rot1': 0, 'rot0': 0, 'rot3': 0, 'rot2': 0, 'state': 'normal', 'yaw': 0.75, 'datetime': '2018-10-10 00:40:52.647936', 'mgs': 0, 'volt': 0.8301, 'depth': 0.47, 'time': 1, 'pitch': -8.45, 'roll': -2.08, 'pres': 170}
{'lipoC2': 7.53, 'lipoC3S1': 4.04, 'temp': 30.06, 'lipoC3S3': 12.21, 'lipoC3S2': 8.09, 'rot1': 0, 'rot0': 0, 'rot3': 0, 'rot2': 0, 'state': 'normal', 'yaw': 1.1, 'datetime': '2018-10-10 00:40:52.669773', 'mgs': 0, 'volt': 0.835, 'depth': 0.546, 'time': 1, 'pitch': -8.47, 'roll': -1.34, 'pres': 171}
{'lipoC2': 7.53, 'lipoC3S1': 4.04, 'temp': 30.06, 'lipoC3S3': 12.21, 'lipoC3S2': 8.09, 'rot1': 0, 'rot0': 0, 'rot3': 0, 'rot2': 0, 'state': 'normal', 'yaw': 1.24, 'datetime': '2018-10-10 00:40:52.691631', 'mgs': 0, 'volt': 0.835, 'depth': 0.546, 'time': 1, 'pitch': -8.24, 'roll': -1.07, 'pres': 171}
{'lipoC2': 7.53, 'lipoC3S1': 4.04, 'temp': 30.06, 'lipoC3S3': 12.21, 'lipoC3S2': 8.09, 'rot1': 0, 'rot0': 0, 'rot3': 0, 'rot2': 0, 'state': 'normal', 'yaw': 1.19, 'datetime': '2018-10-10 00:40:52.713513', 'mgs': 0, 'volt': 0.8398, 'depth': 0.623, 'time': 1, 'pitch': -8.05, 'roll': -1.06, 'pres': 172}
{'lipoC2': 7.53, 'lipoC3S1': 4.04, 'temp': 30.06, 'lipoC3S3': 12.21, 'lipoC3S2': 8.09, 'rot1': 0, 'rot0': 0, 'rot3': 0, 'rot2': 0, 'state': 'normal', 'yaw': 1.01, 'datetime': '2018-10-10 00:40:52.734334', 'mgs': 0, 'volt': 0.8398, 'depth': 0.623, 'time': 1, 'pitch': -7.92, 'roll': -0.99, 'pres': 172}
{'lipoC2': 7.53, 'lipoC3S1': 4.04, 'temp': 30.06, 'lipoC3S3': 12.21, 'lipoC3S2': 8.09, 'rot1': 0, 'rot0': 0, 'rot3': 0, 'rot2': 0, 'state': 'normal', 'yaw': 0.88, 'datetime': '2018-10-10 00:40:52.743815', 'mgs': 0, 'volt': 0.8398, 'depth': 0.623, 'time': 2, 'pitch': -7.79, 'roll': -0.76, 'pres': 172}
{'lipoC2': 7.53, 'lipoC3S1': 4.04, 'temp': 30.06, 'lipoC3S3': 12.21, 'lipoC3S2': 8.09, 'rot1': 0, 'rot0': 0, 'rot3': 0, 'rot2': 0, 'state': 'normal', 'yaw': 0.72, 'datetime': '2018-10-10 00:40:52.753275', 'mgs': 0, 'volt': 0.8398, 'depth': 0.623, 'time': 2, 'pitch': -7.78, 'roll': -0.29, 'pres': 172}
{'lipoC2': 7.53, 'lipoC3S1': 4.04, 'temp': 30.06, 'lipoC3S3': 12.21, 'lipoC3S2': 8.09, 'rot1': 0, 'rot0': 0, 'rot3': 0, 'rot2': 0, 'state': 'normal', 'yaw': 0.48, 'datetime': '2018-10-10 00:40:52.762737', 'mgs': 0, 'volt': 0.8398, 'depth': 0.623, 'time': 2, 'pitch': -7.61, 'roll': 0.28, 'pres': 172}
{'lipoC2': 7.53, 'lipoC3S1': 4.03, 'temp': 30.06, 'lipoC3S3': 12.21, 'lipoC3S2': 8.09, 'rot1': 0, 'rot0': 0, 'rot3': 0, 'rot2': 0, 'state': 'normal', 'yaw': 0.29, 'datetime': '2018-10-10 00:40:52.858373', 'mgs': 0, 'volt': 0.835, 'depth': 0.546, 'time': 2, 'pitch': -7.15, 'roll': 0.68, 'pres': 171}
{'lipoC2': 7.53, 'lipoC3S1': 4.04, 'temp': 30.0, 'lipoC3S3': 12.21, 'lipoC3S2': 8.09, 'rot1': 0, 'rot0': 0, 'rot3': 0, 'rot2': 0, 'state': 'normal', 'yaw': 0.18, 'datetime': '2018-10-10 00:40:52.962851', 'mgs': 0, 'volt': 0.835, 'depth': 0.546, 'time': 2, 'pitch': -6.85, 'roll': 0.88, 'pres': 171}
{'lipoC2': 7.53, 'lipoC3S1': 4.04, 'temp': 30.0, 'lipoC3S3': 12.21, 'lipoC3S2': 8.09, 'rot1': 0, 'rot0': 0, 'rot3': 0, 'rot2': 0, 'state': 'normal', 'yaw': 0.23, 'datetime': '2018-10-10 00:40:53.066061', 'mgs': 0, 'volt': 0.8398, 'depth': 0.623, 'time': 2, 'pitch': -6.89, 'roll': 0.67, 'pres': 172}
{'lipoC2': 7.53, 'lipoC3S1': 4.04, 'temp': 30.0, 'lipoC3S3': 12.21, 'lipoC3S2': 8.09, 'rot1': 0, 'rot0': 0, 'rot3': 0, 'rot2': 0, 'state': 'normal', 'yaw': 0.49, 'datetime': '2018-10-10 00:40:53.169266', 'mgs': 0, 'volt': 0.8398, 'depth': 0.623, 'time': 2, 'pitch': -6.9, 'roll': 0.23, 'pres': 172}
{'lipoC2': 7.53, 'lipoC3S1': 4.04, 'temp': 30.0, 'lipoC3S3': 12.21, 'lipoC3S2': 8.09, 'rot1': 0, 'rot0': 0, 'rot3': 0, 'rot2': 0, 'state': 'normal', 'yaw': 0.72, 'datetime': '2018-10-10 00:40:53.273865', 'mgs': 0, 'volt': 0.8398, 'depth': 0.623, 'time': 2, 'pitch': -6.93, 'roll': -0.07, 'pres': 172}
{'lipoC2': 7.53, 'lipoC3S1': 4.04, 'temp': 30.0, 'lipoC3S3': 12.21, 'lipoC3S2': 8.09, 'rot1': 0, 'rot0': 0, 'rot3': 0, 'rot2': 0, 'state': 'normal', 'yaw': 1.06, 'datetime': '2018-10-10 00:40:53.376999', 'mgs': 0, 'volt': 0.8398, 'depth': 0.623, 'time': 2, 'pitch': -7.0, 'roll': -0.18, 'pres': 172}
{'lipoC2': 7.53, 'lipoC3S1': 4.04, 'temp': 30.0, 'lipoC3S3': 12.21, 'lipoC3S2': 8.09, 'rot1': 0, 'rot0': 0, 'rot3': 0, 'rot2': 0, 'state': 'normal', 'yaw': 1.49, 'datetime': '2018-10-10 00:40:53.480917', 'mgs': 0, 'volt': 0.8398, 'depth': 0.623, 'time': 3, 'pitch': -7.27, 'roll': -0.19, 'pres': 172}
{'lipoC2': 7.53, 'lipoC3S1': 4.04, 'temp': 30.0, 'lipoC3S3': 12.21, 'lipoC3S2': 8.09, 'rot1': 0, 'rot0': 0, 'rot3': 0, 'rot2': 0, 'state': 'normal', 'yaw': 1.97, 'datetime': '2018-10-10 00:40:53.585398', 'mgs': 0, 'volt': 0.8398, 'depth': 0.623, 'time': 3, 'pitch': -7.59, 'roll': -0.3, 'pres': 172}
{'lipoC2': 7.53, 'lipoC3S1': 4.04, 'temp': 30.0, 'lipoC3S3': 12.21, 'lipoC3S2': 8.09, 'rot1': 0, 'rot0': 0, 'rot3': 0, 'rot2': 0, 'state': 'normal', 'yaw': 2.42, 'datetime': '2018-10-10 00:40:53.688650', 'mgs': 0, 'volt': 0.8398, 'depth': 0.623, 'time': 3, 'pitch': -7.68, 'roll': -0.7, 'pres': 172}
{'lipoC2': 7.53, 'lipoC3S1': 4.04, 'temp': 30.0, 'lipoC3S3': 12.21, 'lipoC3S2': 8.09, 'rot1': 0, 'rot0': 0, 'rot3': 0, 'rot2': 0, 'state': 'normal', 'yaw': 2.65, 'datetime': '2018-10-10 00:40:53.801244', 'mgs': 0, 'volt': 0.8398, 'depth': 0.623, 'time': 3, 'pitch': -7.51, 'roll': -1.08, 'pres': 172}
{'lipoC2': 7.53, 'lipoC3S1': 4.04, 'temp': 30.0, 'lipoC3S3': 12.21, 'lipoC3S2': 8.09, 'rot1': 0, 'rot0': 0, 'rot3': 0, 'rot2': 0, 'state': 'normal', 'yaw': 2.99, 'datetime': '2018-10-10 00:40:53.895089', 'mgs': 0, 'volt': 0.8447, 'depth': 0.699, 'time': 3, 'pitch': -7.01, 'roll': -1.3, 'pres': 173}
{'lipoC2': 7.53, 'lipoC3S1': 4.04, 'temp': 30.0, 'lipoC3S3': 12.21, 'lipoC3S2': 8.09, 'rot1': 0, 'rot0': 0, 'rot3': 0, 'rot2': 0, 'state': 'normal', 'yaw': 3.59, 'datetime': '2018-10-10 00:40:53.997853', 'mgs': 0, 'volt': 0.8398, 'depth': 0.623, 'time': 3, 'pitch': -6.29, 'roll': -1.03, 'pres': 172}
{'lipoC2': 7.53, 'lipoC3S1': 4.04, 'temp': 30.06, 'lipoC3S3': 12.21, 'lipoC3S2': 8.09, 'rot1': 0, 'rot0': 0, 'rot3': 0, 'rot2': 0, 'state': 'normal', 'yaw': 4.68, 'datetime': '2018-10-10 00:40:54.101055', 'mgs': 0, 'volt': 0.8447, 'depth': 0.699, 'time': 3, 'pitch': -5.44, 'roll': -0.29, 'pres': 173}
{'lipoC2': 7.53, 'lipoC3S1': 4.04, 'temp': 30.06, 'lipoC3S3': 12.21, 'lipoC3S2': 8.09, 'rot1': 0, 'rot0': 0, 'rot3': 0, 'rot2': 0, 'state': 'normal', 'yaw': 5.74, 'datetime': '2018-10-10 00:40:54.204270', 'mgs': 0, 'volt': 0.8447, 'depth': 0.699, 'time': 3, 'pitch': -4.94, 'roll': 0.45, 'pres': 173}
{'lipoC2': 7.52, 'lipoC3S1': 4.04, 'temp': 30.06, 'lipoC3S3': 12.21, 'lipoC3S2': 8.09, 'rot1': 0, 'rot0': 0, 'rot3': 0, 'rot2': 0, 'state': 'normal', 'yaw': 6.44, 'datetime': '2018-10-10 00:40:54.307729', 'mgs': 0, 'volt': 0.8447, 'depth': 0.699, 'time': 3, 'pitch': -4.88, 'roll': 0.81, 'pres': 173}
{'lipoC2': 7.53, 'lipoC3S1': 4.04, 'temp': 30.0, 'lipoC3S3': 12.21, 'lipoC3S2': 8.09, 'rot1': 0, 'rot0': 0, 'rot3': 0, 'rot2': 0, 'state': 'normal', 'yaw': 6.73, 'datetime': '2018-10-10 00:40:54.410954', 'mgs': 0, 'volt': 0.8496, 'depth': 0.775, 'time': 3, 'pitch': -5.12, 'roll': 0.6, 'pres': 174}
{'lipoC2': 7.53, 'lipoC3S1': 4.04, 'temp': 30.0, 'lipoC3S3': 12.21, 'lipoC3S2': 8.09, 'rot1': 0, 'rot0': 0, 'rot3': 0, 'rot2': 0, 'state': 'normal', 'yaw': 6.68, 'datetime': '2018-10-10 00:40:54.514162', 'mgs': 0, 'volt': 0.8496, 'depth': 0.775, 'time': 4, 'pitch': -5.14, 'roll': 0.02, 'pres': 174}
{'lipoC2': 7.53, 'lipoC3S1': 4.04, 'temp': 30.0, 'lipoC3S3': 12.21, 'lipoC3S2': 8.09, 'rot1': 0, 'rot0': 0, 'rot3': 0, 'rot2': 0, 'state': 'normal', 'yaw': 6.55, 'datetime': '2018-10-10 00:40:54.618727', 'mgs': 0, 'volt': 0.8496, 'depth': 0.775, 'time': 4, 'pitch': -4.62, 'roll': -0.59, 'pres': 174}
{'lipoC2': 7.53, 'lipoC3S1': 4.04, 'temp': 30.0, 'lipoC3S3': 12.21, 'lipoC3S2': 8.09, 'rot1': 0, 'rot0': 0, 'rot3': 0, 'rot2': 0, 'state': 'normal', 'yaw': 6.24, 'datetime': '2018-10-10 00:40:54.722726', 'mgs': 0, 'volt': 0.8496, 'depth': 0.775, 'time': 4, 'pitch': -4.04, 'roll': -0.68, 'pres': 174}
{'lipoC2': 7.53, 'lipoC3S1': 4.04, 'temp': 30.0, 'lipoC3S3': 12.21, 'lipoC3S2': 8.09, 'rot1': 0, 'rot0': 0, 'rot3': 0, 'rot2': 0, 'state': 'normal', 'yaw': 6.03, 'datetime': '2018-10-10 00:40:54.826362', 'mgs': 0, 'volt': 0.8545, 'depth': 0.851, 'time': 4, 'pitch': -3.54, 'roll': -0.29, 'pres': 175}
{'lipoC2': 7.53, 'lipoC3S1': 4.03, 'temp': 30.0, 'lipoC3S3': 12.21, 'lipoC3S2': 8.09, 'rot1': 0, 'rot0': 0, 'rot3': 0, 'rot2': 0, 'state': 'normal', 'yaw': 6.02, 'datetime': '2018-10-10 00:40:54.929800', 'mgs': 0, 'volt': 0.8594, 'depth': 0.928, 'time': 4, 'pitch': -2.77, 'roll': 0.19, 'pres': 176}
{'lipoC2': 7.53, 'lipoC3S1': 4.04, 'temp': 30.0, 'lipoC3S3': 12.21, 'lipoC3S2': 8.09, 'rot1': 0, 'rot0': 0, 'rot3': 0, 'rot2': 0, 'state': 'normal', 'yaw': 5.85, 'datetime': '2018-10-10 00:40:55.033046', 'mgs': 0, 'volt': 0.8594, 'depth': 0.928, 'time': 4, 'pitch': -2.07, 'roll': 0.53, 'pres': 176}
{'lipoC2': 7.53, 'lipoC3S1': 4.04, 'temp': 30.06, 'lipoC3S3': 12.21, 'lipoC3S2': 8.09, 'rot1': 0, 'rot0': 0, 'rot3': 0, 'rot2': 0, 'state': 'normal', 'yaw': 5.47, 'datetime': '2018-10-10 00:40:55.137536', 'mgs': 0, 'volt': 0.8594, 'depth': 0.928, 'time': 4, 'pitch': -1.9, 'roll': 0.47, 'pres': 176}
{'lipoC2': 7.53, 'lipoC3S1': 4.04, 'temp': 30.06, 'lipoC3S3': 12.21, 'lipoC3S2': 8.09, 'rot1': 0, 'rot0': 0, 'rot3': 0, 'rot2': 0, 'state': 'normal', 'yaw': 4.91, 'datetime': '2018-10-10 00:40:55.241304', 'mgs': 0, 'volt': 0.8643, 'depth': 1.004, 'time': 4, 'pitch': -2.42, 'roll': 0.05, 'pres': 177}
{'lipoC2': 7.52, 'lipoC3S1': 4.04, 'temp': 30.06, 'lipoC3S3': 12.21, 'lipoC3S2': 8.09, 'rot1': 0, 'rot0': 0, 'rot3': 0, 'rot2': 0, 'state': 'normal', 'yaw': 4.18, 'datetime': '2018-10-10 00:40:55.344499', 'mgs': 0, 'volt': 0.8643, 'depth': 1.004, 'time': 4, 'pitch': -3.43, 'roll': -0.59, 'pres': 177}
{'lipoC2': 7.53, 'lipoC3S1': 4.04, 'temp': 30.06, 'lipoC3S3': 12.21, 'lipoC3S2': 8.09, 'rot1': 0, 'rot0': 0, 'rot3': 0, 'rot2': 0, 'state': 'normal', 'yaw': 3.49, 'datetime': '2018-10-10 00:40:55.447768', 'mgs': 0, 'volt': 0.8643, 'depth': 1.004, 'time': 4, 'pitch': -3.94, 'roll': -1.13, 'pres': 177}
{'lipoC2': 7.53, 'lipoC3S1': 4.04, 'temp': 30.0, 'lipoC3S3': 12.21, 'lipoC3S2': 8.09, 'rot1': 0, 'rot0': 0, 'rot3': 0, 'rot2': 0, 'state': 'normal', 'yaw': 2.75, 'datetime': '2018-10-10 00:40:55.551194', 'mgs': 0, 'volt': 0.8691, 'depth': 1.08, 'time': 5, 'pitch': -3.69, 'roll': -1.6, 'pres': 178}
{'lipoC2': 7.53, 'lipoC3S1': 4.04, 'temp': 30.0, 'lipoC3S3': 12.21, 'lipoC3S2': 8.09, 'rot1': 0, 'rot0': 0, 'rot3': 0, 'rot2': 0, 'state': 'normal', 'yaw': 1.98, 'datetime': '2018-10-10 00:40:55.659160', 'mgs': 0, 'volt': 0.8691, 'depth': 1.08, 'time': 5, 'pitch': -2.78, 'roll': -2.1, 'pres': 178}
{'lipoC2': 7.53, 'lipoC3S1': 4.04, 'temp': 30.0, 'lipoC3S3': 12.21, 'lipoC3S2': 8.09, 'rot1': 0, 'rot0': 0, 'rot3': 0, 'rot2': 0, 'state': 'normal', 'yaw': 1.51, 'datetime': '2018-10-10 00:40:55.764430', 'mgs': 0, 'volt': 0.874, 'depth': 1.157, 'time': 5, 'pitch': -2.11, 'roll': -2.58, 'pres': 179}
{'lipoC2': 7.53, 'lipoC3S1': 4.04, 'temp': 30.06, 'lipoC3S3': 12.21, 'lipoC3S2': 8.09, 'rot1': 0, 'rot0': 0, 'rot3': 0, 'rot2': 0, 'state': 'normal', 'yaw': 1.42, 'datetime': '2018-10-10 00:40:55.867530', 'mgs': 0, 'volt': 0.874, 'depth': 1.157, 'time': 5, 'pitch': -2.09, 'roll': -3.12, 'pres': 179}
{'lipoC2': 7.53, 'lipoC3S1': 4.04, 'temp': 30.06, 'lipoC3S3': 12.21, 'lipoC3S2': 8.09, 'rot1': 0, 'rot0': 0, 'rot3': 0, 'rot2': 0, 'state': 'normal', 'yaw': 1.43, 'datetime': '2018-10-10 00:40:55.970853', 'mgs': 0, 'volt': 0.874, 'depth': 1.157, 'time': 5, 'pitch': -2.44, 'roll': -3.55, 'pres': 179}
{'lipoC2': 7.53, 'lipoC3S1': 4.04, 'temp': 30.06, 'lipoC3S3': 12.21, 'lipoC3S2': 8.09, 'rot1': 0, 'rot0': 0, 'rot3': 0, 'rot2': 0, 'state': 'normal', 'yaw': 1.21, 'datetime': '2018-10-10 00:40:56.073975', 'mgs': 0, 'volt': 0.8789, 'depth': 1.233, 'time': 5, 'pitch': -2.42, 'roll': -3.57, 'pres': 180}
{'lipoC2': 7.53, 'lipoC3S1': 4.04, 'temp': 30.06, 'lipoC3S3': 12.21, 'lipoC3S2': 8.09, 'rot1': 0, 'rot0': 0, 'rot3': 0, 'rot2': 0, 'state': 'normal', 'yaw': 0.78, 'datetime': '2018-10-10 00:40:56.178452', 'mgs': 0, 'volt': 0.8789, 'depth': 1.233, 'time': 5, 'pitch': -1.76, 'roll': -3.23, 'pres': 180}
{'lipoC2': 7.53, 'lipoC3S1': 4.04, 'temp': 30.06, 'lipoC3S3': 12.21, 'lipoC3S2': 8.09, 'rot1': 0, 'rot0': 0, 'rot3': 0, 'rot2': 0, 'state': 'normal', 'yaw': 0.62, 'datetime': '2018-10-10 00:40:56.281647', 'mgs': 0, 'volt': 0.874, 'depth': 1.157, 'time': 5, 'pitch': -0.93, 'roll': -2.7, 'pres': 179}
{'lipoC2': 7.53, 'lipoC3S1': 4.04, 'temp': 30.06, 'lipoC3S3': 12.21, 'lipoC3S2': 8.09, 'rot1': 0, 'rot0': 0, 'rot3': 0, 'rot2': 0, 'state': 'normal', 'yaw': 1.02, 'datetime': '2018-10-10 00:40:56.384793', 'mgs': 0, 'volt': 0.874, 'depth': 1.157, 'time': 5, 'pitch': -0.86, 'roll': -2.43, 'pres': 179}
{'lipoC2': 7.53, 'lipoC3S1': 4.04, 'temp': 30.06, 'lipoC3S3': 12.21, 'lipoC3S2': 8.09, 'rot1': 0, 'rot0': 0, 'rot3': 0, 'rot2': 0, 'state': 'normal', 'yaw': 1.62, 'datetime': '2018-10-10 00:40:56.489343', 'mgs': 0, 'volt': 0.874, 'depth': 1.157, 'time': 6, 'pitch': -1.73, 'roll': -2.4, 'pres': 179}
{'lipoC2': 7.53, 'lipoC3S1': 4.04, 'temp': 30.06, 'lipoC3S3': 12.21, 'lipoC3S2': 8.09, 'rot1': 0, 'rot0': 0, 'rot3': 0, 'rot2': 0, 'state': 'normal', 'yaw': 1.94, 'datetime': '2018-10-10 00:40:56.592552', 'mgs': 0, 'volt': 0.8789, 'depth': 1.233, 'time': 6, 'pitch': -3.11, 'roll': -2.34, 'pres': 180}
{'lipoC2': 7.53, 'lipoC3S1': 4.04, 'temp': 30.06, 'lipoC3S3': 12.21, 'lipoC3S2': 8.09, 'rot1': 0, 'rot0': 0, 'rot3': 0, 'rot2': 0, 'state': 'normal', 'yaw': 1.58, 'datetime': '2018-10-10 00:40:56.695760', 'mgs': 0, 'volt': 0.8838, 'depth': 1.309, 'time': 6, 'pitch': -3.74, 'roll': -2.01, 'pres': 181}
{'lipoC2': 7.53, 'lipoC3S1': 4.04, 'temp': 30.06, 'lipoC3S3': 12.21, 'lipoC3S2': 8.09, 'rot1': 0, 'rot0': 0, 'rot3': 0, 'rot2': 0, 'state': 'normal', 'yaw': 0.79, 'datetime': '2018-10-10 00:40:56.800297', 'mgs': 0, 'volt': 0.8789, 'depth': 1.233, 'time': 6, 'pitch': -3.22, 'roll': -1.48, 'pres': 180}
{'lipoC2': 7.53, 'lipoC3S1': 4.04, 'temp': 30.06, 'lipoC3S3': 12.21, 'lipoC3S2': 8.09, 'rot1': 0, 'rot0': 0, 'rot3': 0, 'rot2': 0, 'state': 'normal', 'yaw': 0.09, 'datetime': '2018-10-10 00:40:56.903467', 'mgs': 0, 'volt': 0.8789, 'depth': 1.233, 'time': 6, 'pitch': -1.92, 'roll': -1.06, 'pres': 180}
{'lipoC2': 7.53, 'lipoC3S1': 4.04, 'temp': 30.06, 'lipoC3S3': 12.21, 'lipoC3S2': 8.09, 'rot1': 0, 'rot0': 0, 'rot3': 0, 'rot2': 0, 'state': 'normal', 'yaw': -0.03, 'datetime': '2018-10-10 00:40:57.006759', 'mgs': 0, 'volt': 0.8789, 'depth': 1.233, 'time': 6, 'pitch': -0.85, 'roll': -0.89, 'pres': 180}
{'lipoC2': 7.53, 'lipoC3S1': 4.04, 'temp': 30.06, 'lipoC3S3': 12.21, 'lipoC3S2': 8.09, 'rot1': 0, 'rot0': 0, 'rot3': 0, 'rot2': 0, 'state': 'normal', 'yaw': 0.21, 'datetime': '2018-10-10 00:40:57.109834', 'mgs': 0, 'volt': 0.8789, 'depth': 1.233, 'time': 6, 'pitch': -0.52, 'roll': -0.74, 'pres': 180}
{'lipoC2': 7.53, 'lipoC3S1': 4.04, 'temp': 30.06, 'lipoC3S3': 12.21, 'lipoC3S2': 8.09, 'rot1': 0, 'rot0': 0, 'rot3': 0, 'rot2': 0, 'state': 'normal', 'yaw': 0.51, 'datetime': '2018-10-10 00:40:57.212961', 'mgs': 0, 'volt': 0.8838, 'depth': 1.309, 'time': 6, 'pitch': -1.07, 'roll': -0.3, 'pres': 181}
{'lipoC2': 7.53, 'lipoC3S1': 4.04, 'temp': 30.06, 'lipoC3S3': 12.21, 'lipoC3S2': 8.09, 'rot1': 0, 'rot0': 0, 'rot3': 0, 'rot2': 0, 'state': 'normal', 'yaw': 0.88, 'datetime': '2018-10-10 00:40:57.316285', 'mgs': 0, 'volt': 0.8838, 'depth': 1.309, 'time': 6, 'pitch': -1.87, 'roll': 0.52, 'pres': 181}
{'lipoC2': 7.53, 'lipoC3S1': 4.04, 'temp': 30.06, 'lipoC3S3': 12.21, 'lipoC3S2': 8.09, 'rot1': 0, 'rot0': 0, 'rot3': 0, 'rot2': 0, 'state': 'normal', 'yaw': 1.29, 'datetime': '2018-10-10 00:40:57.419453', 'mgs': 0, 'volt': 0.8838, 'depth': 1.309, 'time': 6, 'pitch': -2.2, 'roll': 1.32, 'pres': 181}
{'lipoC2': 7.53, 'lipoC3S1': 4.04, 'temp': 30.06, 'lipoC3S3': 12.21, 'lipoC3S2': 8.09, 'rot1': 0, 'rot0': 0, 'rot3': 0, 'rot2': 0, 'state': 'normal', 'yaw': 1.65, 'datetime': '2018-10-10 00:40:57.522835', 'mgs': 0, 'volt': 0.8838, 'depth': 1.309, 'time': 7, 'pitch': -2.0, 'roll': 2.0, 'pres': 181}
{'lipoC2': 7.53, 'lipoC3S1': 4.04, 'temp': 30.06, 'lipoC3S3': 12.21, 'lipoC3S2': 8.09, 'rot1': 0, 'rot0': 0, 'rot3': 0, 'rot2': 0, 'state': 'normal', 'yaw': 1.82, 'datetime': '2018-10-10 00:40:57.626064', 'mgs': 0, 'volt': 0.8838, 'depth': 1.309, 'time': 7, 'pitch': -1.62, 'roll': 2.69, 'pres': 181}
{'lipoC2': 7.53, 'lipoC3S1': 4.04, 'temp': 30.06, 'lipoC3S3': 12.21, 'lipoC3S2': 8.09, 'rot1': 0, 'rot0': 0, 'rot3': 0, 'rot2': 0, 'state': 'normal', 'yaw': 1.97, 'datetime': '2018-10-10 00:40:57.729219', 'mgs': 1, 'volt': 0.8838, 'depth': 1.309, 'time': 7, 'pitch': -1.59, 'roll': 3.18, 'pres': 181}
{'lipoC2': 7.53, 'lipoC3S1': 4.04, 'temp': 30.06, 'lipoC3S3': 12.21, 'lipoC3S2': 8.09, 'rot1': 0, 'rot0': 0, 'rot3': 0, 'rot2': 0, 'state': 'normal', 'yaw': -0.0, 'datetime': '2018-10-10 00:41:02.257940', 'mgs': 0, 'volt': 0.8838, 'depth': 1.309, 'time': 1, 'pitch': 5.05, 'roll': -0.38, 'pres': 181}
{'lipoC2': 7.53, 'lipoC3S1': 4.04, 'temp': 30.06, 'lipoC3S3': 12.21, 'lipoC3S2': 8.09, 'rot1': 0, 'rot0': 0, 'rot3': 0, 'rot2': 0, 'state': 'normal', 'yaw': 0.02, 'datetime': '2018-10-10 00:41:05.308348', 'mgs': 0, 'volt': 0.8838, 'depth': 1.309, 'time': 1, 'pitch': 4.83, 'roll': -0.36, 'pres': 181}
{'lipoC2': 7.53, 'lipoC3S1': 4.04, 'temp': 30.06, 'lipoC3S3': 12.21, 'lipoC3S2': 8.09, 'rot1': 0, 'rot0': 0, 'rot3': 0, 'rot2': 0, 'state': 'normal', 'yaw': 0.14, 'datetime': '2018-10-10 00:41:05.337458', 'mgs': 0, 'volt': 0.8887, 'depth': 1.385, 'time': 1, 'pitch': 4.39, 'roll': -0.12, 'pres': 182}
{'lipoC2': 7.53, 'lipoC3S1': 4.04, 'temp': 30.06, 'lipoC3S3': 12.21, 'lipoC3S2': 8.09, 'rot1': 0, 'rot0': 0, 'rot3': 0, 'rot2': 0, 'state': 'normal', 'yaw': 0.29, 'datetime': '2018-10-10 00:41:05.360661', 'mgs': 0, 'volt': 0.8838, 'depth': 1.309, 'time': 1, 'pitch': 3.99, 'roll': 0.22, 'pres': 181}
{'lipoC2': 7.53, 'lipoC3S1': 4.04, 'temp': 30.06, 'lipoC3S3': 12.21, 'lipoC3S2': 8.09, 'rot1': 0, 'rot0': 0, 'rot3': 0, 'rot2': 0, 'state': 'normal', 'yaw': 0.43, 'datetime': '2018-10-10 00:41:05.378952', 'mgs': 0, 'volt': 0.8887, 'depth': 1.385, 'time': 1, 'pitch': 3.88, 'roll': 0.65, 'pres': 182}
{'lipoC2': 7.53, 'lipoC3S1': 4.04, 'temp': 30.06, 'lipoC3S3': 12.21, 'lipoC3S2': 8.09, 'rot1': 0, 'rot0': 0, 'rot3': 0, 'rot2': 0, 'state': 'normal', 'yaw': 0.62, 'datetime': '2018-10-10 00:41:05.394840', 'mgs': 0, 'volt': 0.8887, 'depth': 1.385, 'time': 1, 'pitch': 3.94, 'roll': 1.05, 'pres': 182}
{'lipoC2': 7.53, 'lipoC3S1': 4.04, 'temp': 30.06, 'lipoC3S3': 12.21, 'lipoC3S2': 8.09, 'rot1': 0, 'rot0': 0, 'rot3': 0, 'rot2': 0, 'state': 'normal', 'yaw': 0.95, 'datetime': '2018-10-10 00:41:05.405009', 'mgs': 0, 'volt': 0.8887, 'depth': 1.385, 'time': 1, 'pitch': 4.02, 'roll': 1.43, 'pres': 182}
{'lipoC2': 7.53, 'lipoC3S1': 4.04, 'temp': 30.06, 'lipoC3S3': 12.21, 'lipoC3S2': 8.09, 'rot1': 0, 'rot0': 0, 'rot3': 0, 'rot2': 0, 'state': 'normal', 'yaw': 1.28, 'datetime': '2018-10-10 00:41:05.420911', 'mgs': 0, 'volt': 0.8936, 'depth': 1.462, 'time': 1, 'pitch': 3.98, 'roll': 1.68, 'pres': 183}
{'lipoC2': 7.53, 'lipoC3S1': 4.04, 'temp': 30.06, 'lipoC3S3': 12.21, 'lipoC3S2': 8.09, 'rot1': 0, 'rot0': 0, 'rot3': 0, 'rot2': 0, 'state': 'normal', 'yaw': 1.61, 'datetime': '2018-10-10 00:41:05.436952', 'mgs': 0, 'volt': 0.8936, 'depth': 1.462, 'time': 2, 'pitch': 3.65, 'roll': 1.84, 'pres': 183}
{'lipoC2': 7.53, 'lipoC3S1': 4.04, 'temp': 30.06, 'lipoC3S3': 12.21, 'lipoC3S2': 8.09, 'rot1': 0, 'rot0': 0, 'rot3': 0, 'rot2': 0, 'state': 'normal', 'yaw': 1.87, 'datetime': '2018-10-10 00:41:05.447027', 'mgs': 0, 'volt': 0.8936, 'depth': 1.462, 'time': 2, 'pitch': 3.31, 'roll': 1.95, 'pres': 183}
{'lipoC2': 7.53, 'lipoC3S1': 4.04, 'temp': 30.06, 'lipoC3S3': 12.21, 'lipoC3S2': 8.09, 'rot1': 0, 'rot0': 0, 'rot3': 0, 'rot2': 0, 'state': 'normal', 'yaw': 2.09, 'datetime': '2018-10-10 00:41:05.463321', 'mgs': 0, 'volt': 0.8936, 'depth': 1.462, 'time': 2, 'pitch': 3.06, 'roll': 2.1, 'pres': 183}
{'lipoC2': 7.53, 'lipoC3S1': 4.04, 'temp': 30.06, 'lipoC3S3': 12.21, 'lipoC3S2': 8.09, 'rot1': 0, 'rot0': 0, 'rot3': 0, 'rot2': 0, 'state': 'normal', 'yaw': 2.33, 'datetime': '2018-10-10 00:41:05.483153', 'mgs': 0, 'volt': 0.8936, 'depth': 1.462, 'time': 2, 'pitch': 2.99, 'roll': 2.35, 'pres': 183}
{'lipoC2': 7.53, 'lipoC3S1': 4.04, 'temp': 30.06, 'lipoC3S3': 12.21, 'lipoC3S2': 8.09, 'rot1': 0, 'rot0': 0, 'rot3': 0, 'rot2': 0, 'state': 'normal', 'yaw': 2.61, 'datetime': '2018-10-10 00:41:05.496723', 'mgs': 0, 'volt': 0.8936, 'depth': 1.462, 'time': 2, 'pitch': 2.92, 'roll': 2.6, 'pres': 183}
{'lipoC2': 7.53, 'lipoC3S1': 4.04, 'temp': 30.06, 'lipoC3S3': 12.21, 'lipoC3S2': 8.09, 'rot1': 0, 'rot0': 0, 'rot3': 0, 'rot2': 0, 'state': 'normal', 'yaw': 2.89, 'datetime': '2018-10-10 00:41:05.516025', 'mgs': 0, 'volt': 0.8936, 'depth': 1.462, 'time': 2, 'pitch': 3.04, 'roll': 2.72, 'pres': 183}
{'lipoC2': 7.53, 'lipoC3S1': 4.04, 'temp': 30.06, 'lipoC3S3': 12.21, 'lipoC3S2': 8.09, 'rot1': 0, 'rot0': 0, 'rot3': 0, 'rot2': 0, 'state': 'normal', 'yaw': 2.83, 'datetime': '2018-10-10 00:41:05.535332', 'mgs': 0, 'volt': 0.8936, 'depth': 1.462, 'time': 2, 'pitch': 2.98, 'roll': 2.66, 'pres': 183}
{'lipoC2': 7.53, 'lipoC3S1': 4.04, 'temp': 30.06, 'lipoC3S3': 12.21, 'lipoC3S2': 8.09, 'rot1': 0, 'rot0': 0, 'rot3': 0, 'rot2': 0, 'state': 'normal', 'yaw': 2.31, 'datetime': '2018-10-10 00:41:05.548641', 'mgs': 0, 'volt': 0.8936, 'depth': 1.462, 'time': 2, 'pitch': 2.9, 'roll': 2.27, 'pres': 183}
{'lipoC2': 7.53, 'lipoC3S1': 4.04, 'temp': 30.06, 'lipoC3S3': 12.21, 'lipoC3S2': 8.09, 'rot1': 0, 'rot0': 0, 'rot3': 0, 'rot2': 0, 'state': 'normal', 'yaw': 1.38, 'datetime': '2018-10-10 00:41:05.567778', 'mgs': 0, 'volt': 0.8887, 'depth': 1.385, 'time': 2, 'pitch': 3.19, 'roll': 2.07, 'pres': 182}
{'lipoC2': 7.53, 'lipoC3S1': 4.04, 'temp': 30.06, 'lipoC3S3': 12.21, 'lipoC3S2': 8.09, 'rot1': 0, 'rot0': 0, 'rot3': 0, 'rot2': 0, 'state': 'normal', 'yaw': -0.07, 'datetime': '2018-10-10 00:41:05.586017', 'mgs': 0, 'volt': 0.8936, 'depth': 1.462, 'time': 3, 'pitch': 3.24, 'roll': 2.38, 'pres': 183}
{'lipoC2': 7.53, 'lipoC3S1': 4.04, 'temp': 30.06, 'lipoC3S3': 12.21, 'lipoC3S2': 8.09, 'rot1': 0, 'rot0': 0, 'rot3': 0, 'rot2': 0, 'state': 'normal', 'yaw': -1.02, 'datetime': '2018-10-10 00:41:05.599623', 'mgs': 0, 'volt': 0.8936, 'depth': 1.462, 'time': 3, 'pitch': 3.19, 'roll': 2.7, 'pres': 183}
{'lipoC2': 7.53, 'lipoC3S1': 4.04, 'temp': 30.06, 'lipoC3S3': 12.21, 'lipoC3S2': 8.09, 'rot1': 0, 'rot0': 0, 'rot3': 0, 'rot2': 0, 'state': 'normal', 'yaw': -1.44, 'datetime': '2018-10-10 00:41:05.618803', 'mgs': 0, 'volt': 0.8936, 'depth': 1.462, 'time': 3, 'pitch': 2.92, 'roll': 2.86, 'pres': 183}
{'lipoC2': 7.53, 'lipoC3S1': 4.04, 'temp': 30.06, 'lipoC3S3': 12.21, 'lipoC3S2': 8.09, 'rot1': 0, 'rot0': 0, 'rot3': 0, 'rot2': 0, 'state': 'normal', 'yaw': -1.38, 'datetime': '2018-10-10 00:41:05.637907', 'mgs': 0, 'volt': 0.8936, 'depth': 1.462, 'time': 3, 'pitch': 2.6, 'roll': 2.64, 'pres': 183}
{'lipoC2': 7.53, 'lipoC3S1': 4.04, 'temp': 30.06, 'lipoC3S3': 12.21, 'lipoC3S2': 8.09, 'rot1': 0, 'rot0': 0, 'rot3': 0, 'rot2': 0, 'state': 'normal', 'yaw': -1.27, 'datetime': '2018-10-10 00:41:05.651133', 'mgs': 0, 'volt': 0.8936, 'depth': 1.462, 'time': 3, 'pitch': 2.29, 'roll': 2.14, 'pres': 183}
{'lipoC2': 7.53, 'lipoC3S1': 4.04, 'temp': 30.06, 'lipoC3S3': 12.21, 'lipoC3S2': 8.09, 'rot1': 0, 'rot0': 0, 'rot3': 0, 'rot2': 0, 'state': 'normal', 'yaw': -1.33, 'datetime': '2018-10-10 00:41:05.670343', 'mgs': 0, 'volt': 0.8887, 'depth': 1.385, 'time': 3, 'pitch': 2.02, 'roll': 1.66, 'pres': 182}
{'lipoC2': 7.53, 'lipoC3S1': 4.04, 'temp': 30.06, 'lipoC3S3': 12.21, 'lipoC3S2': 8.09, 'rot1': 0, 'rot0': 0, 'rot3': 0, 'rot2': 0, 'state': 'normal', 'yaw': -1.61, 'datetime': '2018-10-10 00:41:05.688920', 'mgs': 0, 'volt': 0.8887, 'depth': 1.385, 'time': 3, 'pitch': 2.16, 'roll': 1.46, 'pres': 182}
{'lipoC2': 7.53, 'lipoC3S1': 4.04, 'temp': 30.06, 'lipoC3S3': 12.21, 'lipoC3S2': 8.09, 'rot1': 0, 'rot0': 0, 'rot3': 0, 'rot2': 0, 'state': 'normal', 'yaw': -1.93, 'datetime': '2018-10-10 00:41:05.700475', 'mgs': 0, 'volt': 0.8887, 'depth': 1.385, 'time': 3, 'pitch': 2.53, 'roll': 1.45, 'pres': 182}
{'lipoC2': 7.53, 'lipoC3S1': 4.03, 'temp': 30.06, 'lipoC3S3': 12.21, 'lipoC3S2': 8.09, 'rot1': 0, 'rot0': 0, 'rot3': 0, 'rot2': 0, 'state': 'normal', 'yaw': -1.99, 'datetime': '2018-10-10 00:41:05.719713', 'mgs': 0, 'volt': 0.8838, 'depth': 1.309, 'time': 3, 'pitch': 2.84, 'roll': 1.39, 'pres': 181}
{'lipoC2': 7.53, 'lipoC3S1': 4.04, 'temp': 30.06, 'lipoC3S3': 12.21, 'lipoC3S2': 8.09, 'rot1': 0, 'rot0': 0, 'rot3': 0, 'rot2': 0, 'state': 'normal', 'yaw': -1.67, 'datetime': '2018-10-10 00:41:05.738829', 'mgs': 0, 'volt': 0.8887, 'depth': 1.385, 'time': 3, 'pitch': 2.86, 'roll': 1.01, 'pres': 182}
{'lipoC2': 7.53, 'lipoC3S1': 4.04, 'temp': 30.06, 'lipoC3S3': 12.21, 'lipoC3S2': 8.09, 'rot1': 0, 'rot0': 0, 'rot3': 0, 'rot2': 0, 'state': 'normal', 'yaw': -1.25, 'datetime': '2018-10-10 00:41:05.752512', 'mgs': 0, 'volt': 0.8838, 'depth': 1.309, 'time': 4, 'pitch': 2.59, 'roll': 0.51, 'pres': 181}
{'lipoC2': 7.53, 'lipoC3S1': 4.04, 'temp': 30.06, 'lipoC3S3': 12.21, 'lipoC3S2': 8.09, 'rot1': 0, 'rot0': 0, 'rot3': 0, 'rot2': 0, 'state': 'normal', 'yaw': -0.9, 'datetime': '2018-10-10 00:41:05.771771', 'mgs': 0, 'volt': 0.8838, 'depth': 1.309, 'time': 4, 'pitch': 2.42, 'roll': 0.16, 'pres': 181}
{'lipoC2': 7.53, 'lipoC3S1': 4.04, 'temp': 30.06, 'lipoC3S3': 12.21, 'lipoC3S2': 8.09, 'rot1': 0, 'rot0': 0, 'rot3': 0, 'rot2': 0, 'state': 'normal', 'yaw': -0.85, 'datetime': '2018-10-10 00:41:05.791400', 'mgs': 0, 'volt': 0.8838, 'depth': 1.309, 'time': 4, 'pitch': 2.52, 'roll': 0.13, 'pres': 181}
{'lipoC2': 7.53, 'lipoC3S1': 4.04, 'temp': 30.06, 'lipoC3S3': 12.21, 'lipoC3S2': 8.09, 'rot1': 0, 'rot0': 0, 'rot3': 0, 'rot2': 0, 'state': 'normal', 'yaw': -0.96, 'datetime': '2018-10-10 00:41:05.805310', 'mgs': 0, 'volt': 0.8838, 'depth': 1.309, 'time': 4, 'pitch': 2.74, 'roll': 0.33, 'pres': 181}
{'lipoC2': 7.52, 'lipoC3S1': 4.03, 'temp': 30.13, 'lipoC3S3': 12.19, 'lipoC3S2': 8.08, 'rot1': 0, 'rot0': 0, 'rot3': 0, 'rot2': 0, 'state': 'normal', 'yaw': -0.95, 'datetime': '2018-10-10 00:41:05.824397', 'mgs': 0, 'volt': 0.8789, 'depth': 1.233, 'time': 4, 'pitch': 2.87, 'roll': 0.6, 'pres': 180}
{'lipoC2': 7.52, 'lipoC3S1': 3.98, 'temp': 30.13, 'lipoC3S3': 12.14, 'lipoC3S2': 8.05, 'rot1': 0, 'rot0': 0, 'rot3': 1, 'rot2': 0, 'state': 'normal', 'yaw': -0.87, 'datetime': '2018-10-10 00:41:05.842294', 'mgs': 0, 'volt': 0.8887, 'depth': 1.385, 'time': 4, 'pitch': 2.81, 'roll': 1.06, 'pres': 182}
{'lipoC2': 7.52, 'lipoC3S1': 3.97, 'temp': 30.06, 'lipoC3S3': 12.09, 'lipoC3S2': 8.0, 'rot1': 0, 'rot0': 0, 'rot3': 2, 'rot2': 1, 'state': 'normal', 'yaw': -0.77, 'datetime': '2018-10-10 00:41:05.852287', 'mgs': 0, 'volt': 0.874, 'depth': 1.157, 'time': 4, 'pitch': 2.94, 'roll': 1.77, 'pres': 179}
{'lipoC2': 7.52, 'lipoC3S1': 3.98, 'temp': 30.06, 'lipoC3S3': 12.13, 'lipoC3S2': 8.03, 'rot1': 0, 'rot0': 0, 'rot3': 3, 'rot2': 2, 'state': 'normal', 'yaw': -0.65, 'datetime': '2018-10-10 00:41:05.871368', 'mgs': 0, 'volt': 0.8887, 'depth': 1.385, 'time': 4, 'pitch': 3.41, 'roll': 2.33, 'pres': 182}
{'lipoC2': 7.52, 'lipoC3S1': 4.0, 'temp': 30.13, 'lipoC3S3': 12.09, 'lipoC3S2': 8.04, 'rot1': 0, 'rot0': 0, 'rot3': 4, 'rot2': 2, 'state': 'normal', 'yaw': -0.35, 'datetime': '2018-10-10 00:41:05.890600', 'mgs': 0, 'volt': 0.8887, 'depth': 1.385, 'time': 4, 'pitch': 4.27, 'roll': 2.76, 'pres': 182}
{'lipoC2': 7.52, 'lipoC3S1': 3.99, 'temp': 30.13, 'lipoC3S3': 12.13, 'lipoC3S2': 8.05, 'rot1': 0, 'rot0': 0, 'rot3': 5, 'rot2': 3, 'state': 'normal', 'yaw': -0.11, 'datetime': '2018-10-10 00:41:05.903830', 'mgs': 0, 'volt': 0.8789, 'depth': 1.233, 'time': 4, 'pitch': 4.94, 'roll': 3.25, 'pres': 180}
{'lipoC2': 7.52, 'lipoC3S1': 4.02, 'temp': 30.13, 'lipoC3S3': 12.1, 'lipoC3S2': 8.01, 'rot1': 0, 'rot0': 0, 'rot3': 6, 'rot2': 4, 'state': 'normal', 'yaw': 0.01, 'datetime': '2018-10-10 00:41:05.922957', 'mgs': 0, 'volt': 0.8643, 'depth': 1.004, 'time': 5, 'pitch': 5.02, 'roll': 3.93, 'pres': 177}
{'lipoC2': 7.52, 'lipoC3S1': 4.0, 'temp': 30.0, 'lipoC3S3': 12.14, 'lipoC3S2': 8.04, 'rot1': 0, 'rot0': 0, 'rot3': 7, 'rot2': 5, 'state': 'normal', 'yaw': 0.14, 'datetime': '2018-10-10 00:41:05.942239', 'mgs': 0, 'volt': 0.8789, 'depth': 1.233, 'time': 5, 'pitch': 4.44, 'roll': 4.5, 'pres': 180}
{'lipoC2': 7.52, 'lipoC3S1': 4.0, 'temp': 30.0, 'lipoC3S3': 12.09, 'lipoC3S2': 8.0, 'rot1': 0, 'rot0': 0, 'rot3': 8, 'rot2': 5, 'state': 'normal', 'yaw': 0.27, 'datetime': '2018-10-10 00:41:05.955495', 'mgs': 0, 'volt': 0.8545, 'depth': 0.851, 'time': 5, 'pitch': 3.44, 'roll': 4.93, 'pres': 175}
{'lipoC2': 7.53, 'lipoC3S1': 3.99, 'temp': 30.06, 'lipoC3S3': 12.14, 'lipoC3S2': 8.03, 'rot1': 0, 'rot0': 0, 'rot3': 9, 'rot2': 6, 'state': 'normal', 'yaw': 0.34, 'datetime': '2018-10-10 00:41:05.974839', 'mgs': 0, 'volt': 0.8691, 'depth': 1.08, 'time': 5, 'pitch': 2.23, 'roll': 5.19, 'pres': 178}
{'lipoC2': 7.52, 'lipoC3S1': 4.01, 'temp': 30.06, 'lipoC3S3': 12.09, 'lipoC3S2': 8.03, 'rot1': 0, 'rot0': 0, 'rot3': 10, 'rot2': 7, 'state': 'normal', 'yaw': 0.38, 'datetime': '2018-10-10 00:41:05.994447', 'mgs': 0, 'volt': 0.8545, 'depth': 0.851, 'time': 5, 'pitch': 0.93, 'roll': 5.16, 'pres': 175}
{'lipoC2': 7.52, 'lipoC3S1': 3.98, 'temp': 30.06, 'lipoC3S3': 12.1, 'lipoC3S2': 8.01, 'rot1': 0, 'rot0': 0, 'rot3': 12, 'rot2': 8, 'state': 'normal', 'yaw': 0.44, 'datetime': '2018-10-10 00:41:06.008468', 'mgs': 0, 'volt': 0.8398, 'depth': 0.623, 'time': 5, 'pitch': -0.31, 'roll': 4.83, 'pres': 172}
{'lipoC2': 7.53, 'lipoC3S1': 3.99, 'temp': 30.06, 'lipoC3S3': 12.14, 'lipoC3S2': 8.03, 'rot1': 0, 'rot0': 0, 'rot3': 13, 'rot2': 9, 'state': 'normal', 'yaw': 0.5, 'datetime': '2018-10-10 00:41:06.027583', 'mgs': 0, 'volt': 0.8545, 'depth': 0.851, 'time': 5, 'pitch': -1.04, 'roll': 4.14, 'pres': 175}
{'lipoC2': 7.52, 'lipoC3S1': 4.0, 'temp': 30.06, 'lipoC3S3': 12.14, 'lipoC3S2': 8.06, 'rot1': 0, 'rot0': 0, 'rot3': 14, 'rot2': 10, 'state': 'normal', 'yaw': 0.49, 'datetime': '2018-10-10 00:41:06.046709', 'mgs': 0, 'volt': 0.8496, 'depth': 0.775, 'time': 5, 'pitch': -1.35, 'roll': 3.03, 'pres': 174}
{'lipoC2': 7.52, 'lipoC3S1': 4.0, 'temp': 30.25, 'lipoC3S3': 12.1, 'lipoC3S2': 8.05, 'rot1': 0, 'rot0': 0, 'rot3': 15, 'rot2': 11, 'state': 'normal', 'yaw': 0.51, 'datetime': '2018-10-10 00:41:06.059926', 'mgs': 0, 'volt': 0.8545, 'depth': 0.851, 'time': 5, 'pitch': -1.21, 'roll': 2.26, 'pres': 175}
{'lipoC2': 7.52, 'lipoC3S1': 4.01, 'temp': 30.25, 'lipoC3S3': 12.1, 'lipoC3S2': 8.05, 'rot1': 0, 'rot0': 0, 'rot3': 17, 'rot2': 12, 'state': 'normal', 'yaw': 0.52, 'datetime': '2018-10-10 00:41:06.079109', 'mgs': 0, 'volt': 0.8447, 'depth': 0.699, 'time': 5, 'pitch': -0.95, 'roll': 2.08, 'pres': 173}
{'lipoC2': 7.52, 'lipoC3S1': 4.0, 'temp': 30.13, 'lipoC3S3': 12.14, 'lipoC3S2': 8.05, 'rot1': 0, 'rot0': 0, 'rot3': 18, 'rot2': 12, 'state': 'normal', 'yaw': 0.52, 'datetime': '2018-10-10 00:41:06.098749', 'mgs': 0, 'volt': 0.8496, 'depth': 0.775, 'time': 6, 'pitch': -1.02, 'roll': 2.44, 'pres': 174}
{'lipoC2': 7.52, 'lipoC3S1': 4.0, 'temp': 30.13, 'lipoC3S3': 12.14, 'lipoC3S2': 8.06, 'rot1': 0, 'rot0': 0, 'rot3': 19, 'rot2': 13, 'state': 'normal', 'yaw': 0.5, 'datetime': '2018-10-10 00:41:06.110783', 'mgs': 0, 'volt': 0.8447, 'depth': 0.699, 'time': 6, 'pitch': -1.42, 'roll': 2.99, 'pres': 173}
{'lipoC2': 7.53, 'lipoC3S1': 3.99, 'temp': 30.13, 'lipoC3S3': 12.14, 'lipoC3S2': 8.04, 'rot1': 0, 'rot0': 0, 'rot3': 20, 'rot2': 14, 'state': 'normal', 'yaw': 0.46, 'datetime': '2018-10-10 00:41:06.129940', 'mgs': 0, 'volt': 0.8545, 'depth': 0.851, 'time': 6, 'pitch': -1.79, 'roll': 3.49, 'pres': 175}
{'lipoC2': 7.53, 'lipoC3S1': 3.99, 'temp': 30.13, 'lipoC3S3': 12.13, 'lipoC3S2': 8.04, 'rot1': 0, 'rot0': 0, 'rot3': 21, 'rot2': 15, 'state': 'normal', 'yaw': 0.41, 'datetime': '2018-10-10 00:41:06.149051', 'mgs': 0, 'volt': 0.8447, 'depth': 0.699, 'time': 6, 'pitch': -2.02, 'roll': 3.43, 'pres': 173}
{'lipoC2': 7.52, 'lipoC3S1': 3.98, 'temp': 30.13, 'lipoC3S3': 12.14, 'lipoC3S2': 8.03, 'rot1': 0, 'rot0': 0, 'rot3': 23, 'rot2': 16, 'state': 'normal', 'yaw': 0.42, 'datetime': '2018-10-10 00:41:06.162086', 'mgs': 0, 'volt': 0.8447, 'depth': 0.699, 'time': 6, 'pitch': -1.84, 'roll': 2.92, 'pres': 173}
{'lipoC2': 7.52, 'lipoC3S1': 3.98, 'temp': 30.06, 'lipoC3S3': 12.12, 'lipoC3S2': 8.03, 'rot1': 0, 'rot0': 0, 'rot3': 24, 'rot2': 17, 'state': 'normal', 'yaw': 0.44, 'datetime': '2018-10-10 00:41:06.178195', 'mgs': 0, 'volt': 0.8301, 'depth': 0.47, 'time': 6, 'pitch': -1.19, 'roll': 2.3, 'pres': 170}
{'lipoC2': 7.53, 'lipoC3S1': 3.99, 'temp': 30.06, 'lipoC3S3': 12.12, 'lipoC3S2': 8.03, 'rot1': 0, 'rot0': 0, 'rot3': 25, 'rot2': 18, 'state': 'normal', 'yaw': 0.48, 'datetime': '2018-10-10 00:41:06.194435', 'mgs': 0, 'volt': 0.8252, 'depth': 0.394, 'time': 6, 'pitch': -0.25, 'roll': 1.93, 'pres': 169}
{'lipoC2': 7.52, 'lipoC3S1': 3.99, 'temp': 30.13, 'lipoC3S3': 12.14, 'lipoC3S2': 8.03, 'rot1': 0, 'rot0': 0, 'rot3': 26, 'rot2': 19, 'state': 'normal', 'yaw': 0.51, 'datetime': '2018-10-10 00:41:06.204082', 'mgs': 0, 'volt': 0.8545, 'depth': 0.851, 'time': 6, 'pitch': 0.69, 'roll': 2.01, 'pres': 175}
{'lipoC2': 7.53, 'lipoC3S1': 3.98, 'temp': 30.13, 'lipoC3S3': 12.14, 'lipoC3S2': 8.03, 'rot1': 0, 'rot0': 0, 'rot3': 27, 'rot2': 20, 'state': 'normal', 'yaw': 0.5, 'datetime': '2018-10-10 00:41:06.220171', 'mgs': 0, 'volt': 0.8545, 'depth': 0.851, 'time': 6, 'pitch': 1.23, 'roll': 2.38, 'pres': 175}
{'lipoC2': 7.53, 'lipoC3S1': 3.98, 'temp': 30.06, 'lipoC3S3': 12.1, 'lipoC3S2': 8.01, 'rot1': 0, 'rot0': 0, 'rot3': 29, 'rot2': 20, 'state': 'normal', 'yaw': 0.45, 'datetime': '2018-10-10 00:41:06.235635', 'mgs': 0, 'volt': 0.8398, 'depth': 0.623, 'time': 7, 'pitch': 1.43, 'roll': 2.8, 'pres': 172}
{'lipoC2': 7.53, 'lipoC3S1': 3.99, 'temp': 30.06, 'lipoC3S3': 12.12, 'lipoC3S2': 8.02, 'rot1': 0, 'rot0': 0, 'rot3': 30, 'rot2': 21, 'state': 'normal', 'yaw': 0.36, 'datetime': '2018-10-10 00:41:06.245163', 'mgs': 0, 'volt': 0.835, 'depth': 0.546, 'time': 7, 'pitch': 1.3, 'roll': 3.05, 'pres': 171}
{'lipoC2': 7.52, 'lipoC3S1': 3.98, 'temp': 30.06, 'lipoC3S3': 12.13, 'lipoC3S2': 8.03, 'rot1': 0, 'rot0': 0, 'rot3': 31, 'rot2': 22, 'state': 'normal', 'yaw': 0.34, 'datetime': '2018-10-10 00:41:06.260629', 'mgs': 0, 'volt': 0.8594, 'depth': 0.928, 'time': 7, 'pitch': 0.91, 'roll': 3.03, 'pres': 176}
{'lipoC2': 7.53, 'lipoC3S1': 4.0, 'temp': 30.06, 'lipoC3S3': 12.13, 'lipoC3S2': 8.04, 'rot1': 0, 'rot0': 0, 'rot3': 32, 'rot2': 23, 'state': 'normal', 'yaw': 0.34, 'datetime': '2018-10-10 00:41:06.276088', 'mgs': 0, 'volt': 0.8643, 'depth': 1.004, 'time': 7, 'pitch': 0.66, 'roll': 2.79, 'pres': 177}
{'lipoC2': 7.52, 'lipoC3S1': 3.98, 'temp': 30.06, 'lipoC3S3': 12.14, 'lipoC3S2': 8.03, 'rot1': 0, 'rot0': 0, 'rot3': 34, 'rot2': 24, 'state': 'normal', 'yaw': 0.38, 'datetime': '2018-10-10 00:41:06.285686', 'mgs': 0, 'volt': 0.8594, 'depth': 0.928, 'time': 7, 'pitch': 0.71, 'roll': 2.44, 'pres': 176}
{'lipoC2': 7.53, 'lipoC3S1': 4.03, 'temp': 30.0, 'lipoC3S3': 12.18, 'lipoC3S2': 8.08, 'rot1': 0, 'rot0': 0, 'rot3': 34, 'rot2': 25, 'state': 'normal', 'yaw': 0.42, 'datetime': '2018-10-10 00:41:06.302457', 'mgs': 0, 'volt': 0.8398, 'depth': 0.623, 'time': 7, 'pitch': 0.94, 'roll': 2.25, 'pres': 172}
{'lipoC2': 7.51, 'lipoC3S1': 3.99, 'temp': 30.0, 'lipoC3S3': 11.92, 'lipoC3S2': 8.0, 'rot1': 0, 'rot0': 0, 'rot3': 34, 'rot2': 25, 'state': 'normal', 'yaw': 0.45, 'datetime': '2018-10-10 00:41:06.317925', 'mgs': 0, 'volt': 0.8398, 'depth': 0.623, 'time': 7, 'pitch': 1.13, 'roll': 2.25, 'pres': 172}
{'lipoC2': 7.52, 'lipoC3S1': 3.99, 'temp': 30.0, 'lipoC3S3': 11.96, 'lipoC3S2': 7.94, 'rot1': 1, 'rot0': 2, 'rot3': 35, 'rot2': 25, 'state': 'normal', 'yaw': -0.04, 'datetime': '2018-10-10 00:41:06.327419', 'mgs': 0, 'volt': 0.8398, 'depth': 0.623, 'time': 7, 'pitch': 2.23, 'roll': 2.52, 'pres': 172}
{'lipoC2': 7.53, 'lipoC3S1': 3.98, 'temp': 30.0, 'lipoC3S3': 11.88, 'lipoC3S2': 7.97, 'rot1': 2, 'rot0': 3, 'rot3': 36, 'rot2': 26, 'state': 'normal', 'yaw': -1.26, 'datetime': '2018-10-10 00:41:06.342919', 'mgs': 0, 'volt': 0.8398, 'depth': 0.623, 'time': 7, 'pitch': 3.89, 'roll': 2.85, 'pres': 172}
{'lipoC2': 7.51, 'lipoC3S1': 3.99, 'temp': 30.0, 'lipoC3S3': 12.08, 'lipoC3S2': 8.03, 'rot1': 3, 'rot0': 5, 'rot3': 36, 'rot2': 26, 'state': 'normal', 'yaw': -2.82, 'datetime': '2018-10-10 00:41:06.358509', 'mgs': 0, 'volt': 0.8936, 'depth': 1.462, 'time': 7, 'pitch': 5.63, 'roll': 3.08, 'pres': 183}
{'lipoC2': 7.52, 'lipoC3S1': 4.0, 'temp': 30.06, 'lipoC3S3': 12.06, 'lipoC3S2': 8.02, 'rot1': 5, 'rot0': 6, 'rot3': 36, 'rot2': 27, 'state': 'normal', 'yaw': -4.48, 'datetime': '2018-10-10 00:41:06.368090', 'mgs': 0, 'volt': 0.874, 'depth': 1.157, 'time': 8, 'pitch': 7.22, 'roll': 3.19, 'pres': 179}
{'lipoC2': 7.51, 'lipoC3S1': 3.99, 'temp': 30.06, 'lipoC3S3': 11.85, 'lipoC3S2': 8.02, 'rot1': 6, 'rot0': 8, 'rot3': 36, 'rot2': 27, 'state': 'normal', 'yaw': -5.91, 'datetime': '2018-10-10 00:41:06.383626', 'mgs': 0, 'volt': 0.8643, 'depth': 1.004, 'time': 8, 'pitch': 8.25, 'roll': 3.04, 'pres': 177}
{'lipoC2': 7.52, 'lipoC3S1': 3.94, 'temp': 30.06, 'lipoC3S3': 12.1, 'lipoC3S2': 8.03, 'rot1': 7, 'rot0': 9, 'rot3': 36, 'rot2': 27, 'state': 'normal', 'yaw': -7.2, 'datetime': '2018-10-10 00:41:06.399224', 'mgs': 0, 'volt': 0.8838, 'depth': 1.309, 'time': 8, 'pitch': 8.89, 'roll': 2.51, 'pres': 181}
{'lipoC2': 7.52, 'lipoC3S1': 3.96, 'temp': 30.06, 'lipoC3S3': 12.09, 'lipoC3S2': 8.03, 'rot1': 8, 'rot0': 11, 'rot3': 36, 'rot2': 27, 'state': 'normal', 'yaw': -8.47, 'datetime': '2018-10-10 00:41:06.410772', 'mgs': 0, 'volt': 0.9375, 'depth': 2.148, 'time': 8, 'pitch': 9.15, 'roll': 1.71, 'pres': 192}
{'lipoC2': 7.53, 'lipoC3S1': 3.9, 'temp': 30.06, 'lipoC3S3': 12.1, 'lipoC3S2': 8.03, 'rot1': 10, 'rot0': 12, 'rot3': 36, 'rot2': 27, 'state': 'normal', 'yaw': -9.55, 'datetime': '2018-10-10 00:41:06.427111', 'mgs': 0, 'volt': 0.8594, 'depth': 0.928, 'time': 8, 'pitch': 9.12, 'roll': 1.12, 'pres': 176}
{'lipoC2': 7.53, 'lipoC3S1': 4.0, 'temp': 30.06, 'lipoC3S3': 12.06, 'lipoC3S2': 8.05, 'rot1': 11, 'rot0': 13, 'rot3': 36, 'rot2': 27, 'state': 'normal', 'yaw': -10.62, 'datetime': '2018-10-10 00:41:06.442729', 'mgs': 0, 'volt': 0.8545, 'depth': 0.851, 'time': 8, 'pitch': 9.26, 'roll': 0.98, 'pres': 175}
{'lipoC2': 7.51, 'lipoC3S1': 3.99, 'temp': 30.06, 'lipoC3S3': 12.0, 'lipoC3S2': 8.01, 'rot1': 12, 'rot0': 14, 'rot3': 37, 'rot2': 27, 'state': 'normal', 'yaw': -11.54, 'datetime': '2018-10-10 00:41:06.524738', 'mgs': 0, 'volt': 0.874, 'depth': 1.157, 'time': 8, 'pitch': 9.56, 'roll': 1.17, 'pres': 179}
{'lipoC2': 7.53, 'lipoC3S1': 3.96, 'temp': 30.0, 'lipoC3S3': 12.13, 'lipoC3S2': 8.05, 'rot1': 13, 'rot0': 15, 'rot3': 37, 'rot2': 27, 'state': 'normal', 'yaw': -11.7, 'datetime': '2018-10-10 00:41:06.628285', 'mgs': 0, 'volt': 0.9082, 'depth': 1.691, 'time': 8, 'pitch': 10.05, 'roll': 1.35, 'pres': 186}
{'lipoC2': 7.53, 'lipoC3S1': 4.01, 'temp': 30.0, 'lipoC3S3': 12.12, 'lipoC3S2': 7.98, 'rot1': 15, 'rot0': 16, 'rot3': 37, 'rot2': 27, 'state': 'normal', 'yaw': -11.38, 'datetime': '2018-10-10 00:41:06.731831', 'mgs': 0, 'volt': 0.8545, 'depth': 0.851, 'time': 8, 'pitch': 9.88, 'roll': 1.17, 'pres': 175}
{'lipoC2': 7.51, 'lipoC3S1': 4.0, 'temp': 30.0, 'lipoC3S3': 12.12, 'lipoC3S2': 8.04, 'rot1': 16, 'rot0': 17, 'rot3': 37, 'rot2': 27, 'state': 'normal', 'yaw': -10.57, 'datetime': '2018-10-10 00:41:06.842198', 'mgs': 0, 'volt': 0.8594, 'depth': 0.928, 'time': 8, 'pitch': 9.0, 'roll': 0.73, 'pres': 176}
{'lipoC2': 7.53, 'lipoC3S1': 4.01, 'temp': 30.0, 'lipoC3S3': 12.13, 'lipoC3S2': 8.05, 'rot1': 17, 'rot0': 18, 'rot3': 37, 'rot2': 27, 'state': 'normal', 'yaw': -9.49, 'datetime': '2018-10-10 00:41:06.945766', 'mgs': 0, 'volt': 0.8496, 'depth': 0.775, 'time': 9, 'pitch': 8.29, 'roll': 0.42, 'pres': 174}
{'lipoC2': 7.53, 'lipoC3S1': 3.95, 'temp': 30.13, 'lipoC3S3': 12.14, 'lipoC3S2': 7.98, 'rot1': 18, 'rot0': 19, 'rot3': 37, 'rot2': 27, 'state': 'normal', 'yaw': -8.16, 'datetime': '2018-10-10 00:41:07.049312', 'mgs': 0, 'volt': 0.8643, 'depth': 1.004, 'time': 9, 'pitch': 8.27, 'roll': 0.25, 'pres': 177}
{'lipoC2': 7.52, 'lipoC3S1': 4.0, 'temp': 30.13, 'lipoC3S3': 12.04, 'lipoC3S2': 8.03, 'rot1': 20, 'rot0': 19, 'rot3': 37, 'rot2': 27, 'state': 'normal', 'yaw': -6.48, 'datetime': '2018-10-10 00:41:07.152900', 'mgs': 0, 'volt': 0.8594, 'depth': 0.928, 'time': 9, 'pitch': 8.71, 'roll': 0.13, 'pres': 176}
{'lipoC2': 7.53, 'lipoC3S1': 4.01, 'temp': 30.13, 'lipoC3S3': 12.13, 'lipoC3S2': 8.04, 'rot1': 21, 'rot0': 20, 'rot3': 37, 'rot2': 27, 'state': 'normal', 'yaw': -4.79, 'datetime': '2018-10-10 00:41:07.256428', 'mgs': 0, 'volt': 0.9033, 'depth': 1.614, 'time': 9, 'pitch': 8.61, 'roll': 0.09, 'pres': 185}
{'lipoC2': 7.52, 'lipoC3S1': 4.0, 'temp': 30.13, 'lipoC3S3': 12.02, 'lipoC3S2': 8.03, 'rot1': 23, 'rot0': 21, 'rot3': 37, 'rot2': 27, 'state': 'normal', 'yaw': -3.04, 'datetime': '2018-10-10 00:41:07.361190', 'mgs': 0, 'volt': 0.8643, 'depth': 1.004, 'time': 9, 'pitch': 8.09, 'roll': 0.03, 'pres': 177}
{'lipoC2': 7.53, 'lipoC3S1': 4.01, 'temp': 30.13, 'lipoC3S3': 12.13, 'lipoC3S2': 8.05, 'rot1': 24, 'rot0': 22, 'rot3': 37, 'rot2': 27, 'state': 'normal', 'yaw': -1.0, 'datetime': '2018-10-10 00:41:07.464831', 'mgs': 0, 'volt': 0.8643, 'depth': 1.004, 'time': 9, 'pitch': 7.55, 'roll': -0.07, 'pres': 177}
{'lipoC2': 7.53, 'lipoC3S1': 3.96, 'temp': 29.94, 'lipoC3S3': 12.13, 'lipoC3S2': 7.96, 'rot1': 25, 'rot0': 23, 'rot3': 37, 'rot2': 27, 'state': 'normal', 'yaw': 0.96, 'datetime': '2018-10-10 00:41:07.562439', 'mgs': 0, 'volt': 0.8691, 'depth': 1.08, 'time': 9, 'pitch': 7.54, 'roll': -0.13, 'pres': 178}
{'lipoC2': 7.52, 'lipoC3S1': 3.94, 'temp': 29.94, 'lipoC3S3': 12.1, 'lipoC3S2': 8.03, 'rot1': 27, 'rot0': 24, 'rot3': 37, 'rot2': 27, 'state': 'normal', 'yaw': 2.94, 'datetime': '2018-10-10 00:41:07.667111', 'mgs': 0, 'volt': 0.9717, 'depth': 2.682, 'time': 9, 'pitch': 8.14, 'roll': -0.16, 'pres': 199}
{'lipoC2': 7.53, 'lipoC3S1': 3.98, 'temp': 30.13, 'lipoC3S3': 12.04, 'lipoC3S2': 7.86, 'rot1': 28, 'rot0': 25, 'rot3': 37, 'rot2': 27, 'state': 'normal', 'yaw': 4.54, 'datetime': '2018-10-10 00:41:07.773732', 'mgs': 0, 'volt': 0.8691, 'depth': 1.08, 'time': 9, 'pitch': 9.38, 'roll': -0.08, 'pres': 178}
{'lipoC2': 7.51, 'lipoC3S1': 3.99, 'temp': 30.13, 'lipoC3S3': 12.05, 'lipoC3S2': 8.02, 'rot1': 29, 'rot0': 27, 'rot3': 37, 'rot2': 27, 'state': 'normal', 'yaw': 5.39, 'datetime': '2018-10-10 00:41:07.880299', 'mgs': 0, 'volt': 0.8984, 'depth': 1.538, 'time': 10, 'pitch': 10.24, 'roll': -0.2, 'pres': 184}
{'lipoC2': 7.53, 'lipoC3S1': 3.99, 'temp': 30.13, 'lipoC3S3': 12.01, 'lipoC3S2': 7.93, 'rot1': 30, 'rot0': 28, 'rot3': 37, 'rot2': 27, 'state': 'normal', 'yaw': 5.89, 'datetime': '2018-10-10 00:41:07.984198', 'mgs': 0, 'volt': 0.8691, 'depth': 1.08, 'time': 10, 'pitch': 10.45, 'roll': -0.47, 'pres': 178}
{'lipoC2': 7.53, 'lipoC3S1': 3.98, 'temp': 30.06, 'lipoC3S3': 12.1, 'lipoC3S2': 8.03, 'rot1': 31, 'rot0': 30, 'rot3': 37, 'rot2': 27, 'state': 'normal', 'yaw': 5.76, 'datetime': '2018-10-10 00:41:08.087862', 'mgs': 0, 'volt': 0.9229, 'depth': 1.92, 'time': 10, 'pitch': 10.35, 'roll': -0.86, 'pres': 189}
{'lipoC2': 7.53, 'lipoC3S1': 3.97, 'temp': 30.06, 'lipoC3S3': 11.9, 'lipoC3S2': 7.84, 'rot1': 32, 'rot0': 31, 'rot3': 37, 'rot2': 27, 'state': 'normal', 'yaw': 4.95, 'datetime': '2018-10-10 00:41:08.191624', 'mgs': 0, 'volt': 0.874, 'depth': 1.157, 'time': 10, 'pitch': 10.42, 'roll': -1.19, 'pres': 179}
{'lipoC2': 7.53, 'lipoC3S1': 3.96, 'temp': 30.06, 'lipoC3S3': 12.08, 'lipoC3S2': 8.02, 'rot1': 33, 'rot0': 33, 'rot3': 38, 'rot2': 28, 'state': 'normal', 'yaw': 3.7, 'datetime': '2018-10-10 00:41:08.295335', 'mgs': 0, 'volt': 0.9375, 'depth': 2.148, 'time': 10, 'pitch': 10.84, 'roll': -1.28, 'pres': 192}
{'lipoC2': 7.52, 'lipoC3S1': 3.98, 'temp': 30.06, 'lipoC3S3': 11.94, 'lipoC3S2': 7.95, 'rot1': 34, 'rot0': 34, 'rot3': 38, 'rot2': 29, 'state': 'normal', 'yaw': 2.01, 'datetime': '2018-10-10 00:41:08.399059', 'mgs': 0, 'volt': 0.8691, 'depth': 1.08, 'time': 10, 'pitch': 11.34, 'roll': -1.06, 'pres': 178}
{'lipoC2': 7.53, 'lipoC3S1': 3.94, 'temp': 30.06, 'lipoC3S3': 12.1, 'lipoC3S2': 8.03, 'rot1': 34, 'rot0': 36, 'rot3': 39, 'rot2': 29, 'state': 'normal', 'yaw': 0.23, 'datetime': '2018-10-10 00:41:08.502842', 'mgs': 0, 'volt': 0.9229, 'depth': 1.92, 'time': 10, 'pitch': 11.25, 'roll': -0.73, 'pres': 189}
{'lipoC2': 7.52, 'lipoC3S1': 3.99, 'temp': 30.06, 'lipoC3S3': 11.9, 'lipoC3S2': 7.99, 'rot1': 36, 'rot0': 37, 'rot3': 39, 'rot2': 29, 'state': 'normal', 'yaw': -1.89, 'datetime': '2018-10-10 00:41:08.606555', 'mgs': 0, 'volt': 0.8643, 'depth': 1.004, 'time': 10, 'pitch': 10.5, 'roll': -0.5, 'pres': 177}
{'lipoC2': 7.53, 'lipoC3S1': 3.93, 'temp': 30.06, 'lipoC3S3': 12.09, 'lipoC3S2': 8.02, 'rot1': 37, 'rot0': 38, 'rot3': 39, 'rot2': 29, 'state': 'normal', 'yaw': -3.6, 'datetime': '2018-10-10 00:41:08.710198', 'mgs': 0, 'volt': 0.8984, 'depth': 1.538, 'time': 10, 'pitch': 9.89, 'roll': -0.4, 'pres': 184}
{'lipoC2': 7.5, 'lipoC3S1': 3.98, 'temp': 30.06, 'lipoC3S3': 12.02, 'lipoC3S2': 8.0, 'rot1': 38, 'rot0': 40, 'rot3': 39, 'rot2': 29, 'state': 'normal', 'yaw': -4.97, 'datetime': '2018-10-10 00:41:08.815218', 'mgs': 0, 'volt': 0.957, 'depth': 2.454, 'time': 10, 'pitch': 9.86, 'roll': -0.4, 'pres': 196}
{'lipoC2': 7.53, 'lipoC3S1': 3.98, 'temp': 30.06, 'lipoC3S3': 11.98, 'lipoC3S2': 7.87, 'rot1': 39, 'rot0': 41, 'rot3': 40, 'rot2': 30, 'state': 'normal', 'yaw': -6.18, 'datetime': '2018-10-10 00:41:08.919015', 'mgs': 0, 'volt': 0.8643, 'depth': 1.004, 'time': 11, 'pitch': 10.35, 'roll': -0.43, 'pres': 177}
{'lipoC2': 7.52, 'lipoC3S1': 3.99, 'temp': 30.13, 'lipoC3S3': 12.08, 'lipoC3S2': 8.02, 'rot1': 40, 'rot0': 42, 'rot3': 40, 'rot2': 30, 'state': 'normal', 'yaw': -6.59, 'datetime': '2018-10-10 00:41:09.023663', 'mgs': 0, 'volt': 0.9326, 'depth': 2.072, 'time': 11, 'pitch': 10.37, 'roll': -0.3, 'pres': 191}
{'lipoC2': 7.53, 'lipoC3S1': 3.99, 'temp': 30.13, 'lipoC3S3': 11.98, 'lipoC3S2': 8.01, 'rot1': 42, 'rot0': 43, 'rot3': 41, 'rot2': 31, 'state': 'normal', 'yaw': -6.3, 'datetime': '2018-10-10 00:41:09.127657', 'mgs': 0, 'volt': 0.8936, 'depth': 1.462, 'time': 11, 'pitch': 9.73, 'roll': 0.18, 'pres': 183}
{'lipoC2': 7.53, 'lipoC3S1': 3.9, 'temp': 30.06, 'lipoC3S3': 12.09, 'lipoC3S2': 7.93, 'rot1': 43, 'rot0': 44, 'rot3': 42, 'rot2': 31, 'state': 'normal', 'yaw': -5.64, 'datetime': '2018-10-10 00:41:09.231379', 'mgs': 0, 'volt': 0.8643, 'depth': 1.004, 'time': 11, 'pitch': 8.94, 'roll': 0.76, 'pres': 177}
{'lipoC2': 7.51, 'lipoC3S1': 3.99, 'temp': 30.06, 'lipoC3S3': 12.08, 'lipoC3S2': 8.02, 'rot1': 44, 'rot0': 45, 'rot3': 42, 'rot2': 32, 'state': 'normal', 'yaw': -4.7, 'datetime': '2018-10-10 00:41:09.335165', 'mgs': 0, 'volt': 0.9033, 'depth': 1.614, 'time': 11, 'pitch': 8.38, 'roll': 1.16, 'pres': 185}
{'lipoC2': 7.53, 'lipoC3S1': 3.96, 'temp': 30.06, 'lipoC3S3': 12.1, 'lipoC3S2': 7.91, 'rot1': 46, 'rot0': 45, 'rot3': 43, 'rot2': 33, 'state': 'normal', 'yaw': -3.42, 'datetime': '2018-10-10 00:41:09.438847', 'mgs': 0, 'volt': 0.8594, 'depth': 0.928, 'time': 11, 'pitch': 7.94, 'roll': 1.42, 'pres': 176}
{'lipoC2': 7.5, 'lipoC3S1': 3.98, 'temp': 30.06, 'lipoC3S3': 12.01, 'lipoC3S2': 8.0, 'rot1': 47, 'rot0': 46, 'rot3': 44, 'rot2': 33, 'state': 'normal', 'yaw': -2.01, 'datetime': '2018-10-10 00:41:09.542554', 'mgs': 0, 'volt': 0.8984, 'depth': 1.538, 'time': 11, 'pitch': 7.45, 'roll': 1.59, 'pres': 184}
{'lipoC2': 7.53, 'lipoC3S1': 3.96, 'temp': 30.06, 'lipoC3S3': 12.06, 'lipoC3S2': 7.85, 'rot1': 48, 'rot0': 48, 'rot3': 44, 'rot2': 35, 'state': 'normal', 'yaw': -0.82, 'datetime': '2018-10-10 00:41:09.646246', 'mgs': 0, 'volt': 0.8545, 'depth': 0.851, 'time': 11, 'pitch': 7.11, 'roll': 1.71, 'pres': 175}
{'lipoC2': 7.52, 'lipoC3S1': 3.99, 'temp': 30.13, 'lipoC3S3': 12.06, 'lipoC3S2': 8.01, 'rot1': 50, 'rot0': 49, 'rot3': 45, 'rot2': 35, 'state': 'normal', 'yaw': 0.1, 'datetime': '2018-10-10 00:41:09.749990', 'mgs': 0, 'volt': 0.8984, 'depth': 1.538, 'time': 11, 'pitch': 7.07, 'roll': 1.75, 'pres': 184}
{'lipoC2': 7.53, 'lipoC3S1': 3.85, 'temp': 30.13, 'lipoC3S3': 12.09, 'lipoC3S2': 7.89, 'rot1': 51, 'rot0': 51, 'rot3': 45, 'rot2': 35, 'state': 'normal', 'yaw': 0.69, 'datetime': '2018-10-10 00:41:09.848554', 'mgs': 0, 'volt': 0.8594, 'depth': 0.928, 'time': 11, 'pitch': 7.53, 'roll': 1.57, 'pres': 176}
{'lipoC2': 7.5, 'lipoC3S1': 3.99, 'temp': 30.06, 'lipoC3S3': 12.06, 'lipoC3S2': 8.01, 'rot1': 52, 'rot0': 52, 'rot3': 45, 'rot2': 35, 'state': 'normal', 'yaw': 1.14, 'datetime': '2018-10-10 00:41:09.956466', 'mgs': 0, 'volt': 0.9082, 'depth': 1.691, 'time': 12, 'pitch': 7.92, 'roll': 1.26, 'pres': 186}
{'lipoC2': 7.53, 'lipoC3S1': 3.86, 'temp': 30.06, 'lipoC3S3': 12.06, 'lipoC3S2': 7.86, 'rot1': 53, 'rot0': 54, 'rot3': 45, 'rot2': 35, 'state': 'normal', 'yaw': 1.44, 'datetime': '2018-10-10 00:41:10.061064', 'mgs': 0, 'volt': 0.8594, 'depth': 0.928, 'time': 12, 'pitch': 7.77, 'roll': 0.82, 'pres': 176}
{'lipoC2': 7.51, 'lipoC3S1': 3.98, 'temp': 30.06, 'lipoC3S3': 12.04, 'lipoC3S2': 8.01, 'rot1': 54, 'rot0': 55, 'rot3': 45, 'rot2': 36, 'state': 'normal', 'yaw': 1.47, 'datetime': '2018-10-10 00:41:10.164889', 'mgs': 0, 'volt': 0.9229, 'depth': 1.92, 'time': 12, 'pitch': 7.73, 'roll': 0.49, 'pres': 189}
{'lipoC2': 7.53, 'lipoC3S1': 3.97, 'temp': 30.13, 'lipoC3S3': 11.89, 'lipoC3S2': 7.85, 'rot1': 55, 'rot0': 57, 'rot3': 46, 'rot2': 36, 'state': 'normal', 'yaw': 0.93, 'datetime': '2018-10-10 00:41:10.269584', 'mgs': 0, 'volt': 0.8594, 'depth': 0.928, 'time': 12, 'pitch': 8.18, 'roll': 0.34, 'pres': 176}
{'lipoC2': 7.53, 'lipoC3S1': 3.95, 'temp': 30.13, 'lipoC3S3': 12.09, 'lipoC3S2': 8.03, 'rot1': 56, 'rot0': 58, 'rot3': 47, 'rot2': 37, 'state': 'normal', 'yaw': -0.26, 'datetime': '2018-10-10 00:41:10.373331', 'mgs': 0, 'volt': 0.9229, 'depth': 1.92, 'time': 12, 'pitch': 8.91, 'roll': 0.75, 'pres': 189}
{'lipoC2': 7.53, 'lipoC3S1': 3.98, 'temp': 30.06, 'lipoC3S3': 11.93, 'lipoC3S2': 8.06, 'rot1': 57, 'rot0': 59, 'rot3': 47, 'rot2': 37, 'state': 'normal', 'yaw': -1.68, 'datetime': '2018-10-10 00:41:10.478156', 'mgs': 0, 'volt': 0.8643, 'depth': 1.004, 'time': 12, 'pitch': 9.24, 'roll': 1.31, 'pres': 177}
{'lipoC2': 7.53, 'lipoC3S1': 3.97, 'temp': 30.06, 'lipoC3S3': 12.08, 'lipoC3S2': 8.01, 'rot1': 58, 'rot0': 61, 'rot3': 47, 'rot2': 37, 'state': 'normal', 'yaw': -3.16, 'datetime': '2018-10-10 00:41:10.581731', 'mgs': 0, 'volt': 0.957, 'depth': 2.454, 'time': 12, 'pitch': 9.18, 'roll': 1.79, 'pres': 196}
{'lipoC2': 7.53, 'lipoC3S1': 3.96, 'temp': 30.06, 'lipoC3S3': 11.89, 'lipoC3S2': 7.75, 'rot1': 60, 'rot0': 62, 'rot3': 47, 'rot2': 37, 'state': 'normal', 'yaw': -4.25, 'datetime': '2018-10-10 00:41:10.685392', 'mgs': 0, 'volt': 0.8643, 'depth': 1.004, 'time': 12, 'pitch': 9.17, 'roll': 1.82, 'pres': 177}
{'lipoC2': 7.52, 'lipoC3S1': 3.98, 'temp': 30.06, 'lipoC3S3': 12.02, 'lipoC3S2': 7.99, 'rot1': 61, 'rot0': 64, 'rot3': 47, 'rot2': 38, 'state': 'normal', 'yaw': -5.25, 'datetime': '2018-10-10 00:41:10.789139', 'mgs': 0, 'volt': 0.9326, 'depth': 2.072, 'time': 12, 'pitch': 9.6, 'roll': 1.57, 'pres': 191}
{'lipoC2': 7.53, 'lipoC3S1': 3.96, 'temp': 30.06, 'lipoC3S3': 11.93, 'lipoC3S2': 7.88, 'rot1': 62, 'rot0': 65, 'rot3': 48, 'rot2': 38, 'state': 'normal', 'yaw': -6.28, 'datetime': '2018-10-10 00:41:10.888237', 'mgs': 0, 'volt': 0.8691, 'depth': 1.08, 'time': 13, 'pitch': 10.55, 'roll': 1.44, 'pres': 178}
{'lipoC2': 7.53, 'lipoC3S1': 3.96, 'temp': 30.06, 'lipoC3S3': 12.06, 'lipoC3S2': 8.01, 'rot1': 63, 'rot0': 67, 'rot3': 49, 'rot2': 39, 'state': 'normal', 'yaw': -7.16, 'datetime': '2018-10-10 00:41:10.992348', 'mgs': 0, 'volt': 0.9668, 'depth': 2.606, 'time': 13, 'pitch': 11.46, 'roll': 1.61, 'pres': 198}
{'lipoC2': 7.53, 'lipoC3S1': 3.99, 'temp': 30.06, 'lipoC3S3': 11.97, 'lipoC3S2': 7.93, 'rot1': 65, 'rot0': 68, 'rot3': 49, 'rot2': 39, 'state': 'normal', 'yaw': -8.0, 'datetime': '2018-10-10 00:41:11.098315', 'mgs': 0, 'volt': 0.8691, 'depth': 1.08, 'time': 13, 'pitch': 12.09, 'roll': 1.93, 'pres': 178}
{'lipoC2': 7.53, 'lipoC3S1': 3.97, 'temp': 30.25, 'lipoC3S3': 12.12, 'lipoC3S2': 8.04, 'rot1': 66, 'rot0': 69, 'rot3': 49, 'rot2': 39, 'state': 'normal', 'yaw': -8.45, 'datetime': '2018-10-10 00:41:11.199164', 'mgs': 0, 'volt': 0.9131, 'depth': 1.767, 'time': 13, 'pitch': 11.7, 'roll': 2.3, 'pres': 187}
{'lipoC2': 7.53, 'lipoC3S1': 3.98, 'temp': 30.25, 'lipoC3S3': 11.88, 'lipoC3S2': 7.95, 'rot1': 68, 'rot0': 70, 'rot3': 49, 'rot2': 39, 'state': 'normal', 'yaw': -8.38, 'datetime': '2018-10-10 00:41:11.308089', 'mgs': 0, 'volt': 0.874, 'depth': 1.157, 'time': 13, 'pitch': 10.53, 'roll': 2.51, 'pres': 179}
{'lipoC2': 7.53, 'lipoC3S1': 3.97, 'temp': 30.19, 'lipoC3S3': 11.94, 'lipoC3S2': 7.95, 'rot1': 69, 'rot0': 71, 'rot3': 49, 'rot2': 39, 'state': 'normal', 'yaw': -7.91, 'datetime': '2018-10-10 00:41:11.412197', 'mgs': 0, 'volt': 0.8691, 'depth': 1.08, 'time': 13, 'pitch': 9.59, 'roll': 2.57, 'pres': 178}
{'lipoC2': 7.53, 'lipoC3S1': 3.97, 'temp': 30.19, 'lipoC3S3': 12.08, 'lipoC3S2': 8.02, 'rot1': 70, 'rot0': 72, 'rot3': 50, 'rot2': 40, 'state': 'normal', 'yaw': -7.01, 'datetime': '2018-10-10 00:41:11.515956', 'mgs': 0, 'volt': 0.9375, 'depth': 2.148, 'time': 13, 'pitch': 9.43, 'roll': 2.56, 'pres': 192}
{'lipoC2': 7.53, 'lipoC3S1': 3.94, 'temp': 30.19, 'lipoC3S3': 12.02, 'lipoC3S2': 7.9, 'rot1': 71, 'rot0': 73, 'rot3': 51, 'rot2': 41, 'state': 'normal', 'yaw': -5.93, 'datetime': '2018-10-10 00:41:11.620517', 'mgs': 0, 'volt': 0.8691, 'depth': 1.08, 'time': 13, 'pitch': 9.55, 'roll': 2.84, 'pres': 178}
{'lipoC2': 7.52, 'lipoC3S1': 3.9, 'temp': 30.13, 'lipoC3S3': 12.08, 'lipoC3S2': 8.02, 'rot1': 73, 'rot0': 73, 'rot3': 51, 'rot2': 41, 'state': 'normal', 'yaw': -4.63, 'datetime': '2018-10-10 00:41:11.724483', 'mgs': 0, 'volt': 0.8984, 'depth': 1.538, 'time': 13, 'pitch': 9.37, 'roll': 3.32, 'pres': 184}
{'lipoC2': 7.52, 'lipoC3S1': 3.98, 'temp': 30.13, 'lipoC3S3': 12.04, 'lipoC3S2': 7.95, 'rot1': 74, 'rot0': 74, 'rot3': 52, 'rot2': 42, 'state': 'normal', 'yaw': -3.26, 'datetime': '2018-10-10 00:41:11.828132', 'mgs': 0, 'volt': 0.8691, 'depth': 1.08, 'time': 13, 'pitch': 8.93, 'roll': 3.57, 'pres': 178}
{'lipoC2': 7.52, 'lipoC3S1': 3.99, 'temp': 30.13, 'lipoC3S3': 12.01, 'lipoC3S2': 8.02, 'rot1': 75, 'rot0': 75, 'rot3': 52, 'rot2': 42, 'state': 'normal', 'yaw': -1.73, 'datetime': '2018-10-10 00:41:11.933095', 'mgs': 0, 'volt': 0.8691, 'depth': 1.08, 'time': 14, 'pitch': 8.52, 'roll': 3.53, 'pres': 178}
{'lipoC2': 7.52, 'lipoC3S1': 3.96, 'temp': 30.13, 'lipoC3S3': 12.06, 'lipoC3S2': 8.01, 'rot1': 77, 'rot0': 76, 'rot3': 52, 'rot2': 42, 'state': 'normal', 'yaw': 0.17, 'datetime': '2018-10-10 00:41:12.036910', 'mgs': 0, 'volt': 0.9473, 'depth': 2.301, 'time': 14, 'pitch': 8.2, 'roll': 3.07, 'pres': 194}
{'lipoC2': 7.53, 'lipoC3S1': 3.98, 'temp': 30.19, 'lipoC3S3': 11.98, 'lipoC3S2': 7.82, 'rot1': 78, 'rot0': 77, 'rot3': 52, 'rot2': 42, 'state': 'normal', 'yaw': 1.56, 'datetime': '2018-10-10 00:41:12.140538', 'mgs': 0, 'volt': 0.8643, 'depth': 1.004, 'time': 14, 'pitch': 8.13, 'roll': 2.46, 'pres': 177}
{'lipoC2': 7.53, 'lipoC3S1': 3.96, 'temp': 30.19, 'lipoC3S3': 12.06, 'lipoC3S2': 8.01, 'rot1': 79, 'rot0': 79, 'rot3': 52, 'rot2': 42, 'state': 'normal', 'yaw': 2.53, 'datetime': '2018-10-10 00:41:12.244314', 'mgs': 0, 'volt': 0.9619, 'depth': 2.53, 'time': 14, 'pitch': 8.38, 'roll': 1.82, 'pres': 197}
{'lipoC2': 7.53, 'lipoC3S1': 3.99, 'temp': 30.19, 'lipoC3S3': 12.02, 'lipoC3S2': 7.91, 'rot1': 80, 'rot0': 80, 'rot3': 52, 'rot2': 42, 'state': 'normal', 'yaw': 3.22, 'datetime': '2018-10-10 00:41:12.348042', 'mgs': 0, 'volt': 0.8691, 'depth': 1.08, 'time': 14, 'pitch': 8.94, 'roll': 1.2, 'pres': 178}
{'lipoC2': 7.53, 'lipoC3S1': 3.96, 'temp': 30.13, 'lipoC3S3': 12.09, 'lipoC3S2': 8.02, 'rot1': 81, 'rot0': 82, 'rot3': 52, 'rot2': 42, 'state': 'normal', 'yaw': 3.13, 'datetime': '2018-10-10 00:41:12.451713', 'mgs': 0, 'volt': 0.918, 'depth': 1.843, 'time': 14, 'pitch': 9.31, 'roll': 0.83, 'pres': 188}
{'lipoC2': 7.5, 'lipoC3S1': 3.97, 'temp': 30.13, 'lipoC3S3': 11.83, 'lipoC3S2': 7.98, 'rot1': 82, 'rot0': 83, 'rot3': 53, 'rot2': 42, 'state': 'normal', 'yaw': 2.29, 'datetime': '2018-10-10 00:41:12.555613', 'mgs': 0, 'volt': 0.8691, 'depth': 1.08, 'time': 14, 'pitch': 9.21, 'roll': 0.65, 'pres': 178}
{'lipoC2': 7.53, 'lipoC3S1': 3.89, 'temp': 30.13, 'lipoC3S3': 12.06, 'lipoC3S2': 7.94, 'rot1': 83, 'rot0': 85, 'rot3': 53, 'rot2': 43, 'state': 'normal', 'yaw': 0.73, 'datetime': '2018-10-10 00:41:12.659642', 'mgs': 0, 'volt': 0.874, 'depth': 1.157, 'time': 14, 'pitch': 8.93, 'roll': 0.58, 'pres': 179}
{'lipoC2': 7.51, 'lipoC3S1': 3.98, 'temp': 30.13, 'lipoC3S3': 12.01, 'lipoC3S2': 7.99, 'rot1': 84, 'rot0': 86, 'rot3': 54, 'rot2': 44, 'state': 'normal', 'yaw': -1.0, 'datetime': '2018-10-10 00:41:12.763110', 'mgs': 0, 'volt': 0.8838, 'depth': 1.309, 'time': 14, 'pitch': 9.07, 'roll': 0.62, 'pres': 181}
{'lipoC2': 7.52, 'lipoC3S1': 3.99, 'temp': 30.19, 'lipoC3S3': 11.97, 'lipoC3S2': 8.0, 'rot1': 84, 'rot0': 87, 'rot3': 54, 'rot2': 44, 'state': 'normal', 'yaw': -2.89, 'datetime': '2018-10-10 00:41:12.864056', 'mgs': 0, 'volt': 0.8691, 'depth': 1.08, 'time': 15, 'pitch': 9.67, 'roll': 0.71, 'pres': 178}
{'lipoC2': 7.53, 'lipoC3S1': 3.9, 'temp': 30.19, 'lipoC3S3': 12.08, 'lipoC3S2': 8.01, 'rot1': 85, 'rot0': 89, 'rot3': 54, 'rot2': 44, 'state': 'normal', 'yaw': -5.06, 'datetime': '2018-10-10 00:41:12.969479', 'mgs': 0, 'volt': 0.8789, 'depth': 1.233, 'time': 15, 'pitch': 10.19, 'roll': 0.83, 'pres': 180}
{'lipoC2': 7.52, 'lipoC3S1': 3.95, 'temp': 30.19, 'lipoC3S3': 12.06, 'lipoC3S2': 8.01, 'rot1': 87, 'rot0': 90, 'rot3': 54, 'rot2': 44, 'state': 'normal', 'yaw': -6.78, 'datetime': '2018-10-10 00:41:13.075883', 'mgs': 0, 'volt': 0.9131, 'depth': 1.767, 'time': 15, 'pitch': 10.26, 'roll': 0.93, 'pres': 187}
{'lipoC2': 7.53, 'lipoC3S1': 3.96, 'temp': 30.13, 'lipoC3S3': 11.84, 'lipoC3S2': 7.82, 'rot1': 88, 'rot0': 92, 'rot3': 55, 'rot2': 44, 'state': 'normal', 'yaw': -8.25, 'datetime': '2018-10-10 00:41:13.179681', 'mgs': 0, 'volt': 0.874, 'depth': 1.157, 'time': 15, 'pitch': 10.15, 'roll': 1.03, 'pres': 179}
{'lipoC2': 7.53, 'lipoC3S1': 3.96, 'temp': 30.13, 'lipoC3S3': 12.06, 'lipoC3S2': 8.01, 'rot1': 89, 'rot0': 93, 'rot3': 55, 'rot2': 45, 'state': 'normal', 'yaw': -9.37, 'datetime': '2018-10-10 00:41:13.283381', 'mgs': 0, 'volt': 0.9473, 'depth': 2.301, 'time': 15, 'pitch': 10.36, 'roll': 1.13, 'pres': 194}
{'lipoC2': 7.51, 'lipoC3S1': 3.98, 'temp': 30.13, 'lipoC3S3': 12.02, 'lipoC3S2': 7.99, 'rot1': 91, 'rot0': 94, 'rot3': 56, 'rot2': 45, 'state': 'normal', 'yaw': -9.98, 'datetime': '2018-10-10 00:41:13.388144', 'mgs': 0, 'volt': 0.874, 'depth': 1.157, 'time': 15, 'pitch': 10.62, 'roll': 1.31, 'pres': 179}
{'lipoC2': 7.53, 'lipoC3S1': 3.92, 'temp': 30.13, 'lipoC3S3': 12.1, 'lipoC3S2': 8.02, 'rot1': 92, 'rot0': 95, 'rot3': 56, 'rot2': 46, 'state': 'normal', 'yaw': -10.07, 'datetime': '2018-10-10 00:41:13.492004', 'mgs': 0, 'volt': 0.8643, 'depth': 1.004, 'time': 15, 'pitch': 10.76, 'roll': 1.58, 'pres': 177}
