{'lipoC2': 7.48, 'lipoC3S1': 3.89, 'temp': 30.31, 'lipoC3S3': 11.76, 'lipoC3S2': 7.79, 'rot1': 0, 'rot0': 0, 'rot3': 0, 'rot2': 0, 'state': 'normal', 'yaw': 0.0, 'datetime': '2018-10-10 01:00:08.442488', 'mgs': 0, 'volt': 0.8154, 'depth': 0.241, 'time': 1, 'pitch': -4.52, 'roll': -7.55, 'pres': 167}
{'lipoC2': 7.49, 'lipoC3S1': 3.89, 'temp': 30.31, 'lipoC3S3': 11.76, 'lipoC3S2': 7.79, 'rot1': 0, 'rot0': 0, 'rot3': 0, 'rot2': 0, 'state': 'normal', 'yaw': 0.28, 'datetime': '2018-10-10 01:00:08.464131', 'mgs': 0, 'volt': 0.8154, 'depth': 0.241, 'time': 1, 'pitch': -4.14, 'roll': -6.65, 'pres': 167}
{'lipoC2': 7.49, 'lipoC3S1': 3.89, 'temp': 30.38, 'lipoC3S3': 11.76, 'lipoC3S2': 7.79, 'rot1': 0, 'rot0': 0, 'rot3': 0, 'rot2': 0, 'state': 'normal', 'yaw': 0.68, 'datetime': '2018-10-10 01:00:08.485936', 'mgs': 0, 'volt': 0.8154, 'depth': 0.241, 'time': 1, 'pitch': -4.14, 'roll': -5.65, 'pres': 167}
{'lipoC2': 7.49, 'lipoC3S1': 3.89, 'temp': 30.38, 'lipoC3S3': 11.76, 'lipoC3S2': 7.79, 'rot1': 0, 'rot0': 0, 'rot3': 0, 'rot2': 0, 'state': 'normal', 'yaw': 1.23, 'datetime': '2018-10-10 01:00:08.507695', 'mgs': 0, 'volt': 0.8154, 'depth': 0.241, 'time': 1, 'pitch': -4.04, 'roll': -4.41, 'pres': 167}
{'lipoC2': 7.49, 'lipoC3S1': 3.89, 'temp': 30.38, 'lipoC3S3': 11.76, 'lipoC3S2': 7.79, 'rot1': 0, 'rot0': 0, 'rot3': 0, 'rot2': 0, 'state': 'normal', 'yaw': 2.1, 'datetime': '2018-10-10 01:00:08.526093', 'mgs': 0, 'volt': 0.8105, 'depth': 0.165, 'time': 1, 'pitch': -3.8, 'roll': -3.17, 'pres': 166}
{'lipoC2': 7.49, 'lipoC3S1': 3.89, 'temp': 30.38, 'lipoC3S3': 11.76, 'lipoC3S2': 7.79, 'rot1': 0, 'rot0': 0, 'rot3': 0, 'rot2': 0, 'state': 'normal', 'yaw': 2.84, 'datetime': '2018-10-10 01:00:08.535569', 'mgs': 0, 'volt': 0.8154, 'depth': 0.241, 'time': 1, 'pitch': -3.81, 'roll': -2.43, 'pres': 167}
{'lipoC2': 7.48, 'lipoC3S1': 3.89, 'temp': 30.38, 'lipoC3S3': 11.76, 'lipoC3S2': 7.79, 'rot1': 0, 'rot0': 0, 'rot3': 0, 'rot2': 0, 'state': 'normal', 'yaw': 3.22, 'datetime': '2018-10-10 01:00:08.545011', 'mgs': 0, 'volt': 0.8154, 'depth': 0.241, 'time': 1, 'pitch': -4.0, 'roll': -1.94, 'pres': 167}
{'lipoC2': 7.49, 'lipoC3S1': 3.89, 'temp': 30.38, 'lipoC3S3': 11.76, 'lipoC3S2': 7.79, 'rot1': 0, 'rot0': 0, 'rot3': 0, 'rot2': 0, 'state': 'normal', 'yaw': 3.26, 'datetime': '2018-10-10 01:00:08.554466', 'mgs': 0, 'volt': 0.8154, 'depth': 0.241, 'time': 1, 'pitch': -4.07, 'roll': -1.47, 'pres': 167}
{'lipoC2': 7.49, 'lipoC3S1': 3.89, 'temp': 30.38, 'lipoC3S3': 11.76, 'lipoC3S2': 7.79, 'rot1': 0, 'rot0': 0, 'rot3': 0, 'rot2': 0, 'state': 'normal', 'yaw': 3.09, 'datetime': '2018-10-10 01:00:08.585374', 'mgs': 0, 'volt': 0.8203, 'depth': 0.317, 'time': 2, 'pitch': -3.92, 'roll': -0.87, 'pres': 168}
{'lipoC2': 7.48, 'lipoC3S1': 3.89, 'temp': 30.31, 'lipoC3S3': 11.76, 'lipoC3S2': 7.79, 'rot1': 0, 'rot0': 0, 'rot3': 0, 'rot2': 0, 'state': 'normal', 'yaw': 2.94, 'datetime': '2018-10-10 01:00:08.688625', 'mgs': 0, 'volt': 0.8203, 'depth': 0.317, 'time': 2, 'pitch': -3.45, 'roll': 0.02, 'pres': 168}
{'lipoC2': 7.49, 'lipoC3S1': 3.89, 'temp': 30.31, 'lipoC3S3': 11.76, 'lipoC3S2': 7.79, 'rot1': 0, 'rot0': 0, 'rot3': 0, 'rot2': 0, 'state': 'normal', 'yaw': 2.9, 'datetime': '2018-10-10 01:00:08.792058', 'mgs': 0, 'volt': 0.8203, 'depth': 0.317, 'time': 2, 'pitch': -3.08, 'roll': 1.09, 'pres': 168}
{'lipoC2': 7.49, 'lipoC3S1': 3.89, 'temp': 30.31, 'lipoC3S3': 11.76, 'lipoC3S2': 7.79, 'rot1': 0, 'rot0': 0, 'rot3': 0, 'rot2': 0, 'state': 'normal', 'yaw': 3.22, 'datetime': '2018-10-10 01:00:08.895268', 'mgs': 0, 'volt': 0.8203, 'depth': 0.317, 'time': 2, 'pitch': -3.29, 'roll': 1.76, 'pres': 168}
{'lipoC2': 7.49, 'lipoC3S1': 3.89, 'temp': 30.31, 'lipoC3S3': 11.76, 'lipoC3S2': 7.79, 'rot1': 0, 'rot0': 0, 'rot3': 0, 'rot2': 0, 'state': 'normal', 'yaw': 3.75, 'datetime': '2018-10-10 01:00:08.998496', 'mgs': 0, 'volt': 0.8203, 'depth': 0.317, 'time': 2, 'pitch': -3.86, 'roll': 1.59, 'pres': 168}
{'lipoC2': 7.48, 'lipoC3S1': 3.89, 'temp': 30.31, 'lipoC3S3': 11.76, 'lipoC3S2': 7.79, 'rot1': 0, 'rot0': 0, 'rot3': 0, 'rot2': 0, 'state': 'normal', 'yaw': 4.49, 'datetime': '2018-10-10 01:00:09.103057', 'mgs': 0, 'volt': 0.8203, 'depth': 0.317, 'time': 2, 'pitch': -4.44, 'roll': 0.78, 'pres': 168}
{'lipoC2': 7.49, 'lipoC3S1': 3.89, 'temp': 30.31, 'lipoC3S3': 11.76, 'lipoC3S2': 7.79, 'rot1': 0, 'rot0': 0, 'rot3': 0, 'rot2': 0, 'state': 'normal', 'yaw': 5.02, 'datetime': '2018-10-10 01:00:09.206264', 'mgs': 0, 'volt': 0.8252, 'depth': 0.394, 'time': 2, 'pitch': -4.66, 'roll': -0.23, 'pres': 169}
{'lipoC2': 7.49, 'lipoC3S1': 3.89, 'temp': 30.31, 'lipoC3S3': 11.76, 'lipoC3S2': 7.79, 'rot1': 0, 'rot0': 0, 'rot3': 0, 'rot2': 0, 'state': 'normal', 'yaw': 4.54, 'datetime': '2018-10-10 01:00:09.310210', 'mgs': 0, 'volt': 0.8252, 'depth': 0.394, 'time': 2, 'pitch': -4.5, 'roll': -0.5, 'pres': 169}
{'lipoC2': 7.49, 'lipoC3S1': 3.89, 'temp': 30.31, 'lipoC3S3': 11.76, 'lipoC3S2': 7.79, 'rot1': 0, 'rot0': 0, 'rot3': 0, 'rot2': 0, 'state': 'normal', 'yaw': 3.42, 'datetime': '2018-10-10 01:00:09.414719', 'mgs': 0, 'volt': 0.8252, 'depth': 0.394, 'time': 2, 'pitch': -4.15, 'roll': 0.21, 'pres': 169}
{'lipoC2': 7.48, 'lipoC3S1': 3.89, 'temp': 30.31, 'lipoC3S3': 11.76, 'lipoC3S2': 7.79, 'rot1': 0, 'rot0': 0, 'rot3': 0, 'rot2': 0, 'state': 'normal', 'yaw': 2.57, 'datetime': '2018-10-10 01:00:09.517931', 'mgs': 0, 'volt': 0.8203, 'depth': 0.317, 'time': 3, 'pitch': -3.78, 'roll': 1.23, 'pres': 168}
{'lipoC2': 7.49, 'lipoC3S1': 3.89, 'temp': 30.31, 'lipoC3S3': 11.76, 'lipoC3S2': 7.79, 'rot1': 0, 'rot0': 0, 'rot3': 0, 'rot2': 0, 'state': 'normal', 'yaw': 2.65, 'datetime': '2018-10-10 01:00:09.621207', 'mgs': 0, 'volt': 0.8252, 'depth': 0.394, 'time': 3, 'pitch': -3.42, 'roll': 1.46, 'pres': 169}
{'lipoC2': 7.49, 'lipoC3S1': 3.89, 'temp': 30.44, 'lipoC3S3': 11.76, 'lipoC3S2': 7.79, 'rot1': 0, 'rot0': 0, 'rot3': 0, 'rot2': 0, 'state': 'normal', 'yaw': 3.65, 'datetime': '2018-10-10 01:00:09.724445', 'mgs': 0, 'volt': 0.8203, 'depth': 0.317, 'time': 3, 'pitch': -2.95, 'roll': 0.57, 'pres': 168}
{'lipoC2': 7.49, 'lipoC3S1': 3.89, 'temp': 30.44, 'lipoC3S3': 11.76, 'lipoC3S2': 7.79, 'rot1': 0, 'rot0': 0, 'rot3': 0, 'rot2': 0, 'state': 'normal', 'yaw': 5.03, 'datetime': '2018-10-10 01:00:09.827657', 'mgs': 0, 'volt': 0.8203, 'depth': 0.317, 'time': 3, 'pitch': -2.26, 'roll': -1.21, 'pres': 168}
{'lipoC2': 7.49, 'lipoC3S1': 3.89, 'temp': 30.38, 'lipoC3S3': 11.76, 'lipoC3S2': 7.79, 'rot1': 0, 'rot0': 0, 'rot3': 0, 'rot2': 0, 'state': 'normal', 'yaw': 5.93, 'datetime': '2018-10-10 01:00:09.930917', 'mgs': 0, 'volt': 0.8203, 'depth': 0.317, 'time': 3, 'pitch': -1.52, 'roll': -2.69, 'pres': 168}
{'lipoC2': 7.49, 'lipoC3S1': 3.89, 'temp': 30.38, 'lipoC3S3': 11.76, 'lipoC3S2': 7.79, 'rot1': 0, 'rot0': 0, 'rot3': 0, 'rot2': 0, 'state': 'normal', 'yaw': 6.38, 'datetime': '2018-10-10 01:00:10.034172', 'mgs': 0, 'volt': 0.8203, 'depth': 0.317, 'time': 3, 'pitch': -1.62, 'roll': -3.65, 'pres': 168}
{'lipoC2': 7.49, 'lipoC3S1': 3.89, 'temp': 30.31, 'lipoC3S3': 11.76, 'lipoC3S2': 7.79, 'rot1': 0, 'rot0': 0, 'rot3': 0, 'rot2': 0, 'state': 'normal', 'yaw': 6.96, 'datetime': '2018-10-10 01:00:10.137628', 'mgs': 0, 'volt': 0.8203, 'depth': 0.317, 'time': 3, 'pitch': -2.48, 'roll': -3.97, 'pres': 168}
{'lipoC2': 7.49, 'lipoC3S1': 3.89, 'temp': 30.31, 'lipoC3S3': 11.76, 'lipoC3S2': 7.79, 'rot1': 0, 'rot0': 0, 'rot3': 0, 'rot2': 0, 'state': 'normal', 'yaw': 7.72, 'datetime': '2018-10-10 01:00:10.240885', 'mgs': 0, 'volt': 0.8203, 'depth': 0.317, 'time': 3, 'pitch': -3.2, 'roll': -3.75, 'pres': 168}
{'lipoC2': 7.48, 'lipoC3S1': 3.89, 'temp': 30.31, 'lipoC3S3': 11.76, 'lipoC3S2': 7.79, 'rot1': 0, 'rot0': 0, 'rot3': 0, 'rot2': 0, 'state': 'normal', 'yaw': 8.48, 'datetime': '2018-10-10 01:00:10.344145', 'mgs': 0, 'volt': 0.8203, 'depth': 0.317, 'time': 3, 'pitch': -3.49, 'roll': -3.3, 'pres': 168}
{'lipoC2': 7.49, 'lipoC3S1': 3.89, 'temp': 30.31, 'lipoC3S3': 11.76, 'lipoC3S2': 7.79, 'rot1': 0, 'rot0': 0, 'rot3': 0, 'rot2': 0, 'state': 'normal', 'yaw': 9.12, 'datetime': '2018-10-10 01:00:10.447879', 'mgs': 0, 'volt': 0.8203, 'depth': 0.317, 'time': 3, 'pitch': -3.24, 'roll': -2.83, 'pres': 168}
{'lipoC2': 7.48, 'lipoC3S1': 3.89, 'temp': 30.31, 'lipoC3S3': 11.76, 'lipoC3S2': 7.79, 'rot1': 0, 'rot0': 0, 'rot3': 0, 'rot2': 0, 'state': 'normal', 'yaw': 9.66, 'datetime': '2018-10-10 01:00:10.551124', 'mgs': 0, 'volt': 0.8203, 'depth': 0.317, 'time': 4, 'pitch': -2.52, 'roll': -2.55, 'pres': 168}
{'lipoC2': 7.49, 'lipoC3S1': 3.89, 'temp': 30.31, 'lipoC3S3': 11.76, 'lipoC3S2': 7.79, 'rot1': 0, 'rot0': 0, 'rot3': 0, 'rot2': 0, 'state': 'normal', 'yaw': 10.04, 'datetime': '2018-10-10 01:00:10.654335', 'mgs': 0, 'volt': 0.8203, 'depth': 0.317, 'time': 4, 'pitch': -1.93, 'roll': -2.45, 'pres': 168}
{'lipoC2': 7.49, 'lipoC3S1': 3.89, 'temp': 30.31, 'lipoC3S3': 11.76, 'lipoC3S2': 7.79, 'rot1': 0, 'rot0': 0, 'rot3': 0, 'rot2': 0, 'state': 'normal', 'yaw': 10.27, 'datetime': '2018-10-10 01:00:10.758767', 'mgs': 0, 'volt': 0.8252, 'depth': 0.394, 'time': 4, 'pitch': -1.38, 'roll': -2.23, 'pres': 169}
{'lipoC2': 7.48, 'lipoC3S1': 3.89, 'temp': 30.31, 'lipoC3S3': 11.76, 'lipoC3S2': 7.79, 'rot1': 0, 'rot0': 0, 'rot3': 0, 'rot2': 0, 'state': 'normal', 'yaw': 10.19, 'datetime': '2018-10-10 01:00:10.862064', 'mgs': 0, 'volt': 0.8203, 'depth': 0.317, 'time': 4, 'pitch': -0.94, 'roll': -1.44, 'pres': 168}
{'lipoC2': 7.48, 'lipoC3S1': 3.89, 'temp': 30.31, 'lipoC3S3': 11.76, 'lipoC3S2': 7.79, 'rot1': 0, 'rot0': 0, 'rot3': 0, 'rot2': 0, 'state': 'normal', 'yaw': 9.79, 'datetime': '2018-10-10 01:00:10.965224', 'mgs': 0, 'volt': 0.8252, 'depth': 0.394, 'time': 4, 'pitch': -1.06, 'roll': -0.46, 'pres': 169}
{'lipoC2': 7.49, 'lipoC3S1': 3.89, 'temp': 30.31, 'lipoC3S3': 11.76, 'lipoC3S2': 7.79, 'rot1': 0, 'rot0': 0, 'rot3': 0, 'rot2': 0, 'state': 'normal', 'yaw': 9.11, 'datetime': '2018-10-10 01:00:11.070634', 'mgs': 0, 'volt': 0.8301, 'depth': 0.47, 'time': 4, 'pitch': -1.77, 'roll': 0.27, 'pres': 170}
{'lipoC2': 7.49, 'lipoC3S1': 3.89, 'temp': 30.31, 'lipoC3S3': 11.76, 'lipoC3S2': 7.79, 'rot1': 0, 'rot0': 0, 'rot3': 0, 'rot2': 0, 'state': 'normal', 'yaw': 8.2, 'datetime': '2018-10-10 01:00:11.174303', 'mgs': 0, 'volt': 0.8252, 'depth': 0.394, 'time': 4, 'pitch': -2.76, 'roll': 0.45, 'pres': 169}
{'lipoC2': 7.48, 'lipoC3S1': 3.89, 'temp': 30.31, 'lipoC3S3': 11.76, 'lipoC3S2': 7.79, 'rot1': 0, 'rot0': 0, 'rot3': 0, 'rot2': 0, 'state': 'normal', 'yaw': 7.09, 'datetime': '2018-10-10 01:00:11.280476', 'mgs': 0, 'volt': 0.8301, 'depth': 0.47, 'time': 4, 'pitch': -3.19, 'roll': -0.05, 'pres': 170}
{'lipoC2': 7.49, 'lipoC3S1': 3.89, 'temp': 30.31, 'lipoC3S3': 11.76, 'lipoC3S2': 7.79, 'rot1': 0, 'rot0': 0, 'rot3': 0, 'rot2': 0, 'state': 'normal', 'yaw': 6.03, 'datetime': '2018-10-10 01:00:11.385465', 'mgs': 0, 'volt': 0.8301, 'depth': 0.47, 'time': 4, 'pitch': -2.78, 'roll': -1.25, 'pres': 170}
{'lipoC2': 7.49, 'lipoC3S1': 3.89, 'temp': 30.31, 'lipoC3S3': 11.76, 'lipoC3S2': 7.79, 'rot1': 0, 'rot0': 0, 'rot3': 0, 'rot2': 0, 'state': 'normal', 'yaw': 5.17, 'datetime': '2018-10-10 01:00:11.488231', 'mgs': 0, 'volt': 0.8252, 'depth': 0.394, 'time': 4, 'pitch': -1.89, 'roll': -3.16, 'pres': 169}
{'lipoC2': 7.49, 'lipoC3S1': 3.89, 'temp': 30.31, 'lipoC3S3': 11.76, 'lipoC3S2': 7.79, 'rot1': 0, 'rot0': 0, 'rot3': 0, 'rot2': 0, 'state': 'normal', 'yaw': 4.55, 'datetime': '2018-10-10 01:00:11.591930', 'mgs': 0, 'volt': 0.8252, 'depth': 0.394, 'time': 5, 'pitch': -1.34, 'roll': -5.13, 'pres': 169}
{'lipoC2': 7.49, 'lipoC3S1': 3.89, 'temp': 30.31, 'lipoC3S3': 11.76, 'lipoC3S2': 7.79, 'rot1': 0, 'rot0': 0, 'rot3': 0, 'rot2': 0, 'state': 'normal', 'yaw': 3.88, 'datetime': '2018-10-10 01:00:11.695131', 'mgs': 0, 'volt': 0.8252, 'depth': 0.394, 'time': 5, 'pitch': -1.02, 'roll': -6.82, 'pres': 169}
{'lipoC2': 7.49, 'lipoC3S1': 3.89, 'temp': 30.31, 'lipoC3S3': 11.76, 'lipoC3S2': 7.79, 'rot1': 0, 'rot0': 0, 'rot3': 0, 'rot2': 0, 'state': 'normal', 'yaw': 3.2, 'datetime': '2018-10-10 01:00:11.798464', 'mgs': 0, 'volt': 0.8252, 'depth': 0.394, 'time': 5, 'pitch': -1.22, 'roll': -8.12, 'pres': 169}
{'lipoC2': 7.48, 'lipoC3S1': 3.89, 'temp': 30.31, 'lipoC3S3': 11.76, 'lipoC3S2': 7.79, 'rot1': 0, 'rot0': 0, 'rot3': 0, 'rot2': 0, 'state': 'normal', 'yaw': 2.69, 'datetime': '2018-10-10 01:00:11.901630', 'mgs': 0, 'volt': 0.8203, 'depth': 0.317, 'time': 5, 'pitch': -1.3, 'roll': -8.95, 'pres': 168}
{'lipoC2': 7.48, 'lipoC3S1': 3.89, 'temp': 30.31, 'lipoC3S3': 11.76, 'lipoC3S2': 7.79, 'rot1': 0, 'rot0': 0, 'rot3': 0, 'rot2': 0, 'state': 'normal', 'yaw': 2.25, 'datetime': '2018-10-10 01:00:12.004945', 'mgs': 0, 'volt': 0.8252, 'depth': 0.394, 'time': 5, 'pitch': -1.09, 'roll': -9.39, 'pres': 169}
{'lipoC2': 7.49, 'lipoC3S1': 3.89, 'temp': 30.25, 'lipoC3S3': 11.76, 'lipoC3S2': 7.79, 'rot1': 0, 'rot0': 0, 'rot3': 0, 'rot2': 0, 'state': 'normal', 'yaw': 2.03, 'datetime': '2018-10-10 01:00:12.108747', 'mgs': 0, 'volt': 0.8252, 'depth': 0.394, 'time': 5, 'pitch': -0.71, 'roll': -9.36, 'pres': 169}
{'lipoC2': 7.48, 'lipoC3S1': 3.89, 'temp': 30.25, 'lipoC3S3': 11.76, 'lipoC3S2': 7.79, 'rot1': 0, 'rot0': 0, 'rot3': 0, 'rot2': 0, 'state': 'normal', 'yaw': 2.25, 'datetime': '2018-10-10 01:00:12.211923', 'mgs': 0, 'volt': 0.8252, 'depth': 0.394, 'time': 5, 'pitch': -0.29, 'roll': -8.87, 'pres': 169}
{'lipoC2': 7.48, 'lipoC3S1': 3.89, 'temp': 30.25, 'lipoC3S3': 11.76, 'lipoC3S2': 7.79, 'rot1': 0, 'rot0': 0, 'rot3': 0, 'rot2': 0, 'state': 'normal', 'yaw': 2.86, 'datetime': '2018-10-10 01:00:12.316025', 'mgs': 0, 'volt': 0.8301, 'depth': 0.47, 'time': 5, 'pitch': -0.14, 'roll': -8.12, 'pres': 170}
{'lipoC2': 7.49, 'lipoC3S1': 3.89, 'temp': 30.31, 'lipoC3S3': 11.76, 'lipoC3S2': 7.79, 'rot1': 0, 'rot0': 0, 'rot3': 0, 'rot2': 0, 'state': 'normal', 'yaw': 3.71, 'datetime': '2018-10-10 01:00:12.419649', 'mgs': 0, 'volt': 0.8301, 'depth': 0.47, 'time': 5, 'pitch': -0.18, 'roll': -7.29, 'pres': 170}
{'lipoC2': 7.49, 'lipoC3S1': 3.89, 'temp': 30.31, 'lipoC3S3': 11.76, 'lipoC3S2': 7.79, 'rot1': 0, 'rot0': 0, 'rot3': 0, 'rot2': 0, 'state': 'normal', 'yaw': 4.65, 'datetime': '2018-10-10 01:00:12.522964', 'mgs': 0, 'volt': 0.835, 'depth': 0.546, 'time': 6, 'pitch': 0.06, 'roll': -6.38, 'pres': 171}
{'lipoC2': 7.49, 'lipoC3S1': 3.89, 'temp': 30.31, 'lipoC3S3': 11.76, 'lipoC3S2': 7.79, 'rot1': 0, 'rot0': 0, 'rot3': 0, 'rot2': 0, 'state': 'normal', 'yaw': 5.26, 'datetime': '2018-10-10 01:00:12.627187', 'mgs': 0, 'volt': 0.835, 'depth': 0.546, 'time': 6, 'pitch': 0.68, 'roll': -5.4, 'pres': 171}
{'lipoC2': 7.49, 'lipoC3S1': 3.89, 'temp': 30.31, 'lipoC3S3': 11.76, 'lipoC3S2': 7.79, 'rot1': 0, 'rot0': 0, 'rot3': 0, 'rot2': 0, 'state': 'normal', 'yaw': 5.57, 'datetime': '2018-10-10 01:00:12.730784', 'mgs': 0, 'volt': 0.8398, 'depth': 0.623, 'time': 6, 'pitch': 1.81, 'roll': -4.23, 'pres': 172}
{'lipoC2': 7.48, 'lipoC3S1': 3.89, 'temp': 30.31, 'lipoC3S3': 11.76, 'lipoC3S2': 7.79, 'rot1': 0, 'rot0': 0, 'rot3': 0, 'rot2': 0, 'state': 'normal', 'yaw': 5.82, 'datetime': '2018-10-10 01:00:12.834035', 'mgs': 0, 'volt': 0.8398, 'depth': 0.623, 'time': 6, 'pitch': 2.92, 'roll': -3.16, 'pres': 172}
{'lipoC2': 7.49, 'lipoC3S1': 3.89, 'temp': 30.31, 'lipoC3S3': 11.76, 'lipoC3S2': 7.79, 'rot1': 0, 'rot0': 0, 'rot3': 0, 'rot2': 0, 'state': 'normal', 'yaw': 6.45, 'datetime': '2018-10-10 01:00:12.937302', 'mgs': 0, 'volt': 0.8398, 'depth': 0.623, 'time': 6, 'pitch': 3.71, 'roll': -2.09, 'pres': 172}
{'lipoC2': 7.49, 'lipoC3S1': 3.89, 'temp': 30.31, 'lipoC3S3': 11.76, 'lipoC3S2': 7.79, 'rot1': 0, 'rot0': 0, 'rot3': 0, 'rot2': 0, 'state': 'normal', 'yaw': 7.38, 'datetime': '2018-10-10 01:00:13.040648', 'mgs': 0, 'volt': 0.8447, 'depth': 0.699, 'time': 6, 'pitch': 4.2, 'roll': -1.15, 'pres': 173}
{'lipoC2': 7.48, 'lipoC3S1': 3.9, 'temp': 30.38, 'lipoC3S3': 11.76, 'lipoC3S2': 7.8, 'rot1': 0, 'rot0': 0, 'rot3': 0, 'rot2': 0, 'state': 'normal', 'yaw': 8.08, 'datetime': '2018-10-10 01:00:13.142967', 'mgs': 0, 'volt': 0.8447, 'depth': 0.699, 'time': 6, 'pitch': 4.4, 'roll': -0.74, 'pres': 173}
{'lipoC2': 7.49, 'lipoC3S1': 3.89, 'temp': 30.38, 'lipoC3S3': 11.76, 'lipoC3S2': 7.79, 'rot1': 0, 'rot0': 0, 'rot3': 0, 'rot2': 0, 'state': 'normal', 'yaw': 8.06, 'datetime': '2018-10-10 01:00:13.247110', 'mgs': 0, 'volt': 0.8447, 'depth': 0.699, 'time': 6, 'pitch': 4.51, 'roll': -0.85, 'pres': 173}
{'lipoC2': 7.48, 'lipoC3S1': 3.89, 'temp': 30.38, 'lipoC3S3': 11.76, 'lipoC3S2': 7.79, 'rot1': 0, 'rot0': 0, 'rot3': 0, 'rot2': 0, 'state': 'normal', 'yaw': 7.5, 'datetime': '2018-10-10 01:00:13.350256', 'mgs': 0, 'volt': 0.8447, 'depth': 0.699, 'time': 6, 'pitch': 4.68, 'roll': -1.32, 'pres': 173}
{'lipoC2': 7.49, 'lipoC3S1': 3.89, 'temp': 30.38, 'lipoC3S3': 11.76, 'lipoC3S2': 7.79, 'rot1': 0, 'rot0': 0, 'rot3': 0, 'rot2': 0, 'state': 'normal', 'yaw': 6.58, 'datetime': '2018-10-10 01:00:13.453614', 'mgs': 0, 'volt': 0.8496, 'depth': 0.775, 'time': 6, 'pitch': 5.23, 'roll': -1.9, 'pres': 174}
{'lipoC2': 7.49, 'lipoC3S1': 3.89, 'temp': 30.38, 'lipoC3S3': 11.76, 'lipoC3S2': 7.79, 'rot1': 0, 'rot0': 0, 'rot3': 0, 'rot2': 0, 'state': 'normal', 'yaw': 5.9, 'datetime': '2018-10-10 01:00:13.556839', 'mgs': 0, 'volt': 0.8447, 'depth': 0.699, 'time': 7, 'pitch': 5.92, 'roll': -2.16, 'pres': 173}
{'lipoC2': 7.48, 'lipoC3S1': 3.89, 'temp': 30.38, 'lipoC3S3': 11.76, 'lipoC3S2': 7.79, 'rot1': 0, 'rot0': 0, 'rot3': 0, 'rot2': 0, 'state': 'normal', 'yaw': 5.66, 'datetime': '2018-10-10 01:00:13.660104', 'mgs': 0, 'volt': 0.8447, 'depth': 0.699, 'time': 7, 'pitch': 6.64, 'roll': -2.24, 'pres': 173}
{'lipoC2': 7.49, 'lipoC3S1': 3.89, 'temp': 30.38, 'lipoC3S3': 11.76, 'lipoC3S2': 7.79, 'rot1': 0, 'rot0': 0, 'rot3': 0, 'rot2': 0, 'state': 'normal', 'yaw': 5.68, 'datetime': '2018-10-10 01:00:13.763514', 'mgs': 0, 'volt': 0.8447, 'depth': 0.699, 'time': 7, 'pitch': 7.12, 'roll': -2.33, 'pres': 173}
{'lipoC2': 7.49, 'lipoC3S1': 3.89, 'temp': 30.31, 'lipoC3S3': 11.76, 'lipoC3S2': 7.79, 'rot1': 0, 'rot0': 0, 'rot3': 0, 'rot2': 0, 'state': 'normal', 'yaw': 5.36, 'datetime': '2018-10-10 01:00:13.866690', 'mgs': 0, 'volt': 0.8447, 'depth': 0.699, 'time': 7, 'pitch': 7.12, 'roll': -2.7, 'pres': 173}
{'lipoC2': 7.49, 'lipoC3S1': 3.89, 'temp': 30.31, 'lipoC3S3': 11.76, 'lipoC3S2': 7.79, 'rot1': 0, 'rot0': 0, 'rot3': 0, 'rot2': 0, 'state': 'normal', 'yaw': 4.81, 'datetime': '2018-10-10 01:00:13.971278', 'mgs': 0, 'volt': 0.8447, 'depth': 0.699, 'time': 7, 'pitch': 6.97, 'roll': -3.57, 'pres': 173}
{'lipoC2': 7.49, 'lipoC3S1': 3.89, 'temp': 30.25, 'lipoC3S3': 11.77, 'lipoC3S2': 7.8, 'rot1': 0, 'rot0': 0, 'rot3': 0, 'rot2': 0, 'state': 'normal', 'yaw': 4.27, 'datetime': '2018-10-10 01:00:14.074527', 'mgs': 0, 'volt': 0.8447, 'depth': 0.699, 'time': 7, 'pitch': 6.69, 'roll': -4.8, 'pres': 173}
{'lipoC2': 7.49, 'lipoC3S1': 3.89, 'temp': 30.25, 'lipoC3S3': 11.76, 'lipoC3S2': 7.79, 'rot1': 0, 'rot0': 0, 'rot3': 0, 'rot2': 0, 'state': 'normal', 'yaw': 3.94, 'datetime': '2018-10-10 01:00:14.177861', 'mgs': 0, 'volt': 0.8447, 'depth': 0.699, 'time': 7, 'pitch': 6.66, 'roll': -5.69, 'pres': 173}
{'lipoC2': 7.48, 'lipoC3S1': 3.89, 'temp': 30.44, 'lipoC3S3': 11.76, 'lipoC3S2': 7.79, 'rot1': 0, 'rot0': 0, 'rot3': 0, 'rot2': 0, 'state': 'normal', 'yaw': 3.6, 'datetime': '2018-10-10 01:00:14.281789', 'mgs': 0, 'volt': 0.8496, 'depth': 0.775, 'time': 7, 'pitch': 6.94, 'roll': -5.75, 'pres': 174}
{'lipoC2': 7.49, 'lipoC3S1': 3.89, 'temp': 30.44, 'lipoC3S3': 11.76, 'lipoC3S2': 7.79, 'rot1': 0, 'rot0': 0, 'rot3': 0, 'rot2': 0, 'state': 'normal', 'yaw': 3.19, 'datetime': '2018-10-10 01:00:14.385360', 'mgs': 0, 'volt': 0.8496, 'depth': 0.775, 'time': 7, 'pitch': 7.47, 'roll': -4.7, 'pres': 174}
{'lipoC2': 7.49, 'lipoC3S1': 3.89, 'temp': 30.44, 'lipoC3S3': 11.76, 'lipoC3S2': 7.79, 'rot1': 0, 'rot0': 0, 'rot3': 0, 'rot2': 0, 'state': 'normal', 'yaw': 3.0, 'datetime': '2018-10-10 01:00:14.488531', 'mgs': 0, 'volt': 0.8496, 'depth': 0.775, 'time': 7, 'pitch': 7.85, 'roll': -3.42, 'pres': 174}
{'lipoC2': 7.48, 'lipoC3S1': 3.9, 'temp': 30.38, 'lipoC3S3': 11.76, 'lipoC3S2': 7.79, 'rot1': 0, 'rot0': 0, 'rot3': 0, 'rot2': 0, 'state': 'normal', 'yaw': 3.21, 'datetime': '2018-10-10 01:00:14.591749', 'mgs': 0, 'volt': 0.8496, 'depth': 0.775, 'time': 8, 'pitch': 8.03, 'roll': -2.52, 'pres': 174}
{'lipoC2': 7.49, 'lipoC3S1': 3.89, 'temp': 30.38, 'lipoC3S3': 11.77, 'lipoC3S2': 7.79, 'rot1': 0, 'rot0': 0, 'rot3': 0, 'rot2': 0, 'state': 'normal', 'yaw': 3.55, 'datetime': '2018-10-10 01:00:14.695289', 'mgs': 0, 'volt': 0.8545, 'depth': 0.851, 'time': 8, 'pitch': 7.87, 'roll': -1.98, 'pres': 175}
{'lipoC2': 7.48, 'lipoC3S1': 3.89, 'temp': 30.31, 'lipoC3S3': 11.76, 'lipoC3S2': 7.79, 'rot1': 0, 'rot0': 0, 'rot3': 0, 'rot2': 0, 'state': 'normal', 'yaw': 3.75, 'datetime': '2018-10-10 01:00:14.798440', 'mgs': 0, 'volt': 0.8545, 'depth': 0.851, 'time': 8, 'pitch': 7.68, 'roll': -1.64, 'pres': 175}
{'lipoC2': 7.48, 'lipoC3S1': 3.89, 'temp': 30.31, 'lipoC3S3': 11.76, 'lipoC3S2': 7.79, 'rot1': 0, 'rot0': 0, 'rot3': 0, 'rot2': 0, 'state': 'normal', 'yaw': 3.63, 'datetime': '2018-10-10 01:00:14.901701', 'mgs': 0, 'volt': 0.8545, 'depth': 0.851, 'time': 8, 'pitch': 7.88, 'roll': -1.31, 'pres': 175}
{'lipoC2': 7.49, 'lipoC3S1': 3.89, 'temp': 30.31, 'lipoC3S3': 11.76, 'lipoC3S2': 7.79, 'rot1': 0, 'rot0': 0, 'rot3': 0, 'rot2': 0, 'state': 'normal', 'yaw': 3.65, 'datetime': '2018-10-10 01:00:15.004979', 'mgs': 0, 'volt': 0.8545, 'depth': 0.851, 'time': 8, 'pitch': 8.26, 'roll': -0.97, 'pres': 175}
{'lipoC2': 7.49, 'lipoC3S1': 3.89, 'temp': 30.31, 'lipoC3S3': 11.76, 'lipoC3S2': 7.79, 'rot1': 0, 'rot0': 0, 'rot3': 0, 'rot2': 0, 'state': 'normal', 'yaw': 3.9, 'datetime': '2018-10-10 01:00:15.108279', 'mgs': 0, 'volt': 0.8545, 'depth': 0.851, 'time': 8, 'pitch': 8.21, 'roll': -0.66, 'pres': 175}
{'lipoC2': 7.48, 'lipoC3S1': 3.89, 'temp': 30.31, 'lipoC3S3': 11.76, 'lipoC3S2': 7.79, 'rot1': 0, 'rot0': 0, 'rot3': 0, 'rot2': 0, 'state': 'normal', 'yaw': 3.9, 'datetime': '2018-10-10 01:00:15.211467', 'mgs': 0, 'volt': 0.8545, 'depth': 0.851, 'time': 8, 'pitch': 7.92, 'roll': -0.41, 'pres': 175}
{'lipoC2': 7.48, 'lipoC3S1': 3.89, 'temp': 30.25, 'lipoC3S3': 11.76, 'lipoC3S2': 7.79, 'rot1': 0, 'rot0': 0, 'rot3': 0, 'rot2': 0, 'state': 'normal', 'yaw': 3.52, 'datetime': '2018-10-10 01:00:15.314696', 'mgs': 0, 'volt': 0.8545, 'depth': 0.851, 'time': 8, 'pitch': 7.57, 'roll': -0.18, 'pres': 175}
{'lipoC2': 7.48, 'lipoC3S1': 3.89, 'temp': 30.25, 'lipoC3S3': 11.76, 'lipoC3S2': 7.79, 'rot1': 0, 'rot0': 0, 'rot3': 0, 'rot2': 0, 'state': 'normal', 'yaw': 3.22, 'datetime': '2018-10-10 01:00:15.412555', 'mgs': 0, 'volt': 0.8545, 'depth': 0.851, 'time': 8, 'pitch': 7.28, 'roll': -0.26, 'pres': 175}
{'lipoC2': 7.48, 'lipoC3S1': 3.89, 'temp': 30.31, 'lipoC3S3': 11.76, 'lipoC3S2': 7.79, 'rot1': 0, 'rot0': 0, 'rot3': 0, 'rot2': 0, 'state': 'normal', 'yaw': 3.15, 'datetime': '2018-10-10 01:00:15.521162', 'mgs': 0, 'volt': 0.8496, 'depth': 0.775, 'time': 9, 'pitch': 7.18, 'roll': -0.6, 'pres': 174}
{'lipoC2': 7.49, 'lipoC3S1': 3.89, 'temp': 30.31, 'lipoC3S3': 11.76, 'lipoC3S2': 7.79, 'rot1': 0, 'rot0': 0, 'rot3': 0, 'rot2': 0, 'state': 'normal', 'yaw': 3.04, 'datetime': '2018-10-10 01:00:15.625806', 'mgs': 0, 'volt': 0.8496, 'depth': 0.775, 'time': 9, 'pitch': 7.28, 'roll': -0.9, 'pres': 174}
{'lipoC2': 7.49, 'lipoC3S1': 3.89, 'temp': 30.31, 'lipoC3S3': 11.76, 'lipoC3S2': 7.79, 'rot1': 0, 'rot0': 0, 'rot3': 0, 'rot2': 0, 'state': 'normal', 'yaw': 2.98, 'datetime': '2018-10-10 01:00:15.728991', 'mgs': 0, 'volt': 0.8545, 'depth': 0.851, 'time': 9, 'pitch': 7.51, 'roll': -1.32, 'pres': 175}
{'lipoC2': 7.48, 'lipoC3S1': 3.89, 'temp': 30.31, 'lipoC3S3': 11.76, 'lipoC3S2': 7.79, 'rot1': 0, 'rot0': 0, 'rot3': 0, 'rot2': 0, 'state': 'normal', 'yaw': 2.9, 'datetime': '2018-10-10 01:00:15.832348', 'mgs': 0, 'volt': 0.8496, 'depth': 0.775, 'time': 9, 'pitch': 7.65, 'roll': -1.96, 'pres': 174}
{'lipoC2': 7.49, 'lipoC3S1': 3.89, 'temp': 30.31, 'lipoC3S3': 11.76, 'lipoC3S2': 7.79, 'rot1': 0, 'rot0': 0, 'rot3': 0, 'rot2': 0, 'state': 'normal', 'yaw': 2.89, 'datetime': '2018-10-10 01:00:15.936823', 'mgs': 0, 'volt': 0.8545, 'depth': 0.851, 'time': 9, 'pitch': 7.86, 'roll': -2.68, 'pres': 175}
{'lipoC2': 7.49, 'lipoC3S1': 3.89, 'temp': 30.31, 'lipoC3S3': 11.76, 'lipoC3S2': 7.79, 'rot1': 0, 'rot0': 0, 'rot3': 0, 'rot2': 0, 'state': 'normal', 'yaw': 2.93, 'datetime': '2018-10-10 01:00:16.040006', 'mgs': 0, 'volt': 0.8545, 'depth': 0.851, 'time': 9, 'pitch': 8.19, 'roll': -3.22, 'pres': 175}
{'lipoC2': 7.49, 'lipoC3S1': 3.89, 'temp': 30.31, 'lipoC3S3': 11.76, 'lipoC3S2': 7.79, 'rot1': 0, 'rot0': 0, 'rot3': 0, 'rot2': 0, 'state': 'normal', 'yaw': 3.22, 'datetime': '2018-10-10 01:00:16.143265', 'mgs': 0, 'volt': 0.8545, 'depth': 0.851, 'time': 9, 'pitch': 8.42, 'roll': -3.39, 'pres': 175}
{'lipoC2': 7.49, 'lipoC3S1': 3.89, 'temp': 30.31, 'lipoC3S3': 11.76, 'lipoC3S2': 7.79, 'rot1': 0, 'rot0': 0, 'rot3': 0, 'rot2': 0, 'state': 'normal', 'yaw': 3.57, 'datetime': '2018-10-10 01:00:16.246610', 'mgs': 0, 'volt': 0.8545, 'depth': 0.851, 'time': 9, 'pitch': 8.65, 'roll': -3.16, 'pres': 175}
{'lipoC2': 7.49, 'lipoC3S1': 3.89, 'temp': 30.31, 'lipoC3S3': 11.76, 'lipoC3S2': 7.79, 'rot1': 0, 'rot0': 0, 'rot3': 0, 'rot2': 0, 'state': 'normal', 'yaw': 3.83, 'datetime': '2018-10-10 01:00:16.349982', 'mgs': 0, 'volt': 0.8594, 'depth': 0.928, 'time': 9, 'pitch': 8.58, 'roll': -2.54, 'pres': 176}
{'lipoC2': 7.48, 'lipoC3S1': 3.89, 'temp': 30.31, 'lipoC3S3': 11.76, 'lipoC3S2': 7.79, 'rot1': 0, 'rot0': 0, 'rot3': 0, 'rot2': 0, 'state': 'normal', 'yaw': 3.88, 'datetime': '2018-10-10 01:00:16.453271', 'mgs': 0, 'volt': 0.8594, 'depth': 0.928, 'time': 9, 'pitch': 8.37, 'roll': -1.84, 'pres': 176}
{'lipoC2': 7.49, 'lipoC3S1': 3.89, 'temp': 30.31, 'lipoC3S3': 11.76, 'lipoC3S2': 7.79, 'rot1': 0, 'rot0': 0, 'rot3': 0, 'rot2': 0, 'state': 'normal', 'yaw': 3.89, 'datetime': '2018-10-10 01:00:16.556736', 'mgs': 0, 'volt': 0.8594, 'depth': 0.928, 'time': 10, 'pitch': 8.23, 'roll': -1.42, 'pres': 176}
{'lipoC2': 7.49, 'lipoC3S1': 3.89, 'temp': 30.31, 'lipoC3S3': 11.76, 'lipoC3S2': 7.79, 'rot1': 0, 'rot0': 0, 'rot3': 0, 'rot2': 0, 'state': 'normal', 'yaw': 3.95, 'datetime': '2018-10-10 01:00:16.660008', 'mgs': 0, 'volt': 0.8594, 'depth': 0.928, 'time': 10, 'pitch': 8.07, 'roll': -1.21, 'pres': 176}
{'lipoC2': 7.49, 'lipoC3S1': 3.89, 'temp': 30.31, 'lipoC3S3': 11.76, 'lipoC3S2': 7.79, 'rot1': 0, 'rot0': 0, 'rot3': 0, 'rot2': 0, 'state': 'normal', 'yaw': 4.19, 'datetime': '2018-10-10 01:00:16.764046', 'mgs': 0, 'volt': 0.8594, 'depth': 0.928, 'time': 10, 'pitch': 7.96, 'roll': -1.24, 'pres': 176}
{'lipoC2': 7.48, 'lipoC3S1': 3.89, 'temp': 30.31, 'lipoC3S3': 11.76, 'lipoC3S2': 7.79, 'rot1': 0, 'rot0': 0, 'rot3': 0, 'rot2': 0, 'state': 'normal', 'yaw': 4.44, 'datetime': '2018-10-10 01:00:16.866755', 'mgs': 0, 'volt': 0.8594, 'depth': 0.928, 'time': 10, 'pitch': 7.96, 'roll': -1.47, 'pres': 176}
{'lipoC2': 7.49, 'lipoC3S1': 3.89, 'temp': 30.31, 'lipoC3S3': 11.76, 'lipoC3S2': 7.79, 'rot1': 0, 'rot0': 0, 'rot3': 0, 'rot2': 0, 'state': 'normal', 'yaw': 4.59, 'datetime': '2018-10-10 01:00:16.971274', 'mgs': 1, 'volt': 0.8594, 'depth': 0.928, 'time': 10, 'pitch': 8.03, 'roll': -1.72, 'pres': 176}
{'lipoC2': 7.48, 'lipoC3S1': 3.89, 'temp': 30.31, 'lipoC3S3': 11.76, 'lipoC3S2': 7.79, 'rot1': 0, 'rot0': 0, 'rot3': 0, 'rot2': 0, 'state': 'normal', 'yaw': 0.0, 'datetime': '2018-10-10 01:00:21.500856', 'mgs': 1, 'volt': 0.8594, 'depth': 0.928, 'time': 1, 'pitch': 8.1, 'roll': 0.27, 'pres': 176}
{'lipoC2': 7.49, 'lipoC3S1': 3.89, 'temp': 30.31, 'lipoC3S3': 11.76, 'lipoC3S2': 7.79, 'rot1': 0, 'rot0': 0, 'rot3': 0, 'rot2': 0, 'state': 'normal', 'yaw': 0.5, 'datetime': '2018-10-10 01:00:24.553824', 'mgs': 0, 'volt': 0.8594, 'depth': 0.928, 'time': 1, 'pitch': 7.94, 'roll': 0.63, 'pres': 176}
{'lipoC2': 7.48, 'lipoC3S1': 3.89, 'temp': 30.31, 'lipoC3S3': 11.76, 'lipoC3S2': 7.79, 'rot1': 0, 'rot0': 0, 'rot3': 0, 'rot2': 0, 'state': 'normal', 'yaw': 0.98, 'datetime': '2018-10-10 01:00:24.590258', 'mgs': 0, 'volt': 0.8594, 'depth': 0.928, 'time': 1, 'pitch': 8.03, 'roll': 0.74, 'pres': 176}
{'lipoC2': 7.49, 'lipoC3S1': 3.89, 'temp': 30.31, 'lipoC3S3': 11.76, 'lipoC3S2': 7.79, 'rot1': 0, 'rot0': 0, 'rot3': 0, 'rot2': 0, 'state': 'normal', 'yaw': 1.07, 'datetime': '2018-10-10 01:00:24.612691', 'mgs': 0, 'volt': 0.8594, 'depth': 0.928, 'time': 1, 'pitch': 8.04, 'roll': 0.84, 'pres': 176}
{'lipoC2': 7.49, 'lipoC3S1': 3.89, 'temp': 30.31, 'lipoC3S3': 11.76, 'lipoC3S2': 7.79, 'rot1': 0, 'rot0': 0, 'rot3': 0, 'rot2': 0, 'state': 'normal', 'yaw': 0.76, 'datetime': '2018-10-10 01:00:24.633228', 'mgs': 0, 'volt': 0.8594, 'depth': 0.928, 'time': 1, 'pitch': 8.03, 'roll': 0.81, 'pres': 176}
{'lipoC2': 7.49, 'lipoC3S1': 3.9, 'temp': 30.38, 'lipoC3S3': 11.76, 'lipoC3S2': 7.79, 'rot1': 0, 'rot0': 0, 'rot3': 0, 'rot2': 0, 'state': 'normal', 'yaw': 0.55, 'datetime': '2018-10-10 01:00:24.652216', 'mgs': 0, 'volt': 0.8594, 'depth': 0.928, 'time': 1, 'pitch': 8.15, 'roll': 0.63, 'pres': 176}
{'lipoC2': 7.49, 'lipoC3S1': 3.89, 'temp': 30.38, 'lipoC3S3': 11.76, 'lipoC3S2': 7.79, 'rot1': 0, 'rot0': 0, 'rot3': 0, 'rot2': 0, 'state': 'normal', 'yaw': 0.48, 'datetime': '2018-10-10 01:00:24.665432', 'mgs': 0, 'volt': 0.8594, 'depth': 0.928, 'time': 1, 'pitch': 8.01, 'roll': 0.58, 'pres': 176}
{'lipoC2': 7.49, 'lipoC3S1': 3.9, 'temp': 30.38, 'lipoC3S3': 11.77, 'lipoC3S2': 7.8, 'rot1': 0, 'rot0': 0, 'rot3': 0, 'rot2': 0, 'state': 'normal', 'yaw': 0.66, 'datetime': '2018-10-10 01:00:24.685205', 'mgs': 0, 'volt': 0.8545, 'depth': 0.851, 'time': 1, 'pitch': 7.95, 'roll': 0.8, 'pres': 175}
{'lipoC2': 7.49, 'lipoC3S1': 3.9, 'temp': 30.38, 'lipoC3S3': 11.77, 'lipoC3S2': 7.8, 'rot1': 0, 'rot0': 0, 'rot3': 0, 'rot2': 0, 'state': 'normal', 'yaw': 1.19, 'datetime': '2018-10-10 01:00:24.704405', 'mgs': 0, 'volt': 0.8594, 'depth': 0.928, 'time': 2, 'pitch': 7.69, 'roll': 1.21, 'pres': 176}
{'lipoC2': 7.48, 'lipoC3S1': 3.9, 'temp': 30.31, 'lipoC3S3': 11.77, 'lipoC3S2': 7.8, 'rot1': 0, 'rot0': 0, 'rot3': 0, 'rot2': 0, 'state': 'normal', 'yaw': 2.1, 'datetime': '2018-10-10 01:00:24.719656', 'mgs': 0, 'volt': 0.8545, 'depth': 0.851, 'time': 2, 'pitch': 7.23, 'roll': 1.63, 'pres': 175}
{'lipoC2': 7.49, 'lipoC3S1': 3.9, 'temp': 30.31, 'lipoC3S3': 11.77, 'lipoC3S2': 7.8, 'rot1': 0, 'rot0': 0, 'rot3': 0, 'rot2': 0, 'state': 'normal', 'yaw': 2.74, 'datetime': '2018-10-10 01:00:24.740660', 'mgs': 0, 'volt': 0.8545, 'depth': 0.851, 'time': 2, 'pitch': 6.68, 'roll': 1.84, 'pres': 175}
{'lipoC2': 7.49, 'lipoC3S1': 3.9, 'temp': 30.31, 'lipoC3S3': 11.77, 'lipoC3S2': 7.79, 'rot1': 0, 'rot0': 0, 'rot3': 0, 'rot2': 0, 'state': 'normal', 'yaw': 3.1, 'datetime': '2018-10-10 01:00:24.759760', 'mgs': 0, 'volt': 0.8545, 'depth': 0.851, 'time': 2, 'pitch': 6.06, 'roll': 1.88, 'pres': 175}
{'lipoC2': 7.49, 'lipoC3S1': 3.9, 'temp': 30.25, 'lipoC3S3': 11.76, 'lipoC3S2': 7.79, 'rot1': 0, 'rot0': 0, 'rot3': 0, 'rot2': 0, 'state': 'normal', 'yaw': 3.36, 'datetime': '2018-10-10 01:00:24.772879', 'mgs': 0, 'volt': 0.8545, 'depth': 0.851, 'time': 2, 'pitch': 5.64, 'roll': 1.81, 'pres': 175}
{'lipoC2': 7.48, 'lipoC3S1': 3.89, 'temp': 30.25, 'lipoC3S3': 11.76, 'lipoC3S2': 7.79, 'rot1': 0, 'rot0': 0, 'rot3': 0, 'rot2': 0, 'state': 'normal', 'yaw': 3.43, 'datetime': '2018-10-10 01:00:24.791988', 'mgs': 0, 'volt': 0.8545, 'depth': 0.851, 'time': 2, 'pitch': 5.52, 'roll': 1.88, 'pres': 175}
{'lipoC2': 7.48, 'lipoC3S1': 3.89, 'temp': 30.44, 'lipoC3S3': 11.76, 'lipoC3S2': 7.79, 'rot1': 0, 'rot0': 0, 'rot3': 0, 'rot2': 0, 'state': 'normal', 'yaw': 3.11, 'datetime': '2018-10-10 01:00:24.811001', 'mgs': 0, 'volt': 0.8545, 'depth': 0.851, 'time': 2, 'pitch': 5.59, 'roll': 2.24, 'pres': 175}
{'lipoC2': 7.49, 'lipoC3S1': 3.89, 'temp': 30.44, 'lipoC3S3': 11.76, 'lipoC3S2': 7.79, 'rot1': 0, 'rot0': 0, 'rot3': 0, 'rot2': 0, 'state': 'normal', 'yaw': 2.68, 'datetime': '2018-10-10 01:00:24.824667', 'mgs': 0, 'volt': 0.8594, 'depth': 0.928, 'time': 2, 'pitch': 5.69, 'roll': 2.94, 'pres': 176}
{'lipoC2': 7.48, 'lipoC3S1': 3.89, 'temp': 30.31, 'lipoC3S3': 11.76, 'lipoC3S2': 7.79, 'rot1': 0, 'rot0': 0, 'rot3': 0, 'rot2': 0, 'state': 'normal', 'yaw': 2.7, 'datetime': '2018-10-10 01:00:24.844594', 'mgs': 0, 'volt': 0.8594, 'depth': 0.928, 'time': 2, 'pitch': 5.96, 'roll': 3.6, 'pres': 176}
{'lipoC2': 7.49, 'lipoC3S1': 3.9, 'temp': 30.31, 'lipoC3S3': 11.77, 'lipoC3S2': 7.8, 'rot1': 0, 'rot0': 0, 'rot3': 0, 'rot2': 0, 'state': 'normal', 'yaw': 3.29, 'datetime': '2018-10-10 01:00:24.863563', 'mgs': 0, 'volt': 0.8643, 'depth': 1.004, 'time': 3, 'pitch': 6.41, 'roll': 3.81, 'pres': 177}
{'lipoC2': 7.49, 'lipoC3S1': 3.9, 'temp': 30.31, 'lipoC3S3': 11.77, 'lipoC3S2': 7.8, 'rot1': 0, 'rot0': 0, 'rot3': 0, 'rot2': 0, 'state': 'normal', 'yaw': 4.05, 'datetime': '2018-10-10 01:00:24.876605', 'mgs': 0, 'volt': 0.8643, 'depth': 1.004, 'time': 3, 'pitch': 6.97, 'roll': 3.53, 'pres': 177}
{'lipoC2': 7.49, 'lipoC3S1': 3.9, 'temp': 30.44, 'lipoC3S3': 11.77, 'lipoC3S2': 7.8, 'rot1': 0, 'rot0': 0, 'rot3': 0, 'rot2': 0, 'state': 'normal', 'yaw': 4.46, 'datetime': '2018-10-10 01:00:24.895714', 'mgs': 0, 'volt': 0.8594, 'depth': 0.928, 'time': 3, 'pitch': 7.5, 'roll': 3.01, 'pres': 176}
{'lipoC2': 7.49, 'lipoC3S1': 3.9, 'temp': 30.44, 'lipoC3S3': 11.77, 'lipoC3S2': 7.8, 'rot1': 0, 'rot0': 0, 'rot3': 0, 'rot2': 0, 'state': 'normal', 'yaw': 4.01, 'datetime': '2018-10-10 01:00:24.914688', 'mgs': 0, 'volt': 0.8594, 'depth': 0.928, 'time': 3, 'pitch': 7.78, 'roll': 2.76, 'pres': 176}
{'lipoC2': 7.48, 'lipoC3S1': 3.9, 'temp': 30.31, 'lipoC3S3': 11.77, 'lipoC3S2': 7.8, 'rot1': 0, 'rot0': 0, 'rot3': 0, 'rot2': 0, 'state': 'normal', 'yaw': 3.1, 'datetime': '2018-10-10 01:00:24.928298', 'mgs': 0, 'volt': 0.8643, 'depth': 1.004, 'time': 3, 'pitch': 7.73, 'roll': 2.62, 'pres': 177}
{'lipoC2': 7.48, 'lipoC3S1': 3.89, 'temp': 30.31, 'lipoC3S3': 11.76, 'lipoC3S2': 7.79, 'rot1': 0, 'rot0': 0, 'rot3': 0, 'rot2': 0, 'state': 'normal', 'yaw': 2.31, 'datetime': '2018-10-10 01:00:24.948248', 'mgs': 0, 'volt': 0.8594, 'depth': 0.928, 'time': 3, 'pitch': 7.79, 'roll': 2.33, 'pres': 176}
{'lipoC2': 7.49, 'lipoC3S1': 3.9, 'temp': 30.31, 'lipoC3S3': 11.76, 'lipoC3S2': 7.79, 'rot1': 0, 'rot0': 0, 'rot3': 0, 'rot2': 0, 'state': 'normal', 'yaw': 2.05, 'datetime': '2018-10-10 01:00:24.967217', 'mgs': 0, 'volt': 0.8594, 'depth': 0.928, 'time': 3, 'pitch': 8.06, 'roll': 2.02, 'pres': 176}
{'lipoC2': 7.49, 'lipoC3S1': 3.89, 'temp': 30.38, 'lipoC3S3': 11.76, 'lipoC3S2': 7.79, 'rot1': 0, 'rot0': 0, 'rot3': 0, 'rot2': 0, 'state': 'normal', 'yaw': 2.07, 'datetime': '2018-10-10 01:00:24.980277', 'mgs': 0, 'volt': 0.8545, 'depth': 0.851, 'time': 3, 'pitch': 8.16, 'roll': 1.79, 'pres': 175}
{'lipoC2': 7.48, 'lipoC3S1': 3.89, 'temp': 30.38, 'lipoC3S3': 11.77, 'lipoC3S2': 7.79, 'rot1': 0, 'rot0': 0, 'rot3': 0, 'rot2': 0, 'state': 'normal', 'yaw': 2.11, 'datetime': '2018-10-10 01:00:24.999271', 'mgs': 0, 'volt': 0.8545, 'depth': 0.851, 'time': 3, 'pitch': 8.08, 'roll': 1.83, 'pres': 175}
{'lipoC2': 7.49, 'lipoC3S1': 3.9, 'temp': 30.38, 'lipoC3S3': 11.76, 'lipoC3S2': 7.8, 'rot1': 0, 'rot0': 0, 'rot3': 0, 'rot2': 0, 'state': 'normal', 'yaw': 2.11, 'datetime': '2018-10-10 01:00:25.018239', 'mgs': 0, 'volt': 0.8545, 'depth': 0.851, 'time': 3, 'pitch': 7.91, 'roll': 2.21, 'pres': 175}
{'lipoC2': 7.49, 'lipoC3S1': 3.9, 'temp': 30.38, 'lipoC3S3': 11.77, 'lipoC3S2': 7.8, 'rot1': 0, 'rot0': 0, 'rot3': 0, 'rot2': 0, 'state': 'normal', 'yaw': 2.07, 'datetime': '2018-10-10 01:00:25.031883', 'mgs': 0, 'volt': 0.8545, 'depth': 0.851, 'time': 4, 'pitch': 7.66, 'roll': 2.56, 'pres': 175}
{'lipoC2': 7.48, 'lipoC3S1': 3.9, 'temp': 30.31, 'lipoC3S3': 11.77, 'lipoC3S2': 7.79, 'rot1': 0, 'rot0': 0, 'rot3': 0, 'rot2': 0, 'state': 'normal', 'yaw': 2.19, 'datetime': '2018-10-10 01:00:25.051878', 'mgs': 0, 'volt': 0.8545, 'depth': 0.851, 'time': 4, 'pitch': 7.32, 'roll': 2.6, 'pres': 175}
{'lipoC2': 7.49, 'lipoC3S1': 3.9, 'temp': 30.31, 'lipoC3S3': 11.77, 'lipoC3S2': 7.8, 'rot1': 0, 'rot0': 0, 'rot3': 0, 'rot2': 0, 'state': 'normal', 'yaw': 2.46, 'datetime': '2018-10-10 01:00:25.070840', 'mgs': 0, 'volt': 0.8545, 'depth': 0.851, 'time': 4, 'pitch': 7.04, 'roll': 2.45, 'pres': 175}
{'lipoC2': 7.49, 'lipoC3S1': 3.9, 'temp': 30.31, 'lipoC3S3': 11.77, 'lipoC3S2': 7.8, 'rot1': 0, 'rot0': 0, 'rot3': 0, 'rot2': 0, 'state': 'normal', 'yaw': 2.87, 'datetime': '2018-10-10 01:00:25.083902', 'mgs': 0, 'volt': 0.8545, 'depth': 0.851, 'time': 4, 'pitch': 7.12, 'roll': 2.3, 'pres': 175}
{'lipoC2': 7.48, 'lipoC3S1': 3.89, 'temp': 30.38, 'lipoC3S3': 11.76, 'lipoC3S2': 7.79, 'rot1': 0, 'rot0': 0, 'rot3': 0, 'rot2': 0, 'state': 'normal', 'yaw': 3.13, 'datetime': '2018-10-10 01:00:25.102894', 'mgs': 0, 'volt': 0.8545, 'depth': 0.851, 'time': 4, 'pitch': 7.5, 'roll': 2.25, 'pres': 175}
{'lipoC2': 7.48, 'lipoC3S1': 3.84, 'temp': 30.38, 'lipoC3S3': 11.6, 'lipoC3S2': 7.75, 'rot1': 0, 'rot0': 0, 'rot3': 1, 'rot2': 1, 'state': 'normal', 'yaw': 3.05, 'datetime': '2018-10-10 01:00:25.121885', 'mgs': 0, 'volt': 0.874, 'depth': 1.157, 'time': 4, 'pitch': 7.88, 'roll': 2.27, 'pres': 179}
{'lipoC2': 7.48, 'lipoC3S1': 3.83, 'temp': 30.38, 'lipoC3S3': 11.65, 'lipoC3S2': 7.71, 'rot1': 0, 'rot0': 0, 'rot3': 1, 'rot2': 1, 'state': 'normal', 'yaw': 2.6, 'datetime': '2018-10-10 01:00:25.135660', 'mgs': 0, 'volt': 0.8545, 'depth': 0.851, 'time': 4, 'pitch': 8.27, 'roll': 2.59, 'pres': 175}
{'lipoC2': 7.48, 'lipoC3S1': 3.84, 'temp': 30.38, 'lipoC3S3': 11.71, 'lipoC3S2': 7.74, 'rot1': 0, 'rot0': 0, 'rot3': 2, 'rot2': 2, 'state': 'normal', 'yaw': 2.4, 'datetime': '2018-10-10 01:00:25.155535', 'mgs': 0, 'volt': 0.874, 'depth': 1.157, 'time': 4, 'pitch': 8.21, 'roll': 3.03, 'pres': 179}
{'lipoC2': 7.48, 'lipoC3S1': 3.86, 'temp': 30.31, 'lipoC3S3': 11.69, 'lipoC3S2': 7.75, 'rot1': 0, 'rot0': 0, 'rot3': 4, 'rot2': 3, 'state': 'normal', 'yaw': 2.79, 'datetime': '2018-10-10 01:00:25.174501', 'mgs': 0, 'volt': 0.874, 'depth': 1.157, 'time': 4, 'pitch': 7.72, 'roll': 3.21, 'pres': 179}
{'lipoC2': 7.48, 'lipoC3S1': 3.87, 'temp': 30.31, 'lipoC3S3': 11.68, 'lipoC3S2': 7.72, 'rot1': 0, 'rot0': 0, 'rot3': 5, 'rot2': 3, 'state': 'normal', 'yaw': 3.49, 'datetime': '2018-10-10 01:00:25.187543', 'mgs': 0, 'volt': 0.8545, 'depth': 0.851, 'time': 4, 'pitch': 7.1, 'roll': 3.04, 'pres': 175}
{'lipoC2': 7.48, 'lipoC3S1': 3.85, 'temp': 30.31, 'lipoC3S3': 11.71, 'lipoC3S2': 7.74, 'rot1': 0, 'rot0': 0, 'rot3': 6, 'rot2': 4, 'state': 'normal', 'yaw': 3.98, 'datetime': '2018-10-10 01:00:25.206523', 'mgs': 0, 'volt': 0.8643, 'depth': 1.004, 'time': 5, 'pitch': 6.36, 'roll': 2.64, 'pres': 177}
{'lipoC2': 7.48, 'lipoC3S1': 3.87, 'temp': 30.38, 'lipoC3S3': 11.68, 'lipoC3S2': 7.72, 'rot1': 0, 'rot0': 0, 'rot3': 7, 'rot2': 5, 'state': 'normal', 'yaw': 4.37, 'datetime': '2018-10-10 01:00:25.225467', 'mgs': 0, 'volt': 0.8496, 'depth': 0.775, 'time': 5, 'pitch': 5.85, 'roll': 2.03, 'pres': 174}
{'lipoC2': 7.48, 'lipoC3S1': 3.84, 'temp': 30.38, 'lipoC3S3': 11.69, 'lipoC3S2': 7.73, 'rot1': 0, 'rot0': 0, 'rot3': 8, 'rot2': 6, 'state': 'normal', 'yaw': 4.68, 'datetime': '2018-10-10 01:00:25.239074', 'mgs': 0, 'volt': 0.8594, 'depth': 0.928, 'time': 5, 'pitch': 5.5, 'roll': 1.52, 'pres': 176}
{'lipoC2': 7.48, 'lipoC3S1': 3.86, 'temp': 30.38, 'lipoC3S3': 11.64, 'lipoC3S2': 7.75, 'rot1': 0, 'rot0': 0, 'rot3': 9, 'rot2': 6, 'state': 'normal', 'yaw': 4.87, 'datetime': '2018-10-10 01:00:25.259113', 'mgs': 0, 'volt': 0.8545, 'depth': 0.851, 'time': 5, 'pitch': 4.88, 'roll': 1.47, 'pres': 175}
{'lipoC2': 7.48, 'lipoC3S1': 3.84, 'temp': 30.38, 'lipoC3S3': 11.68, 'lipoC3S2': 7.72, 'rot1': 0, 'rot0': 0, 'rot3': 10, 'rot2': 7, 'state': 'normal', 'yaw': 4.94, 'datetime': '2018-10-10 01:00:25.278124', 'mgs': 0, 'volt': 0.835, 'depth': 0.546, 'time': 5, 'pitch': 3.45, 'roll': 2.04, 'pres': 171}
{'lipoC2': 7.48, 'lipoC3S1': 3.86, 'temp': 30.44, 'lipoC3S3': 11.72, 'lipoC3S2': 7.76, 'rot1': 0, 'rot0': 0, 'rot3': 12, 'rot2': 8, 'state': 'normal', 'yaw': 5.12, 'datetime': '2018-10-10 01:00:25.291223', 'mgs': 0, 'volt': 0.8398, 'depth': 0.623, 'time': 5, 'pitch': 1.31, 'roll': 2.88, 'pres': 172}
{'lipoC2': 7.49, 'lipoC3S1': 3.85, 'temp': 30.44, 'lipoC3S3': 11.71, 'lipoC3S2': 7.76, 'rot1': 0, 'rot0': 0, 'rot3': 13, 'rot2': 9, 'state': 'normal', 'yaw': 5.55, 'datetime': '2018-10-10 01:00:25.310465', 'mgs': 0, 'volt': 0.835, 'depth': 0.546, 'time': 5, 'pitch': -0.64, 'roll': 3.5, 'pres': 171}
{'lipoC2': 7.48, 'lipoC3S1': 3.86, 'temp': 30.44, 'lipoC3S3': 11.65, 'lipoC3S2': 7.76, 'rot1': 0, 'rot0': 0, 'rot3': 14, 'rot2': 10, 'state': 'normal', 'yaw': 6.25, 'datetime': '2018-10-10 01:00:25.329515', 'mgs': 0, 'volt': 0.8398, 'depth': 0.623, 'time': 5, 'pitch': -2.0, 'roll': 3.48, 'pres': 172}
{'lipoC2': 7.48, 'lipoC3S1': 3.87, 'temp': 30.31, 'lipoC3S3': 11.65, 'lipoC3S2': 7.76, 'rot1': 0, 'rot0': 0, 'rot3': 15, 'rot2': 11, 'state': 'normal', 'yaw': 6.82, 'datetime': '2018-10-10 01:00:25.343344', 'mgs': 0, 'volt': 0.835, 'depth': 0.546, 'time': 5, 'pitch': -2.27, 'roll': 2.85, 'pres': 171}
{'lipoC2': 7.48, 'lipoC3S1': 3.86, 'temp': 30.31, 'lipoC3S3': 11.71, 'lipoC3S2': 7.75, 'rot1': 0, 'rot0': 0, 'rot3': 16, 'rot2': 12, 'state': 'normal', 'yaw': 7.1, 'datetime': '2018-10-10 01:00:25.363422', 'mgs': 0, 'volt': 0.8447, 'depth': 0.699, 'time': 5, 'pitch': -1.99, 'roll': 2.01, 'pres': 173}
{'lipoC2': 7.48, 'lipoC3S1': 3.85, 'temp': 30.38, 'lipoC3S3': 11.71, 'lipoC3S2': 7.75, 'rot1': 0, 'rot0': 0, 'rot3': 17, 'rot2': 13, 'state': 'normal', 'yaw': 6.99, 'datetime': '2018-10-10 01:00:25.382597', 'mgs': 0, 'volt': 0.835, 'depth': 0.546, 'time': 6, 'pitch': -1.56, 'roll': 1.32, 'pres': 171}
{'lipoC2': 7.48, 'lipoC3S1': 3.85, 'temp': 30.38, 'lipoC3S3': 11.71, 'lipoC3S2': 7.74, 'rot1': 0, 'rot0': 0, 'rot3': 19, 'rot2': 13, 'state': 'normal', 'yaw': 6.71, 'datetime': '2018-10-10 01:00:25.395776', 'mgs': 0, 'volt': 0.8447, 'depth': 0.699, 'time': 6, 'pitch': -1.58, 'roll': 1.08, 'pres': 173}
{'lipoC2': 7.48, 'lipoC3S1': 3.87, 'temp': 30.38, 'lipoC3S3': 11.67, 'lipoC3S2': 7.71, 'rot1': 0, 'rot0': 0, 'rot3': 20, 'rot2': 14, 'state': 'normal', 'yaw': 6.41, 'datetime': '2018-10-10 01:00:25.414868', 'mgs': 0, 'volt': 0.8252, 'depth': 0.394, 'time': 6, 'pitch': -1.74, 'roll': 1.21, 'pres': 169}
{'lipoC2': 7.48, 'lipoC3S1': 3.87, 'temp': 30.38, 'lipoC3S3': 11.68, 'lipoC3S2': 7.73, 'rot1': 0, 'rot0': 0, 'rot3': 21, 'rot2': 15, 'state': 'normal', 'yaw': 5.97, 'datetime': '2018-10-10 01:00:25.433936', 'mgs': 0, 'volt': 0.8252, 'depth': 0.394, 'time': 6, 'pitch': -1.91, 'roll': 1.67, 'pres': 169}
{'lipoC2': 7.48, 'lipoC3S1': 3.85, 'temp': 30.38, 'lipoC3S3': 11.69, 'lipoC3S2': 7.75, 'rot1': 0, 'rot0': 0, 'rot3': 22, 'rot2': 16, 'state': 'normal', 'yaw': 5.48, 'datetime': '2018-10-10 01:00:25.447822', 'mgs': 0, 'volt': 0.8398, 'depth': 0.623, 'time': 6, 'pitch': -1.99, 'roll': 2.0, 'pres': 172}
{'lipoC2': 7.48, 'lipoC3S1': 3.84, 'temp': 30.31, 'lipoC3S3': 11.68, 'lipoC3S2': 7.72, 'rot1': 0, 'rot0': 0, 'rot3': 23, 'rot2': 17, 'state': 'normal', 'yaw': 4.96, 'datetime': '2018-10-10 01:00:25.467741', 'mgs': 0, 'volt': 0.8203, 'depth': 0.317, 'time': 6, 'pitch': -1.81, 'roll': 2.08, 'pres': 168}
{'lipoC2': 7.48, 'lipoC3S1': 3.84, 'temp': 30.31, 'lipoC3S3': 11.67, 'lipoC3S2': 7.73, 'rot1': 0, 'rot0': 0, 'rot3': 24, 'rot2': 18, 'state': 'normal', 'yaw': 4.43, 'datetime': '2018-10-10 01:00:25.486899', 'mgs': 0, 'volt': 0.8203, 'depth': 0.317, 'time': 6, 'pitch': -1.26, 'roll': 1.97, 'pres': 168}
{'lipoC2': 7.48, 'lipoC3S1': 3.84, 'temp': 30.31, 'lipoC3S3': 11.68, 'lipoC3S2': 7.73, 'rot1': 0, 'rot0': 0, 'rot3': 26, 'rot2': 19, 'state': 'normal', 'yaw': 3.85, 'datetime': '2018-10-10 01:00:25.496725', 'mgs': 0, 'volt': 0.8203, 'depth': 0.317, 'time': 6, 'pitch': -0.49, 'roll': 1.66, 'pres': 168}
{'lipoC2': 7.48, 'lipoC3S1': 3.87, 'temp': 30.31, 'lipoC3S3': 11.69, 'lipoC3S2': 7.73, 'rot1': 0, 'rot0': 0, 'rot3': 27, 'rot2': 20, 'state': 'normal', 'yaw': 3.2, 'datetime': '2018-10-10 01:00:25.512510', 'mgs': 0, 'volt': 0.8203, 'depth': 0.317, 'time': 6, 'pitch': 0.13, 'roll': 1.25, 'pres': 168}
{'lipoC2': 7.48, 'lipoC3S1': 3.84, 'temp': 30.38, 'lipoC3S3': 11.67, 'lipoC3S2': 7.72, 'rot1': 0, 'rot0': 0, 'rot3': 28, 'rot2': 20, 'state': 'normal', 'yaw': 2.52, 'datetime': '2018-10-10 01:00:25.528001', 'mgs': 0, 'volt': 0.8154, 'depth': 0.241, 'time': 7, 'pitch': 0.55, 'roll': 0.82, 'pres': 167}
{'lipoC2': 7.48, 'lipoC3S1': 3.84, 'temp': 30.38, 'lipoC3S3': 11.67, 'lipoC3S2': 7.72, 'rot1': 0, 'rot0': 0, 'rot3': 29, 'rot2': 21, 'state': 'normal', 'yaw': 1.95, 'datetime': '2018-10-10 01:00:25.537573', 'mgs': 0, 'volt': 0.8154, 'depth': 0.241, 'time': 7, 'pitch': 0.71, 'roll': 0.43, 'pres': 167}
{'lipoC2': 7.48, 'lipoC3S1': 3.84, 'temp': 30.38, 'lipoC3S3': 11.67, 'lipoC3S2': 7.73, 'rot1': 0, 'rot0': 0, 'rot3': 30, 'rot2': 22, 'state': 'normal', 'yaw': 1.48, 'datetime': '2018-10-10 01:00:25.554863', 'mgs': 0, 'volt': 0.8154, 'depth': 0.241, 'time': 7, 'pitch': 0.65, 'roll': -0.07, 'pres': 167}
{'lipoC2': 7.48, 'lipoC3S1': 3.84, 'temp': 30.38, 'lipoC3S3': 11.69, 'lipoC3S2': 7.73, 'rot1': 0, 'rot0': 0, 'rot3': 32, 'rot2': 23, 'state': 'normal', 'yaw': 1.2, 'datetime': '2018-10-10 01:00:25.571093', 'mgs': 0, 'volt': 0.8154, 'depth': 0.241, 'time': 7, 'pitch': 0.21, 'roll': -0.68, 'pres': 167}
{'lipoC2': 7.48, 'lipoC3S1': 3.86, 'temp': 30.38, 'lipoC3S3': 11.69, 'lipoC3S2': 7.74, 'rot1': 0, 'rot0': 0, 'rot3': 33, 'rot2': 24, 'state': 'normal', 'yaw': 1.23, 'datetime': '2018-10-10 01:00:25.580732', 'mgs': 0, 'volt': 0.8154, 'depth': 0.241, 'time': 7, 'pitch': -0.37, 'roll': -1.07, 'pres': 167}
{'lipoC2': 7.48, 'lipoC3S1': 3.89, 'temp': 30.31, 'lipoC3S3': 11.75, 'lipoC3S2': 7.78, 'rot1': 0, 'rot0': 0, 'rot3': 33, 'rot2': 25, 'state': 'normal', 'yaw': 1.55, 'datetime': '2018-10-10 01:00:25.596394', 'mgs': 0, 'volt': 0.8203, 'depth': 0.317, 'time': 7, 'pitch': -0.88, 'roll': -1.13, 'pres': 168}
{'lipoC2': 7.47, 'lipoC3S1': 3.86, 'temp': 30.31, 'lipoC3S3': 11.65, 'lipoC3S2': 7.74, 'rot1': 0, 'rot0': 0, 'rot3': 33, 'rot2': 25, 'state': 'normal', 'yaw': 2.17, 'datetime': '2018-10-10 01:00:25.611841', 'mgs': 0, 'volt': 0.8594, 'depth': 0.928, 'time': 7, 'pitch': -0.98, 'roll': -0.88, 'pres': 176}
{'lipoC2': 7.47, 'lipoC3S1': 3.86, 'temp': 30.31, 'lipoC3S3': 11.67, 'lipoC3S2': 7.75, 'rot1': 1, 'rot0': 2, 'rot3': 33, 'rot2': 25, 'state': 'normal', 'yaw': 2.57, 'datetime': '2018-10-10 01:00:25.621365', 'mgs': 0, 'volt': 0.8447, 'depth': 0.699, 'time': 7, 'pitch': -0.0, 'roll': -0.58, 'pres': 173}
{'lipoC2': 7.48, 'lipoC3S1': 3.82, 'temp': 30.31, 'lipoC3S3': 11.68, 'lipoC3S2': 7.75, 'rot1': 2, 'rot0': 3, 'rot3': 33, 'rot2': 25, 'state': 'normal', 'yaw': 2.32, 'datetime': '2018-10-10 01:00:25.636819', 'mgs': 0, 'volt': 0.8789, 'depth': 1.233, 'time': 7, 'pitch': 1.53, 'roll': -0.42, 'pres': 180}
{'lipoC2': 7.48, 'lipoC3S1': 3.84, 'temp': 30.31, 'lipoC3S3': 11.68, 'lipoC3S2': 7.75, 'rot1': 3, 'rot0': 5, 'rot3': 33, 'rot2': 25, 'state': 'normal', 'yaw': 1.18, 'datetime': '2018-10-10 01:00:25.653310', 'mgs': 0, 'volt': 0.8789, 'depth': 1.233, 'time': 7, 'pitch': 2.56, 'roll': -0.48, 'pres': 180}
{'lipoC2': 7.48, 'lipoC3S1': 3.87, 'temp': 30.31, 'lipoC3S3': 11.68, 'lipoC3S2': 7.75, 'rot1': 4, 'rot0': 6, 'rot3': 33, 'rot2': 25, 'state': 'normal', 'yaw': -0.5, 'datetime': '2018-10-10 01:00:25.664627', 'mgs': 0, 'volt': 0.874, 'depth': 1.157, 'time': 8, 'pitch': 2.75, 'roll': -0.71, 'pres': 179}
{'lipoC2': 7.48, 'lipoC3S1': 3.8, 'temp': 30.31, 'lipoC3S3': 11.69, 'lipoC3S2': 7.69, 'rot1': 4, 'rot0': 8, 'rot3': 33, 'rot2': 25, 'state': 'normal', 'yaw': -2.68, 'datetime': '2018-10-10 01:00:25.680130', 'mgs': 0, 'volt': 0.835, 'depth': 0.546, 'time': 8, 'pitch': 2.86, 'roll': -0.92, 'pres': 171}
{'lipoC2': 7.48, 'lipoC3S1': 3.8, 'temp': 30.31, 'lipoC3S3': 11.68, 'lipoC3S2': 7.7, 'rot1': 5, 'rot0': 9, 'rot3': 33, 'rot2': 25, 'state': 'normal', 'yaw': -5.55, 'datetime': '2018-10-10 01:00:25.695482', 'mgs': 0, 'volt': 0.8398, 'depth': 0.623, 'time': 8, 'pitch': 3.79, 'roll': -0.91, 'pres': 172}
{'lipoC2': 7.48, 'lipoC3S1': 3.8, 'temp': 30.31, 'lipoC3S3': 11.69, 'lipoC3S2': 7.71, 'rot1': 6, 'rot0': 10, 'rot3': 33, 'rot2': 25, 'state': 'normal', 'yaw': -8.46, 'datetime': '2018-10-10 01:00:25.705095', 'mgs': 0, 'volt': 0.8398, 'depth': 0.623, 'time': 8, 'pitch': 5.72, 'roll': -0.72, 'pres': 172}
{'lipoC2': 7.48, 'lipoC3S1': 3.87, 'temp': 30.44, 'lipoC3S3': 11.67, 'lipoC3S2': 7.7, 'rot1': 7, 'rot0': 12, 'rot3': 33, 'rot2': 25, 'state': 'normal', 'yaw': -11.55, 'datetime': '2018-10-10 01:00:25.720530', 'mgs': 0, 'volt': 0.8447, 'depth': 0.699, 'time': 8, 'pitch': 8.23, 'roll': -0.57, 'pres': 173}
{'lipoC2': 7.48, 'lipoC3S1': 3.86, 'temp': 30.44, 'lipoC3S3': 11.56, 'lipoC3S2': 7.65, 'rot1': 7, 'rot0': 13, 'rot3': 33, 'rot2': 25, 'state': 'normal', 'yaw': -15.14, 'datetime': '2018-10-10 01:00:25.735948', 'mgs': 0, 'volt': 0.8496, 'depth': 0.775, 'time': 8, 'pitch': 10.26, 'roll': -0.69, 'pres': 174}
{'lipoC2': 7.47, 'lipoC3S1': 3.87, 'temp': 30.44, 'lipoC3S3': 11.6, 'lipoC3S2': 7.75, 'rot1': 9, 'rot0': 15, 'rot3': 33, 'rot2': 25, 'state': 'normal', 'yaw': -18.45, 'datetime': '2018-10-10 01:00:25.772617', 'mgs': 0, 'volt': 0.8496, 'depth': 0.775, 'time': 8, 'pitch': 10.57, 'roll': -0.9, 'pres': 174}
{'lipoC2': 7.47, 'lipoC3S1': 3.87, 'temp': 30.31, 'lipoC3S3': 11.68, 'lipoC3S2': 7.75, 'rot1': 10, 'rot0': 16, 'rot3': 33, 'rot2': 25, 'state': 'normal', 'yaw': -21.25, 'datetime': '2018-10-10 01:00:25.876165', 'mgs': 0, 'volt': 0.8838, 'depth': 1.309, 'time': 8, 'pitch': 10.07, 'roll': -0.95, 'pres': 181}
{'lipoC2': 7.49, 'lipoC3S1': 3.86, 'temp': 30.31, 'lipoC3S3': 11.71, 'lipoC3S2': 7.71, 'rot1': 11, 'rot0': 16, 'rot3': 33, 'rot2': 25, 'state': 'normal', 'yaw': -23.19, 'datetime': '2018-10-10 01:00:25.979919', 'mgs': 0, 'volt': 0.8545, 'depth': 0.851, 'time': 8, 'pitch': 9.72, 'roll': -0.63, 'pres': 175}
{'lipoC2': 7.47, 'lipoC3S1': 3.87, 'temp': 30.38, 'lipoC3S3': 11.69, 'lipoC3S2': 7.75, 'rot1': 12, 'rot0': 17, 'rot3': 33, 'rot2': 25, 'state': 'normal', 'yaw': -24.19, 'datetime': '2018-10-10 01:00:26.083524', 'mgs': 0, 'volt': 0.8594, 'depth': 0.928, 'time': 8, 'pitch': 10.44, 'roll': -0.33, 'pres': 176}
{'lipoC2': 7.49, 'lipoC3S1': 3.87, 'temp': 30.38, 'lipoC3S3': 11.69, 'lipoC3S2': 7.65, 'rot1': 14, 'rot0': 18, 'rot3': 33, 'rot2': 25, 'state': 'normal', 'yaw': -24.67, 'datetime': '2018-10-10 01:00:26.188338', 'mgs': 0, 'volt': 0.8594, 'depth': 0.928, 'time': 9, 'pitch': 11.67, 'roll': -0.24, 'pres': 176}
{'lipoC2': 7.47, 'lipoC3S1': 3.87, 'temp': 30.38, 'lipoC3S3': 11.59, 'lipoC3S2': 7.75, 'rot1': 15, 'rot0': 19, 'rot3': 33, 'rot2': 25, 'state': 'normal', 'yaw': -24.67, 'datetime': '2018-10-10 01:00:26.291901', 'mgs': 0, 'volt': 0.8594, 'depth': 0.928, 'time': 9, 'pitch': 12.04, 'roll': -0.2, 'pres': 176}
{'lipoC2': 7.48, 'lipoC3S1': 3.86, 'temp': 30.38, 'lipoC3S3': 11.65, 'lipoC3S2': 7.7, 'rot1': 16, 'rot0': 20, 'rot3': 33, 'rot2': 25, 'state': 'normal', 'yaw': -24.29, 'datetime': '2018-10-10 01:00:26.395800', 'mgs': 0, 'volt': 0.8594, 'depth': 0.928, 'time': 9, 'pitch': 11.14, 'roll': 0.01, 'pres': 176}
{'lipoC2': 7.48, 'lipoC3S1': 3.86, 'temp': 30.38, 'lipoC3S3': 11.69, 'lipoC3S2': 7.75, 'rot1': 17, 'rot0': 20, 'rot3': 33, 'rot2': 25, 'state': 'normal', 'yaw': -23.58, 'datetime': '2018-10-10 01:00:26.500563', 'mgs': 0, 'volt': 0.8984, 'depth': 1.538, 'time': 9, 'pitch': 10.06, 'roll': 0.41, 'pres': 184}
{'lipoC2': 7.48, 'lipoC3S1': 3.81, 'temp': 30.31, 'lipoC3S3': 11.69, 'lipoC3S2': 7.68, 'rot1': 19, 'rot0': 21, 'rot3': 33, 'rot2': 25, 'state': 'normal', 'yaw': -22.41, 'datetime': '2018-10-10 01:00:26.604121', 'mgs': 0, 'volt': 0.8594, 'depth': 0.928, 'time': 9, 'pitch': 9.61, 'roll': 0.86, 'pres': 176}
{'lipoC2': 7.48, 'lipoC3S1': 3.86, 'temp': 30.31, 'lipoC3S3': 11.69, 'lipoC3S2': 7.75, 'rot1': 20, 'rot0': 22, 'rot3': 33, 'rot2': 25, 'state': 'normal', 'yaw': -21.05, 'datetime': '2018-10-10 01:00:26.708976', 'mgs': 0, 'volt': 0.9082, 'depth': 1.691, 'time': 9, 'pitch': 10.03, 'roll': 1.08, 'pres': 186}
{'lipoC2': 7.49, 'lipoC3S1': 3.74, 'temp': 30.13, 'lipoC3S3': 11.67, 'lipoC3S2': 7.61, 'rot1': 21, 'rot0': 23, 'rot3': 34, 'rot2': 25, 'state': 'normal', 'yaw': -19.36, 'datetime': '2018-10-10 01:00:26.819253', 'mgs': 0, 'volt': 0.8594, 'depth': 0.928, 'time': 9, 'pitch': 10.76, 'roll': 1.07, 'pres': 176}
{'lipoC2': 7.47, 'lipoC3S1': 3.85, 'temp': 30.13, 'lipoC3S3': 11.51, 'lipoC3S2': 7.72, 'rot1': 22, 'rot0': 24, 'rot3': 34, 'rot2': 25, 'state': 'normal', 'yaw': -17.8, 'datetime': '2018-10-10 01:00:26.922657', 'mgs': 0, 'volt': 0.8594, 'depth': 0.928, 'time': 9, 'pitch': 10.9, 'roll': 1.01, 'pres': 176}
{'lipoC2': 7.48, 'lipoC3S1': 3.82, 'temp': 30.38, 'lipoC3S3': 11.65, 'lipoC3S2': 7.74, 'rot1': 24, 'rot0': 24, 'rot3': 35, 'rot2': 26, 'state': 'normal', 'yaw': -16.24, 'datetime': '2018-10-10 01:00:27.026339', 'mgs': 0, 'volt': 0.9131, 'depth': 1.767, 'time': 9, 'pitch': 10.55, 'roll': 1.11, 'pres': 187}
{'lipoC2': 7.48, 'lipoC3S1': 3.75, 'temp': 30.38, 'lipoC3S3': 11.67, 'lipoC3S2': 7.62, 'rot1': 25, 'rot0': 25, 'rot3': 35, 'rot2': 27, 'state': 'normal', 'yaw': -14.39, 'datetime': '2018-10-10 01:00:27.130008', 'mgs': 0, 'volt': 0.8496, 'depth': 0.775, 'time': 10, 'pitch': 10.23, 'roll': 1.45, 'pres': 174}
{'lipoC2': 7.47, 'lipoC3S1': 3.86, 'temp': 30.38, 'lipoC3S3': 11.64, 'lipoC3S2': 7.73, 'rot1': 26, 'rot0': 26, 'rot3': 36, 'rot2': 27, 'state': 'normal', 'yaw': -12.56, 'datetime': '2018-10-10 01:00:27.234628', 'mgs': 0, 'volt': 0.8984, 'depth': 1.538, 'time': 10, 'pitch': 10.32, 'roll': 1.56, 'pres': 184}
{'lipoC2': 7.48, 'lipoC3S1': 3.75, 'temp': 30.44, 'lipoC3S3': 11.67, 'lipoC3S2': 7.62, 'rot1': 27, 'rot0': 27, 'rot3': 37, 'rot2': 28, 'state': 'normal', 'yaw': -10.65, 'datetime': '2018-10-10 01:00:27.337569', 'mgs': 0, 'volt': 0.8496, 'depth': 0.775, 'time': 10, 'pitch': 10.61, 'roll': 1.2, 'pres': 174}
{'lipoC2': 7.47, 'lipoC3S1': 3.87, 'temp': 30.44, 'lipoC3S3': 11.68, 'lipoC3S2': 7.75, 'rot1': 29, 'rot0': 28, 'rot3': 37, 'rot2': 28, 'state': 'normal', 'yaw': -8.55, 'datetime': '2018-10-10 01:00:27.442170', 'mgs': 0, 'volt': 0.8789, 'depth': 1.233, 'time': 10, 'pitch': 10.69, 'roll': 0.28, 'pres': 180}
{'lipoC2': 7.48, 'lipoC3S1': 3.8, 'temp': 30.38, 'lipoC3S3': 11.69, 'lipoC3S2': 7.65, 'rot1': 30, 'rot0': 28, 'rot3': 37, 'rot2': 28, 'state': 'normal', 'yaw': -6.57, 'datetime': '2018-10-10 01:00:27.544802', 'mgs': 0, 'volt': 0.8447, 'depth': 0.699, 'time': 10, 'pitch': 10.0, 'roll': -0.76, 'pres': 173}
{'lipoC2': 7.48, 'lipoC3S1': 3.83, 'temp': 30.38, 'lipoC3S3': 11.69, 'lipoC3S2': 7.75, 'rot1': 31, 'rot0': 29, 'rot3': 37, 'rot2': 28, 'state': 'normal', 'yaw': -4.46, 'datetime': '2018-10-10 01:00:27.649916', 'mgs': 0, 'volt': 0.8447, 'depth': 0.699, 'time': 10, 'pitch': 8.62, 'roll': -1.52, 'pres': 173}
{'lipoC2': 7.47, 'lipoC3S1': 3.86, 'temp': 30.25, 'lipoC3S3': 11.59, 'lipoC3S2': 7.74, 'rot1': 32, 'rot0': 30, 'rot3': 37, 'rot2': 28, 'state': 'normal', 'yaw': -2.03, 'datetime': '2018-10-10 01:00:27.753518', 'mgs': 0, 'volt': 0.8398, 'depth': 0.623, 'time': 10, 'pitch': 6.91, 'roll': -1.7, 'pres': 172}
{'lipoC2': 7.48, 'lipoC3S1': 3.85, 'temp': 30.25, 'lipoC3S3': 11.5, 'lipoC3S2': 7.71, 'rot1': 34, 'rot0': 31, 'rot3': 37, 'rot2': 28, 'state': 'normal', 'yaw': 0.18, 'datetime': '2018-10-10 01:00:27.858562', 'mgs': 0, 'volt': 0.8398, 'depth': 0.623, 'time': 10, 'pitch': 6.04, 'roll': -1.35, 'pres': 172}
{'lipoC2': 7.48, 'lipoC3S1': 3.8, 'temp': 30.25, 'lipoC3S3': 11.65, 'lipoC3S2': 7.73, 'rot1': 35, 'rot0': 32, 'rot3': 37, 'rot2': 28, 'state': 'normal', 'yaw': 2.1, 'datetime': '2018-10-10 01:00:27.962417', 'mgs': 0, 'volt': 0.874, 'depth': 1.157, 'time': 10, 'pitch': 6.67, 'roll': -1.07, 'pres': 179}
{'lipoC2': 7.48, 'lipoC3S1': 3.84, 'temp': 30.38, 'lipoC3S3': 11.51, 'lipoC3S2': 7.71, 'rot1': 36, 'rot0': 34, 'rot3': 37, 'rot2': 28, 'state': 'normal', 'yaw': 3.26, 'datetime': '2018-10-10 01:00:28.066041', 'mgs': 0, 'volt': 0.8447, 'depth': 0.699, 'time': 10, 'pitch': 7.76, 'roll': -1.33, 'pres': 173}
{'lipoC2': 7.48, 'lipoC3S1': 3.85, 'temp': 30.38, 'lipoC3S3': 11.64, 'lipoC3S2': 7.68, 'rot1': 37, 'rot0': 35, 'rot3': 37, 'rot2': 28, 'state': 'normal', 'yaw': 3.98, 'datetime': '2018-10-10 01:00:28.171029', 'mgs': 0, 'volt': 0.8447, 'depth': 0.699, 'time': 11, 'pitch': 8.38, 'roll': -2.03, 'pres': 173}
{'lipoC2': 7.47, 'lipoC3S1': 3.86, 'temp': 30.38, 'lipoC3S3': 11.67, 'lipoC3S2': 7.74, 'rot1': 38, 'rot0': 37, 'rot3': 37, 'rot2': 28, 'state': 'normal', 'yaw': 3.98, 'datetime': '2018-10-10 01:00:28.274761', 'mgs': 0, 'volt': 0.9082, 'depth': 1.691, 'time': 11, 'pitch': 8.61, 'roll': -2.8, 'pres': 186}
{'lipoC2': 7.48, 'lipoC3S1': 3.84, 'temp': 30.38, 'lipoC3S3': 11.58, 'lipoC3S2': 7.61, 'rot1': 39, 'rot0': 38, 'rot3': 37, 'rot2': 28, 'state': 'normal', 'yaw': 3.33, 'datetime': '2018-10-10 01:00:28.378536', 'mgs': 0, 'volt': 0.8496, 'depth': 0.775, 'time': 11, 'pitch': 8.99, 'roll': -3.05, 'pres': 174}
{'lipoC2': 7.48, 'lipoC3S1': 3.77, 'temp': 30.38, 'lipoC3S3': 11.64, 'lipoC3S2': 7.73, 'rot1': 40, 'rot0': 40, 'rot3': 38, 'rot2': 29, 'state': 'normal', 'yaw': 2.24, 'datetime': '2018-10-10 01:00:28.482504', 'mgs': 0, 'volt': 0.9375, 'depth': 2.148, 'time': 11, 'pitch': 9.94, 'roll': -2.84, 'pres': 192}
{'lipoC2': 7.47, 'lipoC3S1': 3.84, 'temp': 30.38, 'lipoC3S3': 11.48, 'lipoC3S2': 7.71, 'rot1': 41, 'rot0': 41, 'rot3': 38, 'rot2': 29, 'state': 'normal', 'yaw': 0.59, 'datetime': '2018-10-10 01:00:28.586317', 'mgs': 0, 'volt': 0.8496, 'depth': 0.775, 'time': 11, 'pitch': 11.43, 'roll': -2.59, 'pres': 174}
{'lipoC2': 7.49, 'lipoC3S1': 3.83, 'temp': 30.38, 'lipoC3S3': 11.67, 'lipoC3S2': 7.74, 'rot1': 41, 'rot0': 43, 'rot3': 39, 'rot2': 30, 'state': 'normal', 'yaw': -1.24, 'datetime': '2018-10-10 01:00:28.689943', 'mgs': 0, 'volt': 0.8545, 'depth': 0.851, 'time': 11, 'pitch': 12.01, 'roll': -2.62, 'pres': 175}
{'lipoC2': 7.47, 'lipoC3S1': 3.85, 'temp': 30.31, 'lipoC3S3': 11.63, 'lipoC3S2': 7.73, 'rot1': 42, 'rot0': 44, 'rot3': 39, 'rot2': 30, 'state': 'normal', 'yaw': -3.31, 'datetime': '2018-10-10 01:00:28.793880', 'mgs': 0, 'volt': 0.8984, 'depth': 1.538, 'time': 11, 'pitch': 11.13, 'roll': -2.78, 'pres': 184}
{'lipoC2': 7.48, 'lipoC3S1': 3.85, 'temp': 30.31, 'lipoC3S3': 11.64, 'lipoC3S2': 7.62, 'rot1': 43, 'rot0': 45, 'rot3': 39, 'rot2': 30, 'state': 'normal', 'yaw': -5.4, 'datetime': '2018-10-10 01:00:28.897676', 'mgs': 0, 'volt': 0.8496, 'depth': 0.775, 'time': 11, 'pitch': 9.39, 'roll': -2.87, 'pres': 174}
{'lipoC2': 7.48, 'lipoC3S1': 3.75, 'temp': 30.38, 'lipoC3S3': 11.65, 'lipoC3S2': 7.69, 'rot1': 45, 'rot0': 47, 'rot3': 39, 'rot2': 30, 'state': 'normal', 'yaw': -6.9, 'datetime': '2018-10-10 01:00:29.002800', 'mgs': 0, 'volt': 0.8545, 'depth': 0.851, 'time': 11, 'pitch': 8.51, 'roll': -2.73, 'pres': 175}
{'lipoC2': 7.47, 'lipoC3S1': 3.86, 'temp': 30.38, 'lipoC3S3': 11.58, 'lipoC3S2': 7.74, 'rot1': 46, 'rot0': 48, 'rot3': 39, 'rot2': 30, 'state': 'normal', 'yaw': -8.14, 'datetime': '2018-10-10 01:00:29.106617', 'mgs': 0, 'volt': 0.8545, 'depth': 0.851, 'time': 12, 'pitch': 9.23, 'roll': -2.51, 'pres': 175}
{'lipoC2': 7.48, 'lipoC3S1': 3.86, 'temp': 30.38, 'lipoC3S3': 11.64, 'lipoC3S2': 7.75, 'rot1': 47, 'rot0': 49, 'rot3': 39, 'rot2': 30, 'state': 'normal', 'yaw': -8.6, 'datetime': '2018-10-10 01:00:29.211252', 'mgs': 0, 'volt': 0.8545, 'depth': 0.851, 'time': 12, 'pitch': 10.49, 'roll': -2.33, 'pres': 175}
{'lipoC2': 7.48, 'lipoC3S1': 3.87, 'temp': 30.38, 'lipoC3S3': 11.69, 'lipoC3S2': 7.65, 'rot1': 48, 'rot0': 50, 'rot3': 39, 'rot2': 30, 'state': 'normal', 'yaw': -8.36, 'datetime': '2018-10-10 01:00:29.315454', 'mgs': 0, 'volt': 0.8545, 'depth': 0.851, 'time': 12, 'pitch': 10.75, 'roll': -2.04, 'pres': 175}
{'lipoC2': 7.47, 'lipoC3S1': 3.86, 'temp': 30.38, 'lipoC3S3': 11.67, 'lipoC3S2': 7.74, 'rot1': 50, 'rot0': 50, 'rot3': 39, 'rot2': 30, 'state': 'normal', 'yaw': -7.56, 'datetime': '2018-10-10 01:00:29.419134', 'mgs': 0, 'volt': 0.8936, 'depth': 1.462, 'time': 12, 'pitch': 9.64, 'roll': -1.67, 'pres': 183}
