{'lipoC2': 7.47, 'lipoC3S1': 4.07, 'temp': 30.56, 'lipoC3S3': 12.31, 'lipoC3S2': 8.14, 'rot1': 261, 'rot0': 267, 'rot3': 387, 'rot2': 329, 'state': 'normal', 'yaw': -38.97, 'datetime': '2018-10-09 12:44:56.210491', 'mgs': 0, 'volt': 0.9277, 'depth': 1.996, 'time': 213, 'pitch': -11.76, 'roll': -30.2, 'pres': 190}
{'lipoC2': 7.47, 'lipoC3S1': 4.07, 'temp': 30.5, 'lipoC3S3': 12.31, 'lipoC3S2': 8.14, 'rot1': 261, 'rot0': 267, 'rot3': 387, 'rot2': 329, 'state': 'normal', 'yaw': -38.71, 'datetime': '2018-10-09 12:44:56.234500', 'mgs': 0, 'volt': 0.9229, 'depth': 1.92, 'time': 213, 'pitch': -12.23, 'roll': -30.2, 'pres': 189}
{'lipoC2': 7.47, 'lipoC3S1': 4.07, 'temp': 30.5, 'lipoC3S3': 12.31, 'lipoC3S2': 8.14, 'rot1': 261, 'rot0': 267, 'rot3': 387, 'rot2': 329, 'state': 'normal', 'yaw': -38.63, 'datetime': '2018-10-09 12:44:56.258663', 'mgs': 0, 'volt': 0.9277, 'depth': 1.996, 'time': 213, 'pitch': -12.44, 'roll': -30.26, 'pres': 190}
{'lipoC2': 7.47, 'lipoC3S1': 4.07, 'temp': 30.5, 'lipoC3S3': 12.31, 'lipoC3S2': 8.14, 'rot1': 261, 'rot0': 267, 'rot3': 387, 'rot2': 329, 'state': 'normal', 'yaw': -38.75, 'datetime': '2018-10-09 12:44:56.282783', 'mgs': 0, 'volt': 0.9277, 'depth': 1.996, 'time': 213, 'pitch': -12.39, 'roll': -30.33, 'pres': 190}
{'lipoC2': 7.47, 'lipoC3S1': 4.07, 'temp': 30.56, 'lipoC3S3': 12.31, 'lipoC3S2': 8.14, 'rot1': 261, 'rot0': 267, 'rot3': 387, 'rot2': 329, 'state': 'normal', 'yaw': -38.99, 'datetime': '2018-10-09 12:44:56.298225', 'mgs': 0, 'volt': 0.9229, 'depth': 1.92, 'time': 213, 'pitch': -12.17, 'roll': -30.28, 'pres': 189}
{'lipoC2': 7.47, 'lipoC3S1': 4.07, 'temp': 30.56, 'lipoC3S3': 12.31, 'lipoC3S2': 8.14, 'rot1': 261, 'rot0': 267, 'rot3': 387, 'rot2': 329, 'state': 'normal', 'yaw': -39.27, 'datetime': '2018-10-09 12:44:56.308669', 'mgs': 0, 'volt': 0.9277, 'depth': 1.996, 'time': 214, 'pitch': -11.91, 'roll': -30.21, 'pres': 190}
{'lipoC2': 7.47, 'lipoC3S1': 4.07, 'temp': 30.56, 'lipoC3S3': 12.31, 'lipoC3S2': 8.14, 'rot1': 261, 'rot0': 267, 'rot3': 387, 'rot2': 329, 'state': 'normal', 'yaw': -39.44, 'datetime': '2018-10-09 12:44:56.319030', 'mgs': 0, 'volt': 0.9229, 'depth': 1.92, 'time': 214, 'pitch': -11.81, 'roll': -30.16, 'pres': 189}
{'lipoC2': 7.47, 'lipoC3S1': 4.07, 'temp': 30.56, 'lipoC3S3': 12.31, 'lipoC3S2': 8.14, 'rot1': 261, 'rot0': 267, 'rot3': 387, 'rot2': 329, 'state': 'normal', 'yaw': -39.5, 'datetime': '2018-10-09 12:44:56.329429', 'mgs': 0, 'volt': 0.9229, 'depth': 1.92, 'time': 214, 'pitch': -11.89, 'roll': -30.15, 'pres': 189}
{'lipoC2': 7.47, 'lipoC3S1': 4.07, 'temp': 30.56, 'lipoC3S3': 12.31, 'lipoC3S2': 8.14, 'rot1': 261, 'rot0': 267, 'rot3': 387, 'rot2': 329, 'state': 'normal', 'yaw': -39.48, 'datetime': '2018-10-09 12:44:56.339799', 'mgs': 0, 'volt': 0.9229, 'depth': 1.92, 'time': 214, 'pitch': -12.13, 'roll': -30.2, 'pres': 189}
{'lipoC2': 7.47, 'lipoC3S1': 4.07, 'temp': 30.56, 'lipoC3S3': 12.31, 'lipoC3S2': 8.14, 'rot1': 261, 'rot0': 267, 'rot3': 387, 'rot2': 329, 'state': 'normal', 'yaw': -39.49, 'datetime': '2018-10-09 12:44:56.350138', 'mgs': 0, 'volt': 0.9229, 'depth': 1.92, 'time': 214, 'pitch': -12.3, 'roll': -30.26, 'pres': 189}
{'lipoC2': 7.47, 'lipoC3S1': 4.07, 'temp': 30.5, 'lipoC3S3': 12.31, 'lipoC3S2': 8.14, 'rot1': 261, 'rot0': 267, 'rot3': 387, 'rot2': 329, 'state': 'normal', 'yaw': -39.59, 'datetime': '2018-10-09 12:44:56.360506', 'mgs': 0, 'volt': 0.9229, 'depth': 1.92, 'time': 214, 'pitch': -12.34, 'roll': -30.24, 'pres': 189}
{'lipoC2': 7.47, 'lipoC3S1': 4.07, 'temp': 30.5, 'lipoC3S3': 12.31, 'lipoC3S2': 8.14, 'rot1': 261, 'rot0': 267, 'rot3': 387, 'rot2': 329, 'state': 'normal', 'yaw': -39.79, 'datetime': '2018-10-09 12:44:56.370882', 'mgs': 0, 'volt': 0.9229, 'depth': 1.92, 'time': 214, 'pitch': -12.18, 'roll': -30.2, 'pres': 189}
{'lipoC2': 7.47, 'lipoC3S1': 4.07, 'temp': 30.5, 'lipoC3S3': 12.31, 'lipoC3S2': 8.14, 'rot1': 261, 'rot0': 267, 'rot3': 387, 'rot2': 329, 'state': 'normal', 'yaw': -40.05, 'datetime': '2018-10-09 12:44:56.381265', 'mgs': 0, 'volt': 0.9229, 'depth': 1.92, 'time': 214, 'pitch': -11.89, 'roll': -30.12, 'pres': 189}
{'lipoC2': 7.47, 'lipoC3S1': 4.07, 'temp': 30.56, 'lipoC3S3': 12.31, 'lipoC3S2': 8.14, 'rot1': 261, 'rot0': 267, 'rot3': 387, 'rot2': 329, 'state': 'normal', 'yaw': -40.29, 'datetime': '2018-10-09 12:44:56.391651', 'mgs': 0, 'volt': 0.918, 'depth': 1.843, 'time': 214, 'pitch': -11.64, 'roll': -30.07, 'pres': 188}
{'lipoC2': 7.47, 'lipoC3S1': 4.07, 'temp': 30.56, 'lipoC3S3': 12.31, 'lipoC3S2': 8.14, 'rot1': 261, 'rot0': 267, 'rot3': 387, 'rot2': 329, 'state': 'normal', 'yaw': -40.43, 'datetime': '2018-10-09 12:44:56.402336', 'mgs': 0, 'volt': 0.918, 'depth': 1.843, 'time': 214, 'pitch': -11.56, 'roll': -30.07, 'pres': 188}
{'lipoC2': 7.47, 'lipoC3S1': 4.07, 'temp': 30.5, 'lipoC3S3': 12.31, 'lipoC3S2': 8.14, 'rot1': 261, 'rot0': 267, 'rot3': 387, 'rot2': 329, 'state': 'normal', 'yaw': -40.43, 'datetime': '2018-10-09 12:44:56.412781', 'mgs': 0, 'volt': 0.9229, 'depth': 1.92, 'time': 215, 'pitch': -11.74, 'roll': -30.17, 'pres': 189}
{'lipoC2': 7.47, 'lipoC3S1': 4.07, 'temp': 30.5, 'lipoC3S3': 12.31, 'lipoC3S2': 8.14, 'rot1': 261, 'rot0': 267, 'rot3': 387, 'rot2': 329, 'state': 'normal', 'yaw': -40.32, 'datetime': '2018-10-09 12:44:56.423168', 'mgs': 0, 'volt': 0.9229, 'depth': 1.92, 'time': 215, 'pitch': -12.12, 'roll': -30.34, 'pres': 189}
{'lipoC2': 7.47, 'lipoC3S1': 4.07, 'temp': 30.56, 'lipoC3S3': 12.31, 'lipoC3S2': 8.14, 'rot1': 261, 'rot0': 267, 'rot3': 387, 'rot2': 329, 'state': 'normal', 'yaw': -40.21, 'datetime': '2018-10-09 12:44:56.433591', 'mgs': 0, 'volt': 0.9229, 'depth': 1.92, 'time': 215, 'pitch': -12.47, 'roll': -30.49, 'pres': 189}
{'lipoC2': 7.47, 'lipoC3S1': 4.07, 'temp': 30.56, 'lipoC3S3': 12.31, 'lipoC3S2': 8.14, 'rot1': 261, 'rot0': 267, 'rot3': 387, 'rot2': 329, 'state': 'normal', 'yaw': -40.15, 'datetime': '2018-10-09 12:44:56.443981', 'mgs': 0, 'volt': 0.9229, 'depth': 1.92, 'time': 215, 'pitch': -12.73, 'roll': -30.59, 'pres': 189}
{'lipoC2': 7.46, 'lipoC3S1': 4.07, 'temp': 30.56, 'lipoC3S3': 12.31, 'lipoC3S2': 8.14, 'rot1': 261, 'rot0': 267, 'rot3': 387, 'rot2': 329, 'state': 'normal', 'yaw': -40.16, 'datetime': '2018-10-09 12:44:56.454366', 'mgs': 0, 'volt': 0.9229, 'depth': 1.92, 'time': 215, 'pitch': -12.87, 'roll': -30.6, 'pres': 189}
{'lipoC2': 7.47, 'lipoC3S1': 4.07, 'temp': 30.56, 'lipoC3S3': 12.31, 'lipoC3S2': 8.14, 'rot1': 261, 'rot0': 267, 'rot3': 387, 'rot2': 329, 'state': 'normal', 'yaw': -40.26, 'datetime': '2018-10-09 12:44:56.464691', 'mgs': 0, 'volt': 0.9229, 'depth': 1.92, 'time': 215, 'pitch': -12.89, 'roll': -30.56, 'pres': 189}
{'lipoC2': 7.47, 'lipoC3S1': 4.07, 'temp': 30.56, 'lipoC3S3': 12.31, 'lipoC3S2': 8.14, 'rot1': 261, 'rot0': 267, 'rot3': 387, 'rot2': 329, 'state': 'normal', 'yaw': -40.46, 'datetime': '2018-10-09 12:44:56.475087', 'mgs': 0, 'volt': 0.9229, 'depth': 1.92, 'time': 215, 'pitch': -12.76, 'roll': -30.43, 'pres': 189}
{'lipoC2': 7.47, 'lipoC3S1': 4.07, 'temp': 30.5, 'lipoC3S3': 12.31, 'lipoC3S2': 8.14, 'rot1': 261, 'rot0': 267, 'rot3': 387, 'rot2': 329, 'state': 'normal', 'yaw': -40.74, 'datetime': '2018-10-09 12:44:56.485462', 'mgs': 0, 'volt': 0.9229, 'depth': 1.92, 'time': 215, 'pitch': -12.47, 'roll': -30.32, 'pres': 189}
{'lipoC2': 7.47, 'lipoC3S1': 4.07, 'temp': 30.5, 'lipoC3S3': 12.31, 'lipoC3S2': 8.14, 'rot1': 261, 'rot0': 267, 'rot3': 387, 'rot2': 329, 'state': 'normal', 'yaw': -41.18, 'datetime': '2018-10-09 12:44:56.495849', 'mgs': 0, 'volt': 0.9229, 'depth': 1.92, 'time': 215, 'pitch': -11.96, 'roll': -30.22, 'pres': 189}
{'lipoC2': 7.47, 'lipoC3S1': 4.07, 'temp': 30.56, 'lipoC3S3': 12.31, 'lipoC3S2': 8.14, 'rot1': 261, 'rot0': 267, 'rot3': 387, 'rot2': 329, 'state': 'normal', 'yaw': -41.61, 'datetime': '2018-10-09 12:44:56.506293', 'mgs': 0, 'volt': 0.9229, 'depth': 1.92, 'time': 216, 'pitch': -11.44, 'roll': -30.11, 'pres': 189}
{'lipoC2': 7.47, 'lipoC3S1': 4.07, 'temp': 30.56, 'lipoC3S3': 12.31, 'lipoC3S2': 8.14, 'rot1': 261, 'rot0': 267, 'rot3': 387, 'rot2': 329, 'state': 'normal', 'yaw': -41.98, 'datetime': '2018-10-09 12:44:56.516664', 'mgs': 0, 'volt': 0.9229, 'depth': 1.92, 'time': 216, 'pitch': -11.01, 'roll': -29.96, 'pres': 189}
{'lipoC2': 7.47, 'lipoC3S1': 4.07, 'temp': 30.56, 'lipoC3S3': 12.31, 'lipoC3S2': 8.14, 'rot1': 261, 'rot0': 267, 'rot3': 387, 'rot2': 329, 'state': 'normal', 'yaw': -42.24, 'datetime': '2018-10-09 12:44:56.527071', 'mgs': 0, 'volt': 0.9229, 'depth': 1.92, 'time': 216, 'pitch': -10.8, 'roll': -29.78, 'pres': 189}
{'lipoC2': 7.47, 'lipoC3S1': 4.07, 'temp': 30.56, 'lipoC3S3': 12.31, 'lipoC3S2': 8.14, 'rot1': 261, 'rot0': 267, 'rot3': 387, 'rot2': 329, 'state': 'normal', 'yaw': -42.3, 'datetime': '2018-10-09 12:44:56.537663', 'mgs': 0, 'volt': 0.9229, 'depth': 1.92, 'time': 216, 'pitch': -10.89, 'roll': -29.63, 'pres': 189}
{'lipoC2': 7.47, 'lipoC3S1': 4.07, 'temp': 30.56, 'lipoC3S3': 12.31, 'lipoC3S2': 8.13, 'rot1': 261, 'rot0': 267, 'rot3': 387, 'rot2': 329, 'state': 'normal', 'yaw': -42.2, 'datetime': '2018-10-09 12:44:56.548130', 'mgs': 0, 'volt': 0.9229, 'depth': 1.92, 'time': 216, 'pitch': -11.27, 'roll': -29.56, 'pres': 189}
{'lipoC2': 7.47, 'lipoC3S1': 4.07, 'temp': 30.5, 'lipoC3S3': 12.31, 'lipoC3S2': 8.14, 'rot1': 261, 'rot0': 267, 'rot3': 387, 'rot2': 329, 'state': 'normal', 'yaw': -41.99, 'datetime': '2018-10-09 12:44:56.558564', 'mgs': 0, 'volt': 0.9229, 'depth': 1.92, 'time': 216, 'pitch': -11.79, 'roll': -29.6, 'pres': 189}
{'lipoC2': 7.47, 'lipoC3S1': 4.07, 'temp': 30.5, 'lipoC3S3': 12.31, 'lipoC3S2': 8.14, 'rot1': 261, 'rot0': 267, 'rot3': 387, 'rot2': 329, 'state': 'normal', 'yaw': -41.72, 'datetime': '2018-10-09 12:44:56.568926', 'mgs': 0, 'volt': 0.9229, 'depth': 1.92, 'time': 216, 'pitch': -12.41, 'roll': -29.74, 'pres': 189}
{'lipoC2': 7.47, 'lipoC3S1': 4.07, 'temp': 30.56, 'lipoC3S3': 12.31, 'lipoC3S2': 8.14, 'rot1': 261, 'rot0': 267, 'rot3': 387, 'rot2': 329, 'state': 'normal', 'yaw': -41.54, 'datetime': '2018-10-09 12:44:56.579315', 'mgs': 0, 'volt': 0.9277, 'depth': 1.996, 'time': 216, 'pitch': -12.87, 'roll': -29.9, 'pres': 190}
{'lipoC2': 7.47, 'lipoC3S1': 4.07, 'temp': 30.56, 'lipoC3S3': 12.31, 'lipoC3S2': 8.14, 'rot1': 261, 'rot0': 267, 'rot3': 387, 'rot2': 329, 'state': 'normal', 'yaw': -41.51, 'datetime': '2018-10-09 12:44:56.589725', 'mgs': 0, 'volt': 0.9277, 'depth': 1.996, 'time': 216, 'pitch': -13.14, 'roll': -30.0, 'pres': 190}
{'lipoC2': 7.47, 'lipoC3S1': 4.07, 'temp': 30.56, 'lipoC3S3': 12.31, 'lipoC3S2': 8.14, 'rot1': 261, 'rot0': 267, 'rot3': 387, 'rot2': 329, 'state': 'normal', 'yaw': -41.67, 'datetime': '2018-10-09 12:44:56.600136', 'mgs': 0, 'volt': 0.9277, 'depth': 1.996, 'time': 216, 'pitch': -13.11, 'roll': -29.96, 'pres': 190}
{'lipoC2': 7.46, 'lipoC3S1': 4.07, 'temp': 30.56, 'lipoC3S3': 12.31, 'lipoC3S2': 8.14, 'rot1': 261, 'rot0': 267, 'rot3': 387, 'rot2': 329, 'state': 'normal', 'yaw': -42.0, 'datetime': '2018-10-09 12:44:56.610572', 'mgs': 0, 'volt': 0.9277, 'depth': 1.996, 'time': 217, 'pitch': -12.81, 'roll': -29.84, 'pres': 190}
{'lipoC2': 7.47, 'lipoC3S1': 4.07, 'temp': 30.56, 'lipoC3S3': 12.31, 'lipoC3S2': 8.14, 'rot1': 261, 'rot0': 267, 'rot3': 387, 'rot2': 329, 'state': 'normal', 'yaw': -42.47, 'datetime': '2018-10-09 12:44:56.620958', 'mgs': 0, 'volt': 0.9229, 'depth': 1.92, 'time': 217, 'pitch': -12.28, 'roll': -29.66, 'pres': 189}
{'lipoC2': 7.47, 'lipoC3S1': 4.07, 'temp': 30.56, 'lipoC3S3': 12.31, 'lipoC3S2': 8.14, 'rot1': 261, 'rot0': 267, 'rot3': 387, 'rot2': 329, 'state': 'normal', 'yaw': -42.89, 'datetime': '2018-10-09 12:44:56.631358', 'mgs': 0, 'volt': 0.9229, 'depth': 1.92, 'time': 217, 'pitch': -11.78, 'roll': -29.57, 'pres': 189}
{'lipoC2': 7.47, 'lipoC3S1': 4.07, 'temp': 30.56, 'lipoC3S3': 12.31, 'lipoC3S2': 8.14, 'rot1': 261, 'rot0': 267, 'rot3': 387, 'rot2': 329, 'state': 'normal', 'yaw': -43.17, 'datetime': '2018-10-09 12:44:56.641753', 'mgs': 0, 'volt': 0.9229, 'depth': 1.92, 'time': 217, 'pitch': -11.51, 'roll': -29.52, 'pres': 189}
{'lipoC2': 7.47, 'lipoC3S1': 4.07, 'temp': 30.5, 'lipoC3S3': 12.31, 'lipoC3S2': 8.14, 'rot1': 261, 'rot0': 267, 'rot3': 387, 'rot2': 329, 'state': 'normal', 'yaw': -43.17, 'datetime': '2018-10-09 12:44:56.652099', 'mgs': 0, 'volt': 0.9229, 'depth': 1.92, 'time': 217, 'pitch': -11.7, 'roll': -29.53, 'pres': 189}
{'lipoC2': 7.47, 'lipoC3S1': 4.07, 'temp': 30.5, 'lipoC3S3': 12.31, 'lipoC3S2': 8.14, 'rot1': 261, 'rot0': 267, 'rot3': 387, 'rot2': 329, 'state': 'normal', 'yaw': -42.9, 'datetime': '2018-10-09 12:44:56.662480', 'mgs': 0, 'volt': 0.9229, 'depth': 1.92, 'time': 217, 'pitch': -12.4, 'roll': -29.63, 'pres': 189}
{'lipoC2': 7.47, 'lipoC3S1': 4.07, 'temp': 30.5, 'lipoC3S3': 12.31, 'lipoC3S2': 8.14, 'rot1': 261, 'rot0': 267, 'rot3': 387, 'rot2': 329, 'state': 'normal', 'yaw': -42.52, 'datetime': '2018-10-09 12:44:56.673104', 'mgs': 0, 'volt': 0.9277, 'depth': 1.996, 'time': 217, 'pitch': -13.22, 'roll': -29.76, 'pres': 190}
{'lipoC2': 7.47, 'lipoC3S1': 4.07, 'temp': 30.56, 'lipoC3S3': 12.31, 'lipoC3S2': 8.14, 'rot1': 261, 'rot0': 267, 'rot3': 387, 'rot2': 329, 'state': 'normal', 'yaw': -42.29, 'datetime': '2018-10-09 12:44:56.683521', 'mgs': 0, 'volt': 0.9277, 'depth': 1.996, 'time': 217, 'pitch': -13.81, 'roll': -29.91, 'pres': 190}
{'lipoC2': 7.47, 'lipoC3S1': 4.07, 'temp': 30.56, 'lipoC3S3': 12.31, 'lipoC3S2': 8.14, 'rot1': 261, 'rot0': 267, 'rot3': 387, 'rot2': 329, 'state': 'normal', 'yaw': -42.41, 'datetime': '2018-10-09 12:44:56.693907', 'mgs': 0, 'volt': 0.9277, 'depth': 1.996, 'time': 217, 'pitch': -13.81, 'roll': -30.0, 'pres': 190}
{'lipoC2': 7.47, 'lipoC3S1': 4.07, 'temp': 30.56, 'lipoC3S3': 12.31, 'lipoC3S2': 8.14, 'rot1': 261, 'rot0': 267, 'rot3': 387, 'rot2': 329, 'state': 'normal', 'yaw': -42.93, 'datetime': '2018-10-09 12:44:56.704277', 'mgs': 0, 'volt': 0.9229, 'depth': 1.92, 'time': 218, 'pitch': -13.11, 'roll': -29.98, 'pres': 189}
{'lipoC2': 7.47, 'lipoC3S1': 4.07, 'temp': 30.56, 'lipoC3S3': 12.31, 'lipoC3S2': 8.14, 'rot1': 261, 'rot0': 267, 'rot3': 387, 'rot2': 329, 'state': 'normal', 'yaw': -43.8, 'datetime': '2018-10-09 12:44:56.714663', 'mgs': 0, 'volt': 0.9229, 'depth': 1.92, 'time': 218, 'pitch': -11.85, 'roll': -29.8, 'pres': 189}
{'lipoC2': 7.47, 'lipoC3S1': 4.07, 'temp': 30.56, 'lipoC3S3': 12.31, 'lipoC3S2': 8.14, 'rot1': 261, 'rot0': 267, 'rot3': 387, 'rot2': 329, 'state': 'normal', 'yaw': -44.57, 'datetime': '2018-10-09 12:44:56.725089', 'mgs': 0, 'volt': 0.9277, 'depth': 1.996, 'time': 218, 'pitch': -10.71, 'roll': -29.58, 'pres': 190}
{'lipoC2': 7.47, 'lipoC3S1': 4.07, 'temp': 30.56, 'lipoC3S3': 12.31, 'lipoC3S2': 8.14, 'rot1': 261, 'rot0': 267, 'rot3': 387, 'rot2': 329, 'state': 'normal', 'yaw': -45.06, 'datetime': '2018-10-09 12:44:56.735452', 'mgs': 0, 'volt': 0.9229, 'depth': 1.92, 'time': 218, 'pitch': -10.1, 'roll': -29.37, 'pres': 189}
{'lipoC2': 7.47, 'lipoC3S1': 4.07, 'temp': 30.56, 'lipoC3S3': 12.31, 'lipoC3S2': 8.14, 'rot1': 261, 'rot0': 267, 'rot3': 387, 'rot2': 329, 'state': 'normal', 'yaw': -45.08, 'datetime': '2018-10-09 12:44:56.745831', 'mgs': 0, 'volt': 0.9229, 'depth': 1.92, 'time': 218, 'pitch': -10.33, 'roll': -29.23, 'pres': 189}
{'lipoC2': 7.47, 'lipoC3S1': 4.07, 'temp': 30.5, 'lipoC3S3': 12.31, 'lipoC3S2': 8.14, 'rot1': 261, 'rot0': 267, 'rot3': 387, 'rot2': 329, 'state': 'normal', 'yaw': -44.71, 'datetime': '2018-10-09 12:44:56.756210', 'mgs': 0, 'volt': 0.9277, 'depth': 1.996, 'time': 218, 'pitch': -11.22, 'roll': -29.18, 'pres': 190}
{'lipoC2': 7.47, 'lipoC3S1': 4.07, 'temp': 30.5, 'lipoC3S3': 12.31, 'lipoC3S2': 8.14, 'rot1': 261, 'rot0': 267, 'rot3': 387, 'rot2': 329, 'state': 'normal', 'yaw': -44.14, 'datetime': '2018-10-09 12:44:56.766595', 'mgs': 0, 'volt': 0.9277, 'depth': 1.996, 'time': 218, 'pitch': -12.46, 'roll': -29.19, 'pres': 190}
{'lipoC2': 7.46, 'lipoC3S1': 4.07, 'temp': 30.56, 'lipoC3S3': 12.31, 'lipoC3S2': 8.14, 'rot1': 261, 'rot0': 267, 'rot3': 387, 'rot2': 329, 'state': 'normal', 'yaw': -43.76, 'datetime': '2018-10-09 12:44:56.776972', 'mgs': 0, 'volt': 0.9277, 'depth': 1.996, 'time': 218, 'pitch': -13.34, 'roll': -29.24, 'pres': 190}
{'lipoC2': 7.47, 'lipoC3S1': 4.07, 'temp': 30.56, 'lipoC3S3': 12.31, 'lipoC3S2': 8.14, 'rot1': 261, 'rot0': 267, 'rot3': 387, 'rot2': 329, 'state': 'normal', 'yaw': -43.67, 'datetime': '2018-10-09 12:44:56.787381', 'mgs': 0, 'volt': 0.9277, 'depth': 1.996, 'time': 218, 'pitch': -13.67, 'roll': -29.25, 'pres': 190}
{'lipoC2': 7.47, 'lipoC3S1': 4.07, 'temp': 30.56, 'lipoC3S3': 12.31, 'lipoC3S2': 8.14, 'rot1': 261, 'rot0': 267, 'rot3': 387, 'rot2': 329, 'state': 'normal', 'yaw': -43.89, 'datetime': '2018-10-09 12:44:56.797789', 'mgs': 0, 'volt': 0.9229, 'depth': 1.92, 'time': 218, 'pitch': -13.34, 'roll': -29.25, 'pres': 189}
{'lipoC2': 7.47, 'lipoC3S1': 4.07, 'temp': 30.56, 'lipoC3S3': 12.31, 'lipoC3S2': 8.14, 'rot1': 261, 'rot0': 267, 'rot3': 387, 'rot2': 329, 'state': 'normal', 'yaw': -44.3, 'datetime': '2018-10-09 12:44:56.808372', 'mgs': 0, 'volt': 0.9277, 'depth': 1.996, 'time': 219, 'pitch': -12.63, 'roll': -29.28, 'pres': 190}
{'lipoC2': 7.47, 'lipoC3S1': 4.07, 'temp': 30.56, 'lipoC3S3': 12.31, 'lipoC3S2': 8.14, 'rot1': 261, 'rot0': 267, 'rot3': 387, 'rot2': 329, 'state': 'normal', 'yaw': -44.84, 'datetime': '2018-10-09 12:44:56.818762', 'mgs': 0, 'volt': 0.9277, 'depth': 1.996, 'time': 219, 'pitch': -11.83, 'roll': -29.31, 'pres': 190}
{'lipoC2': 7.47, 'lipoC3S1': 4.07, 'temp': 30.56, 'lipoC3S3': 12.31, 'lipoC3S2': 8.14, 'rot1': 261, 'rot0': 267, 'rot3': 387, 'rot2': 329, 'state': 'normal', 'yaw': -45.23, 'datetime': '2018-10-09 12:44:56.829144', 'mgs': 0, 'volt': 0.9277, 'depth': 1.996, 'time': 219, 'pitch': -11.35, 'roll': -29.32, 'pres': 190}
{'lipoC2': 7.47, 'lipoC3S1': 4.07, 'temp': 30.56, 'lipoC3S3': 12.31, 'lipoC3S2': 8.14, 'rot1': 261, 'rot0': 267, 'rot3': 387, 'rot2': 329, 'state': 'normal', 'yaw': -45.42, 'datetime': '2018-10-09 12:44:56.839518', 'mgs': 0, 'volt': 0.9229, 'depth': 1.92, 'time': 219, 'pitch': -11.29, 'roll': -29.29, 'pres': 189}
{'lipoC2': 7.47, 'lipoC3S1': 4.07, 'temp': 30.56, 'lipoC3S3': 12.31, 'lipoC3S2': 8.14, 'rot1': 261, 'rot0': 267, 'rot3': 387, 'rot2': 329, 'state': 'normal', 'yaw': -45.38, 'datetime': '2018-10-09 12:44:56.849902', 'mgs': 0, 'volt': 0.9229, 'depth': 1.92, 'time': 219, 'pitch': -11.6, 'roll': -29.23, 'pres': 189}
{'lipoC2': 7.47, 'lipoC3S1': 4.07, 'temp': 30.56, 'lipoC3S3': 12.31, 'lipoC3S2': 8.14, 'rot1': 261, 'rot0': 267, 'rot3': 387, 'rot2': 329, 'state': 'normal', 'yaw': -45.26, 'datetime': '2018-10-09 12:44:56.860407', 'mgs': 0, 'volt': 0.9229, 'depth': 1.92, 'time': 219, 'pitch': -12.06, 'roll': -29.13, 'pres': 189}
{'lipoC2': 7.47, 'lipoC3S1': 4.07, 'temp': 30.5, 'lipoC3S3': 12.31, 'lipoC3S2': 8.14, 'rot1': 261, 'rot0': 267, 'rot3': 387, 'rot2': 329, 'state': 'normal', 'yaw': -45.18, 'datetime': '2018-10-09 12:44:56.870773', 'mgs': 0, 'volt': 0.9229, 'depth': 1.92, 'time': 219, 'pitch': -12.38, 'roll': -29.08, 'pres': 189}
{'lipoC2': 7.47, 'lipoC3S1': 4.07, 'temp': 30.5, 'lipoC3S3': 12.31, 'lipoC3S2': 8.14, 'rot1': 261, 'rot0': 267, 'rot3': 387, 'rot2': 329, 'state': 'normal', 'yaw': -45.18, 'datetime': '2018-10-09 12:44:56.881197', 'mgs': 0, 'volt': 0.9229, 'depth': 1.92, 'time': 219, 'pitch': -12.48, 'roll': -29.07, 'pres': 189}
{'lipoC2': 7.47, 'lipoC3S1': 4.07, 'temp': 30.56, 'lipoC3S3': 12.31, 'lipoC3S2': 8.14, 'rot1': 261, 'rot0': 267, 'rot3': 387, 'rot2': 329, 'state': 'normal', 'yaw': -45.27, 'datetime': '2018-10-09 12:44:56.891608', 'mgs': 0, 'volt': 0.9229, 'depth': 1.92, 'time': 219, 'pitch': -12.4, 'roll': -29.1, 'pres': 189}
{'lipoC2': 7.47, 'lipoC3S1': 4.07, 'temp': 30.56, 'lipoC3S3': 12.31, 'lipoC3S2': 8.14, 'rot1': 261, 'rot0': 267, 'rot3': 387, 'rot2': 329, 'state': 'normal', 'yaw': -45.37, 'datetime': '2018-10-09 12:44:56.902040', 'mgs': 0, 'volt': 0.9229, 'depth': 1.92, 'time': 219, 'pitch': -12.34, 'roll': -29.16, 'pres': 189}
{'lipoC2': 7.47, 'lipoC3S1': 4.07, 'temp': 30.56, 'lipoC3S3': 12.31, 'lipoC3S2': 8.14, 'rot1': 261, 'rot0': 267, 'rot3': 387, 'rot2': 329, 'state': 'normal', 'yaw': -45.39, 'datetime': '2018-10-09 12:44:56.912448', 'mgs': 0, 'volt': 0.9229, 'depth': 1.92, 'time': 220, 'pitch': -12.43, 'roll': -29.25, 'pres': 189}
{'lipoC2': 7.47, 'lipoC3S1': 4.07, 'temp': 30.56, 'lipoC3S3': 12.31, 'lipoC3S2': 8.14, 'rot1': 261, 'rot0': 267, 'rot3': 387, 'rot2': 329, 'state': 'normal', 'yaw': -45.34, 'datetime': '2018-10-09 12:44:56.922839', 'mgs': 0, 'volt': 0.9229, 'depth': 1.92, 'time': 220, 'pitch': -12.69, 'roll': -29.35, 'pres': 189}
{'lipoC2': 7.47, 'lipoC3S1': 4.07, 'temp': 30.56, 'lipoC3S3': 12.31, 'lipoC3S2': 8.14, 'rot1': 261, 'rot0': 267, 'rot3': 387, 'rot2': 329, 'state': 'normal', 'yaw': -45.25, 'datetime': '2018-10-09 12:44:56.933190', 'mgs': 0, 'volt': 0.9229, 'depth': 1.92, 'time': 220, 'pitch': -13.03, 'roll': -29.4, 'pres': 189}
{'lipoC2': 7.47, 'lipoC3S1': 4.07, 'temp': 30.56, 'lipoC3S3': 12.31, 'lipoC3S2': 8.14, 'rot1': 261, 'rot0': 267, 'rot3': 387, 'rot2': 329, 'state': 'normal', 'yaw': -45.26, 'datetime': '2018-10-09 12:44:56.943724', 'mgs': 0, 'volt': 0.9229, 'depth': 1.92, 'time': 220, 'pitch': -13.18, 'roll': -29.4, 'pres': 189}
{'lipoC2': 7.47, 'lipoC3S1': 4.07, 'temp': 30.56, 'lipoC3S3': 12.31, 'lipoC3S2': 8.14, 'rot1': 261, 'rot0': 267, 'rot3': 387, 'rot2': 329, 'state': 'normal', 'yaw': -45.49, 'datetime': '2018-10-09 12:44:56.954085', 'mgs': 0, 'volt': 0.9229, 'depth': 1.92, 'time': 220, 'pitch': -13.01, 'roll': -29.29, 'pres': 189}
{'lipoC2': 7.47, 'lipoC3S1': 4.07, 'temp': 30.56, 'lipoC3S3': 12.31, 'lipoC3S2': 8.14, 'rot1': 261, 'rot0': 267, 'rot3': 387, 'rot2': 329, 'state': 'normal', 'yaw': -45.88, 'datetime': '2018-10-09 12:44:56.964455', 'mgs': 0, 'volt': 0.9229, 'depth': 1.92, 'time': 220, 'pitch': -12.54, 'roll': -29.07, 'pres': 189}
{'lipoC2': 7.47, 'lipoC3S1': 4.07, 'temp': 30.56, 'lipoC3S3': 12.31, 'lipoC3S2': 8.14, 'rot1': 261, 'rot0': 267, 'rot3': 387, 'rot2': 329, 'state': 'normal', 'yaw': -46.34, 'datetime': '2018-10-09 12:44:56.974876', 'mgs': 0, 'volt': 0.9229, 'depth': 1.92, 'time': 220, 'pitch': -11.92, 'roll': -28.83, 'pres': 189}
{'lipoC2': 7.47, 'lipoC3S1': 4.07, 'temp': 30.56, 'lipoC3S3': 12.31, 'lipoC3S2': 8.14, 'rot1': 261, 'rot0': 267, 'rot3': 387, 'rot2': 329, 'state': 'normal', 'yaw': -46.78, 'datetime': '2018-10-09 12:44:56.985249', 'mgs': 0, 'volt': 0.9229, 'depth': 1.92, 'time': 220, 'pitch': -11.33, 'roll': -28.61, 'pres': 189}
{'lipoC2': 7.47, 'lipoC3S1': 4.07, 'temp': 30.56, 'lipoC3S3': 12.31, 'lipoC3S2': 8.14, 'rot1': 261, 'rot0': 267, 'rot3': 387, 'rot2': 329, 'state': 'normal', 'yaw': -46.99, 'datetime': '2018-10-09 12:44:56.995620', 'mgs': 0, 'volt': 0.9229, 'depth': 1.92, 'time': 220, 'pitch': -11.11, 'roll': -28.55, 'pres': 189}
{'lipoC2': 7.47, 'lipoC3S1': 4.07, 'temp': 30.56, 'lipoC3S3': 12.31, 'lipoC3S2': 8.14, 'rot1': 261, 'rot0': 267, 'rot3': 387, 'rot2': 329, 'state': 'normal', 'yaw': -47.01, 'datetime': '2018-10-09 12:44:57.006011', 'mgs': 0, 'volt': 0.9229, 'depth': 1.92, 'time': 221, 'pitch': -11.26, 'roll': -28.57, 'pres': 189}
{'lipoC2': 7.47, 'lipoC3S1': 4.07, 'temp': 30.56, 'lipoC3S3': 12.31, 'lipoC3S2': 8.14, 'rot1': 261, 'rot0': 267, 'rot3': 387, 'rot2': 329, 'state': 'normal', 'yaw': -46.86, 'datetime': '2018-10-09 12:44:57.016381', 'mgs': 0, 'volt': 0.9229, 'depth': 1.92, 'time': 221, 'pitch': -11.7, 'roll': -28.67, 'pres': 189}
{'lipoC2': 7.47, 'lipoC3S1': 4.07, 'temp': 30.56, 'lipoC3S3': 12.31, 'lipoC3S2': 8.14, 'rot1': 261, 'rot0': 267, 'rot3': 387, 'rot2': 329, 'state': 'normal', 'yaw': -46.65, 'datetime': '2018-10-09 12:44:57.026778', 'mgs': 0, 'volt': 0.9277, 'depth': 1.996, 'time': 221, 'pitch': -12.26, 'roll': -28.8, 'pres': 190}
{'lipoC2': 7.47, 'lipoC3S1': 4.07, 'temp': 30.56, 'lipoC3S3': 12.31, 'lipoC3S2': 8.14, 'rot1': 261, 'rot0': 267, 'rot3': 387, 'rot2': 329, 'state': 'normal', 'yaw': -46.57, 'datetime': '2018-10-09 12:44:57.037167', 'mgs': 0, 'volt': 0.9277, 'depth': 1.996, 'time': 221, 'pitch': -12.62, 'roll': -28.82, 'pres': 190}
{'lipoC2': 7.47, 'lipoC3S1': 4.07, 'temp': 30.56, 'lipoC3S3': 12.31, 'lipoC3S2': 8.14, 'rot1': 261, 'rot0': 267, 'rot3': 387, 'rot2': 329, 'state': 'normal', 'yaw': -46.66, 'datetime': '2018-10-09 12:44:57.047529', 'mgs': 0, 'volt': 0.9229, 'depth': 1.92, 'time': 221, 'pitch': -12.67, 'roll': -28.8, 'pres': 189}
{'lipoC2': 7.47, 'lipoC3S1': 4.07, 'temp': 30.56, 'lipoC3S3': 12.31, 'lipoC3S2': 8.13, 'rot1': 261, 'rot0': 267, 'rot3': 387, 'rot2': 329, 'state': 'normal', 'yaw': -46.88, 'datetime': '2018-10-09 12:44:57.057907', 'mgs': 0, 'volt': 0.9229, 'depth': 1.92, 'time': 221, 'pitch': -12.47, 'roll': -28.67, 'pres': 189}
{'lipoC2': 7.47, 'lipoC3S1': 4.07, 'temp': 30.56, 'lipoC3S3': 12.31, 'lipoC3S2': 8.14, 'rot1': 261, 'rot0': 267, 'rot3': 387, 'rot2': 329, 'state': 'normal', 'yaw': -47.17, 'datetime': '2018-10-09 12:44:57.068285', 'mgs': 0, 'volt': 0.9229, 'depth': 1.92, 'time': 221, 'pitch': -12.11, 'roll': -28.57, 'pres': 189}
{'lipoC2': 7.47, 'lipoC3S1': 4.07, 'temp': 30.56, 'lipoC3S3': 12.31, 'lipoC3S2': 8.14, 'rot1': 261, 'rot0': 267, 'rot3': 387, 'rot2': 329, 'state': 'normal', 'yaw': -47.47, 'datetime': '2018-10-09 12:44:57.078891', 'mgs': 0, 'volt': 0.9229, 'depth': 1.92, 'time': 221, 'pitch': -11.77, 'roll': -28.5, 'pres': 189}
{'lipoC2': 7.47, 'lipoC3S1': 4.07, 'temp': 30.56, 'lipoC3S3': 12.31, 'lipoC3S2': 8.14, 'rot1': 261, 'rot0': 267, 'rot3': 387, 'rot2': 329, 'state': 'normal', 'yaw': -47.63, 'datetime': '2018-10-09 12:44:57.089315', 'mgs': 0, 'volt': 0.9229, 'depth': 1.92, 'time': 221, 'pitch': -11.71, 'roll': -28.51, 'pres': 189}
{'lipoC2': 7.47, 'lipoC3S1': 4.07, 'temp': 30.56, 'lipoC3S3': 12.31, 'lipoC3S2': 8.14, 'rot1': 261, 'rot0': 267, 'rot3': 387, 'rot2': 329, 'state': 'normal', 'yaw': -47.64, 'datetime': '2018-10-09 12:44:57.099713', 'mgs': 0, 'volt': 0.9229, 'depth': 1.92, 'time': 221, 'pitch': -11.96, 'roll': -28.61, 'pres': 189}
{'lipoC2': 7.47, 'lipoC3S1': 4.07, 'temp': 30.5, 'lipoC3S3': 12.31, 'lipoC3S2': 8.14, 'rot1': 261, 'rot0': 267, 'rot3': 387, 'rot2': 329, 'state': 'normal', 'yaw': -47.51, 'datetime': '2018-10-09 12:44:57.110096', 'mgs': 0, 'volt': 0.9229, 'depth': 1.92, 'time': 222, 'pitch': -12.44, 'roll': -28.73, 'pres': 189}
{'lipoC2': 7.47, 'lipoC3S1': 4.07, 'temp': 30.5, 'lipoC3S3': 12.31, 'lipoC3S2': 8.14, 'rot1': 261, 'rot0': 267, 'rot3': 387, 'rot2': 329, 'state': 'normal', 'yaw': -47.33, 'datetime': '2018-10-09 12:44:57.120482', 'mgs': 0, 'volt': 0.9229, 'depth': 1.92, 'time': 222, 'pitch': -13.02, 'roll': -28.82, 'pres': 189}
{'lipoC2': 7.47, 'lipoC3S1': 4.07, 'temp': 30.5, 'lipoC3S3': 12.31, 'lipoC3S2': 8.14, 'rot1': 261, 'rot0': 267, 'rot3': 387, 'rot2': 329, 'state': 'normal', 'yaw': -47.26, 'datetime': '2018-10-09 12:44:57.130860', 'mgs': 0, 'volt': 0.9229, 'depth': 1.92, 'time': 222, 'pitch': -13.36, 'roll': -28.83, 'pres': 189}
{'lipoC2': 7.47, 'lipoC3S1': 4.07, 'temp': 30.56, 'lipoC3S3': 12.31, 'lipoC3S2': 8.14, 'rot1': 261, 'rot0': 267, 'rot3': 387, 'rot2': 329, 'state': 'normal', 'yaw': -47.39, 'datetime': '2018-10-09 12:44:57.141241', 'mgs': 0, 'volt': 0.9229, 'depth': 1.92, 'time': 222, 'pitch': -13.37, 'roll': -28.78, 'pres': 189}
{'lipoC2': 7.47, 'lipoC3S1': 4.07, 'temp': 30.56, 'lipoC3S3': 12.31, 'lipoC3S2': 8.14, 'rot1': 261, 'rot0': 267, 'rot3': 387, 'rot2': 329, 'state': 'normal', 'yaw': -47.69, 'datetime': '2018-10-09 12:44:57.151609', 'mgs': 0, 'volt': 0.9229, 'depth': 1.92, 'time': 222, 'pitch': -13.05, 'roll': -28.62, 'pres': 189}
{'lipoC2': 7.47, 'lipoC3S1': 4.07, 'temp': 30.5, 'lipoC3S3': 12.31, 'lipoC3S2': 8.14, 'rot1': 261, 'rot0': 267, 'rot3': 387, 'rot2': 329, 'state': 'normal', 'yaw': -48.11, 'datetime': '2018-10-09 12:44:57.162010', 'mgs': 0, 'volt': 0.9229, 'depth': 1.92, 'time': 222, 'pitch': -12.58, 'roll': -28.45, 'pres': 189}
{'lipoC2': 7.47, 'lipoC3S1': 4.07, 'temp': 30.5, 'lipoC3S3': 12.31, 'lipoC3S2': 8.14, 'rot1': 261, 'rot0': 267, 'rot3': 387, 'rot2': 329, 'state': 'normal', 'yaw': -48.54, 'datetime': '2018-10-09 12:44:57.172408', 'mgs': 0, 'volt': 0.9229, 'depth': 1.92, 'time': 222, 'pitch': -12.09, 'roll': -28.34, 'pres': 189}
{'lipoC2': 7.47, 'lipoC3S1': 4.07, 'temp': 30.5, 'lipoC3S3': 12.31, 'lipoC3S2': 8.14, 'rot1': 261, 'rot0': 267, 'rot3': 387, 'rot2': 329, 'state': 'normal', 'yaw': -48.8, 'datetime': '2018-10-09 12:44:57.183193', 'mgs': 0, 'volt': 0.9229, 'depth': 1.92, 'time': 222, 'pitch': -11.88, 'roll': -28.29, 'pres': 189}
{'lipoC2': 7.47, 'lipoC3S1': 4.07, 'temp': 30.5, 'lipoC3S3': 12.31, 'lipoC3S2': 8.14, 'rot1': 261, 'rot0': 267, 'rot3': 387, 'rot2': 329, 'state': 'normal', 'yaw': -48.9, 'datetime': '2018-10-09 12:44:57.193663', 'mgs': 0, 'volt': 0.9277, 'depth': 1.996, 'time': 222, 'pitch': -11.98, 'roll': -28.27, 'pres': 190}
{'lipoC2': 7.47, 'lipoC3S1': 4.07, 'temp': 30.5, 'lipoC3S3': 12.31, 'lipoC3S2': 8.14, 'rot1': 261, 'rot0': 267, 'rot3': 387, 'rot2': 329, 'state': 'normal', 'yaw': -48.85, 'datetime': '2018-10-09 12:44:57.204050', 'mgs': 0, 'volt': 0.9277, 'depth': 1.996, 'time': 223, 'pitch': -12.35, 'roll': -28.27, 'pres': 190}
{'lipoC2': 7.47, 'lipoC3S1': 4.07, 'temp': 30.56, 'lipoC3S3': 12.31, 'lipoC3S2': 8.14, 'rot1': 261, 'rot0': 267, 'rot3': 387, 'rot2': 329, 'state': 'normal', 'yaw': -48.74, 'datetime': '2018-10-09 12:44:57.214658', 'mgs': 0, 'volt': 0.9229, 'depth': 1.92, 'time': 223, 'pitch': -12.85, 'roll': -28.31, 'pres': 189}
{'lipoC2': 7.47, 'lipoC3S1': 4.07, 'temp': 30.56, 'lipoC3S3': 12.31, 'lipoC3S2': 8.14, 'rot1': 261, 'rot0': 267, 'rot3': 387, 'rot2': 329, 'state': 'normal', 'yaw': -48.65, 'datetime': '2018-10-09 12:44:57.225099', 'mgs': 0, 'volt': 0.9277, 'depth': 1.996, 'time': 223, 'pitch': -13.34, 'roll': -28.32, 'pres': 190}
{'lipoC2': 7.47, 'lipoC3S1': 4.07, 'temp': 30.56, 'lipoC3S3': 12.31, 'lipoC3S2': 8.14, 'rot1': 261, 'rot0': 267, 'rot3': 387, 'rot2': 329, 'state': 'normal', 'yaw': -48.68, 'datetime': '2018-10-09 12:44:57.235431', 'mgs': 0, 'volt': 0.9277, 'depth': 1.996, 'time': 223, 'pitch': -13.62, 'roll': -28.32, 'pres': 190}
{'lipoC2': 7.47, 'lipoC3S1': 4.07, 'temp': 30.56, 'lipoC3S3': 12.31, 'lipoC3S2': 8.14, 'rot1': 261, 'rot0': 267, 'rot3': 387, 'rot2': 329, 'state': 'normal', 'yaw': -48.84, 'datetime': '2018-10-09 12:44:57.245805', 'mgs': 0, 'volt': 0.9277, 'depth': 1.996, 'time': 223, 'pitch': -13.66, 'roll': -28.22, 'pres': 190}
{'lipoC2': 7.47, 'lipoC3S1': 4.07, 'temp': 30.5, 'lipoC3S3': 12.31, 'lipoC3S2': 8.14, 'rot1': 261, 'rot0': 267, 'rot3': 387, 'rot2': 329, 'state': 'normal', 'yaw': -49.11, 'datetime': '2018-10-09 12:44:57.256181', 'mgs': 0, 'volt': 0.9277, 'depth': 1.996, 'time': 223, 'pitch': -13.47, 'roll': -28.07, 'pres': 190}
{'lipoC2': 7.47, 'lipoC3S1': 4.07, 'temp': 30.5, 'lipoC3S3': 12.31, 'lipoC3S2': 8.14, 'rot1': 261, 'rot0': 267, 'rot3': 387, 'rot2': 329, 'state': 'normal', 'yaw': -49.53, 'datetime': '2018-10-09 12:44:57.266589', 'mgs': 0, 'volt': 0.9229, 'depth': 1.92, 'time': 223, 'pitch': -13.03, 'roll': -27.89, 'pres': 189}
{'lipoC2': 7.47, 'lipoC3S1': 4.07, 'temp': 30.5, 'lipoC3S3': 12.31, 'lipoC3S2': 8.14, 'rot1': 261, 'rot0': 267, 'rot3': 387, 'rot2': 329, 'state': 'normal', 'yaw': -49.95, 'datetime': '2018-10-09 12:44:57.276989', 'mgs': 0, 'volt': 0.9277, 'depth': 1.996, 'time': 223, 'pitch': -12.57, 'roll': -27.78, 'pres': 190}
{'lipoC2': 7.47, 'lipoC3S1': 4.07, 'temp': 30.5, 'lipoC3S3': 12.31, 'lipoC3S2': 8.14, 'rot1': 261, 'rot0': 267, 'rot3': 387, 'rot2': 329, 'state': 'normal', 'yaw': -50.35, 'datetime': '2018-10-09 12:44:57.287386', 'mgs': 0, 'volt': 0.9229, 'depth': 1.92, 'time': 223, 'pitch': -12.21, 'roll': -27.7, 'pres': 189}
{'lipoC2': 7.47, 'lipoC3S1': 4.07, 'temp': 30.5, 'lipoC3S3': 12.31, 'lipoC3S2': 8.14, 'rot1': 261, 'rot0': 267, 'rot3': 387, 'rot2': 329, 'state': 'normal', 'yaw': -50.56, 'datetime': '2018-10-09 12:44:57.297760', 'mgs': 0, 'volt': 0.9229, 'depth': 1.92, 'time': 223, 'pitch': -12.15, 'roll': -27.71, 'pres': 189}
{'lipoC2': 7.47, 'lipoC3S1': 4.07, 'temp': 30.5, 'lipoC3S3': 12.31, 'lipoC3S2': 8.14, 'rot1': 261, 'rot0': 267, 'rot3': 387, 'rot2': 329, 'state': 'normal', 'yaw': -50.66, 'datetime': '2018-10-09 12:44:57.308154', 'mgs': 0, 'volt': 0.9277, 'depth': 1.996, 'time': 224, 'pitch': -12.34, 'roll': -27.78, 'pres': 190}
{'lipoC2': 7.47, 'lipoC3S1': 4.07, 'temp': 30.5, 'lipoC3S3': 12.31, 'lipoC3S2': 8.14, 'rot1': 261, 'rot0': 267, 'rot3': 387, 'rot2': 329, 'state': 'normal', 'yaw': -50.67, 'datetime': '2018-10-09 12:44:57.318512', 'mgs': 0, 'volt': 0.9277, 'depth': 1.996, 'time': 224, 'pitch': -12.72, 'roll': -27.85, 'pres': 190}
{'lipoC2': 7.47, 'lipoC3S1': 4.07, 'temp': 30.56, 'lipoC3S3': 12.31, 'lipoC3S2': 8.14, 'rot1': 261, 'rot0': 267, 'rot3': 387, 'rot2': 329, 'state': 'normal', 'yaw': -50.68, 'datetime': '2018-10-09 12:44:57.328911', 'mgs': 0, 'volt': 0.9277, 'depth': 1.996, 'time': 224, 'pitch': -13.03, 'roll': -27.86, 'pres': 190}
{'lipoC2': 7.47, 'lipoC3S1': 4.07, 'temp': 30.56, 'lipoC3S3': 12.31, 'lipoC3S2': 8.14, 'rot1': 261, 'rot0': 267, 'rot3': 387, 'rot2': 329, 'state': 'normal', 'yaw': -50.77, 'datetime': '2018-10-09 12:44:57.339306', 'mgs': 0, 'volt': 0.9277, 'depth': 1.996, 'time': 224, 'pitch': -13.23, 'roll': -27.84, 'pres': 190}
{'lipoC2': 7.47, 'lipoC3S1': 4.07, 'temp': 30.5, 'lipoC3S3': 12.31, 'lipoC3S2': 8.14, 'rot1': 261, 'rot0': 267, 'rot3': 387, 'rot2': 329, 'state': 'normal', 'yaw': -50.91, 'datetime': '2018-10-09 12:44:57.349831', 'mgs': 0, 'volt': 0.9277, 'depth': 1.996, 'time': 224, 'pitch': -13.25, 'roll': -27.8, 'pres': 190}
{'lipoC2': 7.47, 'lipoC3S1': 4.07, 'temp': 30.5, 'lipoC3S3': 12.31, 'lipoC3S2': 8.14, 'rot1': 261, 'rot0': 267, 'rot3': 387, 'rot2': 329, 'state': 'normal', 'yaw': -51.12, 'datetime': '2018-10-09 12:44:57.360241', 'mgs': 0, 'volt': 0.9277, 'depth': 1.996, 'time': 224, 'pitch': -13.18, 'roll': -27.76, 'pres': 190}
{'lipoC2': 7.47, 'lipoC3S1': 4.07, 'temp': 30.5, 'lipoC3S3': 12.31, 'lipoC3S2': 8.14, 'rot1': 261, 'rot0': 267, 'rot3': 387, 'rot2': 329, 'state': 'normal', 'yaw': -51.31, 'datetime': '2018-10-09 12:44:57.370613', 'mgs': 0, 'volt': 0.9277, 'depth': 1.996, 'time': 224, 'pitch': -13.13, 'roll': -27.71, 'pres': 190}
{'lipoC2': 7.47, 'lipoC3S1': 4.07, 'temp': 30.5, 'lipoC3S3': 12.31, 'lipoC3S2': 8.14, 'rot1': 261, 'rot0': 267, 'rot3': 387, 'rot2': 329, 'state': 'normal', 'yaw': -51.47, 'datetime': '2018-10-09 12:44:57.381000', 'mgs': 0, 'volt': 0.9277, 'depth': 1.996, 'time': 224, 'pitch': -13.16, 'roll': -27.69, 'pres': 190}
{'lipoC2': 7.47, 'lipoC3S1': 4.07, 'temp': 30.5, 'lipoC3S3': 12.31, 'lipoC3S2': 8.14, 'rot1': 261, 'rot0': 267, 'rot3': 387, 'rot2': 329, 'state': 'normal', 'yaw': -51.59, 'datetime': '2018-10-09 12:44:57.391398', 'mgs': 0, 'volt': 0.9277, 'depth': 1.996, 'time': 224, 'pitch': -13.33, 'roll': -27.66, 'pres': 190}
{'lipoC2': 7.47, 'lipoC3S1': 4.07, 'temp': 30.5, 'lipoC3S3': 12.31, 'lipoC3S2': 8.14, 'rot1': 261, 'rot0': 267, 'rot3': 387, 'rot2': 329, 'state': 'normal', 'yaw': -51.62, 'datetime': '2018-10-09 12:44:57.401773', 'mgs': 0, 'volt': 0.9277, 'depth': 1.996, 'time': 225, 'pitch': -13.63, 'roll': -27.65, 'pres': 190}
{'lipoC2': 7.47, 'lipoC3S1': 4.07, 'temp': 30.5, 'lipoC3S3': 12.31, 'lipoC3S2': 8.14, 'rot1': 261, 'rot0': 267, 'rot3': 387, 'rot2': 329, 'state': 'normal', 'yaw': -51.61, 'datetime': '2018-10-09 12:44:57.412134', 'mgs': 0, 'volt': 0.9277, 'depth': 1.996, 'time': 225, 'pitch': -14.0, 'roll': -27.65, 'pres': 190}
{'lipoC2': 7.47, 'lipoC3S1': 4.07, 'temp': 30.5, 'lipoC3S3': 12.31, 'lipoC3S2': 8.14, 'rot1': 261, 'rot0': 267, 'rot3': 387, 'rot2': 329, 'state': 'normal', 'yaw': -51.68, 'datetime': '2018-10-09 12:44:57.422525', 'mgs': 0, 'volt': 0.9277, 'depth': 1.996, 'time': 225, 'pitch': -14.17, 'roll': -27.63, 'pres': 190}
{'lipoC2': 7.47, 'lipoC3S1': 4.07, 'temp': 30.5, 'lipoC3S3': 12.31, 'lipoC3S2': 8.14, 'rot1': 261, 'rot0': 267, 'rot3': 387, 'rot2': 329, 'state': 'normal', 'yaw': -51.87, 'datetime': '2018-10-09 12:44:57.432880', 'mgs': 0, 'volt': 0.9277, 'depth': 1.996, 'time': 225, 'pitch': -14.09, 'roll': -27.59, 'pres': 190}
{'lipoC2': 7.47, 'lipoC3S1': 4.07, 'temp': 30.5, 'lipoC3S3': 12.31, 'lipoC3S2': 8.14, 'rot1': 261, 'rot0': 267, 'rot3': 387, 'rot2': 329, 'state': 'normal', 'yaw': -52.26, 'datetime': '2018-10-09 12:44:57.443264', 'mgs': 0, 'volt': 0.9277, 'depth': 1.996, 'time': 225, 'pitch': -13.68, 'roll': -27.5, 'pres': 190}
{'lipoC2': 7.47, 'lipoC3S1': 4.07, 'temp': 30.5, 'lipoC3S3': 12.31, 'lipoC3S2': 8.14, 'rot1': 261, 'rot0': 267, 'rot3': 387, 'rot2': 329, 'state': 'normal', 'yaw': -52.68, 'datetime': '2018-10-09 12:44:57.453656', 'mgs': 0, 'volt': 0.9277, 'depth': 1.996, 'time': 225, 'pitch': -13.16, 'roll': -27.39, 'pres': 190}
{'lipoC2': 7.47, 'lipoC3S1': 4.07, 'temp': 30.5, 'lipoC3S3': 12.31, 'lipoC3S2': 8.14, 'rot1': 261, 'rot0': 267, 'rot3': 387, 'rot2': 329, 'state': 'normal', 'yaw': -53.08, 'datetime': '2018-10-09 12:44:57.464078', 'mgs': 0, 'volt': 0.9277, 'depth': 1.996, 'time': 225, 'pitch': -12.77, 'roll': -27.21, 'pres': 190}
{'lipoC2': 7.47, 'lipoC3S1': 4.07, 'temp': 30.56, 'lipoC3S3': 12.31, 'lipoC3S2': 8.14, 'rot1': 261, 'rot0': 267, 'rot3': 387, 'rot2': 329, 'state': 'normal', 'yaw': -53.24, 'datetime': '2018-10-09 12:44:57.474465', 'mgs': 0, 'volt': 0.9277, 'depth': 1.996, 'time': 225, 'pitch': -12.79, 'roll': -27.04, 'pres': 190}
{'lipoC2': 7.46, 'lipoC3S1': 4.07, 'temp': 30.56, 'lipoC3S3': 12.31, 'lipoC3S2': 8.14, 'rot1': 261, 'rot0': 267, 'rot3': 387, 'rot2': 329, 'state': 'normal', 'yaw': -53.2, 'datetime': '2018-10-09 12:44:57.485141', 'mgs': 0, 'volt': 0.9277, 'depth': 1.996, 'time': 225, 'pitch': -13.19, 'roll': -26.9, 'pres': 190}
{'lipoC2': 7.47, 'lipoC3S1': 4.07, 'temp': 30.5, 'lipoC3S3': 12.31, 'lipoC3S2': 8.14, 'rot1': 261, 'rot0': 267, 'rot3': 387, 'rot2': 329, 'state': 'normal', 'yaw': -53.09, 'datetime': '2018-10-09 12:44:57.495595', 'mgs': 0, 'volt': 0.9277, 'depth': 1.996, 'time': 225, 'pitch': -13.68, 'roll': -26.82, 'pres': 190}
{'lipoC2': 7.47, 'lipoC3S1': 4.07, 'temp': 30.5, 'lipoC3S3': 12.31, 'lipoC3S2': 8.14, 'rot1': 261, 'rot0': 267, 'rot3': 387, 'rot2': 329, 'state': 'normal', 'yaw': -53.03, 'datetime': '2018-10-09 12:44:57.506012', 'mgs': 0, 'volt': 0.9277, 'depth': 1.996, 'time': 226, 'pitch': -14.09, 'roll': -26.82, 'pres': 190}
{'lipoC2': 7.47, 'lipoC3S1': 4.07, 'temp': 30.5, 'lipoC3S3': 12.31, 'lipoC3S2': 8.14, 'rot1': 261, 'rot0': 267, 'rot3': 387, 'rot2': 329, 'state': 'normal', 'yaw': -53.11, 'datetime': '2018-10-09 12:44:57.516427', 'mgs': 0, 'volt': 0.9277, 'depth': 1.996, 'time': 226, 'pitch': -14.19, 'roll': -26.82, 'pres': 190}
{'lipoC2': 7.47, 'lipoC3S1': 4.07, 'temp': 30.56, 'lipoC3S3': 12.31, 'lipoC3S2': 8.14, 'rot1': 261, 'rot0': 267, 'rot3': 387, 'rot2': 329, 'state': 'normal', 'yaw': -53.34, 'datetime': '2018-10-09 12:44:57.526875', 'mgs': 0, 'volt': 0.9277, 'depth': 1.996, 'time': 226, 'pitch': -14.02, 'roll': -26.87, 'pres': 190}
{'lipoC2': 7.47, 'lipoC3S1': 4.07, 'temp': 30.56, 'lipoC3S3': 12.31, 'lipoC3S2': 8.14, 'rot1': 261, 'rot0': 267, 'rot3': 387, 'rot2': 329, 'state': 'normal', 'yaw': -53.64, 'datetime': '2018-10-09 12:44:57.537297', 'mgs': 0, 'volt': 0.9326, 'depth': 2.072, 'time': 226, 'pitch': -13.68, 'roll': -26.89, 'pres': 191}
{'lipoC2': 7.47, 'lipoC3S1': 4.07, 'temp': 30.56, 'lipoC3S3': 12.31, 'lipoC3S2': 8.14, 'rot1': 261, 'rot0': 267, 'rot3': 387, 'rot2': 329, 'state': 'normal', 'yaw': -53.96, 'datetime': '2018-10-09 12:44:57.547829', 'mgs': 0, 'volt': 0.9277, 'depth': 1.996, 'time': 226, 'pitch': -13.27, 'roll': -26.88, 'pres': 190}
{'lipoC2': 7.47, 'lipoC3S1': 4.07, 'temp': 30.56, 'lipoC3S3': 12.31, 'lipoC3S2': 8.14, 'rot1': 261, 'rot0': 267, 'rot3': 387, 'rot2': 329, 'state': 'normal', 'yaw': -54.24, 'datetime': '2018-10-09 12:44:57.558258', 'mgs': 0, 'volt': 0.9277, 'depth': 1.996, 'time': 226, 'pitch': -12.95, 'roll': -26.81, 'pres': 190}
{'lipoC2': 7.47, 'lipoC3S1': 4.07, 'temp': 30.5, 'lipoC3S3': 12.31, 'lipoC3S2': 8.14, 'rot1': 261, 'rot0': 267, 'rot3': 387, 'rot2': 329, 'state': 'normal', 'yaw': -54.36, 'datetime': '2018-10-09 12:44:57.568647', 'mgs': 0, 'volt': 0.9277, 'depth': 1.996, 'time': 226, 'pitch': -12.94, 'roll': -26.79, 'pres': 190}
{'lipoC2': 7.47, 'lipoC3S1': 4.07, 'temp': 30.5, 'lipoC3S3': 12.31, 'lipoC3S2': 8.14, 'rot1': 261, 'rot0': 267, 'rot3': 387, 'rot2': 329, 'state': 'normal', 'yaw': -54.36, 'datetime': '2018-10-09 12:44:57.579063', 'mgs': 0, 'volt': 0.9277, 'depth': 1.996, 'time': 226, 'pitch': -13.23, 'roll': -26.8, 'pres': 190}
{'lipoC2': 7.47, 'lipoC3S1': 4.07, 'temp': 30.5, 'lipoC3S3': 12.31, 'lipoC3S2': 8.14, 'rot1': 261, 'rot0': 267, 'rot3': 387, 'rot2': 329, 'state': 'normal', 'yaw': -54.29, 'datetime': '2018-10-09 12:44:57.589523', 'mgs': 0, 'volt': 0.9277, 'depth': 1.996, 'time': 226, 'pitch': -13.62, 'roll': -26.92, 'pres': 190}
{'lipoC2': 7.47, 'lipoC3S1': 4.07, 'temp': 30.5, 'lipoC3S3': 12.31, 'lipoC3S2': 8.14, 'rot1': 261, 'rot0': 267, 'rot3': 387, 'rot2': 329, 'state': 'normal', 'yaw': -54.23, 'datetime': '2018-10-09 12:44:57.599929', 'mgs': 0, 'volt': 0.9277, 'depth': 1.996, 'time': 226, 'pitch': -13.96, 'roll': -27.11, 'pres': 190}
{'lipoC2': 7.47, 'lipoC3S1': 4.07, 'temp': 30.5, 'lipoC3S3': 12.31, 'lipoC3S2': 8.14, 'rot1': 261, 'rot0': 267, 'rot3': 387, 'rot2': 329, 'state': 'normal', 'yaw': -54.18, 'datetime': '2018-10-09 12:44:57.610360', 'mgs': 0, 'volt': 0.9277, 'depth': 1.996, 'time': 227, 'pitch': -14.0, 'roll': -27.32, 'pres': 190}
{'lipoC2': 7.46, 'lipoC3S1': 4.07, 'temp': 30.5, 'lipoC3S3': 12.31, 'lipoC3S2': 8.14, 'rot1': 261, 'rot0': 267, 'rot3': 387, 'rot2': 329, 'state': 'normal', 'yaw': -54.02, 'datetime': '2018-10-09 12:44:57.620924', 'mgs': 0, 'volt': 0.9277, 'depth': 1.996, 'time': 227, 'pitch': -13.81, 'roll': -27.59, 'pres': 190}
{'lipoC2': 7.47, 'lipoC3S1': 4.07, 'temp': 30.5, 'lipoC3S3': 12.31, 'lipoC3S2': 8.14, 'rot1': 261, 'rot0': 267, 'rot3': 387, 'rot2': 329, 'state': 'normal', 'yaw': -53.64, 'datetime': '2018-10-09 12:44:57.631344', 'mgs': 0, 'volt': 0.9229, 'depth': 1.92, 'time': 227, 'pitch': -13.66, 'roll': -27.9, 'pres': 189}
{'lipoC2': 7.47, 'lipoC3S1': 4.07, 'temp': 30.56, 'lipoC3S3': 12.31, 'lipoC3S2': 8.14, 'rot1': 261, 'rot0': 267, 'rot3': 387, 'rot2': 329, 'state': 'normal', 'yaw': -52.93, 'datetime': '2018-10-09 12:44:57.641757', 'mgs': 0, 'volt': 0.9229, 'depth': 1.92, 'time': 227, 'pitch': -13.68, 'roll': -28.36, 'pres': 189}
{'lipoC2': 7.47, 'lipoC3S1': 4.07, 'temp': 30.56, 'lipoC3S3': 12.31, 'lipoC3S2': 8.14, 'rot1': 261, 'rot0': 267, 'rot3': 387, 'rot2': 329, 'state': 'normal', 'yaw': -51.86, 'datetime': '2018-10-09 12:44:57.652138', 'mgs': 0, 'volt': 0.9229, 'depth': 1.92, 'time': 227, 'pitch': -13.53, 'roll': -29.11, 'pres': 189}
{'lipoC2': 7.47, 'lipoC3S1': 4.07, 'temp': 30.56, 'lipoC3S3': 12.31, 'lipoC3S2': 8.14, 'rot1': 261, 'rot0': 267, 'rot3': 387, 'rot2': 329, 'state': 'normal', 'yaw': -50.77, 'datetime': '2018-10-09 12:44:57.662553', 'mgs': 0, 'volt': 0.9229, 'depth': 1.92, 'time': 227, 'pitch': -12.99, 'roll': -29.95, 'pres': 189}
{'lipoC2': 7.47, 'lipoC3S1': 4.07, 'temp': 30.5, 'lipoC3S3': 12.31, 'lipoC3S2': 8.14, 'rot1': 261, 'rot0': 267, 'rot3': 387, 'rot2': 329, 'state': 'normal', 'yaw': -49.94, 'datetime': '2018-10-09 12:44:57.673090', 'mgs': 0, 'volt': 0.9277, 'depth': 1.996, 'time': 227, 'pitch': -11.89, 'roll': -30.7, 'pres': 190}
{'lipoC2': 7.47, 'lipoC3S1': 4.07, 'temp': 30.5, 'lipoC3S3': 12.31, 'lipoC3S2': 8.14, 'rot1': 261, 'rot0': 267, 'rot3': 387, 'rot2': 329, 'state': 'normal', 'yaw': -49.79, 'datetime': '2018-10-09 12:44:57.683846', 'mgs': 0, 'volt': 0.9277, 'depth': 1.996, 'time': 227, 'pitch': -9.49, 'roll': -31.19, 'pres': 190}
{'lipoC2': 7.47, 'lipoC3S1': 4.07, 'temp': 30.56, 'lipoC3S3': 12.31, 'lipoC3S2': 8.14, 'rot1': 261, 'rot0': 267, 'rot3': 387, 'rot2': 329, 'state': 'normal', 'yaw': -50.25, 'datetime': '2018-10-09 12:44:57.694320', 'mgs': 0, 'volt': 0.9326, 'depth': 2.072, 'time': 227, 'pitch': -6.44, 'roll': -31.29, 'pres': 191}
{'lipoC2': 7.47, 'lipoC3S1': 4.07, 'temp': 30.56, 'lipoC3S3': 12.31, 'lipoC3S2': 8.13, 'rot1': 261, 'rot0': 267, 'rot3': 387, 'rot2': 329, 'state': 'normal', 'yaw': -50.51, 'datetime': '2018-10-09 12:44:57.704790', 'mgs': 0, 'volt': 0.9326, 'depth': 2.072, 'time': 228, 'pitch': -3.07, 'roll': -31.32, 'pres': 191}
{'lipoC2': 7.47, 'lipoC3S1': 4.07, 'temp': 30.5, 'lipoC3S3': 12.31, 'lipoC3S2': 8.14, 'rot1': 261, 'rot0': 267, 'rot3': 387, 'rot2': 329, 'state': 'normal', 'yaw': -49.82, 'datetime': '2018-10-09 12:44:57.715235', 'mgs': 0, 'volt': 0.9375, 'depth': 2.148, 'time': 228, 'pitch': -0.33, 'roll': -31.65, 'pres': 192}
{'lipoC2': 7.47, 'lipoC3S1': 4.07, 'temp': 30.5, 'lipoC3S3': 12.31, 'lipoC3S2': 8.14, 'rot1': 261, 'rot0': 267, 'rot3': 387, 'rot2': 329, 'state': 'normal', 'yaw': -48.44, 'datetime': '2018-10-09 12:44:57.725667', 'mgs': 0, 'volt': 0.9375, 'depth': 2.148, 'time': 228, 'pitch': 2.37, 'roll': -32.09, 'pres': 192}
{'lipoC2': 7.47, 'lipoC3S1': 4.07, 'temp': 30.5, 'lipoC3S3': 12.31, 'lipoC3S2': 8.14, 'rot1': 261, 'rot0': 267, 'rot3': 387, 'rot2': 329, 'state': 'normal', 'yaw': -47.17, 'datetime': '2018-10-09 12:44:57.736095', 'mgs': 0, 'volt': 0.9375, 'depth': 2.148, 'time': 228, 'pitch': 4.56, 'roll': -32.29, 'pres': 192}
{'lipoC2': 7.47, 'lipoC3S1': 4.07, 'temp': 30.56, 'lipoC3S3': 12.31, 'lipoC3S2': 8.14, 'rot1': 261, 'rot0': 267, 'rot3': 387, 'rot2': 329, 'state': 'normal', 'yaw': -45.79, 'datetime': '2018-10-09 12:44:57.746512', 'mgs': 0, 'volt': 0.9424, 'depth': 2.225, 'time': 228, 'pitch': 6.45, 'roll': -32.21, 'pres': 193}
{'lipoC2': 7.47, 'lipoC3S1': 4.07, 'temp': 30.56, 'lipoC3S3': 12.31, 'lipoC3S2': 8.14, 'rot1': 261, 'rot0': 267, 'rot3': 387, 'rot2': 329, 'state': 'normal', 'yaw': -44.53, 'datetime': '2018-10-09 12:44:57.757077', 'mgs': 0, 'volt': 0.9424, 'depth': 2.225, 'time': 228, 'pitch': 7.69, 'roll': -31.9, 'pres': 193}
{'lipoC2': 7.47, 'lipoC3S1': 4.07, 'temp': 30.56, 'lipoC3S3': 12.31, 'lipoC3S2': 8.14, 'rot1': 261, 'rot0': 267, 'rot3': 387, 'rot2': 329, 'state': 'normal', 'yaw': -43.27, 'datetime': '2018-10-09 12:44:57.767456', 'mgs': 0, 'volt': 0.9424, 'depth': 2.225, 'time': 228, 'pitch': 8.56, 'roll': -31.44, 'pres': 193}
{'lipoC2': 7.46, 'lipoC3S1': 4.07, 'temp': 30.56, 'lipoC3S3': 12.31, 'lipoC3S2': 8.14, 'rot1': 261, 'rot0': 267, 'rot3': 387, 'rot2': 329, 'state': 'normal', 'yaw': -41.64, 'datetime': '2018-10-09 12:44:57.777847', 'mgs': 0, 'volt': 0.9424, 'depth': 2.225, 'time': 228, 'pitch': 9.1, 'roll': -30.88, 'pres': 193}
{'lipoC2': 7.47, 'lipoC3S1': 4.07, 'temp': 30.56, 'lipoC3S3': 12.31, 'lipoC3S2': 8.14, 'rot1': 261, 'rot0': 267, 'rot3': 387, 'rot2': 329, 'state': 'normal', 'yaw': -39.61, 'datetime': '2018-10-09 12:44:57.788243', 'mgs': 0, 'volt': 0.9424, 'depth': 2.225, 'time': 228, 'pitch': 9.27, 'roll': -30.52, 'pres': 193}
{'lipoC2': 7.47, 'lipoC3S1': 4.07, 'temp': 30.56, 'lipoC3S3': 12.31, 'lipoC3S2': 8.14, 'rot1': 261, 'rot0': 267, 'rot3': 387, 'rot2': 329, 'state': 'normal', 'yaw': -37.09, 'datetime': '2018-10-09 12:44:57.798649', 'mgs': 0, 'volt': 0.9375, 'depth': 2.148, 'time': 228, 'pitch': 9.18, 'roll': -30.26, 'pres': 192}
{'lipoC2': 7.47, 'lipoC3S1': 4.07, 'temp': 30.56, 'lipoC3S3': 12.31, 'lipoC3S2': 8.14, 'rot1': 261, 'rot0': 267, 'rot3': 387, 'rot2': 329, 'state': 'normal', 'yaw': -34.93, 'datetime': '2018-10-09 12:44:57.809044', 'mgs': 0, 'volt': 0.9375, 'depth': 2.148, 'time': 229, 'pitch': 8.95, 'roll': -30.0, 'pres': 192}
{'lipoC2': 7.47, 'lipoC3S1': 4.07, 'temp': 30.56, 'lipoC3S3': 12.31, 'lipoC3S2': 8.13, 'rot1': 261, 'rot0': 267, 'rot3': 387, 'rot2': 329, 'state': 'normal', 'yaw': -32.77, 'datetime': '2018-10-09 12:44:57.819410', 'mgs': 0, 'volt': 0.9375, 'depth': 2.148, 'time': 229, 'pitch': 8.63, 'roll': -29.67, 'pres': 192}
{'lipoC2': 7.47, 'lipoC3S1': 4.07, 'temp': 30.56, 'lipoC3S3': 12.31, 'lipoC3S2': 8.14, 'rot1': 261, 'rot0': 267, 'rot3': 387, 'rot2': 329, 'state': 'normal', 'yaw': -31.17, 'datetime': '2018-10-09 12:44:57.829772', 'mgs': 0, 'volt': 0.9326, 'depth': 2.072, 'time': 229, 'pitch': 8.23, 'roll': -29.26, 'pres': 191}
{'lipoC2': 7.47, 'lipoC3S1': 4.07, 'temp': 30.5, 'lipoC3S3': 12.31, 'lipoC3S2': 8.14, 'rot1': 261, 'rot0': 267, 'rot3': 387, 'rot2': 329, 'state': 'normal', 'yaw': -29.69, 'datetime': '2018-10-09 12:44:57.840167', 'mgs': 0, 'volt': 0.9326, 'depth': 2.072, 'time': 229, 'pitch': 7.24, 'roll': -28.72, 'pres': 191}
{'lipoC2': 7.47, 'lipoC3S1': 4.07, 'temp': 30.5, 'lipoC3S3': 12.31, 'lipoC3S2': 8.14, 'rot1': 261, 'rot0': 267, 'rot3': 387, 'rot2': 329, 'state': 'normal', 'yaw': -27.49, 'datetime': '2018-10-09 12:44:57.850527', 'mgs': 0, 'volt': 0.9326, 'depth': 2.072, 'time': 229, 'pitch': 7.37, 'roll': -28.75, 'pres': 191}
{'lipoC2': 7.47, 'lipoC3S1': 4.07, 'temp': 30.56, 'lipoC3S3': 12.31, 'lipoC3S2': 8.14, 'rot1': 261, 'rot0': 267, 'rot3': 387, 'rot2': 329, 'state': 'normal', 'yaw': -24.71, 'datetime': '2018-10-09 12:44:57.860931', 'mgs': 0, 'volt': 0.9326, 'depth': 2.072, 'time': 229, 'pitch': 8.5, 'roll': -29.37, 'pres': 191}
{'lipoC2': 7.47, 'lipoC3S1': 4.07, 'temp': 30.56, 'lipoC3S3': 12.31, 'lipoC3S2': 8.14, 'rot1': 261, 'rot0': 267, 'rot3': 387, 'rot2': 329, 'state': 'normal', 'yaw': -21.21, 'datetime': '2018-10-09 12:44:57.871327', 'mgs': 0, 'volt': 0.9277, 'depth': 1.996, 'time': 229, 'pitch': 10.62, 'roll': -30.4, 'pres': 190}
{'lipoC2': 7.47, 'lipoC3S1': 4.07, 'temp': 30.56, 'lipoC3S3': 12.31, 'lipoC3S2': 8.14, 'rot1': 261, 'rot0': 267, 'rot3': 387, 'rot2': 329, 'state': 'normal', 'yaw': -18.6, 'datetime': '2018-10-09 12:44:57.881722', 'mgs': 0, 'volt': 0.9277, 'depth': 1.996, 'time': 229, 'pitch': 12.86, 'roll': -31.25, 'pres': 190}
{'lipoC2': 7.47, 'lipoC3S1': 4.07, 'temp': 30.56, 'lipoC3S3': 12.31, 'lipoC3S2': 8.14, 'rot1': 261, 'rot0': 267, 'rot3': 387, 'rot2': 329, 'state': 'normal', 'yaw': -16.72, 'datetime': '2018-10-09 12:44:57.892271', 'mgs': 0, 'volt': 0.9277, 'depth': 1.996, 'time': 229, 'pitch': 14.66, 'roll': -31.75, 'pres': 190}
{'lipoC2': 7.47, 'lipoC3S1': 4.07, 'temp': 30.56, 'lipoC3S3': 12.31, 'lipoC3S2': 8.14, 'rot1': 261, 'rot0': 267, 'rot3': 387, 'rot2': 329, 'state': 'normal', 'yaw': -15.32, 'datetime': '2018-10-09 12:44:57.902660', 'mgs': 0, 'volt': 0.9277, 'depth': 1.996, 'time': 230, 'pitch': 15.35, 'roll': -31.92, 'pres': 190}
{'lipoC2': 7.47, 'lipoC3S1': 4.07, 'temp': 30.56, 'lipoC3S3': 12.31, 'lipoC3S2': 8.14, 'rot1': 261, 'rot0': 267, 'rot3': 387, 'rot2': 329, 'state': 'normal', 'yaw': -14.03, 'datetime': '2018-10-09 12:44:57.913014', 'mgs': 0, 'volt': 0.9229, 'depth': 1.92, 'time': 230, 'pitch': 15.25, 'roll': -31.84, 'pres': 189}
{'lipoC2': 7.47, 'lipoC3S1': 4.07, 'temp': 30.56, 'lipoC3S3': 12.31, 'lipoC3S2': 8.14, 'rot1': 261, 'rot0': 267, 'rot3': 387, 'rot2': 329, 'state': 'normal', 'yaw': -12.81, 'datetime': '2018-10-09 12:44:57.923356', 'mgs': 0, 'volt': 0.9229, 'depth': 1.92, 'time': 230, 'pitch': 14.35, 'roll': -31.74, 'pres': 189}
{'lipoC2': 7.47, 'lipoC3S1': 4.07, 'temp': 30.5, 'lipoC3S3': 12.31, 'lipoC3S2': 8.14, 'rot1': 261, 'rot0': 267, 'rot3': 387, 'rot2': 329, 'state': 'normal', 'yaw': -12.43, 'datetime': '2018-10-09 12:44:57.933770', 'mgs': 0, 'volt': 0.9229, 'depth': 1.92, 'time': 230, 'pitch': 13.13, 'roll': -31.56, 'pres': 189}
{'lipoC2': 7.47, 'lipoC3S1': 4.07, 'temp': 30.5, 'lipoC3S3': 12.31, 'lipoC3S2': 8.14, 'rot1': 261, 'rot0': 267, 'rot3': 387, 'rot2': 329, 'state': 'normal', 'yaw': -13.84, 'datetime': '2018-10-09 12:44:57.944211', 'mgs': 0, 'volt': 0.9229, 'depth': 1.92, 'time': 230, 'pitch': 11.5, 'roll': -31.07, 'pres': 189}
{'lipoC2': 7.47, 'lipoC3S1': 4.07, 'temp': 30.5, 'lipoC3S3': 12.31, 'lipoC3S2': 8.14, 'rot1': 261, 'rot0': 267, 'rot3': 387, 'rot2': 329, 'state': 'normal', 'yaw': -16.85, 'datetime': '2018-10-09 12:44:57.954615', 'mgs': 0, 'volt': 0.918, 'depth': 1.843, 'time': 230, 'pitch': 9.34, 'roll': -30.18, 'pres': 188}
{'lipoC2': 7.47, 'lipoC3S1': 4.07, 'temp': 30.5, 'lipoC3S3': 12.31, 'lipoC3S2': 8.14, 'rot1': 261, 'rot0': 267, 'rot3': 387, 'rot2': 329, 'state': 'normal', 'yaw': -21.74, 'datetime': '2018-10-09 12:44:57.965027', 'mgs': 0, 'volt': 0.918, 'depth': 1.843, 'time': 230, 'pitch': 6.14, 'roll': -28.84, 'pres': 188}
{'lipoC2': 7.47, 'lipoC3S1': 4.07, 'temp': 30.5, 'lipoC3S3': 12.31, 'lipoC3S2': 8.14, 'rot1': 261, 'rot0': 267, 'rot3': 387, 'rot2': 329, 'state': 'normal', 'yaw': -26.85, 'datetime': '2018-10-09 12:44:57.975496', 'mgs': 0, 'volt': 0.9131, 'depth': 1.767, 'time': 230, 'pitch': 2.9, 'roll': -27.62, 'pres': 187}
{'lipoC2': 7.47, 'lipoC3S1': 4.07, 'temp': 30.5, 'lipoC3S3': 12.31, 'lipoC3S2': 8.14, 'rot1': 261, 'rot0': 267, 'rot3': 387, 'rot2': 329, 'state': 'normal', 'yaw': -32.67, 'datetime': '2018-10-09 12:44:57.985893', 'mgs': 0, 'volt': 0.9131, 'depth': 1.767, 'time': 230, 'pitch': -0.88, 'roll': -26.53, 'pres': 187}
{'lipoC2': 7.47, 'lipoC3S1': 4.07, 'temp': 30.5, 'lipoC3S3': 12.31, 'lipoC3S2': 8.14, 'rot1': 261, 'rot0': 267, 'rot3': 387, 'rot2': 329, 'state': 'normal', 'yaw': -38.22, 'datetime': '2018-10-09 12:44:57.996326', 'mgs': 0, 'volt': 0.9131, 'depth': 1.767, 'time': 230, 'pitch': -4.52, 'roll': -25.71, 'pres': 187}
{'lipoC2': 7.47, 'lipoC3S1': 4.07, 'temp': 30.5, 'lipoC3S3': 12.31, 'lipoC3S2': 8.14, 'rot1': 261, 'rot0': 267, 'rot3': 387, 'rot2': 329, 'state': 'normal', 'yaw': -44.21, 'datetime': '2018-10-09 12:44:58.006792', 'mgs': 0, 'volt': 0.9131, 'depth': 1.767, 'time': 231, 'pitch': -7.97, 'roll': -24.81, 'pres': 187}
{'lipoC2': 7.47, 'lipoC3S1': 4.07, 'temp': 30.5, 'lipoC3S3': 12.31, 'lipoC3S2': 8.14, 'rot1': 261, 'rot0': 267, 'rot3': 387, 'rot2': 329, 'state': 'normal', 'yaw': -51.64, 'datetime': '2018-10-09 12:44:58.017219', 'mgs': 0, 'volt': 0.9082, 'depth': 1.691, 'time': 231, 'pitch': -11.19, 'roll': -23.36, 'pres': 186}
{'lipoC2': 7.47, 'lipoC3S1': 4.07, 'temp': 30.56, 'lipoC3S3': 12.31, 'lipoC3S2': 8.14, 'rot1': 261, 'rot0': 267, 'rot3': 387, 'rot2': 329, 'state': 'normal', 'yaw': -59.08, 'datetime': '2018-10-09 12:44:58.027894', 'mgs': 0, 'volt': 0.9131, 'depth': 1.767, 'time': 231, 'pitch': -13.4, 'roll': -21.48, 'pres': 187}
{'lipoC2': 7.47, 'lipoC3S1': 4.07, 'temp': 30.56, 'lipoC3S3': 12.31, 'lipoC3S2': 8.14, 'rot1': 261, 'rot0': 267, 'rot3': 387, 'rot2': 329, 'state': 'normal', 'yaw': -67.37, 'datetime': '2018-10-09 12:44:58.038415', 'mgs': 0, 'volt': 0.9131, 'depth': 1.767, 'time': 231, 'pitch': -14.81, 'roll': -19.24, 'pres': 187}
{'lipoC2': 7.47, 'lipoC3S1': 4.07, 'temp': 30.56, 'lipoC3S3': 12.31, 'lipoC3S2': 8.14, 'rot1': 261, 'rot0': 267, 'rot3': 387, 'rot2': 329, 'state': 'normal', 'yaw': -74.16, 'datetime': '2018-10-09 12:44:58.048998', 'mgs': 0, 'volt': 0.9082, 'depth': 1.691, 'time': 231, 'pitch': -15.66, 'roll': -17.78, 'pres': 186}
{'lipoC2': 7.47, 'lipoC3S1': 4.07, 'temp': 30.56, 'lipoC3S3': 12.31, 'lipoC3S2': 8.13, 'rot1': 261, 'rot0': 267, 'rot3': 387, 'rot2': 329, 'state': 'normal', 'yaw': -79.83, 'datetime': '2018-10-09 12:44:58.059839', 'mgs': 0, 'volt': 0.9082, 'depth': 1.691, 'time': 231, 'pitch': -16.64, 'roll': -17.22, 'pres': 186}
{'lipoC2': 7.47, 'lipoC3S1': 4.07, 'temp': 30.56, 'lipoC3S3': 12.31, 'lipoC3S2': 8.14, 'rot1': 261, 'rot0': 267, 'rot3': 387, 'rot2': 329, 'state': 'normal', 'yaw': -84.67, 'datetime': '2018-10-09 12:44:58.070337', 'mgs': 0, 'volt': 0.9082, 'depth': 1.691, 'time': 231, 'pitch': -17.93, 'roll': -17.7, 'pres': 186}
{'lipoC2': 7.47, 'lipoC3S1': 4.07, 'temp': 30.56, 'lipoC3S3': 12.31, 'lipoC3S2': 8.14, 'rot1': 261, 'rot0': 267, 'rot3': 387, 'rot2': 329, 'state': 'normal', 'yaw': -88.15, 'datetime': '2018-10-09 12:44:58.080761', 'mgs': 0, 'volt': 0.9033, 'depth': 1.614, 'time': 231, 'pitch': -19.26, 'roll': -18.69, 'pres': 185}
{'lipoC2': 7.47, 'lipoC3S1': 4.07, 'temp': 30.56, 'lipoC3S3': 12.31, 'lipoC3S2': 8.14, 'rot1': 261, 'rot0': 267, 'rot3': 387, 'rot2': 329, 'state': 'normal', 'yaw': -91.26, 'datetime': '2018-10-09 12:44:58.091160', 'mgs': 0, 'volt': 0.8984, 'depth': 1.538, 'time': 231, 'pitch': -20.58, 'roll': -19.93, 'pres': 184}
{'lipoC2': 7.47, 'lipoC3S1': 4.07, 'temp': 30.5, 'lipoC3S3': 12.31, 'lipoC3S2': 8.14, 'rot1': 261, 'rot0': 267, 'rot3': 387, 'rot2': 329, 'state': 'normal', 'yaw': -93.92, 'datetime': '2018-10-09 12:44:58.101550', 'mgs': 0, 'volt': 0.8936, 'depth': 1.462, 'time': 231, 'pitch': -21.42, 'roll': -20.61, 'pres': 183}
{'lipoC2': 7.47, 'lipoC3S1': 4.07, 'temp': 30.5, 'lipoC3S3': 12.31, 'lipoC3S2': 8.14, 'rot1': 261, 'rot0': 267, 'rot3': 387, 'rot2': 329, 'state': 'normal', 'yaw': -96.77, 'datetime': '2018-10-09 12:44:58.111966', 'mgs': 0, 'volt': 0.8936, 'depth': 1.462, 'time': 232, 'pitch': -22.24, 'roll': -20.67, 'pres': 183}
{'lipoC2': 7.47, 'lipoC3S1': 4.07, 'temp': 30.5, 'lipoC3S3': 12.31, 'lipoC3S2': 8.14, 'rot1': 261, 'rot0': 267, 'rot3': 387, 'rot2': 329, 'state': 'normal', 'yaw': -99.41, 'datetime': '2018-10-09 12:44:58.122377', 'mgs': 0, 'volt': 0.8936, 'depth': 1.462, 'time': 232, 'pitch': -22.83, 'roll': -20.03, 'pres': 183}
{'lipoC2': 7.47, 'lipoC3S1': 4.07, 'temp': 30.56, 'lipoC3S3': 12.31, 'lipoC3S2': 8.14, 'rot1': 261, 'rot0': 267, 'rot3': 387, 'rot2': 329, 'state': 'normal', 'yaw': -102.66, 'datetime': '2018-10-09 12:44:58.132819', 'mgs': 0, 'volt': 0.8936, 'depth': 1.462, 'time': 232, 'pitch': -23.48, 'roll': -18.38, 'pres': 183}
{'lipoC2': 7.47, 'lipoC3S1': 4.07, 'temp': 30.56, 'lipoC3S3': 12.31, 'lipoC3S2': 8.14, 'rot1': 261, 'rot0': 267, 'rot3': 387, 'rot2': 329, 'state': 'normal', 'yaw': -105.9, 'datetime': '2018-10-09 12:44:58.143235', 'mgs': 0, 'volt': 0.8936, 'depth': 1.462, 'time': 232, 'pitch': -24.19, 'roll': -15.99, 'pres': 183}
{'lipoC2': 7.47, 'lipoC3S1': 4.07, 'temp': 30.56, 'lipoC3S3': 12.31, 'lipoC3S2': 8.14, 'rot1': 261, 'rot0': 267, 'rot3': 387, 'rot2': 329, 'state': 'normal', 'yaw': -109.01, 'datetime': '2018-10-09 12:44:58.153650', 'mgs': 0, 'volt': 0.8984, 'depth': 1.538, 'time': 232, 'pitch': -24.87, 'roll': -12.99, 'pres': 184}
{'lipoC2': 7.47, 'lipoC3S1': 4.07, 'temp': 30.56, 'lipoC3S3': 12.31, 'lipoC3S2': 8.14, 'rot1': 261, 'rot0': 267, 'rot3': 387, 'rot2': 329, 'state': 'normal', 'yaw': -111.75, 'datetime': '2018-10-09 12:44:58.164289', 'mgs': 0, 'volt': 0.8984, 'depth': 1.538, 'time': 232, 'pitch': -25.35, 'roll': -9.54, 'pres': 184}
{'lipoC2': 7.47, 'lipoC3S1': 4.07, 'temp': 30.56, 'lipoC3S3': 12.31, 'lipoC3S2': 8.14, 'rot1': 261, 'rot0': 267, 'rot3': 387, 'rot2': 329, 'state': 'normal', 'yaw': -113.49, 'datetime': '2018-10-09 12:44:58.174723', 'mgs': 0, 'volt': 0.8984, 'depth': 1.538, 'time': 232, 'pitch': -25.55, 'roll': -6.64, 'pres': 184}
{'lipoC2': 7.47, 'lipoC3S1': 4.07, 'temp': 30.56, 'lipoC3S3': 12.31, 'lipoC3S2': 8.14, 'rot1': 261, 'rot0': 267, 'rot3': 387, 'rot2': 329, 'state': 'normal', 'yaw': -115.02, 'datetime': '2018-10-09 12:44:58.185207', 'mgs': 0, 'volt': 0.9033, 'depth': 1.614, 'time': 232, 'pitch': -25.67, 'roll': -3.8, 'pres': 185}
{'lipoC2': 7.47, 'lipoC3S1': 4.07, 'temp': 30.56, 'lipoC3S3': 12.31, 'lipoC3S2': 8.14, 'rot1': 261, 'rot0': 267, 'rot3': 387, 'rot2': 329, 'state': 'normal', 'yaw': -117.0, 'datetime': '2018-10-09 12:44:58.195638', 'mgs': 0, 'volt': 0.9033, 'depth': 1.614, 'time': 232, 'pitch': -25.89, 'roll': -1.0, 'pres': 185}
{'lipoC2': 7.47, 'lipoC3S1': 4.07, 'temp': 30.5, 'lipoC3S3': 12.31, 'lipoC3S2': 8.14, 'rot1': 261, 'rot0': 267, 'rot3': 387, 'rot2': 329, 'state': 'normal', 'yaw': -119.76, 'datetime': '2018-10-09 12:44:58.206034', 'mgs': 0, 'volt': 0.9033, 'depth': 1.614, 'time': 233, 'pitch': -26.36, 'roll': 2.2, 'pres': 185}
{'lipoC2': 7.47, 'lipoC3S1': 4.07, 'temp': 30.5, 'lipoC3S3': 12.31, 'lipoC3S2': 8.14, 'rot1': 261, 'rot0': 267, 'rot3': 387, 'rot2': 329, 'state': 'normal', 'yaw': -122.56, 'datetime': '2018-10-09 12:44:58.216451', 'mgs': 0, 'volt': 0.9033, 'depth': 1.614, 'time': 233, 'pitch': -26.8, 'roll': 5.02, 'pres': 185}
{'lipoC2': 7.47, 'lipoC3S1': 4.07, 'temp': 30.5, 'lipoC3S3': 12.31, 'lipoC3S2': 8.13, 'rot1': 261, 'rot0': 267, 'rot3': 387, 'rot2': 329, 'state': 'normal', 'yaw': -125.73, 'datetime': '2018-10-09 12:44:58.226918', 'mgs': 0, 'volt': 0.9082, 'depth': 1.691, 'time': 233, 'pitch': -27.28, 'roll': 7.86, 'pres': 186}
