{'lipoC2': 7.48, 'lipoC3S1': 4.12, 'temp': 30.56, 'lipoC3S3': 12.46, 'lipoC3S2': 8.23, 'rot1': 0, 'rot0': 0, 'rot3': 0, 'rot2': 0, 'state': 'normal', 'yaw': 0.68, 'datetime': '2018-10-09 12:34:33.992704', 'mgs': 0, 'volt': 0.9375, 'depth': 2.148, 'time': 1, 'pitch': 10.85, 'roll': -12.25, 'pres': 192}
{'lipoC2': 7.49, 'lipoC3S1': 4.12, 'temp': 30.56, 'lipoC3S3': 12.45, 'lipoC3S2': 8.23, 'rot1': 0, 'rot0': 0, 'rot3': 0, 'rot2': 0, 'state': 'normal', 'yaw': 0.94, 'datetime': '2018-10-09 12:34:34.014535', 'mgs': 0, 'volt': 0.9424, 'depth': 2.225, 'time': 1, 'pitch': 8.06, 'roll': -9.28, 'pres': 193}
{'lipoC2': 7.48, 'lipoC3S1': 4.12, 'temp': 30.56, 'lipoC3S3': 12.46, 'lipoC3S2': 8.23, 'rot1': 0, 'rot0': 0, 'rot3': 0, 'rot2': 0, 'state': 'normal', 'yaw': 1.04, 'datetime': '2018-10-09 12:34:34.036692', 'mgs': 0, 'volt': 0.9424, 'depth': 2.225, 'time': 1, 'pitch': 5.72, 'roll': -7.0, 'pres': 193}
{'lipoC2': 7.48, 'lipoC3S1': 4.12, 'temp': 30.56, 'lipoC3S3': 12.46, 'lipoC3S2': 8.23, 'rot1': 0, 'rot0': 0, 'rot3': 0, 'rot2': 0, 'state': 'normal', 'yaw': 1.1, 'datetime': '2018-10-09 12:34:34.052011', 'mgs': 0, 'volt': 0.9473, 'depth': 2.301, 'time': 1, 'pitch': 3.44, 'roll': -5.1, 'pres': 194}
{'lipoC2': 7.49, 'lipoC3S1': 4.12, 'temp': 30.5, 'lipoC3S3': 12.46, 'lipoC3S2': 8.23, 'rot1': 0, 'rot0': 0, 'rot3': 0, 'rot2': 0, 'state': 'normal', 'yaw': 1.1, 'datetime': '2018-10-09 12:34:34.061686', 'mgs': 0, 'volt': 0.9473, 'depth': 2.301, 'time': 1, 'pitch': 1.74, 'roll': -3.86, 'pres': 194}
{'lipoC2': 7.49, 'lipoC3S1': 4.12, 'temp': 30.5, 'lipoC3S3': 12.46, 'lipoC3S2': 8.23, 'rot1': 0, 'rot0': 0, 'rot3': 0, 'rot2': 0, 'state': 'normal', 'yaw': 1.05, 'datetime': '2018-10-09 12:34:34.071503', 'mgs': 0, 'volt': 0.9473, 'depth': 2.301, 'time': 1, 'pitch': 0.58, 'roll': -3.14, 'pres': 194}
{'lipoC2': 7.49, 'lipoC3S1': 4.12, 'temp': 30.5, 'lipoC3S3': 12.46, 'lipoC3S2': 8.23, 'rot1': 0, 'rot0': 0, 'rot3': 0, 'rot2': 0, 'state': 'normal', 'yaw': 0.95, 'datetime': '2018-10-09 12:34:34.081109', 'mgs': 0, 'volt': 0.9473, 'depth': 2.301, 'time': 1, 'pitch': -0.18, 'roll': -2.66, 'pres': 194}
{'lipoC2': 7.48, 'lipoC3S1': 4.12, 'temp': 30.5, 'lipoC3S3': 12.46, 'lipoC3S2': 8.23, 'rot1': 0, 'rot0': 0, 'rot3': 0, 'rot2': 0, 'state': 'normal', 'yaw': 0.8, 'datetime': '2018-10-09 12:34:34.090732', 'mgs': 0, 'volt': 0.9473, 'depth': 2.301, 'time': 2, 'pitch': -0.5, 'roll': -2.31, 'pres': 194}
{'lipoC2': 7.48, 'lipoC3S1': 4.12, 'temp': 30.5, 'lipoC3S3': 12.46, 'lipoC3S2': 8.23, 'rot1': 0, 'rot0': 0, 'rot3': 0, 'rot2': 0, 'state': 'normal', 'yaw': 0.62, 'datetime': '2018-10-09 12:34:34.100342', 'mgs': 0, 'volt': 0.9473, 'depth': 2.301, 'time': 2, 'pitch': -0.61, 'roll': -2.05, 'pres': 194}
{'lipoC2': 7.48, 'lipoC3S1': 4.12, 'temp': 30.5, 'lipoC3S3': 12.46, 'lipoC3S2': 8.23, 'rot1': 0, 'rot0': 0, 'rot3': 0, 'rot2': 0, 'state': 'normal', 'yaw': 0.42, 'datetime': '2018-10-09 12:34:34.109918', 'mgs': 0, 'volt': 0.9473, 'depth': 2.301, 'time': 2, 'pitch': -0.51, 'roll': -1.92, 'pres': 194}
{'lipoC2': 7.49, 'lipoC3S1': 4.12, 'temp': 30.5, 'lipoC3S3': 12.46, 'lipoC3S2': 8.23, 'rot1': 0, 'rot0': 0, 'rot3': 0, 'rot2': 0, 'state': 'normal', 'yaw': 0.25, 'datetime': '2018-10-09 12:34:34.167421', 'mgs': 0, 'volt': 0.9521, 'depth': 2.377, 'time': 2, 'pitch': -0.23, 'roll': -1.95, 'pres': 195}
{'lipoC2': 7.49, 'lipoC3S1': 4.12, 'temp': 30.56, 'lipoC3S3': 12.45, 'lipoC3S2': 8.23, 'rot1': 0, 'rot0': 0, 'rot3': 0, 'rot2': 0, 'state': 'normal', 'yaw': 0.09, 'datetime': '2018-10-09 12:34:34.271893', 'mgs': 0, 'volt': 0.9521, 'depth': 2.377, 'time': 2, 'pitch': 0.16, 'roll': -2.06, 'pres': 195}
{'lipoC2': 7.49, 'lipoC3S1': 4.12, 'temp': 30.56, 'lipoC3S3': 12.46, 'lipoC3S2': 8.23, 'rot1': 0, 'rot0': 0, 'rot3': 0, 'rot2': 0, 'state': 'normal', 'yaw': -0.11, 'datetime': '2018-10-09 12:34:34.375111', 'mgs': 0, 'volt': 0.9521, 'depth': 2.377, 'time': 2, 'pitch': 0.59, 'roll': -2.11, 'pres': 195}
{'lipoC2': 7.48, 'lipoC3S1': 4.12, 'temp': 30.5, 'lipoC3S3': 12.46, 'lipoC3S2': 8.23, 'rot1': 0, 'rot0': 0, 'rot3': 0, 'rot2': 0, 'state': 'normal', 'yaw': -0.29, 'datetime': '2018-10-09 12:34:34.478298', 'mgs': 0, 'volt': 0.9521, 'depth': 2.377, 'time': 2, 'pitch': 0.86, 'roll': -2.01, 'pres': 195}
{'lipoC2': 7.49, 'lipoC3S1': 4.12, 'temp': 30.5, 'lipoC3S3': 12.46, 'lipoC3S2': 8.23, 'rot1': 0, 'rot0': 0, 'rot3': 0, 'rot2': 0, 'state': 'normal', 'yaw': -0.49, 'datetime': '2018-10-09 12:34:34.582827', 'mgs': 0, 'volt': 0.957, 'depth': 2.454, 'time': 2, 'pitch': 0.86, 'roll': -1.84, 'pres': 196}
{'lipoC2': 7.48, 'lipoC3S1': 4.12, 'temp': 30.5, 'lipoC3S3': 12.46, 'lipoC3S2': 8.23, 'rot1': 0, 'rot0': 0, 'rot3': 0, 'rot2': 0, 'state': 'normal', 'yaw': -0.73, 'datetime': '2018-10-09 12:34:34.686001', 'mgs': 0, 'volt': 0.957, 'depth': 2.454, 'time': 2, 'pitch': 0.44, 'roll': -1.63, 'pres': 196}
{'lipoC2': 7.49, 'lipoC3S1': 4.12, 'temp': 30.5, 'lipoC3S3': 12.46, 'lipoC3S2': 8.23, 'rot1': 0, 'rot0': 0, 'rot3': 0, 'rot2': 0, 'state': 'normal', 'yaw': -0.94, 'datetime': '2018-10-09 12:34:34.796023', 'mgs': 0, 'volt': 0.957, 'depth': 2.454, 'time': 3, 'pitch': -0.27, 'roll': -1.54, 'pres': 196}
{'lipoC2': 7.48, 'lipoC3S1': 4.12, 'temp': 30.5, 'lipoC3S3': 12.46, 'lipoC3S2': 8.23, 'rot1': 0, 'rot0': 0, 'rot3': 0, 'rot2': 0, 'state': 'normal', 'yaw': -1.14, 'datetime': '2018-10-09 12:34:34.899583', 'mgs': 0, 'volt': 0.957, 'depth': 2.454, 'time': 3, 'pitch': -1.09, 'roll': -1.49, 'pres': 196}
{'lipoC2': 7.49, 'lipoC3S1': 4.12, 'temp': 30.5, 'lipoC3S3': 12.45, 'lipoC3S2': 8.23, 'rot1': 0, 'rot0': 0, 'rot3': 0, 'rot2': 0, 'state': 'normal', 'yaw': -1.33, 'datetime': '2018-10-09 12:34:35.002765', 'mgs': 0, 'volt': 0.957, 'depth': 2.454, 'time': 3, 'pitch': -1.79, 'roll': -1.48, 'pres': 196}
{'lipoC2': 7.49, 'lipoC3S1': 4.12, 'temp': 30.5, 'lipoC3S3': 12.45, 'lipoC3S2': 8.23, 'rot1': 0, 'rot0': 0, 'rot3': 0, 'rot2': 0, 'state': 'normal', 'yaw': -1.52, 'datetime': '2018-10-09 12:34:35.105825', 'mgs': 0, 'volt': 0.957, 'depth': 2.454, 'time': 3, 'pitch': -2.14, 'roll': -1.48, 'pres': 196}
{'lipoC2': 7.49, 'lipoC3S1': 4.12, 'temp': 30.5, 'lipoC3S3': 12.46, 'lipoC3S2': 8.23, 'rot1': 0, 'rot0': 0, 'rot3': 0, 'rot2': 0, 'state': 'normal', 'yaw': -1.68, 'datetime': '2018-10-09 12:34:35.209174', 'mgs': 0, 'volt': 0.957, 'depth': 2.454, 'time': 3, 'pitch': -2.01, 'roll': -1.52, 'pres': 196}
{'lipoC2': 7.49, 'lipoC3S1': 4.12, 'temp': 30.5, 'lipoC3S3': 12.45, 'lipoC3S2': 8.23, 'rot1': 0, 'rot0': 0, 'rot3': 0, 'rot2': 0, 'state': 'normal', 'yaw': -1.86, 'datetime': '2018-10-09 12:34:35.312272', 'mgs': 0, 'volt': 0.957, 'depth': 2.454, 'time': 3, 'pitch': -1.56, 'roll': -1.63, 'pres': 196}
{'lipoC2': 7.49, 'lipoC3S1': 4.12, 'temp': 30.5, 'lipoC3S3': 12.45, 'lipoC3S2': 8.23, 'rot1': 0, 'rot0': 0, 'rot3': 0, 'rot2': 0, 'state': 'normal', 'yaw': -2.11, 'datetime': '2018-10-09 12:34:35.415366', 'mgs': 0, 'volt': 0.957, 'depth': 2.454, 'time': 3, 'pitch': -0.88, 'roll': -1.77, 'pres': 196}
{'lipoC2': 7.48, 'lipoC3S1': 4.12, 'temp': 30.5, 'lipoC3S3': 12.45, 'lipoC3S2': 8.23, 'rot1': 0, 'rot0': 0, 'rot3': 0, 'rot2': 0, 'state': 'normal', 'yaw': -2.35, 'datetime': '2018-10-09 12:34:35.518668', 'mgs': 0, 'volt': 0.957, 'depth': 2.454, 'time': 3, 'pitch': -0.34, 'roll': -1.79, 'pres': 196}
{'lipoC2': 7.49, 'lipoC3S1': 4.12, 'temp': 30.5, 'lipoC3S3': 12.46, 'lipoC3S2': 8.23, 'rot1': 0, 'rot0': 0, 'rot3': 0, 'rot2': 0, 'state': 'normal', 'yaw': -2.61, 'datetime': '2018-10-09 12:34:35.621833', 'mgs': 0, 'volt': 0.957, 'depth': 2.454, 'time': 3, 'pitch': -0.06, 'roll': -1.74, 'pres': 196}
{'lipoC2': 7.48, 'lipoC3S1': 4.12, 'temp': 30.5, 'lipoC3S3': 12.46, 'lipoC3S2': 8.23, 'rot1': 0, 'rot0': 0, 'rot3': 0, 'rot2': 0, 'state': 'normal', 'yaw': -2.88, 'datetime': '2018-10-09 12:34:35.725063', 'mgs': 0, 'volt': 0.957, 'depth': 2.454, 'time': 3, 'pitch': -0.11, 'roll': -1.57, 'pres': 196}
{'lipoC2': 7.49, 'lipoC3S1': 4.12, 'temp': 30.5, 'lipoC3S3': 12.46, 'lipoC3S2': 8.23, 'rot1': 0, 'rot0': 0, 'rot3': 0, 'rot2': 0, 'state': 'normal', 'yaw': -3.11, 'datetime': '2018-10-09 12:34:35.828217', 'mgs': 0, 'volt': 0.957, 'depth': 2.454, 'time': 4, 'pitch': -0.38, 'roll': -1.4, 'pres': 196}
{'lipoC2': 7.48, 'lipoC3S1': 4.12, 'temp': 30.56, 'lipoC3S3': 12.46, 'lipoC3S2': 8.23, 'rot1': 0, 'rot0': 0, 'rot3': 0, 'rot2': 0, 'state': 'normal', 'yaw': -3.3, 'datetime': '2018-10-09 12:34:35.932733', 'mgs': 0, 'volt': 0.9619, 'depth': 2.53, 'time': 4, 'pitch': -0.71, 'roll': -1.3, 'pres': 197}
{'lipoC2': 7.49, 'lipoC3S1': 4.12, 'temp': 30.56, 'lipoC3S3': 12.46, 'lipoC3S2': 8.23, 'rot1': 0, 'rot0': 0, 'rot3': 0, 'rot2': 0, 'state': 'normal', 'yaw': -3.5, 'datetime': '2018-10-09 12:34:36.036040', 'mgs': 0, 'volt': 0.9619, 'depth': 2.53, 'time': 4, 'pitch': -0.96, 'roll': -1.31, 'pres': 197}
{'lipoC2': 7.49, 'lipoC3S1': 4.12, 'temp': 30.5, 'lipoC3S3': 12.46, 'lipoC3S2': 8.23, 'rot1': 0, 'rot0': 0, 'rot3': 0, 'rot2': 0, 'state': 'normal', 'yaw': -3.63, 'datetime': '2018-10-09 12:34:36.139281', 'mgs': 0, 'volt': 0.957, 'depth': 2.454, 'time': 4, 'pitch': -0.96, 'roll': -1.41, 'pres': 196}
{'lipoC2': 7.49, 'lipoC3S1': 4.12, 'temp': 30.5, 'lipoC3S3': 12.46, 'lipoC3S2': 8.23, 'rot1': 0, 'rot0': 0, 'rot3': 0, 'rot2': 0, 'state': 'normal', 'yaw': -3.56, 'datetime': '2018-10-09 12:34:36.243586', 'mgs': 0, 'volt': 0.957, 'depth': 2.454, 'time': 4, 'pitch': -0.84, 'roll': -1.56, 'pres': 196}
{'lipoC2': 7.49, 'lipoC3S1': 4.12, 'temp': 30.5, 'lipoC3S3': 12.46, 'lipoC3S2': 8.23, 'rot1': 0, 'rot0': 0, 'rot3': 0, 'rot2': 0, 'state': 'normal', 'yaw': -3.28, 'datetime': '2018-10-09 12:34:36.349886', 'mgs': 0, 'volt': 0.957, 'depth': 2.454, 'time': 4, 'pitch': -0.73, 'roll': -1.77, 'pres': 196}
{'lipoC2': 7.48, 'lipoC3S1': 4.12, 'temp': 30.5, 'lipoC3S3': 12.46, 'lipoC3S2': 8.23, 'rot1': 0, 'rot0': 0, 'rot3': 0, 'rot2': 0, 'state': 'normal', 'yaw': -3.11, 'datetime': '2018-10-09 12:34:36.450183', 'mgs': 0, 'volt': 0.957, 'depth': 2.454, 'time': 4, 'pitch': -0.92, 'roll': -1.86, 'pres': 196}
{'lipoC2': 7.49, 'lipoC3S1': 4.12, 'temp': 30.5, 'lipoC3S3': 12.46, 'lipoC3S2': 8.23, 'rot1': 0, 'rot0': 0, 'rot3': 0, 'rot2': 0, 'state': 'normal', 'yaw': -2.96, 'datetime': '2018-10-09 12:34:36.553330', 'mgs': 0, 'volt': 0.957, 'depth': 2.454, 'time': 4, 'pitch': -1.34, 'roll': -1.85, 'pres': 196}
{'lipoC2': 7.49, 'lipoC3S1': 4.12, 'temp': 30.5, 'lipoC3S3': 12.46, 'lipoC3S2': 8.23, 'rot1': 0, 'rot0': 0, 'rot3': 0, 'rot2': 0, 'state': 'normal', 'yaw': -2.85, 'datetime': '2018-10-09 12:34:36.656546', 'mgs': 0, 'volt': 0.957, 'depth': 2.454, 'time': 4, 'pitch': -2.08, 'roll': -1.85, 'pres': 196}
{'lipoC2': 7.48, 'lipoC3S1': 4.12, 'temp': 30.5, 'lipoC3S3': 12.46, 'lipoC3S2': 8.23, 'rot1': 0, 'rot0': 0, 'rot3': 0, 'rot2': 0, 'state': 'normal', 'yaw': -3.83, 'datetime': '2018-10-09 12:34:36.759817', 'mgs': 0, 'volt': 0.957, 'depth': 2.454, 'time': 4, 'pitch': -2.73, 'roll': -1.55, 'pres': 196}
{'lipoC2': 7.49, 'lipoC3S1': 4.12, 'temp': 30.5, 'lipoC3S3': 12.46, 'lipoC3S2': 8.23, 'rot1': 0, 'rot0': 0, 'rot3': 0, 'rot2': 0, 'state': 'normal', 'yaw': -5.9, 'datetime': '2018-10-09 12:34:36.863139', 'mgs': 0, 'volt': 0.9619, 'depth': 2.53, 'time': 5, 'pitch': -2.32, 'roll': -0.6, 'pres': 197}
{'lipoC2': 7.49, 'lipoC3S1': 4.12, 'temp': 30.5, 'lipoC3S3': 12.46, 'lipoC3S2': 8.23, 'rot1': 0, 'rot0': 0, 'rot3': 0, 'rot2': 0, 'state': 'normal', 'yaw': -8.09, 'datetime': '2018-10-09 12:34:36.966357', 'mgs': 0, 'volt': 0.9619, 'depth': 2.53, 'time': 5, 'pitch': -1.19, 'roll': 0.39, 'pres': 197}
{'lipoC2': 7.49, 'lipoC3S1': 4.12, 'temp': 30.5, 'lipoC3S3': 12.46, 'lipoC3S2': 8.23, 'rot1': 0, 'rot0': 0, 'rot3': 0, 'rot2': 0, 'state': 'normal', 'yaw': -9.98, 'datetime': '2018-10-09 12:34:37.069691', 'mgs': 0, 'volt': 0.9668, 'depth': 2.606, 'time': 5, 'pitch': 0.47, 'roll': 1.06, 'pres': 198}
{'lipoC2': 7.49, 'lipoC3S1': 4.12, 'temp': 30.5, 'lipoC3S3': 12.45, 'lipoC3S2': 8.23, 'rot1': 0, 'rot0': 0, 'rot3': 0, 'rot2': 0, 'state': 'normal', 'yaw': -11.24, 'datetime': '2018-10-09 12:34:37.172934', 'mgs': 0, 'volt': 0.9619, 'depth': 2.53, 'time': 5, 'pitch': 2.17, 'roll': 1.3, 'pres': 197}
{'lipoC2': 7.49, 'lipoC3S1': 4.12, 'temp': 30.5, 'lipoC3S3': 12.46, 'lipoC3S2': 8.23, 'rot1': 0, 'rot0': 0, 'rot3': 0, 'rot2': 0, 'state': 'normal', 'yaw': -12.22, 'datetime': '2018-10-09 12:34:37.276469', 'mgs': 0, 'volt': 0.9668, 'depth': 2.606, 'time': 5, 'pitch': 3.97, 'roll': 1.27, 'pres': 198}
{'lipoC2': 7.49, 'lipoC3S1': 4.12, 'temp': 30.5, 'lipoC3S3': 12.45, 'lipoC3S2': 8.23, 'rot1': 0, 'rot0': 0, 'rot3': 0, 'rot2': 0, 'state': 'normal', 'yaw': -13.17, 'datetime': '2018-10-09 12:34:37.379758', 'mgs': 0, 'volt': 0.9717, 'depth': 2.682, 'time': 5, 'pitch': 6.14, 'roll': 1.01, 'pres': 199}
{'lipoC2': 7.49, 'lipoC3S1': 4.12, 'temp': 30.5, 'lipoC3S3': 12.46, 'lipoC3S2': 8.23, 'rot1': 0, 'rot0': 0, 'rot3': 0, 'rot2': 0, 'state': 'normal', 'yaw': -13.92, 'datetime': '2018-10-09 12:34:37.482886', 'mgs': 0, 'volt': 0.9717, 'depth': 2.682, 'time': 5, 'pitch': 7.6, 'roll': 0.55, 'pres': 199}
{'lipoC2': 7.48, 'lipoC3S1': 4.12, 'temp': 30.5, 'lipoC3S3': 12.46, 'lipoC3S2': 8.23, 'rot1': 0, 'rot0': 0, 'rot3': 0, 'rot2': 0, 'state': 'normal', 'yaw': -14.58, 'datetime': '2018-10-09 12:34:37.587498', 'mgs': 0, 'volt': 0.9717, 'depth': 2.682, 'time': 5, 'pitch': 8.4, 'roll': -0.04, 'pres': 199}
{'lipoC2': 7.49, 'lipoC3S1': 4.12, 'temp': 30.5, 'lipoC3S3': 12.46, 'lipoC3S2': 8.23, 'rot1': 0, 'rot0': 0, 'rot3': 0, 'rot2': 0, 'state': 'normal', 'yaw': -15.2, 'datetime': '2018-10-09 12:34:37.690770', 'mgs': 0, 'volt': 0.9717, 'depth': 2.682, 'time': 5, 'pitch': 8.75, 'roll': -0.82, 'pres': 199}
{'lipoC2': 7.49, 'lipoC3S1': 4.12, 'temp': 30.5, 'lipoC3S3': 12.46, 'lipoC3S2': 8.23, 'rot1': 0, 'rot0': 0, 'rot3': 0, 'rot2': 0, 'state': 'normal', 'yaw': -15.67, 'datetime': '2018-10-09 12:34:37.794107', 'mgs': 0, 'volt': 0.9717, 'depth': 2.682, 'time': 6, 'pitch': 8.62, 'roll': -1.61, 'pres': 199}
{'lipoC2': 7.49, 'lipoC3S1': 4.12, 'temp': 30.5, 'lipoC3S3': 12.45, 'lipoC3S2': 8.23, 'rot1': 0, 'rot0': 0, 'rot3': 0, 'rot2': 0, 'state': 'normal', 'yaw': -15.95, 'datetime': '2018-10-09 12:34:37.899016', 'mgs': 0, 'volt': 0.9717, 'depth': 2.682, 'time': 6, 'pitch': 8.1, 'roll': -2.41, 'pres': 199}
{'lipoC2': 7.48, 'lipoC3S1': 4.12, 'temp': 30.5, 'lipoC3S3': 12.45, 'lipoC3S2': 8.23, 'rot1': 0, 'rot0': 0, 'rot3': 0, 'rot2': 0, 'state': 'normal', 'yaw': -15.99, 'datetime': '2018-10-09 12:34:38.001889', 'mgs': 0, 'volt': 0.9668, 'depth': 2.606, 'time': 6, 'pitch': 7.3, 'roll': -3.22, 'pres': 198}
{'lipoC2': 7.49, 'lipoC3S1': 4.12, 'temp': 30.56, 'lipoC3S3': 12.46, 'lipoC3S2': 8.23, 'rot1': 0, 'rot0': 0, 'rot3': 0, 'rot2': 0, 'state': 'normal', 'yaw': -15.85, 'datetime': '2018-10-09 12:34:38.105128', 'mgs': 0, 'volt': 0.9668, 'depth': 2.606, 'time': 6, 'pitch': 6.41, 'roll': -3.86, 'pres': 198}
{'lipoC2': 7.49, 'lipoC3S1': 4.12, 'temp': 30.56, 'lipoC3S3': 12.46, 'lipoC3S2': 8.23, 'rot1': 0, 'rot0': 0, 'rot3': 0, 'rot2': 0, 'state': 'normal', 'yaw': -15.6, 'datetime': '2018-10-09 12:34:38.208540', 'mgs': 0, 'volt': 0.9668, 'depth': 2.606, 'time': 6, 'pitch': 5.38, 'roll': -4.35, 'pres': 198}
{'lipoC2': 7.49, 'lipoC3S1': 4.12, 'temp': 30.56, 'lipoC3S3': 12.46, 'lipoC3S2': 8.23, 'rot1': 0, 'rot0': 0, 'rot3': 0, 'rot2': 0, 'state': 'normal', 'yaw': -15.29, 'datetime': '2018-10-09 12:34:38.311558', 'mgs': 0, 'volt': 0.9668, 'depth': 2.606, 'time': 6, 'pitch': 4.17, 'roll': -4.71, 'pres': 198}
{'lipoC2': 7.49, 'lipoC3S1': 4.12, 'temp': 30.56, 'lipoC3S3': 12.46, 'lipoC3S2': 8.23, 'rot1': 0, 'rot0': 0, 'rot3': 0, 'rot2': 0, 'state': 'normal', 'yaw': -15.01, 'datetime': '2018-10-09 12:34:38.414801', 'mgs': 0, 'volt': 0.9619, 'depth': 2.53, 'time': 6, 'pitch': 2.94, 'roll': -4.82, 'pres': 197}
{'lipoC2': 7.49, 'lipoC3S1': 4.12, 'temp': 30.56, 'lipoC3S3': 12.46, 'lipoC3S2': 8.23, 'rot1': 0, 'rot0': 0, 'rot3': 0, 'rot2': 0, 'state': 'normal', 'yaw': -14.77, 'datetime': '2018-10-09 12:34:38.518214', 'mgs': 0, 'volt': 0.9619, 'depth': 2.53, 'time': 6, 'pitch': 1.91, 'roll': -4.73, 'pres': 197}
{'lipoC2': 7.49, 'lipoC3S1': 4.12, 'temp': 30.5, 'lipoC3S3': 12.46, 'lipoC3S2': 8.23, 'rot1': 0, 'rot0': 0, 'rot3': 0, 'rot2': 0, 'state': 'normal', 'yaw': -14.61, 'datetime': '2018-10-09 12:34:38.621207', 'mgs': 0, 'volt': 0.9619, 'depth': 2.53, 'time': 6, 'pitch': 1.09, 'roll': -4.38, 'pres': 197}
{'lipoC2': 7.49, 'lipoC3S1': 4.12, 'temp': 30.5, 'lipoC3S3': 12.46, 'lipoC3S2': 8.23, 'rot1': 0, 'rot0': 0, 'rot3': 0, 'rot2': 0, 'state': 'normal', 'yaw': -14.46, 'datetime': '2018-10-09 12:34:38.724437', 'mgs': 0, 'volt': 0.9619, 'depth': 2.53, 'time': 6, 'pitch': 0.64, 'roll': -3.91, 'pres': 197}
{'lipoC2': 7.49, 'lipoC3S1': 4.12, 'temp': 30.56, 'lipoC3S3': 12.45, 'lipoC3S2': 8.23, 'rot1': 0, 'rot0': 0, 'rot3': 0, 'rot2': 0, 'state': 'normal', 'yaw': -14.32, 'datetime': '2018-10-09 12:34:38.827918', 'mgs': 0, 'volt': 0.9619, 'depth': 2.53, 'time': 7, 'pitch': 0.48, 'roll': -3.35, 'pres': 197}
{'lipoC2': 7.49, 'lipoC3S1': 4.12, 'temp': 30.56, 'lipoC3S3': 12.46, 'lipoC3S2': 8.23, 'rot1': 0, 'rot0': 0, 'rot3': 0, 'rot2': 0, 'state': 'normal', 'yaw': -14.28, 'datetime': '2018-10-09 12:34:38.931247', 'mgs': 0, 'volt': 0.9619, 'depth': 2.53, 'time': 7, 'pitch': 0.11, 'roll': -2.62, 'pres': 197}
{'lipoC2': 7.49, 'lipoC3S1': 4.12, 'temp': 30.56, 'lipoC3S3': 12.46, 'lipoC3S2': 8.23, 'rot1': 0, 'rot0': 0, 'rot3': 0, 'rot2': 0, 'state': 'normal', 'yaw': -14.38, 'datetime': '2018-10-09 12:34:39.034515', 'mgs': 0, 'volt': 0.9668, 'depth': 2.606, 'time': 7, 'pitch': 0.13, 'roll': -1.84, 'pres': 198}
{'lipoC2': 7.49, 'lipoC3S1': 4.12, 'temp': 30.5, 'lipoC3S3': 12.45, 'lipoC3S2': 8.23, 'rot1': 0, 'rot0': 0, 'rot3': 0, 'rot2': 0, 'state': 'normal', 'yaw': -14.37, 'datetime': '2018-10-09 12:34:39.139166', 'mgs': 0, 'volt': 0.9717, 'depth': 2.682, 'time': 7, 'pitch': 0.75, 'roll': -1.1, 'pres': 199}
{'lipoC2': 7.49, 'lipoC3S1': 4.12, 'temp': 30.5, 'lipoC3S3': 12.46, 'lipoC3S2': 8.23, 'rot1': 0, 'rot0': 0, 'rot3': 0, 'rot2': 0, 'state': 'normal', 'yaw': -14.45, 'datetime': '2018-10-09 12:34:39.242172', 'mgs': 0, 'volt': 0.9717, 'depth': 2.682, 'time': 7, 'pitch': 1.99, 'roll': -0.36, 'pres': 199}
{'lipoC2': 7.49, 'lipoC3S1': 4.12, 'temp': 30.5, 'lipoC3S3': 12.45, 'lipoC3S2': 8.23, 'rot1': 0, 'rot0': 0, 'rot3': 0, 'rot2': 0, 'state': 'normal', 'yaw': -14.49, 'datetime': '2018-10-09 12:34:39.350172', 'mgs': 0, 'volt': 0.9766, 'depth': 2.759, 'time': 7, 'pitch': 3.66, 'roll': 0.22, 'pres': 200}
{'lipoC2': 7.49, 'lipoC3S1': 4.12, 'temp': 30.5, 'lipoC3S3': 12.45, 'lipoC3S2': 8.23, 'rot1': 0, 'rot0': 0, 'rot3': 0, 'rot2': 0, 'state': 'normal', 'yaw': -14.35, 'datetime': '2018-10-09 12:34:39.453972', 'mgs': 0, 'volt': 0.9766, 'depth': 2.759, 'time': 7, 'pitch': 5.68, 'roll': 0.55, 'pres': 200}
{'lipoC2': 7.49, 'lipoC3S1': 4.12, 'temp': 30.56, 'lipoC3S3': 12.46, 'lipoC3S2': 8.23, 'rot1': 0, 'rot0': 0, 'rot3': 0, 'rot2': 0, 'state': 'normal', 'yaw': -14.31, 'datetime': '2018-10-09 12:34:39.556774', 'mgs': 0, 'volt': 0.9766, 'depth': 2.759, 'time': 7, 'pitch': 7.22, 'roll': 0.63, 'pres': 200}
{'lipoC2': 7.49, 'lipoC3S1': 4.12, 'temp': 30.56, 'lipoC3S3': 12.45, 'lipoC3S2': 8.23, 'rot1': 0, 'rot0': 0, 'rot3': 0, 'rot2': 0, 'state': 'normal', 'yaw': -14.78, 'datetime': '2018-10-09 12:34:39.659913', 'mgs': 0, 'volt': 0.9814, 'depth': 2.835, 'time': 7, 'pitch': 7.52, 'roll': 0.69, 'pres': 201}
{'lipoC2': 7.49, 'lipoC3S1': 4.12, 'temp': 30.56, 'lipoC3S3': 12.46, 'lipoC3S2': 8.23, 'rot1': 0, 'rot0': 0, 'rot3': 0, 'rot2': 0, 'state': 'normal', 'yaw': -15.65, 'datetime': '2018-10-09 12:34:39.763107', 'mgs': 0, 'volt': 0.9814, 'depth': 2.835, 'time': 7, 'pitch': 6.51, 'roll': 0.76, 'pres': 201}
{'lipoC2': 7.48, 'lipoC3S1': 4.12, 'temp': 30.56, 'lipoC3S3': 12.46, 'lipoC3S2': 8.23, 'rot1': 0, 'rot0': 0, 'rot3': 0, 'rot2': 0, 'state': 'normal', 'yaw': -16.41, 'datetime': '2018-10-09 12:34:39.866676', 'mgs': 0, 'volt': 0.9814, 'depth': 2.835, 'time': 8, 'pitch': 5.17, 'roll': 0.78, 'pres': 201}
{'lipoC2': 7.49, 'lipoC3S1': 4.12, 'temp': 30.56, 'lipoC3S3': 12.46, 'lipoC3S2': 8.23, 'rot1': 0, 'rot0': 0, 'rot3': 0, 'rot2': 0, 'state': 'normal', 'yaw': -16.88, 'datetime': '2018-10-09 12:34:39.970025', 'mgs': 0, 'volt': 0.9814, 'depth': 2.835, 'time': 8, 'pitch': 3.96, 'roll': 0.65, 'pres': 201}
{'lipoC2': 7.49, 'lipoC3S1': 4.12, 'temp': 30.5, 'lipoC3S3': 12.46, 'lipoC3S2': 8.23, 'rot1': 0, 'rot0': 0, 'rot3': 0, 'rot2': 0, 'state': 'normal', 'yaw': -17.08, 'datetime': '2018-10-09 12:34:40.073026', 'mgs': 0, 'volt': 0.9766, 'depth': 2.759, 'time': 8, 'pitch': 3.02, 'roll': 0.28, 'pres': 200}
{'lipoC2': 7.49, 'lipoC3S1': 4.12, 'temp': 30.5, 'lipoC3S3': 12.45, 'lipoC3S2': 8.23, 'rot1': 0, 'rot0': 0, 'rot3': 0, 'rot2': 0, 'state': 'normal', 'yaw': -17.19, 'datetime': '2018-10-09 12:34:40.177166', 'mgs': 0, 'volt': 0.9766, 'depth': 2.759, 'time': 8, 'pitch': 1.92, 'roll': -0.3, 'pres': 200}
{'lipoC2': 7.49, 'lipoC3S1': 4.12, 'temp': 30.56, 'lipoC3S3': 12.46, 'lipoC3S2': 8.23, 'rot1': 0, 'rot0': 0, 'rot3': 0, 'rot2': 0, 'state': 'normal', 'yaw': -17.17, 'datetime': '2018-10-09 12:34:40.273529', 'mgs': 0, 'volt': 0.9717, 'depth': 2.682, 'time': 8, 'pitch': 0.62, 'roll': -1.11, 'pres': 199}
{'lipoC2': 7.48, 'lipoC3S1': 4.12, 'temp': 30.56, 'lipoC3S3': 12.45, 'lipoC3S2': 8.23, 'rot1': 0, 'rot0': 0, 'rot3': 0, 'rot2': 0, 'state': 'normal', 'yaw': -16.82, 'datetime': '2018-10-09 12:34:40.382956', 'mgs': 0, 'volt': 0.9717, 'depth': 2.682, 'time': 8, 'pitch': -0.16, 'roll': -2.05, 'pres': 199}
{'lipoC2': 7.48, 'lipoC3S1': 4.12, 'temp': 30.56, 'lipoC3S3': 12.45, 'lipoC3S2': 8.23, 'rot1': 0, 'rot0': 0, 'rot3': 0, 'rot2': 0, 'state': 'normal', 'yaw': -16.27, 'datetime': '2018-10-09 12:34:40.486301', 'mgs': 0, 'volt': 0.9717, 'depth': 2.682, 'time': 8, 'pitch': -0.36, 'roll': -3.01, 'pres': 199}
{'lipoC2': 7.48, 'lipoC3S1': 4.12, 'temp': 30.5, 'lipoC3S3': 12.46, 'lipoC3S2': 8.23, 'rot1': 0, 'rot0': 0, 'rot3': 0, 'rot2': 0, 'state': 'normal', 'yaw': -15.72, 'datetime': '2018-10-09 12:34:40.589212', 'mgs': 0, 'volt': 0.9668, 'depth': 2.606, 'time': 8, 'pitch': -0.77, 'roll': -3.87, 'pres': 198}
{'lipoC2': 7.49, 'lipoC3S1': 4.12, 'temp': 30.5, 'lipoC3S3': 12.46, 'lipoC3S2': 8.23, 'rot1': 0, 'rot0': 0, 'rot3': 0, 'rot2': 0, 'state': 'normal', 'yaw': -15.54, 'datetime': '2018-10-09 12:34:40.692344', 'mgs': 0, 'volt': 0.9668, 'depth': 2.606, 'time': 8, 'pitch': -1.45, 'roll': -4.29, 'pres': 198}
{'lipoC2': 7.49, 'lipoC3S1': 4.12, 'temp': 30.5, 'lipoC3S3': 12.46, 'lipoC3S2': 8.23, 'rot1': 0, 'rot0': 0, 'rot3': 0, 'rot2': 0, 'state': 'normal', 'yaw': -15.6, 'datetime': '2018-10-09 12:34:40.797068', 'mgs': 0, 'volt': 0.9717, 'depth': 2.682, 'time': 9, 'pitch': -2.68, 'roll': -4.39, 'pres': 199}
{'lipoC2': 7.49, 'lipoC3S1': 4.12, 'temp': 30.5, 'lipoC3S3': 12.45, 'lipoC3S2': 8.23, 'rot1': 0, 'rot0': 0, 'rot3': 0, 'rot2': 0, 'state': 'normal', 'yaw': -14.94, 'datetime': '2018-10-09 12:34:40.900497', 'mgs': 0, 'volt': 0.9668, 'depth': 2.606, 'time': 9, 'pitch': -3.05, 'roll': -4.45, 'pres': 198}
{'lipoC2': 7.49, 'lipoC3S1': 4.12, 'temp': 30.56, 'lipoC3S3': 12.46, 'lipoC3S2': 8.23, 'rot1': 0, 'rot0': 0, 'rot3': 0, 'rot2': 0, 'state': 'normal', 'yaw': -14.11, 'datetime': '2018-10-09 12:34:41.003328', 'mgs': 0, 'volt': 0.9717, 'depth': 2.682, 'time': 9, 'pitch': -2.88, 'roll': -4.45, 'pres': 199}
{'lipoC2': 7.48, 'lipoC3S1': 4.12, 'temp': 30.56, 'lipoC3S3': 12.46, 'lipoC3S2': 8.23, 'rot1': 0, 'rot0': 0, 'rot3': 0, 'rot2': 0, 'state': 'normal', 'yaw': -13.43, 'datetime': '2018-10-09 12:34:41.107849', 'mgs': 0, 'volt': 0.9717, 'depth': 2.682, 'time': 9, 'pitch': -2.87, 'roll': -4.2, 'pres': 199}
{'lipoC2': 7.48, 'lipoC3S1': 4.12, 'temp': 30.56, 'lipoC3S3': 12.46, 'lipoC3S2': 8.23, 'rot1': 0, 'rot0': 0, 'rot3': 0, 'rot2': 0, 'state': 'normal', 'yaw': -12.88, 'datetime': '2018-10-09 12:34:41.211130', 'mgs': 0, 'volt': 0.9668, 'depth': 2.606, 'time': 9, 'pitch': -3.03, 'roll': -3.68, 'pres': 198}
{'lipoC2': 7.48, 'lipoC3S1': 4.12, 'temp': 30.5, 'lipoC3S3': 12.46, 'lipoC3S2': 8.23, 'rot1': 0, 'rot0': 0, 'rot3': 0, 'rot2': 0, 'state': 'normal', 'yaw': -12.65, 'datetime': '2018-10-09 12:34:41.314413', 'mgs': 0, 'volt': 0.9717, 'depth': 2.682, 'time': 9, 'pitch': -3.19, 'roll': -3.01, 'pres': 199}
{'lipoC2': 7.49, 'lipoC3S1': 4.12, 'temp': 30.5, 'lipoC3S3': 12.46, 'lipoC3S2': 8.23, 'rot1': 0, 'rot0': 0, 'rot3': 0, 'rot2': 0, 'state': 'normal', 'yaw': -12.39, 'datetime': '2018-10-09 12:34:41.417543', 'mgs': 0, 'volt': 0.9717, 'depth': 2.682, 'time': 9, 'pitch': -3.03, 'roll': -2.31, 'pres': 199}
{'lipoC2': 7.49, 'lipoC3S1': 4.12, 'temp': 30.5, 'lipoC3S3': 12.45, 'lipoC3S2': 8.23, 'rot1': 0, 'rot0': 0, 'rot3': 0, 'rot2': 0, 'state': 'normal', 'yaw': -11.92, 'datetime': '2018-10-09 12:34:41.521187', 'mgs': 0, 'volt': 0.9717, 'depth': 2.682, 'time': 9, 'pitch': -2.6, 'roll': -1.62, 'pres': 199}
{'lipoC2': 7.49, 'lipoC3S1': 4.12, 'temp': 30.5, 'lipoC3S3': 12.46, 'lipoC3S2': 8.23, 'rot1': 0, 'rot0': 0, 'rot3': 0, 'rot2': 0, 'state': 'normal', 'yaw': -11.21, 'datetime': '2018-10-09 12:34:41.624323', 'mgs': 0, 'volt': 0.9717, 'depth': 2.682, 'time': 9, 'pitch': -2.17, 'roll': -1.14, 'pres': 199}
{'lipoC2': 7.48, 'lipoC3S1': 4.12, 'temp': 30.5, 'lipoC3S3': 12.46, 'lipoC3S2': 8.23, 'rot1': 0, 'rot0': 0, 'rot3': 0, 'rot2': 0, 'state': 'normal', 'yaw': -10.26, 'datetime': '2018-10-09 12:34:41.727282', 'mgs': 0, 'volt': 0.9717, 'depth': 2.682, 'time': 9, 'pitch': -1.92, 'roll': -0.85, 'pres': 199}
{'lipoC2': 7.48, 'lipoC3S1': 4.12, 'temp': 30.5, 'lipoC3S3': 12.46, 'lipoC3S2': 8.23, 'rot1': 0, 'rot0': 0, 'rot3': 0, 'rot2': 0, 'state': 'normal', 'yaw': -9.4, 'datetime': '2018-10-09 12:34:41.830943', 'mgs': 0, 'volt': 0.9766, 'depth': 2.759, 'time': 10, 'pitch': -2.3, 'roll': -0.48, 'pres': 200}
{'lipoC2': 7.48, 'lipoC3S1': 4.12, 'temp': 30.5, 'lipoC3S3': 12.45, 'lipoC3S2': 8.23, 'rot1': 0, 'rot0': 0, 'rot3': 0, 'rot2': 0, 'state': 'normal', 'yaw': -8.53, 'datetime': '2018-10-09 12:34:41.934419', 'mgs': 0, 'volt': 0.9766, 'depth': 2.759, 'time': 10, 'pitch': -2.65, 'roll': -0.24, 'pres': 200}
{'lipoC2': 7.49, 'lipoC3S1': 4.12, 'temp': 30.5, 'lipoC3S3': 12.45, 'lipoC3S2': 8.23, 'rot1': 0, 'rot0': 0, 'rot3': 0, 'rot2': 0, 'state': 'normal', 'yaw': -7.65, 'datetime': '2018-10-09 12:34:42.037790', 'mgs': 0, 'volt': 0.9717, 'depth': 2.682, 'time': 10, 'pitch': -2.97, 'roll': -0.02, 'pres': 199}
{'lipoC2': 7.49, 'lipoC3S1': 4.12, 'temp': 30.5, 'lipoC3S3': 12.45, 'lipoC3S2': 8.23, 'rot1': 0, 'rot0': 0, 'rot3': 0, 'rot2': 0, 'state': 'normal', 'yaw': -6.77, 'datetime': '2018-10-09 12:34:42.141194', 'mgs': 0, 'volt': 0.9717, 'depth': 2.682, 'time': 10, 'pitch': -3.19, 'roll': 0.14, 'pres': 199}
{'lipoC2': 7.49, 'lipoC3S1': 4.12, 'temp': 30.5, 'lipoC3S3': 12.45, 'lipoC3S2': 8.23, 'rot1': 0, 'rot0': 0, 'rot3': 0, 'rot2': 0, 'state': 'normal', 'yaw': -5.8, 'datetime': '2018-10-09 12:34:42.244664', 'mgs': 0, 'volt': 0.9717, 'depth': 2.682, 'time': 10, 'pitch': -3.19, 'roll': 0.22, 'pres': 199}
{'lipoC2': 7.48, 'lipoC3S1': 4.12, 'temp': 30.5, 'lipoC3S3': 12.46, 'lipoC3S2': 8.23, 'rot1': 0, 'rot0': 0, 'rot3': 0, 'rot2': 0, 'state': 'normal', 'yaw': -4.89, 'datetime': '2018-10-09 12:34:42.350300', 'mgs': 0, 'volt': 0.9717, 'depth': 2.682, 'time': 10, 'pitch': -2.85, 'roll': 0.14, 'pres': 199}
{'lipoC2': 7.48, 'lipoC3S1': 4.12, 'temp': 30.5, 'lipoC3S3': 12.46, 'lipoC3S2': 8.23, 'rot1': 0, 'rot0': 0, 'rot3': 0, 'rot2': 0, 'state': 'normal', 'yaw': -3.9, 'datetime': '2018-10-09 12:34:42.447628', 'mgs': 0, 'volt': 0.9717, 'depth': 2.682, 'time': 10, 'pitch': -2.09, 'roll': -0.14, 'pres': 199}
{'lipoC2': 7.49, 'lipoC3S1': 4.12, 'temp': 30.5, 'lipoC3S3': 12.46, 'lipoC3S2': 8.23, 'rot1': 0, 'rot0': 0, 'rot3': 0, 'rot2': 0, 'state': 'normal', 'yaw': -3.2, 'datetime': '2018-10-09 12:34:42.555839', 'mgs': 0, 'volt': 0.9717, 'depth': 2.682, 'time': 10, 'pitch': -1.18, 'roll': -0.43, 'pres': 199}
{'lipoC2': 7.48, 'lipoC3S1': 4.12, 'temp': 30.5, 'lipoC3S3': 12.46, 'lipoC3S2': 8.23, 'rot1': 0, 'rot0': 0, 'rot3': 0, 'rot2': 0, 'state': 'normal', 'yaw': -3.24, 'datetime': '2018-10-09 12:34:42.660713', 'mgs': 0, 'volt': 0.9717, 'depth': 2.682, 'time': 10, 'pitch': -0.64, 'roll': -0.63, 'pres': 199}
{'lipoC2': 7.48, 'lipoC3S1': 4.12, 'temp': 30.56, 'lipoC3S3': 12.46, 'lipoC3S2': 8.23, 'rot1': 0, 'rot0': 0, 'rot3': 0, 'rot2': 0, 'state': 'normal', 'yaw': -3.57, 'datetime': '2018-10-09 12:34:42.763922', 'mgs': 0, 'volt': 0.9668, 'depth': 2.606, 'time': 10, 'pitch': -0.43, 'roll': -0.73, 'pres': 198}
{'lipoC2': 7.48, 'lipoC3S1': 4.12, 'temp': 30.56, 'lipoC3S3': 12.45, 'lipoC3S2': 8.23, 'rot1': 0, 'rot0': 0, 'rot3': 0, 'rot2': 0, 'state': 'normal', 'yaw': -3.66, 'datetime': '2018-10-09 12:34:42.867498', 'mgs': 0, 'volt': 0.9717, 'depth': 2.682, 'time': 11, 'pitch': -0.92, 'roll': -1.09, 'pres': 199}
{'lipoC2': 7.49, 'lipoC3S1': 4.12, 'temp': 30.5, 'lipoC3S3': 12.46, 'lipoC3S2': 8.23, 'rot1': 0, 'rot0': 0, 'rot3': 0, 'rot2': 0, 'state': 'normal', 'yaw': -3.39, 'datetime': '2018-10-09 12:34:42.970815', 'mgs': 0, 'volt': 0.9717, 'depth': 2.682, 'time': 11, 'pitch': -1.37, 'roll': -1.49, 'pres': 199}
{'lipoC2': 7.49, 'lipoC3S1': 4.12, 'temp': 30.5, 'lipoC3S3': 12.46, 'lipoC3S2': 8.23, 'rot1': 0, 'rot0': 0, 'rot3': 0, 'rot2': 0, 'state': 'normal', 'yaw': -3.16, 'datetime': '2018-10-09 12:34:43.074289', 'mgs': 0, 'volt': 0.9668, 'depth': 2.606, 'time': 11, 'pitch': -1.07, 'roll': -2.43, 'pres': 198}
{'lipoC2': 7.49, 'lipoC3S1': 4.12, 'temp': 30.56, 'lipoC3S3': 12.46, 'lipoC3S2': 8.23, 'rot1': 0, 'rot0': 0, 'rot3': 0, 'rot2': 0, 'state': 'normal', 'yaw': -3.21, 'datetime': '2018-10-09 12:34:43.177500', 'mgs': 0, 'volt': 0.9619, 'depth': 2.53, 'time': 11, 'pitch': -0.34, 'roll': -3.57, 'pres': 197}
{'lipoC2': 7.49, 'lipoC3S1': 4.12, 'temp': 30.56, 'lipoC3S3': 12.46, 'lipoC3S2': 8.23, 'rot1': 0, 'rot0': 0, 'rot3': 0, 'rot2': 0, 'state': 'normal', 'yaw': -3.85, 'datetime': '2018-10-09 12:34:43.280631', 'mgs': 0, 'volt': 0.9619, 'depth': 2.53, 'time': 11, 'pitch': 0.54, 'roll': -4.78, 'pres': 197}
{'lipoC2': 7.49, 'lipoC3S1': 4.12, 'temp': 30.56, 'lipoC3S3': 12.46, 'lipoC3S2': 8.23, 'rot1': 0, 'rot0': 0, 'rot3': 0, 'rot2': 0, 'state': 'normal', 'yaw': -5.07, 'datetime': '2018-10-09 12:34:43.384192', 'mgs': 0, 'volt': 0.9619, 'depth': 2.53, 'time': 11, 'pitch': 1.37, 'roll': -5.75, 'pres': 197}
{'lipoC2': 7.48, 'lipoC3S1': 4.12, 'temp': 30.5, 'lipoC3S3': 12.46, 'lipoC3S2': 8.23, 'rot1': 0, 'rot0': 0, 'rot3': 0, 'rot2': 0, 'state': 'normal', 'yaw': -6.62, 'datetime': '2018-10-09 12:34:43.487632', 'mgs': 0, 'volt': 0.9619, 'depth': 2.53, 'time': 11, 'pitch': 1.61, 'roll': -6.72, 'pres': 197}
{'lipoC2': 7.48, 'lipoC3S1': 4.12, 'temp': 30.5, 'lipoC3S3': 12.46, 'lipoC3S2': 8.23, 'rot1': 0, 'rot0': 0, 'rot3': 0, 'rot2': 0, 'state': 'normal', 'yaw': -7.82, 'datetime': '2018-10-09 12:34:43.590839', 'mgs': 0, 'volt': 0.9619, 'depth': 2.53, 'time': 11, 'pitch': 1.29, 'roll': -7.26, 'pres': 197}
{'lipoC2': 7.49, 'lipoC3S1': 4.12, 'temp': 30.5, 'lipoC3S3': 12.45, 'lipoC3S2': 8.23, 'rot1': 0, 'rot0': 0, 'rot3': 0, 'rot2': 0, 'state': 'normal', 'yaw': -8.9, 'datetime': '2018-10-09 12:34:43.694558', 'mgs': 0, 'volt': 0.957, 'depth': 2.454, 'time': 11, 'pitch': 0.6, 'roll': -7.5, 'pres': 196}
{'lipoC2': 7.49, 'lipoC3S1': 4.12, 'temp': 30.5, 'lipoC3S3': 12.46, 'lipoC3S2': 8.23, 'rot1': 0, 'rot0': 0, 'rot3': 0, 'rot2': 0, 'state': 'normal', 'yaw': -10.29, 'datetime': '2018-10-09 12:34:43.798175', 'mgs': 0, 'volt': 0.9521, 'depth': 2.377, 'time': 11, 'pitch': -0.3, 'roll': -7.37, 'pres': 195}
{'lipoC2': 7.49, 'lipoC3S1': 4.12, 'temp': 30.56, 'lipoC3S3': 12.46, 'lipoC3S2': 8.23, 'rot1': 0, 'rot0': 0, 'rot3': 0, 'rot2': 0, 'state': 'normal', 'yaw': -11.72, 'datetime': '2018-10-09 12:34:43.900957', 'mgs': 0, 'volt': 0.9521, 'depth': 2.377, 'time': 12, 'pitch': -1.05, 'roll': -6.96, 'pres': 195}
{'lipoC2': 7.48, 'lipoC3S1': 4.12, 'temp': 30.56, 'lipoC3S3': 12.46, 'lipoC3S2': 8.23, 'rot1': 0, 'rot0': 0, 'rot3': 0, 'rot2': 0, 'state': 'normal', 'yaw': -13.14, 'datetime': '2018-10-09 12:34:44.005983', 'mgs': 0, 'volt': 0.9521, 'depth': 2.377, 'time': 12, 'pitch': -1.97, 'roll': -6.28, 'pres': 195}
{'lipoC2': 7.49, 'lipoC3S1': 4.12, 'temp': 30.56, 'lipoC3S3': 12.45, 'lipoC3S2': 8.23, 'rot1': 0, 'rot0': 0, 'rot3': 0, 'rot2': 0, 'state': 'normal', 'yaw': -13.8, 'datetime': '2018-10-09 12:34:44.109562', 'mgs': 0, 'volt': 0.9521, 'depth': 2.377, 'time': 12, 'pitch': -2.8, 'roll': -5.6, 'pres': 195}
{'lipoC2': 7.49, 'lipoC3S1': 4.12, 'temp': 30.5, 'lipoC3S3': 12.46, 'lipoC3S2': 8.23, 'rot1': 0, 'rot0': 0, 'rot3': 0, 'rot2': 0, 'state': 'normal', 'yaw': -13.7, 'datetime': '2018-10-09 12:34:44.213883', 'mgs': 0, 'volt': 0.9521, 'depth': 2.377, 'time': 12, 'pitch': -3.34, 'roll': -5.05, 'pres': 195}
{'lipoC2': 7.48, 'lipoC3S1': 4.12, 'temp': 30.5, 'lipoC3S3': 12.45, 'lipoC3S2': 8.23, 'rot1': 0, 'rot0': 0, 'rot3': 0, 'rot2': 0, 'state': 'normal', 'yaw': -12.98, 'datetime': '2018-10-09 12:34:44.317298', 'mgs': 0, 'volt': 0.9473, 'depth': 2.301, 'time': 12, 'pitch': -3.92, 'roll': -4.51, 'pres': 194}
{'lipoC2': 7.49, 'lipoC3S1': 4.12, 'temp': 30.56, 'lipoC3S3': 12.45, 'lipoC3S2': 8.23, 'rot1': 0, 'rot0': 0, 'rot3': 0, 'rot2': 0, 'state': 'normal', 'yaw': -12.07, 'datetime': '2018-10-09 12:34:44.420798', 'mgs': 0, 'volt': 0.9473, 'depth': 2.301, 'time': 12, 'pitch': -4.38, 'roll': -4.04, 'pres': 194}
{'lipoC2': 7.48, 'lipoC3S1': 4.12, 'temp': 30.56, 'lipoC3S3': 12.46, 'lipoC3S2': 8.23, 'rot1': 0, 'rot0': 0, 'rot3': 0, 'rot2': 0, 'state': 'normal', 'yaw': -11.1, 'datetime': '2018-10-09 12:34:44.524137', 'mgs': 0, 'volt': 0.9424, 'depth': 2.225, 'time': 12, 'pitch': -4.6, 'roll': -3.68, 'pres': 193}
{'lipoC2': 7.48, 'lipoC3S1': 4.12, 'temp': 30.56, 'lipoC3S3': 12.45, 'lipoC3S2': 8.23, 'rot1': 0, 'rot0': 0, 'rot3': 0, 'rot2': 0, 'state': 'normal', 'yaw': -10.14, 'datetime': '2018-10-09 12:34:44.627269', 'mgs': 0, 'volt': 0.9424, 'depth': 2.225, 'time': 12, 'pitch': -4.88, 'roll': -3.33, 'pres': 193}
{'lipoC2': 7.48, 'lipoC3S1': 4.12, 'temp': 30.56, 'lipoC3S3': 12.46, 'lipoC3S2': 8.23, 'rot1': 0, 'rot0': 0, 'rot3': 0, 'rot2': 0, 'state': 'normal', 'yaw': -9.44, 'datetime': '2018-10-09 12:34:44.730582', 'mgs': 0, 'volt': 0.9424, 'depth': 2.225, 'time': 12, 'pitch': -5.18, 'roll': -2.98, 'pres': 193}
{'lipoC2': 7.49, 'lipoC3S1': 4.12, 'temp': 30.56, 'lipoC3S3': 12.45, 'lipoC3S2': 8.23, 'rot1': 0, 'rot0': 0, 'rot3': 0, 'rot2': 0, 'state': 'normal', 'yaw': -8.92, 'datetime': '2018-10-09 12:34:44.834027', 'mgs': 0, 'volt': 0.9375, 'depth': 2.148, 'time': 13, 'pitch': -5.67, 'roll': -2.57, 'pres': 192}
{'lipoC2': 7.49, 'lipoC3S1': 4.12, 'temp': 30.56, 'lipoC3S3': 12.46, 'lipoC3S2': 8.23, 'rot1': 0, 'rot0': 0, 'rot3': 0, 'rot2': 0, 'state': 'normal', 'yaw': -8.5, 'datetime': '2018-10-09 12:34:44.937346', 'mgs': 0, 'volt': 0.9375, 'depth': 2.148, 'time': 13, 'pitch': -6.44, 'roll': -2.06, 'pres': 192}
{'lipoC2': 7.49, 'lipoC3S1': 4.12, 'temp': 30.56, 'lipoC3S3': 12.46, 'lipoC3S2': 8.23, 'rot1': 0, 'rot0': 0, 'rot3': 0, 'rot2': 0, 'state': 'normal', 'yaw': -8.39, 'datetime': '2018-10-09 12:34:45.040995', 'mgs': 0, 'volt': 0.9326, 'depth': 2.072, 'time': 13, 'pitch': -7.47, 'roll': -1.45, 'pres': 191}
{'lipoC2': 7.49, 'lipoC3S1': 4.12, 'temp': 30.56, 'lipoC3S3': 12.46, 'lipoC3S2': 8.23, 'rot1': 0, 'rot0': 0, 'rot3': 0, 'rot2': 0, 'state': 'normal', 'yaw': -8.43, 'datetime': '2018-10-09 12:34:45.144152', 'mgs': 0, 'volt': 0.9326, 'depth': 2.072, 'time': 13, 'pitch': -8.64, 'roll': -0.72, 'pres': 191}
{'lipoC2': 7.49, 'lipoC3S1': 4.12, 'temp': 30.56, 'lipoC3S3': 12.45, 'lipoC3S2': 8.23, 'rot1': 0, 'rot0': 0, 'rot3': 0, 'rot2': 0, 'state': 'normal', 'yaw': -8.41, 'datetime': '2018-10-09 12:34:45.247888', 'mgs': 0, 'volt': 0.9277, 'depth': 1.996, 'time': 13, 'pitch': -9.52, 'roll': -0.15, 'pres': 190}
{'lipoC2': 7.49, 'lipoC3S1': 4.12, 'temp': 30.56, 'lipoC3S3': 12.46, 'lipoC3S2': 8.23, 'rot1': 0, 'rot0': 0, 'rot3': 0, 'rot2': 0, 'state': 'normal', 'yaw': -8.16, 'datetime': '2018-10-09 12:34:45.351781', 'mgs': 0, 'volt': 0.9277, 'depth': 1.996, 'time': 13, 'pitch': -9.83, 'roll': 0.04, 'pres': 190}
{'lipoC2': 7.49, 'lipoC3S1': 4.12, 'temp': 30.56, 'lipoC3S3': 12.46, 'lipoC3S2': 8.23, 'rot1': 0, 'rot0': 0, 'rot3': 0, 'rot2': 0, 'state': 'normal', 'yaw': -7.62, 'datetime': '2018-10-09 12:34:45.456168', 'mgs': 0, 'volt': 0.9277, 'depth': 1.996, 'time': 13, 'pitch': -9.54, 'roll': -0.26, 'pres': 190}
{'lipoC2': 7.49, 'lipoC3S1': 4.12, 'temp': 30.56, 'lipoC3S3': 12.46, 'lipoC3S2': 8.23, 'rot1': 0, 'rot0': 0, 'rot3': 0, 'rot2': 0, 'state': 'normal', 'yaw': -6.56, 'datetime': '2018-10-09 12:34:45.559236', 'mgs': 0, 'volt': 0.918, 'depth': 1.843, 'time': 13, 'pitch': -8.44, 'roll': -1.08, 'pres': 188}
{'lipoC2': 7.49, 'lipoC3S1': 4.12, 'temp': 30.5, 'lipoC3S3': 12.46, 'lipoC3S2': 8.23, 'rot1': 0, 'rot0': 0, 'rot3': 0, 'rot2': 0, 'state': 'normal', 'yaw': -5.49, 'datetime': '2018-10-09 12:34:45.662525', 'mgs': 0, 'volt': 0.918, 'depth': 1.843, 'time': 13, 'pitch': -7.31, 'roll': -1.96, 'pres': 188}
{'lipoC2': 7.49, 'lipoC3S1': 4.12, 'temp': 30.5, 'lipoC3S3': 12.45, 'lipoC3S2': 8.23, 'rot1': 0, 'rot0': 0, 'rot3': 0, 'rot2': 0, 'state': 'normal', 'yaw': -4.49, 'datetime': '2018-10-09 12:34:45.767292', 'mgs': 0, 'volt': 0.918, 'depth': 1.843, 'time': 13, 'pitch': -6.32, 'roll': -2.74, 'pres': 188}
{'lipoC2': 7.49, 'lipoC3S1': 4.12, 'temp': 30.56, 'lipoC3S3': 12.45, 'lipoC3S2': 8.23, 'rot1': 0, 'rot0': 0, 'rot3': 0, 'rot2': 0, 'state': 'normal', 'yaw': -3.55, 'datetime': '2018-10-09 12:34:45.870645', 'mgs': 0, 'volt': 0.918, 'depth': 1.843, 'time': 14, 'pitch': -5.62, 'roll': -3.41, 'pres': 188}
{'lipoC2': 7.49, 'lipoC3S1': 4.12, 'temp': 30.56, 'lipoC3S3': 12.45, 'lipoC3S2': 8.23, 'rot1': 0, 'rot0': 0, 'rot3': 0, 'rot2': 0, 'state': 'normal', 'yaw': -3.09, 'datetime': '2018-10-09 12:34:45.973903', 'mgs': 0, 'volt': 0.9131, 'depth': 1.767, 'time': 14, 'pitch': -5.22, 'roll': -3.77, 'pres': 187}
{'lipoC2': 7.49, 'lipoC3S1': 4.12, 'temp': 30.5, 'lipoC3S3': 12.46, 'lipoC3S2': 8.23, 'rot1': 0, 'rot0': 0, 'rot3': 0, 'rot2': 0, 'state': 'normal', 'yaw': -3.28, 'datetime': '2018-10-09 12:34:46.077262', 'mgs': 0, 'volt': 0.918, 'depth': 1.843, 'time': 14, 'pitch': -4.7, 'roll': -3.84, 'pres': 188}
{'lipoC2': 7.49, 'lipoC3S1': 4.12, 'temp': 30.5, 'lipoC3S3': 12.45, 'lipoC3S2': 8.23, 'rot1': 0, 'rot0': 0, 'rot3': 0, 'rot2': 0, 'state': 'normal', 'yaw': -4.14, 'datetime': '2018-10-09 12:34:46.180571', 'mgs': 0, 'volt': 0.9131, 'depth': 1.767, 'time': 14, 'pitch': -3.81, 'roll': -3.65, 'pres': 187}
{'lipoC2': 7.49, 'lipoC3S1': 4.12, 'temp': 30.5, 'lipoC3S3': 12.46, 'lipoC3S2': 8.23, 'rot1': 0, 'rot0': 0, 'rot3': 0, 'rot2': 0, 'state': 'normal', 'yaw': -5.28, 'datetime': '2018-10-09 12:34:46.283849', 'mgs': 0, 'volt': 0.9131, 'depth': 1.767, 'time': 14, 'pitch': -2.74, 'roll': -3.23, 'pres': 187}
{'lipoC2': 7.49, 'lipoC3S1': 4.12, 'temp': 30.5, 'lipoC3S3': 12.45, 'lipoC3S2': 8.23, 'rot1': 0, 'rot0': 0, 'rot3': 0, 'rot2': 0, 'state': 'normal', 'yaw': -6.73, 'datetime': '2018-10-09 12:34:46.387194', 'mgs': 0, 'volt': 0.9131, 'depth': 1.767, 'time': 14, 'pitch': -1.7, 'roll': -2.52, 'pres': 187}
{'lipoC2': 7.49, 'lipoC3S1': 4.12, 'temp': 30.5, 'lipoC3S3': 12.46, 'lipoC3S2': 8.23, 'rot1': 0, 'rot0': 0, 'rot3': 0, 'rot2': 0, 'state': 'normal', 'yaw': -8.69, 'datetime': '2018-10-09 12:34:46.490625', 'mgs': 0, 'volt': 0.9131, 'depth': 1.767, 'time': 14, 'pitch': -0.85, 'roll': -1.43, 'pres': 187}
{'lipoC2': 7.49, 'lipoC3S1': 4.12, 'temp': 30.56, 'lipoC3S3': 12.46, 'lipoC3S2': 8.23, 'rot1': 0, 'rot0': 0, 'rot3': 0, 'rot2': 0, 'state': 'normal', 'yaw': -10.62, 'datetime': '2018-10-09 12:34:46.594055', 'mgs': 0, 'volt': 0.9131, 'depth': 1.767, 'time': 14, 'pitch': -0.61, 'roll': -0.31, 'pres': 187}
{'lipoC2': 7.49, 'lipoC3S1': 4.12, 'temp': 30.56, 'lipoC3S3': 12.45, 'lipoC3S2': 8.23, 'rot1': 0, 'rot0': 0, 'rot3': 0, 'rot2': 0, 'state': 'normal', 'yaw': -12.44, 'datetime': '2018-10-09 12:34:46.697447', 'mgs': 0, 'volt': 0.9131, 'depth': 1.767, 'time': 14, 'pitch': -0.64, 'roll': 0.68, 'pres': 187}
{'lipoC2': 7.49, 'lipoC3S1': 4.12, 'temp': 30.5, 'lipoC3S3': 12.45, 'lipoC3S2': 8.23, 'rot1': 0, 'rot0': 0, 'rot3': 0, 'rot2': 0, 'state': 'normal', 'yaw': -14.0, 'datetime': '2018-10-09 12:34:46.801308', 'mgs': 0, 'volt': 0.9082, 'depth': 1.691, 'time': 14, 'pitch': -0.68, 'roll': 1.31, 'pres': 186}
{'lipoC2': 7.48, 'lipoC3S1': 4.12, 'temp': 30.5, 'lipoC3S3': 12.46, 'lipoC3S2': 8.23, 'rot1': 0, 'rot0': 0, 'rot3': 0, 'rot2': 0, 'state': 'normal', 'yaw': -15.35, 'datetime': '2018-10-09 12:34:46.904961', 'mgs': 0, 'volt': 0.9082, 'depth': 1.691, 'time': 15, 'pitch': -0.64, 'roll': 1.43, 'pres': 186}
{'lipoC2': 7.49, 'lipoC3S1': 4.12, 'temp': 30.5, 'lipoC3S3': 12.45, 'lipoC3S2': 8.23, 'rot1': 0, 'rot0': 0, 'rot3': 0, 'rot2': 0, 'state': 'normal', 'yaw': -16.31, 'datetime': '2018-10-09 12:34:47.009370', 'mgs': 0, 'volt': 0.9082, 'depth': 1.691, 'time': 15, 'pitch': -0.45, 'roll': 1.07, 'pres': 186}
{'lipoC2': 7.49, 'lipoC3S1': 4.12, 'temp': 30.5, 'lipoC3S3': 12.45, 'lipoC3S2': 8.23, 'rot1': 0, 'rot0': 0, 'rot3': 0, 'rot2': 0, 'state': 'normal', 'yaw': -17.11, 'datetime': '2018-10-09 12:34:47.112709', 'mgs': 0, 'volt': 0.9082, 'depth': 1.691, 'time': 15, 'pitch': -0.49, 'roll': 0.37, 'pres': 186}
{'lipoC2': 7.48, 'lipoC3S1': 4.12, 'temp': 30.5, 'lipoC3S3': 12.46, 'lipoC3S2': 8.23, 'rot1': 0, 'rot0': 0, 'rot3': 0, 'rot2': 0, 'state': 'normal', 'yaw': -17.58, 'datetime': '2018-10-09 12:34:47.216180', 'mgs': 0, 'volt': 0.9033, 'depth': 1.614, 'time': 15, 'pitch': -0.77, 'roll': -0.31, 'pres': 185}
{'lipoC2': 7.48, 'lipoC3S1': 4.12, 'temp': 30.5, 'lipoC3S3': 12.45, 'lipoC3S2': 8.23, 'rot1': 0, 'rot0': 0, 'rot3': 0, 'rot2': 0, 'state': 'normal', 'yaw': -17.92, 'datetime': '2018-10-09 12:34:47.320531', 'mgs': 0, 'volt': 0.9033, 'depth': 1.614, 'time': 15, 'pitch': -1.39, 'roll': -0.9, 'pres': 185}
{'lipoC2': 7.49, 'lipoC3S1': 4.12, 'temp': 30.5, 'lipoC3S3': 12.45, 'lipoC3S2': 8.23, 'rot1': 0, 'rot0': 0, 'rot3': 0, 'rot2': 0, 'state': 'normal', 'yaw': -18.22, 'datetime': '2018-10-09 12:34:47.424123', 'mgs': 0, 'volt': 0.8984, 'depth': 1.538, 'time': 15, 'pitch': -2.26, 'roll': -1.46, 'pres': 184}
{'lipoC2': 7.49, 'lipoC3S1': 4.12, 'temp': 30.56, 'lipoC3S3': 12.46, 'lipoC3S2': 8.23, 'rot1': 0, 'rot0': 0, 'rot3': 0, 'rot2': 0, 'state': 'normal', 'yaw': -18.52, 'datetime': '2018-10-09 12:34:47.527291', 'mgs': 0, 'volt': 0.8984, 'depth': 1.538, 'time': 15, 'pitch': -2.9, 'roll': -1.92, 'pres': 184}
{'lipoC2': 7.48, 'lipoC3S1': 4.12, 'temp': 30.56, 'lipoC3S3': 12.45, 'lipoC3S2': 8.23, 'rot1': 0, 'rot0': 0, 'rot3': 0, 'rot2': 0, 'state': 'normal', 'yaw': -18.93, 'datetime': '2018-10-09 12:34:47.630467', 'mgs': 0, 'volt': 0.8936, 'depth': 1.462, 'time': 15, 'pitch': -3.15, 'roll': -2.33, 'pres': 183}
{'lipoC2': 7.49, 'lipoC3S1': 4.12, 'temp': 30.56, 'lipoC3S3': 12.46, 'lipoC3S2': 8.23, 'rot1': 0, 'rot0': 0, 'rot3': 0, 'rot2': 0, 'state': 'normal', 'yaw': -19.49, 'datetime': '2018-10-09 12:34:47.733980', 'mgs': 0, 'volt': 0.8887, 'depth': 1.385, 'time': 15, 'pitch': -2.87, 'roll': -2.7, 'pres': 182}
{'lipoC2': 7.48, 'lipoC3S1': 4.12, 'temp': 30.5, 'lipoC3S3': 12.45, 'lipoC3S2': 8.23, 'rot1': 0, 'rot0': 0, 'rot3': 0, 'rot2': 0, 'state': 'normal', 'yaw': -19.87, 'datetime': '2018-10-09 12:34:47.837773', 'mgs': 0, 'volt': 0.8887, 'depth': 1.385, 'time': 16, 'pitch': -2.32, 'roll': -3.01, 'pres': 182}
{'lipoC2': 7.48, 'lipoC3S1': 4.12, 'temp': 30.5, 'lipoC3S3': 12.45, 'lipoC3S2': 8.23, 'rot1': 0, 'rot0': 0, 'rot3': 0, 'rot2': 0, 'state': 'normal', 'yaw': -20.16, 'datetime': '2018-10-09 12:34:47.940580', 'mgs': 0, 'volt': 0.8887, 'depth': 1.385, 'time': 16, 'pitch': -1.76, 'roll': -3.28, 'pres': 182}
{'lipoC2': 7.48, 'lipoC3S1': 4.12, 'temp': 30.5, 'lipoC3S3': 12.45, 'lipoC3S2': 8.23, 'rot1': 0, 'rot0': 0, 'rot3': 0, 'rot2': 0, 'state': 'normal', 'yaw': -20.56, 'datetime': '2018-10-09 12:34:48.044299', 'mgs': 0, 'volt': 0.8887, 'depth': 1.385, 'time': 16, 'pitch': -1.57, 'roll': -3.42, 'pres': 182}
{'lipoC2': 7.48, 'lipoC3S1': 4.12, 'temp': 30.5, 'lipoC3S3': 12.46, 'lipoC3S2': 8.23, 'rot1': 0, 'rot0': 0, 'rot3': 0, 'rot2': 0, 'state': 'normal', 'yaw': -21.08, 'datetime': '2018-10-09 12:34:48.147617', 'mgs': 0, 'volt': 0.8887, 'depth': 1.385, 'time': 16, 'pitch': -1.8, 'roll': -3.36, 'pres': 182}
{'lipoC2': 7.49, 'lipoC3S1': 4.12, 'temp': 30.5, 'lipoC3S3': 12.46, 'lipoC3S2': 8.23, 'rot1': 0, 'rot0': 0, 'rot3': 0, 'rot2': 0, 'state': 'normal', 'yaw': -21.65, 'datetime': '2018-10-09 12:34:48.250950', 'mgs': 0, 'volt': 0.8838, 'depth': 1.309, 'time': 16, 'pitch': -2.29, 'roll': -3.13, 'pres': 181}
{'lipoC2': 7.48, 'lipoC3S1': 4.12, 'temp': 30.56, 'lipoC3S3': 12.46, 'lipoC3S2': 8.23, 'rot1': 0, 'rot0': 0, 'rot3': 0, 'rot2': 0, 'state': 'normal', 'yaw': -22.37, 'datetime': '2018-10-09 12:34:48.354646', 'mgs': 0, 'volt': 0.8838, 'depth': 1.309, 'time': 16, 'pitch': -2.98, 'roll': -2.76, 'pres': 181}
{'lipoC2': 7.48, 'lipoC3S1': 4.12, 'temp': 30.56, 'lipoC3S3': 12.46, 'lipoC3S2': 8.23, 'rot1': 0, 'rot0': 0, 'rot3': 0, 'rot2': 0, 'state': 'normal', 'yaw': -23.36, 'datetime': '2018-10-09 12:34:48.458005', 'mgs': 0, 'volt': 0.8887, 'depth': 1.385, 'time': 16, 'pitch': -3.74, 'roll': -2.27, 'pres': 182}
{'lipoC2': 7.48, 'lipoC3S1': 4.12, 'temp': 30.56, 'lipoC3S3': 12.46, 'lipoC3S2': 8.23, 'rot1': 0, 'rot0': 0, 'rot3': 0, 'rot2': 0, 'state': 'normal', 'yaw': -24.3, 'datetime': '2018-10-09 12:34:48.562617', 'mgs': 0, 'volt': 0.8887, 'depth': 1.385, 'time': 16, 'pitch': -4.0, 'roll': -1.84, 'pres': 182}
{'lipoC2': 7.48, 'lipoC3S1': 4.12, 'temp': 30.56, 'lipoC3S3': 12.45, 'lipoC3S2': 8.23, 'rot1': 0, 'rot0': 0, 'rot3': 0, 'rot2': 0, 'state': 'normal', 'yaw': -25.15, 'datetime': '2018-10-09 12:34:48.665886', 'mgs': 0, 'volt': 0.8838, 'depth': 1.309, 'time': 16, 'pitch': -3.93, 'roll': -1.5, 'pres': 181}
{'lipoC2': 7.48, 'lipoC3S1': 4.12, 'temp': 30.5, 'lipoC3S3': 12.46, 'lipoC3S2': 8.23, 'rot1': 0, 'rot0': 0, 'rot3': 0, 'rot2': 0, 'state': 'normal', 'yaw': -25.87, 'datetime': '2018-10-09 12:34:48.769271', 'mgs': 0, 'volt': 0.8838, 'depth': 1.309, 'time': 16, 'pitch': -4.11, 'roll': -1.19, 'pres': 181}
{'lipoC2': 7.49, 'lipoC3S1': 4.12, 'temp': 30.5, 'lipoC3S3': 12.45, 'lipoC3S2': 8.23, 'rot1': 0, 'rot0': 0, 'rot3': 0, 'rot2': 0, 'state': 'normal', 'yaw': -26.54, 'datetime': '2018-10-09 12:34:48.873922', 'mgs': 0, 'volt': 0.8887, 'depth': 1.385, 'time': 17, 'pitch': -4.6, 'roll': -0.81, 'pres': 182}
{'lipoC2': 7.48, 'lipoC3S1': 4.12, 'temp': 30.5, 'lipoC3S3': 12.46, 'lipoC3S2': 8.23, 'rot1': 0, 'rot0': 0, 'rot3': 0, 'rot2': 0, 'state': 'normal', 'yaw': -27.06, 'datetime': '2018-10-09 12:34:48.976986', 'mgs': 0, 'volt': 0.8887, 'depth': 1.385, 'time': 17, 'pitch': -5.14, 'roll': -0.35, 'pres': 182}
{'lipoC2': 7.48, 'lipoC3S1': 4.12, 'temp': 30.5, 'lipoC3S3': 12.46, 'lipoC3S2': 8.23, 'rot1': 0, 'rot0': 0, 'rot3': 0, 'rot2': 0, 'state': 'normal', 'yaw': -27.39, 'datetime': '2018-10-09 12:34:49.080514', 'mgs': 0, 'volt': 0.8838, 'depth': 1.309, 'time': 17, 'pitch': -5.51, 'roll': 0.04, 'pres': 181}
{'lipoC2': 7.48, 'lipoC3S1': 4.12, 'temp': 30.5, 'lipoC3S3': 12.46, 'lipoC3S2': 8.23, 'rot1': 0, 'rot0': 0, 'rot3': 0, 'rot2': 0, 'state': 'normal', 'yaw': -27.64, 'datetime': '2018-10-09 12:34:49.183776', 'mgs': 0, 'volt': 0.8887, 'depth': 1.385, 'time': 17, 'pitch': -5.79, 'roll': 0.3, 'pres': 182}
{'lipoC2': 7.48, 'lipoC3S1': 4.12, 'temp': 30.5, 'lipoC3S3': 12.45, 'lipoC3S2': 8.23, 'rot1': 0, 'rot0': 0, 'rot3': 0, 'rot2': 0, 'state': 'normal', 'yaw': -27.87, 'datetime': '2018-10-09 12:34:49.286991', 'mgs': 0, 'volt': 0.8887, 'depth': 1.385, 'time': 17, 'pitch': -5.97, 'roll': 0.19, 'pres': 182}
{'lipoC2': 7.48, 'lipoC3S1': 4.12, 'temp': 30.5, 'lipoC3S3': 12.45, 'lipoC3S2': 8.23, 'rot1': 0, 'rot0': 0, 'rot3': 0, 'rot2': 0, 'state': 'normal', 'yaw': -27.84, 'datetime': '2018-10-09 12:34:49.390483', 'mgs': 0, 'volt': 0.8838, 'depth': 1.309, 'time': 17, 'pitch': -5.84, 'roll': -0.4, 'pres': 181}
{'lipoC2': 7.48, 'lipoC3S1': 4.12, 'temp': 30.5, 'lipoC3S3': 12.45, 'lipoC3S2': 8.23, 'rot1': 0, 'rot0': 0, 'rot3': 0, 'rot2': 0, 'state': 'normal', 'yaw': -27.55, 'datetime': '2018-10-09 12:34:49.495923', 'mgs': 0, 'volt': 0.8887, 'depth': 1.385, 'time': 17, 'pitch': -5.36, 'roll': -1.39, 'pres': 182}
{'lipoC2': 7.48, 'lipoC3S1': 4.12, 'temp': 30.5, 'lipoC3S3': 12.45, 'lipoC3S2': 8.23, 'rot1': 0, 'rot0': 0, 'rot3': 0, 'rot2': 0, 'state': 'normal', 'yaw': -27.16, 'datetime': '2018-10-09 12:34:49.597252', 'mgs': 0, 'volt': 0.8887, 'depth': 1.385, 'time': 17, 'pitch': -4.95, 'roll': -2.44, 'pres': 182}
{'lipoC2': 7.48, 'lipoC3S1': 4.12, 'temp': 30.5, 'lipoC3S3': 12.45, 'lipoC3S2': 8.23, 'rot1': 0, 'rot0': 0, 'rot3': 0, 'rot2': 0, 'state': 'normal', 'yaw': -26.56, 'datetime': '2018-10-09 12:34:49.700559', 'mgs': 0, 'volt': 0.8887, 'depth': 1.385, 'time': 17, 'pitch': -4.88, 'roll': -3.27, 'pres': 182}
{'lipoC2': 7.48, 'lipoC3S1': 4.12, 'temp': 30.5, 'lipoC3S3': 12.46, 'lipoC3S2': 8.23, 'rot1': 0, 'rot0': 0, 'rot3': 0, 'rot2': 0, 'state': 'normal', 'yaw': -25.78, 'datetime': '2018-10-09 12:34:49.804005', 'mgs': 0, 'volt': 0.8887, 'depth': 1.385, 'time': 17, 'pitch': -5.09, 'roll': -3.64, 'pres': 182}
{'lipoC2': 7.48, 'lipoC3S1': 4.12, 'temp': 30.5, 'lipoC3S3': 12.45, 'lipoC3S2': 8.23, 'rot1': 0, 'rot0': 0, 'rot3': 0, 'rot2': 0, 'state': 'normal', 'yaw': -25.02, 'datetime': '2018-10-09 12:34:49.907963', 'mgs': 0, 'volt': 0.8887, 'depth': 1.385, 'time': 18, 'pitch': -5.45, 'roll': -3.61, 'pres': 182}
{'lipoC2': 7.48, 'lipoC3S1': 4.12, 'temp': 30.5, 'lipoC3S3': 12.45, 'lipoC3S2': 8.23, 'rot1': 0, 'rot0': 0, 'rot3': 0, 'rot2': 0, 'state': 'normal', 'yaw': -24.32, 'datetime': '2018-10-09 12:34:50.011429', 'mgs': 0, 'volt': 0.8887, 'depth': 1.385, 'time': 18, 'pitch': -5.77, 'roll': -3.31, 'pres': 182}
{'lipoC2': 7.48, 'lipoC3S1': 4.12, 'temp': 30.5, 'lipoC3S3': 12.46, 'lipoC3S2': 8.23, 'rot1': 0, 'rot0': 0, 'rot3': 0, 'rot2': 0, 'state': 'normal', 'yaw': -23.87, 'datetime': '2018-10-09 12:34:50.115987', 'mgs': 0, 'volt': 0.8887, 'depth': 1.385, 'time': 18, 'pitch': -5.71, 'roll': -2.98, 'pres': 182}
{'lipoC2': 7.48, 'lipoC3S1': 4.12, 'temp': 30.56, 'lipoC3S3': 12.45, 'lipoC3S2': 8.23, 'rot1': 0, 'rot0': 0, 'rot3': 0, 'rot2': 0, 'state': 'normal', 'yaw': -23.45, 'datetime': '2018-10-09 12:34:50.219250', 'mgs': 0, 'volt': 0.8887, 'depth': 1.385, 'time': 18, 'pitch': -4.97, 'roll': -2.72, 'pres': 182}
{'lipoC2': 7.48, 'lipoC3S1': 4.12, 'temp': 30.56, 'lipoC3S3': 12.45, 'lipoC3S2': 8.23, 'rot1': 0, 'rot0': 0, 'rot3': 0, 'rot2': 0, 'state': 'normal', 'yaw': -23.28, 'datetime': '2018-10-09 12:34:50.322461', 'mgs': 0, 'volt': 0.8936, 'depth': 1.462, 'time': 18, 'pitch': -4.05, 'roll': -2.49, 'pres': 183}
{'lipoC2': 7.48, 'lipoC3S1': 4.12, 'temp': 30.56, 'lipoC3S3': 12.46, 'lipoC3S2': 8.23, 'rot1': 0, 'rot0': 0, 'rot3': 0, 'rot2': 0, 'state': 'normal', 'yaw': -23.41, 'datetime': '2018-10-09 12:34:50.427606', 'mgs': 0, 'volt': 0.8936, 'depth': 1.462, 'time': 18, 'pitch': -3.34, 'roll': -2.13, 'pres': 183}
{'lipoC2': 7.48, 'lipoC3S1': 4.12, 'temp': 30.5, 'lipoC3S3': 12.45, 'lipoC3S2': 8.23, 'rot1': 0, 'rot0': 0, 'rot3': 0, 'rot2': 0, 'state': 'normal', 'yaw': -23.68, 'datetime': '2018-10-09 12:34:50.530456', 'mgs': 0, 'volt': 0.8984, 'depth': 1.538, 'time': 18, 'pitch': -2.8, 'roll': -1.54, 'pres': 184}
{'lipoC2': 7.49, 'lipoC3S1': 4.12, 'temp': 30.5, 'lipoC3S3': 12.45, 'lipoC3S2': 8.23, 'rot1': 0, 'rot0': 0, 'rot3': 0, 'rot2': 0, 'state': 'normal', 'yaw': -23.94, 'datetime': '2018-10-09 12:34:50.633781', 'mgs': 0, 'volt': 0.9033, 'depth': 1.614, 'time': 18, 'pitch': -2.47, 'roll': -0.81, 'pres': 185}
{'lipoC2': 7.48, 'lipoC3S1': 4.12, 'temp': 30.5, 'lipoC3S3': 12.45, 'lipoC3S2': 8.23, 'rot1': 0, 'rot0': 0, 'rot3': 0, 'rot2': 0, 'state': 'normal', 'yaw': -24.24, 'datetime': '2018-10-09 12:34:50.737387', 'mgs': 0, 'volt': 0.9033, 'depth': 1.614, 'time': 18, 'pitch': -2.4, 'roll': 0.04, 'pres': 185}
{'lipoC2': 7.49, 'lipoC3S1': 4.12, 'temp': 30.5, 'lipoC3S3': 12.46, 'lipoC3S2': 8.23, 'rot1': 0, 'rot0': 0, 'rot3': 0, 'rot2': 0, 'state': 'normal', 'yaw': -24.63, 'datetime': '2018-10-09 12:34:50.840474', 'mgs': 0, 'volt': 0.9033, 'depth': 1.614, 'time': 19, 'pitch': -2.42, 'roll': 0.97, 'pres': 185}
{'lipoC2': 7.49, 'lipoC3S1': 4.12, 'temp': 30.56, 'lipoC3S3': 12.46, 'lipoC3S2': 8.23, 'rot1': 0, 'rot0': 0, 'rot3': 0, 'rot2': 0, 'state': 'normal', 'yaw': -25.0, 'datetime': '2018-10-09 12:34:50.943805', 'mgs': 0, 'volt': 0.9082, 'depth': 1.691, 'time': 19, 'pitch': -2.34, 'roll': 1.61, 'pres': 186}
{'lipoC2': 7.49, 'lipoC3S1': 4.12, 'temp': 30.56, 'lipoC3S3': 12.45, 'lipoC3S2': 8.23, 'rot1': 0, 'rot0': 0, 'rot3': 0, 'rot2': 0, 'state': 'normal', 'yaw': -25.25, 'datetime': '2018-10-09 12:34:51.047274', 'mgs': 0, 'volt': 0.9082, 'depth': 1.691, 'time': 19, 'pitch': -1.94, 'roll': 1.91, 'pres': 186}
{'lipoC2': 7.48, 'lipoC3S1': 4.12, 'temp': 30.56, 'lipoC3S3': 12.46, 'lipoC3S2': 8.23, 'rot1': 0, 'rot0': 0, 'rot3': 0, 'rot2': 0, 'state': 'normal', 'yaw': -25.43, 'datetime': '2018-10-09 12:34:51.150586', 'mgs': 0, 'volt': 0.9082, 'depth': 1.691, 'time': 19, 'pitch': -1.19, 'roll': 1.89, 'pres': 186}
{'lipoC2': 7.49, 'lipoC3S1': 4.12, 'temp': 30.5, 'lipoC3S3': 12.45, 'lipoC3S2': 8.23, 'rot1': 0, 'rot0': 0, 'rot3': 0, 'rot2': 0, 'state': 'normal', 'yaw': -25.54, 'datetime': '2018-10-09 12:34:51.254141', 'mgs': 0, 'volt': 0.9131, 'depth': 1.767, 'time': 19, 'pitch': -0.16, 'roll': 1.67, 'pres': 187}
{'lipoC2': 7.49, 'lipoC3S1': 4.12, 'temp': 30.5, 'lipoC3S3': 12.46, 'lipoC3S2': 8.23, 'rot1': 0, 'rot0': 0, 'rot3': 0, 'rot2': 0, 'state': 'normal', 'yaw': -25.61, 'datetime': '2018-10-09 12:34:51.357776', 'mgs': 0, 'volt': 0.9131, 'depth': 1.767, 'time': 19, 'pitch': 0.65, 'roll': 1.41, 'pres': 187}
{'lipoC2': 7.48, 'lipoC3S1': 4.12, 'temp': 30.5, 'lipoC3S3': 12.45, 'lipoC3S2': 8.23, 'rot1': 0, 'rot0': 0, 'rot3': 0, 'rot2': 0, 'state': 'normal', 'yaw': -25.6, 'datetime': '2018-10-09 12:34:51.461491', 'mgs': 0, 'volt': 0.918, 'depth': 1.843, 'time': 19, 'pitch': 1.16, 'roll': 1.1, 'pres': 188}
{'lipoC2': 7.48, 'lipoC3S1': 4.12, 'temp': 30.5, 'lipoC3S3': 12.45, 'lipoC3S2': 8.23, 'rot1': 0, 'rot0': 0, 'rot3': 0, 'rot2': 0, 'state': 'normal', 'yaw': -25.56, 'datetime': '2018-10-09 12:34:51.566374', 'mgs': 0, 'volt': 0.918, 'depth': 1.843, 'time': 19, 'pitch': 1.52, 'roll': 0.59, 'pres': 188}
{'lipoC2': 7.49, 'lipoC3S1': 4.12, 'temp': 30.5, 'lipoC3S3': 12.45, 'lipoC3S2': 8.23, 'rot1': 0, 'rot0': 0, 'rot3': 0, 'rot2': 0, 'state': 'normal', 'yaw': -25.43, 'datetime': '2018-10-09 12:34:51.669123', 'mgs': 0, 'volt': 0.9229, 'depth': 1.92, 'time': 19, 'pitch': 1.93, 'roll': -0.14, 'pres': 189}
{'lipoC2': 7.48, 'lipoC3S1': 4.12, 'temp': 30.5, 'lipoC3S3': 12.45, 'lipoC3S2': 8.23, 'rot1': 0, 'rot0': 0, 'rot3': 0, 'rot2': 0, 'state': 'normal', 'yaw': -25.25, 'datetime': '2018-10-09 12:34:51.766282', 'mgs': 0, 'volt': 0.9229, 'depth': 1.92, 'time': 19, 'pitch': 2.62, 'roll': -1.24, 'pres': 189}
{'lipoC2': 7.48, 'lipoC3S1': 4.12, 'temp': 30.5, 'lipoC3S3': 12.46, 'lipoC3S2': 8.23, 'rot1': 0, 'rot0': 0, 'rot3': 0, 'rot2': 0, 'state': 'normal', 'yaw': -25.1, 'datetime': '2018-10-09 12:34:51.875826', 'mgs': 0, 'volt': 0.9277, 'depth': 1.996, 'time': 20, 'pitch': 3.43, 'roll': -2.27, 'pres': 190}
{'lipoC2': 7.48, 'lipoC3S1': 4.12, 'temp': 30.5, 'lipoC3S3': 12.45, 'lipoC3S2': 8.23, 'rot1': 0, 'rot0': 0, 'rot3': 0, 'rot2': 0, 'state': 'normal', 'yaw': -25.01, 'datetime': '2018-10-09 12:34:51.980027', 'mgs': 0, 'volt': 0.9277, 'depth': 1.996, 'time': 20, 'pitch': 4.26, 'roll': -3.11, 'pres': 190}
{'lipoC2': 7.49, 'lipoC3S1': 4.12, 'temp': 30.5, 'lipoC3S3': 12.46, 'lipoC3S2': 8.23, 'rot1': 0, 'rot0': 0, 'rot3': 0, 'rot2': 0, 'state': 'normal', 'yaw': -24.94, 'datetime': '2018-10-09 12:34:52.083822', 'mgs': 0, 'volt': 0.9277, 'depth': 1.996, 'time': 20, 'pitch': 4.8, 'roll': -3.62, 'pres': 190}
{'lipoC2': 7.49, 'lipoC3S1': 4.12, 'temp': 30.5, 'lipoC3S3': 12.46, 'lipoC3S2': 8.23, 'rot1': 0, 'rot0': 0, 'rot3': 0, 'rot2': 0, 'state': 'normal', 'yaw': -24.85, 'datetime': '2018-10-09 12:34:52.187038', 'mgs': 0, 'volt': 0.9326, 'depth': 2.072, 'time': 20, 'pitch': 4.67, 'roll': -3.75, 'pres': 191}
{'lipoC2': 7.49, 'lipoC3S1': 4.12, 'temp': 30.5, 'lipoC3S3': 12.45, 'lipoC3S2': 8.23, 'rot1': 0, 'rot0': 0, 'rot3': 0, 'rot2': 0, 'state': 'normal', 'yaw': -24.73, 'datetime': '2018-10-09 12:34:52.290730', 'mgs': 0, 'volt': 0.9277, 'depth': 1.996, 'time': 20, 'pitch': 4.0, 'roll': -3.62, 'pres': 190}
{'lipoC2': 7.49, 'lipoC3S1': 4.12, 'temp': 30.5, 'lipoC3S3': 12.46, 'lipoC3S2': 8.23, 'rot1': 0, 'rot0': 0, 'rot3': 0, 'rot2': 0, 'state': 'normal', 'yaw': -24.58, 'datetime': '2018-10-09 12:34:52.393754', 'mgs': 0, 'volt': 0.9326, 'depth': 2.072, 'time': 20, 'pitch': 2.86, 'roll': -3.36, 'pres': 191}
{'lipoC2': 7.49, 'lipoC3S1': 4.12, 'temp': 30.5, 'lipoC3S3': 12.45, 'lipoC3S2': 8.23, 'rot1': 0, 'rot0': 0, 'rot3': 0, 'rot2': 0, 'state': 'normal', 'yaw': -24.44, 'datetime': '2018-10-09 12:34:52.497102', 'mgs': 0, 'volt': 0.9326, 'depth': 2.072, 'time': 20, 'pitch': 1.77, 'roll': -3.11, 'pres': 191}
{'lipoC2': 7.48, 'lipoC3S1': 4.12, 'temp': 30.5, 'lipoC3S3': 12.46, 'lipoC3S2': 8.23, 'rot1': 0, 'rot0': 0, 'rot3': 0, 'rot2': 0, 'state': 'normal', 'yaw': -24.29, 'datetime': '2018-10-09 12:34:52.600608', 'mgs': 0, 'volt': 0.9326, 'depth': 2.072, 'time': 20, 'pitch': 0.83, 'roll': -2.85, 'pres': 191}
{'lipoC2': 7.49, 'lipoC3S1': 4.12, 'temp': 30.5, 'lipoC3S3': 12.46, 'lipoC3S2': 8.23, 'rot1': 0, 'rot0': 0, 'rot3': 0, 'rot2': 0, 'state': 'normal', 'yaw': -24.15, 'datetime': '2018-10-09 12:34:52.703986', 'mgs': 0, 'volt': 0.9326, 'depth': 2.072, 'time': 20, 'pitch': 0.02, 'roll': -2.55, 'pres': 191}
{'lipoC2': 7.49, 'lipoC3S1': 4.12, 'temp': 30.5, 'lipoC3S3': 12.45, 'lipoC3S2': 8.23, 'rot1': 0, 'rot0': 0, 'rot3': 0, 'rot2': 0, 'state': 'normal', 'yaw': -24.11, 'datetime': '2018-10-09 12:34:52.807544', 'mgs': 0, 'volt': 0.9326, 'depth': 2.072, 'time': 20, 'pitch': -0.56, 'roll': -2.17, 'pres': 191}
{'lipoC2': 7.49, 'lipoC3S1': 4.12, 'temp': 30.5, 'lipoC3S3': 12.45, 'lipoC3S2': 8.23, 'rot1': 0, 'rot0': 0, 'rot3': 0, 'rot2': 0, 'state': 'normal', 'yaw': -24.1, 'datetime': '2018-10-09 12:34:52.911004', 'mgs': 0, 'volt': 0.9326, 'depth': 2.072, 'time': 21, 'pitch': -0.69, 'roll': -1.8, 'pres': 191}
{'lipoC2': 7.48, 'lipoC3S1': 4.12, 'temp': 30.5, 'lipoC3S3': 12.46, 'lipoC3S2': 8.23, 'rot1': 0, 'rot0': 0, 'rot3': 0, 'rot2': 0, 'state': 'normal', 'yaw': -23.99, 'datetime': '2018-10-09 12:34:53.014633', 'mgs': 0, 'volt': 0.9326, 'depth': 2.072, 'time': 21, 'pitch': -0.93, 'roll': -1.37, 'pres': 191}
{'lipoC2': 7.49, 'lipoC3S1': 4.12, 'temp': 30.5, 'lipoC3S3': 12.46, 'lipoC3S2': 8.23, 'rot1': 0, 'rot0': 0, 'rot3': 0, 'rot2': 0, 'state': 'normal', 'yaw': -23.94, 'datetime': '2018-10-09 12:34:53.117913', 'mgs': 0, 'volt': 0.9326, 'depth': 2.072, 'time': 21, 'pitch': -1.52, 'roll': -0.81, 'pres': 191}
{'lipoC2': 7.49, 'lipoC3S1': 4.12, 'temp': 30.5, 'lipoC3S3': 12.45, 'lipoC3S2': 8.23, 'rot1': 0, 'rot0': 0, 'rot3': 0, 'rot2': 0, 'state': 'normal', 'yaw': -24.08, 'datetime': '2018-10-09 12:34:53.223010', 'mgs': 0, 'volt': 0.9326, 'depth': 2.072, 'time': 21, 'pitch': -2.26, 'roll': -0.25, 'pres': 191}
{'lipoC2': 7.48, 'lipoC3S1': 4.12, 'temp': 30.5, 'lipoC3S3': 12.46, 'lipoC3S2': 8.23, 'rot1': 0, 'rot0': 0, 'rot3': 0, 'rot2': 0, 'state': 'normal', 'yaw': -24.33, 'datetime': '2018-10-09 12:34:53.325951', 'mgs': 0, 'volt': 0.9375, 'depth': 2.148, 'time': 21, 'pitch': -3.45, 'roll': 0.31, 'pres': 192}
{'lipoC2': 7.48, 'lipoC3S1': 4.12, 'temp': 30.5, 'lipoC3S3': 12.45, 'lipoC3S2': 8.23, 'rot1': 0, 'rot0': 0, 'rot3': 0, 'rot2': 0, 'state': 'normal', 'yaw': -24.61, 'datetime': '2018-10-09 12:34:53.429248', 'mgs': 0, 'volt': 0.9375, 'depth': 2.148, 'time': 21, 'pitch': -4.8, 'roll': 0.69, 'pres': 192}
{'lipoC2': 7.48, 'lipoC3S1': 4.12, 'temp': 30.5, 'lipoC3S3': 12.46, 'lipoC3S2': 8.23, 'rot1': 0, 'rot0': 0, 'rot3': 0, 'rot2': 0, 'state': 'normal', 'yaw': -24.85, 'datetime': '2018-10-09 12:34:53.534106', 'mgs': 0, 'volt': 0.9375, 'depth': 2.148, 'time': 21, 'pitch': -6.16, 'roll': 0.93, 'pres': 192}
