{'lipoC2': 7.29, 'lipoC3S1': 3.82, 'temp': 30.13, 'lipoC3S3': 11.54, 'lipoC3S2': 7.65, 'rot1': 0, 'rot0': 0, 'rot3': 0, 'rot2': 0, 'state': 'normal', 'yaw': 0.02, 'datetime': '2018-10-09 23:44:12.155894', 'mgs': 0, 'volt': 0.8496, 'depth': 0.775, 'time': 1, 'pitch': 4.84, 'roll': 0.74, 'pres': 174}
{'lipoC2': 7.29, 'lipoC3S1': 3.82, 'temp': 30.13, 'lipoC3S3': 11.54, 'lipoC3S2': 7.65, 'rot1': 0, 'rot0': 0, 'rot3': 0, 'rot2': 0, 'state': 'normal', 'yaw': 0.41, 'datetime': '2018-10-09 23:44:12.177429', 'mgs': 0, 'volt': 0.8447, 'depth': 0.699, 'time': 1, 'pitch': 5.17, 'roll': 0.74, 'pres': 173}
{'lipoC2': 7.29, 'lipoC3S1': 3.82, 'temp': 30.13, 'lipoC3S3': 11.54, 'lipoC3S2': 7.65, 'rot1': 0, 'rot0': 0, 'rot3': 0, 'rot2': 0, 'state': 'normal', 'yaw': 1.02, 'datetime': '2018-10-09 23:44:12.199143', 'mgs': 0, 'volt': 0.8447, 'depth': 0.699, 'time': 1, 'pitch': 5.48, 'roll': 0.98, 'pres': 173}
{'lipoC2': 7.29, 'lipoC3S1': 3.82, 'temp': 30.13, 'lipoC3S3': 11.54, 'lipoC3S2': 7.65, 'rot1': 0, 'rot0': 0, 'rot3': 0, 'rot2': 0, 'state': 'normal', 'yaw': 1.83, 'datetime': '2018-10-09 23:44:12.220819', 'mgs': 0, 'volt': 0.8447, 'depth': 0.699, 'time': 1, 'pitch': 5.47, 'roll': 1.3, 'pres': 173}
{'lipoC2': 7.29, 'lipoC3S1': 3.82, 'temp': 30.13, 'lipoC3S3': 11.54, 'lipoC3S2': 7.65, 'rot1': 0, 'rot0': 0, 'rot3': 0, 'rot2': 0, 'state': 'normal', 'yaw': 2.54, 'datetime': '2018-10-09 23:44:12.242465', 'mgs': 0, 'volt': 0.8447, 'depth': 0.699, 'time': 1, 'pitch': 5.43, 'roll': 1.73, 'pres': 173}
{'lipoC2': 7.29, 'lipoC3S1': 3.82, 'temp': 30.19, 'lipoC3S3': 11.54, 'lipoC3S2': 7.65, 'rot1': 0, 'rot0': 0, 'rot3': 0, 'rot2': 0, 'state': 'normal', 'yaw': 2.76, 'datetime': '2018-10-09 23:44:12.264033', 'mgs': 0, 'volt': 0.8447, 'depth': 0.699, 'time': 1, 'pitch': 5.68, 'roll': 2.41, 'pres': 173}
{'lipoC2': 7.29, 'lipoC3S1': 3.82, 'temp': 30.19, 'lipoC3S3': 11.54, 'lipoC3S2': 7.65, 'rot1': 0, 'rot0': 0, 'rot3': 0, 'rot2': 0, 'state': 'normal', 'yaw': 2.48, 'datetime': '2018-10-09 23:44:12.285729', 'mgs': 0, 'volt': 0.8447, 'depth': 0.699, 'time': 1, 'pitch': 6.14, 'roll': 3.35, 'pres': 173}
{'lipoC2': 7.29, 'lipoC3S1': 3.82, 'temp': 30.25, 'lipoC3S3': 11.54, 'lipoC3S2': 7.65, 'rot1': 0, 'rot0': 0, 'rot3': 0, 'rot2': 0, 'state': 'normal', 'yaw': 2.31, 'datetime': '2018-10-09 23:44:12.296500', 'mgs': 0, 'volt': 0.8496, 'depth': 0.775, 'time': 1, 'pitch': 6.49, 'roll': 3.92, 'pres': 174}
{'lipoC2': 7.29, 'lipoC3S1': 3.82, 'temp': 30.25, 'lipoC3S3': 11.54, 'lipoC3S2': 7.65, 'rot1': 0, 'rot0': 0, 'rot3': 0, 'rot2': 0, 'state': 'normal', 'yaw': 2.37, 'datetime': '2018-10-09 23:44:12.305892', 'mgs': 0, 'volt': 0.8496, 'depth': 0.775, 'time': 2, 'pitch': 6.65, 'roll': 4.02, 'pres': 174}
{'lipoC2': 7.29, 'lipoC3S1': 3.82, 'temp': 30.19, 'lipoC3S3': 11.54, 'lipoC3S2': 7.65, 'rot1': 0, 'rot0': 0, 'rot3': 0, 'rot2': 0, 'state': 'normal', 'yaw': 2.33, 'datetime': '2018-10-09 23:44:12.315310', 'mgs': 0, 'volt': 0.8496, 'depth': 0.775, 'time': 2, 'pitch': 6.36, 'roll': 3.84, 'pres': 174}
{'lipoC2': 7.29, 'lipoC3S1': 3.82, 'temp': 30.19, 'lipoC3S3': 11.54, 'lipoC3S2': 7.65, 'rot1': 0, 'rot0': 0, 'rot3': 0, 'rot2': 0, 'state': 'normal', 'yaw': 1.98, 'datetime': '2018-10-09 23:44:12.414530', 'mgs': 0, 'volt': 0.8496, 'depth': 0.775, 'time': 2, 'pitch': 5.7, 'roll': 3.51, 'pres': 174}
{'lipoC2': 7.29, 'lipoC3S1': 3.82, 'temp': 30.19, 'lipoC3S3': 11.54, 'lipoC3S2': 7.65, 'rot1': 0, 'rot0': 0, 'rot3': 0, 'rot2': 0, 'state': 'normal', 'yaw': 1.54, 'datetime': '2018-10-09 23:44:12.519074', 'mgs': 0, 'volt': 0.8496, 'depth': 0.775, 'time': 2, 'pitch': 5.23, 'roll': 2.94, 'pres': 174}
{'lipoC2': 7.29, 'lipoC3S1': 3.82, 'temp': 30.06, 'lipoC3S3': 11.54, 'lipoC3S2': 7.65, 'rot1': 0, 'rot0': 0, 'rot3': 0, 'rot2': 0, 'state': 'normal', 'yaw': 1.15, 'datetime': '2018-10-09 23:44:12.622307', 'mgs': 0, 'volt': 0.8496, 'depth': 0.775, 'time': 2, 'pitch': 5.75, 'roll': 2.21, 'pres': 174}
{'lipoC2': 7.29, 'lipoC3S1': 3.82, 'temp': 30.06, 'lipoC3S3': 11.54, 'lipoC3S2': 7.65, 'rot1': 0, 'rot0': 0, 'rot3': 0, 'rot2': 0, 'state': 'normal', 'yaw': 0.83, 'datetime': '2018-10-09 23:44:12.726720', 'mgs': 0, 'volt': 0.8447, 'depth': 0.699, 'time': 2, 'pitch': 6.64, 'roll': 1.68, 'pres': 173}
{'lipoC2': 7.29, 'lipoC3S1': 3.82, 'temp': 30.19, 'lipoC3S3': 11.54, 'lipoC3S2': 7.65, 'rot1': 0, 'rot0': 0, 'rot3': 0, 'rot2': 0, 'state': 'normal', 'yaw': 0.7, 'datetime': '2018-10-09 23:44:12.830530', 'mgs': 0, 'volt': 0.8447, 'depth': 0.699, 'time': 2, 'pitch': 7.04, 'roll': 1.33, 'pres': 173}
{'lipoC2': 7.29, 'lipoC3S1': 3.82, 'temp': 30.19, 'lipoC3S3': 11.54, 'lipoC3S2': 7.65, 'rot1': 0, 'rot0': 0, 'rot3': 0, 'rot2': 0, 'state': 'normal', 'yaw': 0.84, 'datetime': '2018-10-09 23:44:12.933716', 'mgs': 0, 'volt': 0.8496, 'depth': 0.775, 'time': 2, 'pitch': 5.95, 'roll': 0.96, 'pres': 174}
{'lipoC2': 7.29, 'lipoC3S1': 3.82, 'temp': 30.19, 'lipoC3S3': 11.54, 'lipoC3S2': 7.65, 'rot1': 0, 'rot0': 0, 'rot3': 0, 'rot2': 0, 'state': 'normal', 'yaw': 1.17, 'datetime': '2018-10-09 23:44:13.038900', 'mgs': 0, 'volt': 0.8496, 'depth': 0.775, 'time': 2, 'pitch': 4.18, 'roll': 0.64, 'pres': 174}
{'lipoC2': 7.29, 'lipoC3S1': 3.82, 'temp': 30.19, 'lipoC3S3': 11.54, 'lipoC3S2': 7.65, 'rot1': 0, 'rot0': 0, 'rot3': 0, 'rot2': 0, 'state': 'normal', 'yaw': 1.49, 'datetime': '2018-10-09 23:44:13.142343', 'mgs': 0, 'volt': 0.8496, 'depth': 0.775, 'time': 3, 'pitch': 3.05, 'roll': 0.52, 'pres': 174}
{'lipoC2': 7.29, 'lipoC3S1': 3.82, 'temp': 30.19, 'lipoC3S3': 11.54, 'lipoC3S2': 7.65, 'rot1': 0, 'rot0': 0, 'rot3': 0, 'rot2': 0, 'state': 'normal', 'yaw': 1.8, 'datetime': '2018-10-09 23:44:13.245565', 'mgs': 0, 'volt': 0.8496, 'depth': 0.775, 'time': 3, 'pitch': 2.98, 'roll': 0.63, 'pres': 174}
{'lipoC2': 7.29, 'lipoC3S1': 3.82, 'temp': 30.19, 'lipoC3S3': 11.54, 'lipoC3S2': 7.65, 'rot1': 0, 'rot0': 0, 'rot3': 0, 'rot2': 0, 'state': 'normal', 'yaw': 2.34, 'datetime': '2018-10-09 23:44:13.348771', 'mgs': 0, 'volt': 0.8496, 'depth': 0.775, 'time': 3, 'pitch': 3.6, 'roll': 0.85, 'pres': 174}
{'lipoC2': 7.29, 'lipoC3S1': 3.82, 'temp': 30.19, 'lipoC3S3': 11.54, 'lipoC3S2': 7.65, 'rot1': 0, 'rot0': 0, 'rot3': 0, 'rot2': 0, 'state': 'normal', 'yaw': 2.92, 'datetime': '2018-10-09 23:44:13.452151', 'mgs': 0, 'volt': 0.8447, 'depth': 0.699, 'time': 3, 'pitch': 4.36, 'roll': 1.25, 'pres': 173}
{'lipoC2': 7.29, 'lipoC3S1': 3.82, 'temp': 30.19, 'lipoC3S3': 11.54, 'lipoC3S2': 7.65, 'rot1': 0, 'rot0': 0, 'rot3': 0, 'rot2': 0, 'state': 'normal', 'yaw': 3.31, 'datetime': '2018-10-09 23:44:13.555421', 'mgs': 0, 'volt': 0.8447, 'depth': 0.699, 'time': 3, 'pitch': 4.8, 'roll': 1.91, 'pres': 173}
{'lipoC2': 7.29, 'lipoC3S1': 3.82, 'temp': 30.19, 'lipoC3S3': 11.54, 'lipoC3S2': 7.65, 'rot1': 0, 'rot0': 0, 'rot3': 0, 'rot2': 0, 'state': 'normal', 'yaw': 3.46, 'datetime': '2018-10-09 23:44:13.658637', 'mgs': 0, 'volt': 0.8447, 'depth': 0.699, 'time': 3, 'pitch': 4.19, 'roll': 2.26, 'pres': 173}
{'lipoC2': 7.29, 'lipoC3S1': 3.82, 'temp': 30.19, 'lipoC3S3': 11.54, 'lipoC3S2': 7.65, 'rot1': 0, 'rot0': 0, 'rot3': 0, 'rot2': 0, 'state': 'normal', 'yaw': 3.65, 'datetime': '2018-10-09 23:44:13.761875', 'mgs': 0, 'volt': 0.8447, 'depth': 0.699, 'time': 3, 'pitch': 3.26, 'roll': 2.19, 'pres': 173}
{'lipoC2': 7.29, 'lipoC3S1': 3.82, 'temp': 30.19, 'lipoC3S3': 11.54, 'lipoC3S2': 7.65, 'rot1': 0, 'rot0': 0, 'rot3': 0, 'rot2': 0, 'state': 'normal', 'yaw': 3.81, 'datetime': '2018-10-09 23:44:13.865133', 'mgs': 0, 'volt': 0.8447, 'depth': 0.699, 'time': 3, 'pitch': 2.82, 'roll': 1.85, 'pres': 173}
{'lipoC2': 7.29, 'lipoC3S1': 3.82, 'temp': 30.19, 'lipoC3S3': 11.54, 'lipoC3S2': 7.65, 'rot1': 0, 'rot0': 0, 'rot3': 0, 'rot2': 0, 'state': 'normal', 'yaw': 3.74, 'datetime': '2018-10-09 23:44:13.968355', 'mgs': 0, 'volt': 0.8447, 'depth': 0.699, 'time': 3, 'pitch': 2.97, 'roll': 1.64, 'pres': 173}
{'lipoC2': 7.29, 'lipoC3S1': 3.82, 'temp': 30.19, 'lipoC3S3': 11.54, 'lipoC3S2': 7.65, 'rot1': 0, 'rot0': 0, 'rot3': 0, 'rot2': 0, 'state': 'normal', 'yaw': 3.46, 'datetime': '2018-10-09 23:44:14.072879', 'mgs': 0, 'volt': 0.8447, 'depth': 0.699, 'time': 3, 'pitch': 3.03, 'roll': 1.72, 'pres': 173}
{'lipoC2': 7.29, 'lipoC3S1': 3.82, 'temp': 30.19, 'lipoC3S3': 11.54, 'lipoC3S2': 7.65, 'rot1': 0, 'rot0': 0, 'rot3': 0, 'rot2': 0, 'state': 'normal', 'yaw': 3.02, 'datetime': '2018-10-09 23:44:14.176256', 'mgs': 0, 'volt': 0.8447, 'depth': 0.699, 'time': 4, 'pitch': 2.44, 'roll': 2.03, 'pres': 173}
{'lipoC2': 7.29, 'lipoC3S1': 3.82, 'temp': 30.19, 'lipoC3S3': 11.54, 'lipoC3S2': 7.65, 'rot1': 0, 'rot0': 0, 'rot3': 0, 'rot2': 0, 'state': 'normal', 'yaw': 2.86, 'datetime': '2018-10-09 23:44:14.280558', 'mgs': 0, 'volt': 0.8447, 'depth': 0.699, 'time': 4, 'pitch': 1.99, 'roll': 2.06, 'pres': 173}
{'lipoC2': 7.29, 'lipoC3S1': 3.82, 'temp': 30.19, 'lipoC3S3': 11.54, 'lipoC3S2': 7.65, 'rot1': 0, 'rot0': 0, 'rot3': 0, 'rot2': 0, 'state': 'normal', 'yaw': 3.05, 'datetime': '2018-10-09 23:44:14.392644', 'mgs': 0, 'volt': 0.8447, 'depth': 0.699, 'time': 4, 'pitch': 2.02, 'roll': 1.58, 'pres': 173}
{'lipoC2': 7.29, 'lipoC3S1': 3.82, 'temp': 30.19, 'lipoC3S3': 11.54, 'lipoC3S2': 7.65, 'rot1': 0, 'rot0': 0, 'rot3': 0, 'rot2': 0, 'state': 'normal', 'yaw': 3.34, 'datetime': '2018-10-09 23:44:14.487649', 'mgs': 0, 'volt': 0.8496, 'depth': 0.775, 'time': 4, 'pitch': 2.32, 'roll': 0.85, 'pres': 174}
{'lipoC2': 7.29, 'lipoC3S1': 3.82, 'temp': 30.19, 'lipoC3S3': 11.54, 'lipoC3S2': 7.65, 'rot1': 0, 'rot0': 0, 'rot3': 0, 'rot2': 0, 'state': 'normal', 'yaw': 3.61, 'datetime': '2018-10-09 23:44:14.592151', 'mgs': 0, 'volt': 0.8447, 'depth': 0.699, 'time': 4, 'pitch': 2.89, 'roll': 0.35, 'pres': 173}
{'lipoC2': 7.29, 'lipoC3S1': 3.82, 'temp': 30.19, 'lipoC3S3': 11.54, 'lipoC3S2': 7.65, 'rot1': 0, 'rot0': 0, 'rot3': 0, 'rot2': 0, 'state': 'normal', 'yaw': 4.13, 'datetime': '2018-10-09 23:44:14.695758', 'mgs': 0, 'volt': 0.8447, 'depth': 0.699, 'time': 4, 'pitch': 2.91, 'roll': -0.06, 'pres': 173}
{'lipoC2': 7.29, 'lipoC3S1': 3.82, 'temp': 30.25, 'lipoC3S3': 11.54, 'lipoC3S2': 7.65, 'rot1': 0, 'rot0': 0, 'rot3': 0, 'rot2': 0, 'state': 'normal', 'yaw': 4.72, 'datetime': '2018-10-09 23:44:14.803546', 'mgs': 0, 'volt': 0.8398, 'depth': 0.623, 'time': 4, 'pitch': 2.0, 'roll': -0.28, 'pres': 172}
{'lipoC2': 7.29, 'lipoC3S1': 3.82, 'temp': 30.25, 'lipoC3S3': 11.54, 'lipoC3S2': 7.65, 'rot1': 0, 'rot0': 0, 'rot3': 0, 'rot2': 0, 'state': 'normal', 'yaw': 5.23, 'datetime': '2018-10-09 23:44:14.907806', 'mgs': 0, 'volt': 0.8447, 'depth': 0.699, 'time': 4, 'pitch': 0.77, 'roll': -0.3, 'pres': 173}
{'lipoC2': 7.29, 'lipoC3S1': 3.82, 'temp': 30.19, 'lipoC3S3': 11.54, 'lipoC3S2': 7.65, 'rot1': 0, 'rot0': 0, 'rot3': 0, 'rot2': 0, 'state': 'normal', 'yaw': 5.65, 'datetime': '2018-10-09 23:44:15.011384', 'mgs': 0, 'volt': 0.8398, 'depth': 0.623, 'time': 4, 'pitch': 0.07, 'roll': -0.32, 'pres': 172}
{'lipoC2': 7.29, 'lipoC3S1': 3.82, 'temp': 30.19, 'lipoC3S3': 11.54, 'lipoC3S2': 7.65, 'rot1': 0, 'rot0': 0, 'rot3': 0, 'rot2': 0, 'state': 'normal', 'yaw': 5.95, 'datetime': '2018-10-09 23:44:15.114487', 'mgs': 0, 'volt': 0.8398, 'depth': 0.623, 'time': 4, 'pitch': 0.62, 'roll': -0.19, 'pres': 172}
{'lipoC2': 7.29, 'lipoC3S1': 3.82, 'temp': 30.19, 'lipoC3S3': 11.54, 'lipoC3S2': 7.65, 'rot1': 0, 'rot0': 0, 'rot3': 0, 'rot2': 0, 'state': 'normal', 'yaw': 5.51, 'datetime': '2018-10-09 23:44:15.217729', 'mgs': 0, 'volt': 0.8398, 'depth': 0.623, 'time': 5, 'pitch': 1.62, 'roll': 0.45, 'pres': 172}
{'lipoC2': 7.29, 'lipoC3S1': 3.82, 'temp': 30.19, 'lipoC3S3': 11.54, 'lipoC3S2': 7.65, 'rot1': 0, 'rot0': 0, 'rot3': 0, 'rot2': 0, 'state': 'normal', 'yaw': 4.88, 'datetime': '2018-10-09 23:44:15.320908', 'mgs': 0, 'volt': 0.835, 'depth': 0.546, 'time': 5, 'pitch': 2.67, 'roll': 0.95, 'pres': 171}
{'lipoC2': 7.29, 'lipoC3S1': 3.82, 'temp': 30.19, 'lipoC3S3': 11.54, 'lipoC3S2': 7.65, 'rot1': 0, 'rot0': 0, 'rot3': 0, 'rot2': 0, 'state': 'normal', 'yaw': 4.05, 'datetime': '2018-10-09 23:44:15.424197', 'mgs': 0, 'volt': 0.835, 'depth': 0.546, 'time': 5, 'pitch': 2.74, 'roll': 1.26, 'pres': 171}
{'lipoC2': 7.29, 'lipoC3S1': 3.82, 'temp': 30.19, 'lipoC3S3': 11.54, 'lipoC3S2': 7.65, 'rot1': 0, 'rot0': 0, 'rot3': 0, 'rot2': 0, 'state': 'normal', 'yaw': 3.24, 'datetime': '2018-10-09 23:44:15.521723', 'mgs': 0, 'volt': 0.8301, 'depth': 0.47, 'time': 5, 'pitch': 1.56, 'roll': 1.21, 'pres': 170}
{'lipoC2': 7.29, 'lipoC3S1': 3.82, 'temp': 30.19, 'lipoC3S3': 11.54, 'lipoC3S2': 7.65, 'rot1': 0, 'rot0': 0, 'rot3': 0, 'rot2': 0, 'state': 'normal', 'yaw': 2.7, 'datetime': '2018-10-09 23:44:15.626287', 'mgs': 0, 'volt': 0.8252, 'depth': 0.394, 'time': 5, 'pitch': -0.24, 'roll': 0.84, 'pres': 169}
{'lipoC2': 7.29, 'lipoC3S1': 3.82, 'temp': 30.19, 'lipoC3S3': 11.54, 'lipoC3S2': 7.65, 'rot1': 0, 'rot0': 0, 'rot3': 0, 'rot2': 0, 'state': 'normal', 'yaw': 2.5, 'datetime': '2018-10-09 23:44:15.729545', 'mgs': 0, 'volt': 0.8252, 'depth': 0.394, 'time': 5, 'pitch': -2.33, 'roll': 0.22, 'pres': 169}
{'lipoC2': 7.29, 'lipoC3S1': 3.82, 'temp': 30.19, 'lipoC3S3': 11.54, 'lipoC3S2': 7.65, 'rot1': 0, 'rot0': 0, 'rot3': 0, 'rot2': 0, 'state': 'normal', 'yaw': 2.53, 'datetime': '2018-10-09 23:44:15.833751', 'mgs': 0, 'volt': 0.8252, 'depth': 0.394, 'time': 5, 'pitch': -3.29, 'roll': -0.41, 'pres': 169}
{'lipoC2': 7.29, 'lipoC3S1': 3.82, 'temp': 30.19, 'lipoC3S3': 11.54, 'lipoC3S2': 7.65, 'rot1': 0, 'rot0': 0, 'rot3': 0, 'rot2': 0, 'state': 'normal', 'yaw': 2.57, 'datetime': '2018-10-09 23:44:15.937650', 'mgs': 0, 'volt': 0.8203, 'depth': 0.317, 'time': 5, 'pitch': -2.93, 'roll': -1.03, 'pres': 168}
{'lipoC2': 7.29, 'lipoC3S1': 3.82, 'temp': 30.19, 'lipoC3S3': 11.54, 'lipoC3S2': 7.65, 'rot1': 0, 'rot0': 0, 'rot3': 0, 'rot2': 0, 'state': 'normal', 'yaw': 2.57, 'datetime': '2018-10-09 23:44:16.040833', 'mgs': 0, 'volt': 0.8203, 'depth': 0.317, 'time': 5, 'pitch': -1.52, 'roll': -1.8, 'pres': 168}
{'lipoC2': 7.29, 'lipoC3S1': 3.82, 'temp': 30.19, 'lipoC3S3': 11.54, 'lipoC3S2': 7.65, 'rot1': 0, 'rot0': 0, 'rot3': 0, 'rot2': 0, 'state': 'normal', 'yaw': 2.35, 'datetime': '2018-10-09 23:44:16.150070', 'mgs': 0, 'volt': 0.8154, 'depth': 0.241, 'time': 6, 'pitch': -0.33, 'roll': -2.5, 'pres': 167}
{'lipoC2': 7.29, 'lipoC3S1': 3.82, 'temp': 30.19, 'lipoC3S3': 11.54, 'lipoC3S2': 7.65, 'rot1': 0, 'rot0': 0, 'rot3': 0, 'rot2': 0, 'state': 'normal', 'yaw': 1.91, 'datetime': '2018-10-09 23:44:16.254701', 'mgs': 0, 'volt': 0.8105, 'depth': 0.165, 'time': 6, 'pitch': -0.21, 'roll': -3.15, 'pres': 166}
{'lipoC2': 7.29, 'lipoC3S1': 3.82, 'temp': 30.19, 'lipoC3S3': 11.54, 'lipoC3S2': 7.65, 'rot1': 0, 'rot0': 0, 'rot3': 0, 'rot2': 0, 'state': 'normal', 'yaw': 1.36, 'datetime': '2018-10-09 23:44:16.357834', 'mgs': 0, 'volt': 0.8154, 'depth': 0.241, 'time': 6, 'pitch': -1.0, 'roll': -3.42, 'pres': 167}
{'lipoC2': 7.29, 'lipoC3S1': 3.82, 'temp': 30.19, 'lipoC3S3': 11.54, 'lipoC3S2': 7.65, 'rot1': 0, 'rot0': 0, 'rot3': 0, 'rot2': 0, 'state': 'normal', 'yaw': 0.84, 'datetime': '2018-10-09 23:44:16.460997', 'mgs': 0, 'volt': 0.8105, 'depth': 0.165, 'time': 6, 'pitch': -1.93, 'roll': -3.17, 'pres': 166}
{'lipoC2': 7.29, 'lipoC3S1': 3.82, 'temp': 30.19, 'lipoC3S3': 11.54, 'lipoC3S2': 7.65, 'rot1': 0, 'rot0': 0, 'rot3': 0, 'rot2': 0, 'state': 'normal', 'yaw': 0.45, 'datetime': '2018-10-09 23:44:16.564576', 'mgs': 0, 'volt': 0.8105, 'depth': 0.165, 'time': 6, 'pitch': -2.58, 'roll': -2.38, 'pres': 166}
{'lipoC2': 7.29, 'lipoC3S1': 3.82, 'temp': 30.19, 'lipoC3S3': 11.54, 'lipoC3S2': 7.65, 'rot1': 0, 'rot0': 0, 'rot3': 0, 'rot2': 0, 'state': 'normal', 'yaw': 0.09, 'datetime': '2018-10-09 23:44:16.667709', 'mgs': 0, 'volt': 0.8105, 'depth': 0.165, 'time': 6, 'pitch': -2.9, 'roll': -1.33, 'pres': 166}
{'lipoC2': 7.29, 'lipoC3S1': 3.82, 'temp': 30.19, 'lipoC3S3': 11.54, 'lipoC3S2': 7.65, 'rot1': 0, 'rot0': 0, 'rot3': 0, 'rot2': 0, 'state': 'normal', 'yaw': -0.21, 'datetime': '2018-10-09 23:44:16.770922', 'mgs': 0, 'volt': 0.8105, 'depth': 0.165, 'time': 6, 'pitch': -2.87, 'roll': -0.74, 'pres': 166}
{'lipoC2': 7.29, 'lipoC3S1': 3.82, 'temp': 30.19, 'lipoC3S3': 11.54, 'lipoC3S2': 7.65, 'rot1': 0, 'rot0': 0, 'rot3': 0, 'rot2': 0, 'state': 'normal', 'yaw': -0.54, 'datetime': '2018-10-09 23:44:16.874020', 'mgs': 0, 'volt': 0.8154, 'depth': 0.241, 'time': 6, 'pitch': -3.01, 'roll': -0.78, 'pres': 167}
{'lipoC2': 7.29, 'lipoC3S1': 3.82, 'temp': 30.25, 'lipoC3S3': 11.54, 'lipoC3S2': 7.65, 'rot1': 0, 'rot0': 0, 'rot3': 0, 'rot2': 0, 'state': 'normal', 'yaw': -1.0, 'datetime': '2018-10-09 23:44:16.977254', 'mgs': 0, 'volt': 0.8154, 'depth': 0.241, 'time': 6, 'pitch': -3.65, 'roll': -1.57, 'pres': 167}
{'lipoC2': 7.29, 'lipoC3S1': 3.82, 'temp': 30.25, 'lipoC3S3': 11.54, 'lipoC3S2': 7.65, 'rot1': 0, 'rot0': 0, 'rot3': 0, 'rot2': 0, 'state': 'normal', 'yaw': -1.36, 'datetime': '2018-10-09 23:44:17.080493', 'mgs': 0, 'volt': 0.8154, 'depth': 0.241, 'time': 6, 'pitch': -4.36, 'roll': -2.83, 'pres': 167}
{'lipoC2': 7.29, 'lipoC3S1': 3.82, 'temp': 30.19, 'lipoC3S3': 11.54, 'lipoC3S2': 7.65, 'rot1': 0, 'rot0': 0, 'rot3': 0, 'rot2': 0, 'state': 'normal', 'yaw': -1.63, 'datetime': '2018-10-09 23:44:17.185131', 'mgs': 0, 'volt': 0.8154, 'depth': 0.241, 'time': 7, 'pitch': -4.54, 'roll': -4.08, 'pres': 167}
{'lipoC2': 7.29, 'lipoC3S1': 3.82, 'temp': 30.19, 'lipoC3S3': 11.54, 'lipoC3S2': 7.65, 'rot1': 0, 'rot0': 0, 'rot3': 0, 'rot2': 0, 'state': 'normal', 'yaw': -2.08, 'datetime': '2018-10-09 23:44:17.288217', 'mgs': 0, 'volt': 0.8154, 'depth': 0.241, 'time': 7, 'pitch': -3.97, 'roll': -4.67, 'pres': 167}
{'lipoC2': 7.29, 'lipoC3S1': 3.82, 'temp': 30.19, 'lipoC3S3': 11.54, 'lipoC3S2': 7.65, 'rot1': 0, 'rot0': 0, 'rot3': 0, 'rot2': 0, 'state': 'normal', 'yaw': -2.81, 'datetime': '2018-10-09 23:44:17.392108', 'mgs': 0, 'volt': 0.8154, 'depth': 0.241, 'time': 7, 'pitch': -3.17, 'roll': -4.16, 'pres': 167}
{'lipoC2': 7.29, 'lipoC3S1': 3.82, 'temp': 30.19, 'lipoC3S3': 11.54, 'lipoC3S2': 7.65, 'rot1': 0, 'rot0': 0, 'rot3': 0, 'rot2': 0, 'state': 'normal', 'yaw': -3.79, 'datetime': '2018-10-09 23:44:17.496453', 'mgs': 0, 'volt': 0.8105, 'depth': 0.165, 'time': 7, 'pitch': -2.79, 'roll': -2.99, 'pres': 166}
{'lipoC2': 7.29, 'lipoC3S1': 3.82, 'temp': 30.19, 'lipoC3S3': 11.54, 'lipoC3S2': 7.65, 'rot1': 0, 'rot0': 0, 'rot3': 0, 'rot2': 0, 'state': 'normal', 'yaw': -4.82, 'datetime': '2018-10-09 23:44:17.599598', 'mgs': 0, 'volt': 0.8154, 'depth': 0.241, 'time': 7, 'pitch': -3.22, 'roll': -1.91, 'pres': 167}
{'lipoC2': 7.29, 'lipoC3S1': 3.82, 'temp': 30.25, 'lipoC3S3': 11.54, 'lipoC3S2': 7.65, 'rot1': 0, 'rot0': 0, 'rot3': 0, 'rot2': 0, 'state': 'normal', 'yaw': -5.44, 'datetime': '2018-10-09 23:44:17.704091', 'mgs': 0, 'volt': 0.8154, 'depth': 0.241, 'time': 7, 'pitch': -4.15, 'roll': -1.78, 'pres': 167}
{'lipoC2': 7.29, 'lipoC3S1': 3.82, 'temp': 30.25, 'lipoC3S3': 11.54, 'lipoC3S2': 7.65, 'rot1': 0, 'rot0': 0, 'rot3': 0, 'rot2': 0, 'state': 'normal', 'yaw': -5.68, 'datetime': '2018-10-09 23:44:17.807796', 'mgs': 0, 'volt': 0.8203, 'depth': 0.317, 'time': 7, 'pitch': -5.11, 'roll': -2.75, 'pres': 168}
{'lipoC2': 7.29, 'lipoC3S1': 3.82, 'temp': 30.25, 'lipoC3S3': 11.54, 'lipoC3S2': 7.65, 'rot1': 0, 'rot0': 0, 'rot3': 0, 'rot2': 0, 'state': 'normal', 'yaw': -5.57, 'datetime': '2018-10-09 23:44:17.910992', 'mgs': 0, 'volt': 0.8203, 'depth': 0.317, 'time': 7, 'pitch': -5.42, 'roll': -4.08, 'pres': 168}
{'lipoC2': 7.29, 'lipoC3S1': 3.82, 'temp': 30.25, 'lipoC3S3': 11.54, 'lipoC3S2': 7.65, 'rot1': 0, 'rot0': 0, 'rot3': 0, 'rot2': 0, 'state': 'normal', 'yaw': -5.34, 'datetime': '2018-10-09 23:44:18.014566', 'mgs': 0, 'volt': 0.8154, 'depth': 0.241, 'time': 7, 'pitch': -5.11, 'roll': -4.98, 'pres': 167}
{'lipoC2': 7.29, 'lipoC3S1': 3.82, 'temp': 30.19, 'lipoC3S3': 11.54, 'lipoC3S2': 7.65, 'rot1': 0, 'rot0': 0, 'rot3': 0, 'rot2': 0, 'state': 'normal', 'yaw': -5.11, 'datetime': '2018-10-09 23:44:18.117740', 'mgs': 0, 'volt': 0.8154, 'depth': 0.241, 'time': 7, 'pitch': -4.6, 'roll': -5.0, 'pres': 167}
{'lipoC2': 7.29, 'lipoC3S1': 3.82, 'temp': 30.19, 'lipoC3S3': 11.54, 'lipoC3S2': 7.65, 'rot1': 0, 'rot0': 0, 'rot3': 0, 'rot2': 0, 'state': 'normal', 'yaw': -4.82, 'datetime': '2018-10-09 23:44:18.221012', 'mgs': 0, 'volt': 0.8154, 'depth': 0.241, 'time': 8, 'pitch': -4.68, 'roll': -3.94, 'pres': 167}
{'lipoC2': 7.29, 'lipoC3S1': 3.82, 'temp': 30.19, 'lipoC3S3': 11.54, 'lipoC3S2': 7.65, 'rot1': 0, 'rot0': 0, 'rot3': 0, 'rot2': 0, 'state': 'normal', 'yaw': -4.36, 'datetime': '2018-10-09 23:44:18.324219', 'mgs': 0, 'volt': 0.8105, 'depth': 0.165, 'time': 8, 'pitch': -5.34, 'roll': -2.53, 'pres': 166}
{'lipoC2': 7.29, 'lipoC3S1': 3.82, 'temp': 30.25, 'lipoC3S3': 11.54, 'lipoC3S2': 7.65, 'rot1': 0, 'rot0': 0, 'rot3': 0, 'rot2': 0, 'state': 'normal', 'yaw': -3.58, 'datetime': '2018-10-09 23:44:18.427433', 'mgs': 0, 'volt': 0.8105, 'depth': 0.165, 'time': 8, 'pitch': -5.8, 'roll': -1.34, 'pres': 166}
{'lipoC2': 7.29, 'lipoC3S1': 3.82, 'temp': 30.25, 'lipoC3S3': 11.54, 'lipoC3S2': 7.65, 'rot1': 0, 'rot0': 0, 'rot3': 0, 'rot2': 0, 'state': 'normal', 'yaw': -2.42, 'datetime': '2018-10-09 23:44:18.530703', 'mgs': 0, 'volt': 0.8105, 'depth': 0.165, 'time': 8, 'pitch': -5.9, 'roll': -0.83, 'pres': 166}
{'lipoC2': 7.29, 'lipoC3S1': 3.82, 'temp': 30.19, 'lipoC3S3': 11.54, 'lipoC3S2': 7.65, 'rot1': 0, 'rot0': 0, 'rot3': 0, 'rot2': 0, 'state': 'normal', 'yaw': -1.45, 'datetime': '2018-10-09 23:44:18.633944', 'mgs': 0, 'volt': 0.8154, 'depth': 0.241, 'time': 8, 'pitch': -5.92, 'roll': -1.16, 'pres': 167}
{'lipoC2': 7.29, 'lipoC3S1': 3.82, 'temp': 30.19, 'lipoC3S3': 11.54, 'lipoC3S2': 7.65, 'rot1': 0, 'rot0': 0, 'rot3': 0, 'rot2': 0, 'state': 'normal', 'yaw': -0.84, 'datetime': '2018-10-09 23:44:18.738539', 'mgs': 0, 'volt': 0.8154, 'depth': 0.241, 'time': 8, 'pitch': -6.12, 'roll': -1.83, 'pres': 167}
{'lipoC2': 7.29, 'lipoC3S1': 3.82, 'temp': 30.25, 'lipoC3S3': 11.54, 'lipoC3S2': 7.65, 'rot1': 0, 'rot0': 0, 'rot3': 0, 'rot2': 0, 'state': 'normal', 'yaw': -0.56, 'datetime': '2018-10-09 23:44:18.841649', 'mgs': 0, 'volt': 0.8154, 'depth': 0.241, 'time': 8, 'pitch': -6.59, 'roll': -2.41, 'pres': 167}
{'lipoC2': 7.29, 'lipoC3S1': 3.82, 'temp': 30.25, 'lipoC3S3': 11.54, 'lipoC3S2': 7.65, 'rot1': 0, 'rot0': 0, 'rot3': 0, 'rot2': 0, 'state': 'normal', 'yaw': -0.6, 'datetime': '2018-10-09 23:44:18.945591', 'mgs': 0, 'volt': 0.8154, 'depth': 0.241, 'time': 8, 'pitch': -7.07, 'roll': -2.49, 'pres': 167}
{'lipoC2': 7.29, 'lipoC3S1': 3.82, 'temp': 30.25, 'lipoC3S3': 11.54, 'lipoC3S2': 7.65, 'rot1': 0, 'rot0': 0, 'rot3': 0, 'rot2': 0, 'state': 'normal', 'yaw': -0.91, 'datetime': '2018-10-09 23:44:19.049781', 'mgs': 0, 'volt': 0.8154, 'depth': 0.241, 'time': 8, 'pitch': -7.15, 'roll': -2.02, 'pres': 167}
{'lipoC2': 7.29, 'lipoC3S1': 3.82, 'temp': 30.19, 'lipoC3S3': 11.54, 'lipoC3S2': 7.65, 'rot1': 0, 'rot0': 0, 'rot3': 0, 'rot2': 0, 'state': 'normal', 'yaw': -1.31, 'datetime': '2018-10-09 23:44:19.152980', 'mgs': 0, 'volt': 0.8105, 'depth': 0.165, 'time': 9, 'pitch': -6.74, 'roll': -1.27, 'pres': 166}
{'lipoC2': 7.29, 'lipoC3S1': 3.82, 'temp': 30.19, 'lipoC3S3': 11.54, 'lipoC3S2': 7.65, 'rot1': 0, 'rot0': 0, 'rot3': 0, 'rot2': 0, 'state': 'normal', 'yaw': -1.7, 'datetime': '2018-10-09 23:44:19.257534', 'mgs': 0, 'volt': 0.8057, 'depth': 0.089, 'time': 9, 'pitch': -6.5, 'roll': -0.73, 'pres': 165}
{'lipoC2': 7.29, 'lipoC3S1': 3.82, 'temp': 30.19, 'lipoC3S3': 11.54, 'lipoC3S2': 7.65, 'rot1': 0, 'rot0': 0, 'rot3': 0, 'rot2': 0, 'state': 'normal', 'yaw': -2.08, 'datetime': '2018-10-09 23:44:19.361199', 'mgs': 0, 'volt': 0.8105, 'depth': 0.165, 'time': 9, 'pitch': -6.59, 'roll': -0.66, 'pres': 166}
{'lipoC2': 7.29, 'lipoC3S1': 3.82, 'temp': 30.19, 'lipoC3S3': 11.54, 'lipoC3S2': 7.65, 'rot1': 0, 'rot0': 0, 'rot3': 0, 'rot2': 0, 'state': 'normal', 'yaw': -2.23, 'datetime': '2018-10-09 23:44:19.464466', 'mgs': 0, 'volt': 0.8057, 'depth': 0.089, 'time': 9, 'pitch': -7.01, 'roll': -1.29, 'pres': 165}
{'lipoC2': 7.29, 'lipoC3S1': 3.82, 'temp': 30.19, 'lipoC3S3': 11.54, 'lipoC3S2': 7.65, 'rot1': 0, 'rot0': 0, 'rot3': 0, 'rot2': 0, 'state': 'normal', 'yaw': -2.21, 'datetime': '2018-10-09 23:44:19.567670', 'mgs': 0, 'volt': 0.8105, 'depth': 0.165, 'time': 9, 'pitch': -7.51, 'roll': -2.42, 'pres': 166}
{'lipoC2': 7.29, 'lipoC3S1': 3.82, 'temp': 30.25, 'lipoC3S3': 11.54, 'lipoC3S2': 7.65, 'rot1': 0, 'rot0': 0, 'rot3': 0, 'rot2': 0, 'state': 'normal', 'yaw': -2.31, 'datetime': '2018-10-09 23:44:19.671175', 'mgs': 0, 'volt': 0.8057, 'depth': 0.089, 'time': 9, 'pitch': -7.84, 'roll': -3.67, 'pres': 165}
{'lipoC2': 7.29, 'lipoC3S1': 3.82, 'temp': 30.25, 'lipoC3S3': 11.54, 'lipoC3S2': 7.65, 'rot1': 0, 'rot0': 0, 'rot3': 0, 'rot2': 0, 'state': 'normal', 'yaw': -2.69, 'datetime': '2018-10-09 23:44:19.774344', 'mgs': 0, 'volt': 0.8057, 'depth': 0.089, 'time': 9, 'pitch': -7.87, 'roll': -4.74, 'pres': 165}
{'lipoC2': 7.29, 'lipoC3S1': 3.82, 'temp': 30.25, 'lipoC3S3': 11.54, 'lipoC3S2': 7.65, 'rot1': 0, 'rot0': 0, 'rot3': 0, 'rot2': 0, 'state': 'normal', 'yaw': -3.25, 'datetime': '2018-10-09 23:44:19.877721', 'mgs': 0, 'volt': 0.8057, 'depth': 0.089, 'time': 9, 'pitch': -7.55, 'roll': -5.09, 'pres': 165}
{'lipoC2': 7.29, 'lipoC3S1': 3.82, 'temp': 30.25, 'lipoC3S3': 11.54, 'lipoC3S2': 7.65, 'rot1': 0, 'rot0': 0, 'rot3': 0, 'rot2': 0, 'state': 'normal', 'yaw': -3.76, 'datetime': '2018-10-09 23:44:19.980924', 'mgs': 0, 'volt': 0.8057, 'depth': 0.089, 'time': 9, 'pitch': -7.08, 'roll': -4.83, 'pres': 165}
{'lipoC2': 7.29, 'lipoC3S1': 3.82, 'temp': 30.19, 'lipoC3S3': 11.54, 'lipoC3S2': 7.65, 'rot1': 0, 'rot0': 0, 'rot3': 0, 'rot2': 0, 'state': 'normal', 'yaw': -3.98, 'datetime': '2018-10-09 23:44:20.084152', 'mgs': 1, 'volt': 0.8057, 'depth': 0.089, 'time': 9, 'pitch': -6.61, 'roll': -4.21, 'pres': 165}
{'lipoC2': 7.29, 'lipoC3S1': 3.82, 'temp': 30.13, 'lipoC3S3': 11.54, 'lipoC3S2': 7.65, 'rot1': 0, 'rot0': 0, 'rot3': 0, 'rot2': 0, 'state': 'normal', 'yaw': 0.09, 'datetime': '2018-10-09 23:44:24.612720', 'mgs': 1, 'volt': 0.8105, 'depth': 0.165, 'time': 1, 'pitch': -8.33, 'roll': -2.57, 'pres': 166}
{'lipoC2': 7.29, 'lipoC3S1': 3.82, 'temp': 30.13, 'lipoC3S3': 11.54, 'lipoC3S2': 7.65, 'rot1': 0, 'rot0': 0, 'rot3': 0, 'rot2': 0, 'state': 'normal', 'yaw': 0.81, 'datetime': '2018-10-09 23:44:27.671031', 'mgs': 1, 'volt': 0.8154, 'depth': 0.241, 'time': 1, 'pitch': -8.22, 'roll': -2.53, 'pres': 167}
{'lipoC2': 7.29, 'lipoC3S1': 3.82, 'temp': 30.19, 'lipoC3S3': 11.54, 'lipoC3S2': 7.65, 'rot1': 0, 'rot0': 0, 'rot3': 0, 'rot2': 0, 'state': 'normal', 'yaw': 1.36, 'datetime': '2018-10-09 23:44:27.708219', 'mgs': 1, 'volt': 0.8154, 'depth': 0.241, 'time': 1, 'pitch': -7.07, 'roll': -2.55, 'pres': 167}
{'lipoC2': 7.29, 'lipoC3S1': 3.82, 'temp': 30.19, 'lipoC3S3': 11.54, 'lipoC3S2': 7.65, 'rot1': 0, 'rot0': 0, 'rot3': 0, 'rot2': 0, 'state': 'normal', 'yaw': 1.68, 'datetime': '2018-10-09 23:44:27.728455', 'mgs': 1, 'volt': 0.8154, 'depth': 0.241, 'time': 1, 'pitch': -4.77, 'roll': -2.59, 'pres': 167}
{'lipoC2': 7.29, 'lipoC3S1': 3.82, 'temp': 30.19, 'lipoC3S3': 11.54, 'lipoC3S2': 7.65, 'rot1': 0, 'rot0': 0, 'rot3': 0, 'rot2': 0, 'state': 'normal', 'yaw': 1.83, 'datetime': '2018-10-09 23:44:27.748548', 'mgs': 1, 'volt': 0.8154, 'depth': 0.241, 'time': 1, 'pitch': -2.5, 'roll': -2.67, 'pres': 167}
{'lipoC2': 7.29, 'lipoC3S1': 3.82, 'temp': 30.19, 'lipoC3S3': 11.54, 'lipoC3S2': 7.65, 'rot1': 0, 'rot0': 0, 'rot3': 0, 'rot2': 0, 'state': 'normal', 'yaw': 1.93, 'datetime': '2018-10-09 23:44:27.767593', 'mgs': 1, 'volt': 0.8203, 'depth': 0.317, 'time': 1, 'pitch': -1.19, 'roll': -2.84, 'pres': 168}
{'lipoC2': 7.29, 'lipoC3S1': 3.82, 'temp': 30.19, 'lipoC3S3': 11.54, 'lipoC3S2': 7.65, 'rot1': 0, 'rot0': 0, 'rot3': 0, 'rot2': 0, 'state': 'normal', 'yaw': 1.93, 'datetime': '2018-10-09 23:44:27.780718', 'mgs': 0, 'volt': 0.8203, 'depth': 0.317, 'time': 1, 'pitch': -0.92, 'roll': -3.01, 'pres': 168}
{'lipoC2': 7.29, 'lipoC3S1': 3.82, 'temp': 30.19, 'lipoC3S3': 11.54, 'lipoC3S2': 7.65, 'rot1': 0, 'rot0': 0, 'rot3': 0, 'rot2': 0, 'state': 'normal', 'yaw': 1.77, 'datetime': '2018-10-09 23:44:27.799757', 'mgs': 0, 'volt': 0.8203, 'depth': 0.317, 'time': 1, 'pitch': -1.37, 'roll': -3.13, 'pres': 168}
{'lipoC2': 7.29, 'lipoC3S1': 3.82, 'temp': 30.19, 'lipoC3S3': 11.54, 'lipoC3S2': 7.65, 'rot1': 0, 'rot0': 0, 'rot3': 0, 'rot2': 0, 'state': 'normal', 'yaw': 1.54, 'datetime': '2018-10-09 23:44:27.818749', 'mgs': 1, 'volt': 0.8252, 'depth': 0.394, 'time': 2, 'pitch': -2.14, 'roll': -3.2, 'pres': 169}
{'lipoC2': 7.29, 'lipoC3S1': 3.82, 'temp': 30.25, 'lipoC3S3': 11.55, 'lipoC3S2': 7.65, 'rot1': 0, 'rot0': 0, 'rot3': 0, 'rot2': 0, 'state': 'normal', 'yaw': 1.34, 'datetime': '2018-10-09 23:44:27.831978', 'mgs': 0, 'volt': 0.8252, 'depth': 0.394, 'time': 2, 'pitch': -3.03, 'roll': -3.44, 'pres': 169}
{'lipoC2': 7.29, 'lipoC3S1': 3.82, 'temp': 30.25, 'lipoC3S3': 11.54, 'lipoC3S2': 7.65, 'rot1': 0, 'rot0': 0, 'rot3': 0, 'rot2': 0, 'state': 'normal', 'yaw': 1.18, 'datetime': '2018-10-09 23:44:27.850740', 'mgs': 0, 'volt': 0.8252, 'depth': 0.394, 'time': 2, 'pitch': -3.78, 'roll': -3.69, 'pres': 169}
{'lipoC2': 7.29, 'lipoC3S1': 3.82, 'temp': 30.25, 'lipoC3S3': 11.54, 'lipoC3S2': 7.65, 'rot1': 0, 'rot0': 0, 'rot3': 0, 'rot2': 0, 'state': 'normal', 'yaw': 0.86, 'datetime': '2018-10-09 23:44:27.866769', 'mgs': 0, 'volt': 0.8252, 'depth': 0.394, 'time': 2, 'pitch': -3.85, 'roll': -3.71, 'pres': 169}
{'lipoC2': 7.29, 'lipoC3S1': 3.82, 'temp': 30.19, 'lipoC3S3': 11.54, 'lipoC3S2': 7.65, 'rot1': 0, 'rot0': 0, 'rot3': 0, 'rot2': 0, 'state': 'normal', 'yaw': 0.18, 'datetime': '2018-10-09 23:44:27.879877', 'mgs': 0, 'volt': 0.8203, 'depth': 0.317, 'time': 2, 'pitch': -3.12, 'roll': -3.48, 'pres': 168}
{'lipoC2': 7.29, 'lipoC3S1': 3.82, 'temp': 30.19, 'lipoC3S3': 11.54, 'lipoC3S2': 7.65, 'rot1': 0, 'rot0': 0, 'rot3': 0, 'rot2': 0, 'state': 'normal', 'yaw': -0.83, 'datetime': '2018-10-09 23:44:27.898903', 'mgs': 0, 'volt': 0.8252, 'depth': 0.394, 'time': 2, 'pitch': -2.18, 'roll': -3.14, 'pres': 169}
{'lipoC2': 7.29, 'lipoC3S1': 3.82, 'temp': 30.19, 'lipoC3S3': 11.54, 'lipoC3S2': 7.65, 'rot1': 0, 'rot0': 0, 'rot3': 0, 'rot2': 0, 'state': 'normal', 'yaw': -2.05, 'datetime': '2018-10-09 23:44:27.917951', 'mgs': 0, 'volt': 0.8203, 'depth': 0.317, 'time': 2, 'pitch': -1.82, 'roll': -2.9, 'pres': 168}
{'lipoC2': 7.29, 'lipoC3S1': 3.82, 'temp': 30.19, 'lipoC3S3': 11.54, 'lipoC3S2': 7.65, 'rot1': 0, 'rot0': 0, 'rot3': 0, 'rot2': 0, 'state': 'normal', 'yaw': -2.9, 'datetime': '2018-10-09 23:44:27.931058', 'mgs': 0, 'volt': 0.8203, 'depth': 0.317, 'time': 2, 'pitch': -2.36, 'roll': -2.86, 'pres': 168}
{'lipoC2': 7.29, 'lipoC3S1': 3.82, 'temp': 30.19, 'lipoC3S3': 11.54, 'lipoC3S2': 7.65, 'rot1': 0, 'rot0': 0, 'rot3': 0, 'rot2': 0, 'state': 'normal', 'yaw': -3.41, 'datetime': '2018-10-09 23:44:27.950309', 'mgs': 0, 'volt': 0.8203, 'depth': 0.317, 'time': 2, 'pitch': -3.56, 'roll': -2.85, 'pres': 168}
{'lipoC2': 7.29, 'lipoC3S1': 3.82, 'temp': 30.19, 'lipoC3S3': 11.55, 'lipoC3S2': 7.65, 'rot1': 0, 'rot0': 0, 'rot3': 0, 'rot2': 0, 'state': 'normal', 'yaw': -3.58, 'datetime': '2018-10-09 23:44:27.966185', 'mgs': 0, 'volt': 0.8203, 'depth': 0.317, 'time': 3, 'pitch': -5.01, 'roll': -2.54, 'pres': 168}
{'lipoC2': 7.29, 'lipoC3S1': 3.82, 'temp': 30.19, 'lipoC3S3': 11.55, 'lipoC3S2': 7.65, 'rot1': 0, 'rot0': 0, 'rot3': 0, 'rot2': 0, 'state': 'normal', 'yaw': -3.36, 'datetime': '2018-10-09 23:44:27.979310', 'mgs': 0, 'volt': 0.8203, 'depth': 0.317, 'time': 3, 'pitch': -6.12, 'roll': -1.85, 'pres': 168}
{'lipoC2': 7.29, 'lipoC3S1': 3.82, 'temp': 30.19, 'lipoC3S3': 11.54, 'lipoC3S2': 7.65, 'rot1': 0, 'rot0': 0, 'rot3': 0, 'rot2': 0, 'state': 'normal', 'yaw': -2.89, 'datetime': '2018-10-09 23:44:27.998367', 'mgs': 0, 'volt': 0.8154, 'depth': 0.241, 'time': 3, 'pitch': -6.34, 'roll': -1.04, 'pres': 167}
{'lipoC2': 7.29, 'lipoC3S1': 3.82, 'temp': 30.19, 'lipoC3S3': 11.55, 'lipoC3S2': 7.65, 'rot1': 0, 'rot0': 0, 'rot3': 0, 'rot2': 0, 'state': 'normal', 'yaw': -2.39, 'datetime': '2018-10-09 23:44:28.017351', 'mgs': 0, 'volt': 0.8154, 'depth': 0.241, 'time': 3, 'pitch': -5.78, 'roll': -0.25, 'pres': 167}
{'lipoC2': 7.29, 'lipoC3S1': 3.82, 'temp': 30.25, 'lipoC3S3': 11.54, 'lipoC3S2': 7.65, 'rot1': 0, 'rot0': 0, 'rot3': 0, 'rot2': 0, 'state': 'normal', 'yaw': -1.78, 'datetime': '2018-10-09 23:44:28.030469', 'mgs': 0, 'volt': 0.8154, 'depth': 0.241, 'time': 3, 'pitch': -4.79, 'roll': 0.24, 'pres': 167}
{'lipoC2': 7.29, 'lipoC3S1': 3.82, 'temp': 30.25, 'lipoC3S3': 11.54, 'lipoC3S2': 7.65, 'rot1': 0, 'rot0': 0, 'rot3': 0, 'rot2': 0, 'state': 'normal', 'yaw': -1.36, 'datetime': '2018-10-09 23:44:28.049066', 'mgs': 0, 'volt': 0.8154, 'depth': 0.241, 'time': 3, 'pitch': -4.37, 'roll': 0.16, 'pres': 167}
{'lipoC2': 7.29, 'lipoC3S1': 3.82, 'temp': 30.19, 'lipoC3S3': 11.54, 'lipoC3S2': 7.65, 'rot1': 0, 'rot0': 0, 'rot3': 0, 'rot2': 0, 'state': 'normal', 'yaw': -1.24, 'datetime': '2018-10-09 23:44:28.067277', 'mgs': 0, 'volt': 0.8154, 'depth': 0.241, 'time': 3, 'pitch': -4.99, 'roll': -0.02, 'pres': 167}
{'lipoC2': 7.29, 'lipoC3S1': 3.82, 'temp': 30.19, 'lipoC3S3': 11.54, 'lipoC3S2': 7.65, 'rot1': 0, 'rot0': 0, 'rot3': 0, 'rot2': 0, 'state': 'normal', 'yaw': -1.42, 'datetime': '2018-10-09 23:44:28.080525', 'mgs': 0, 'volt': 0.8154, 'depth': 0.241, 'time': 3, 'pitch': -6.6, 'roll': 0.09, 'pres': 167}
{'lipoC2': 7.29, 'lipoC3S1': 3.82, 'temp': 30.19, 'lipoC3S3': 11.54, 'lipoC3S2': 7.65, 'rot1': 0, 'rot0': 0, 'rot3': 0, 'rot2': 0, 'state': 'normal', 'yaw': -1.52, 'datetime': '2018-10-09 23:44:28.099799', 'mgs': 0, 'volt': 0.8154, 'depth': 0.241, 'time': 3, 'pitch': -8.04, 'roll': 0.6, 'pres': 167}
{'lipoC2': 7.29, 'lipoC3S1': 3.82, 'temp': 30.25, 'lipoC3S3': 11.55, 'lipoC3S2': 7.65, 'rot1': 0, 'rot0': 0, 'rot3': 0, 'rot2': 0, 'state': 'normal', 'yaw': -1.33, 'datetime': '2018-10-09 23:44:28.118869', 'mgs': 0, 'volt': 0.8154, 'depth': 0.241, 'time': 3, 'pitch': -8.87, 'roll': 1.38, 'pres': 167}
{'lipoC2': 7.29, 'lipoC3S1': 3.82, 'temp': 30.25, 'lipoC3S3': 11.55, 'lipoC3S2': 7.65, 'rot1': 0, 'rot0': 0, 'rot3': 0, 'rot2': 0, 'state': 'normal', 'yaw': -0.66, 'datetime': '2018-10-09 23:44:28.131990', 'mgs': 0, 'volt': 0.8105, 'depth': 0.165, 'time': 4, 'pitch': -8.98, 'roll': 2.0, 'pres': 166}
{'lipoC2': 7.29, 'lipoC3S1': 3.82, 'temp': 30.25, 'lipoC3S3': 11.55, 'lipoC3S2': 7.65, 'rot1': 0, 'rot0': 0, 'rot3': 0, 'rot2': 0, 'state': 'normal', 'yaw': 0.53, 'datetime': '2018-10-09 23:44:28.149205', 'mgs': 0, 'volt': 0.8057, 'depth': 0.089, 'time': 4, 'pitch': -8.26, 'roll': 2.06, 'pres': 165}
{'lipoC2': 7.29, 'lipoC3S1': 3.82, 'temp': 30.25, 'lipoC3S3': 11.55, 'lipoC3S2': 7.65, 'rot1': 0, 'rot0': 0, 'rot3': 0, 'rot2': 0, 'state': 'normal', 'yaw': 1.64, 'datetime': '2018-10-09 23:44:28.166770', 'mgs': 0, 'volt': 0.8105, 'depth': 0.165, 'time': 4, 'pitch': -6.95, 'roll': 1.46, 'pres': 166}
{'lipoC2': 7.29, 'lipoC3S1': 3.82, 'temp': 30.25, 'lipoC3S3': 11.55, 'lipoC3S2': 7.65, 'rot1': 0, 'rot0': 0, 'rot3': 0, 'rot2': 0, 'state': 'normal', 'yaw': 2.21, 'datetime': '2018-10-09 23:44:28.179834', 'mgs': 0, 'volt': 0.8057, 'depth': 0.089, 'time': 4, 'pitch': -5.56, 'roll': 0.48, 'pres': 165}
{'lipoC2': 7.29, 'lipoC3S1': 3.82, 'temp': 30.25, 'lipoC3S3': 11.54, 'lipoC3S2': 7.65, 'rot1': 0, 'rot0': 0, 'rot3': 0, 'rot2': 0, 'state': 'normal', 'yaw': 1.88, 'datetime': '2018-10-09 23:44:28.198887', 'mgs': 0, 'volt': 0.8057, 'depth': 0.089, 'time': 4, 'pitch': -5.02, 'roll': -0.49, 'pres': 165}
{'lipoC2': 7.28, 'lipoC3S1': 3.79, 'temp': 30.25, 'lipoC3S3': 11.51, 'lipoC3S2': 7.62, 'rot1': 0, 'rot0': 0, 'rot3': 1, 'rot2': 0, 'state': 'normal', 'yaw': 1.11, 'datetime': '2018-10-09 23:44:28.217888', 'mgs': 0, 'volt': 0.8301, 'depth': 0.47, 'time': 4, 'pitch': -5.81, 'roll': -1.04, 'pres': 170}
{'lipoC2': 7.29, 'lipoC3S1': 3.81, 'temp': 30.19, 'lipoC3S3': 11.5, 'lipoC3S2': 7.64, 'rot1': 0, 'rot0': 0, 'rot3': 2, 'rot2': 1, 'state': 'normal', 'yaw': 0.33, 'datetime': '2018-10-09 23:44:28.231063', 'mgs': 0, 'volt': 0.8203, 'depth': 0.317, 'time': 4, 'pitch': -7.06, 'roll': -1.12, 'pres': 168}
{'lipoC2': 7.29, 'lipoC3S1': 3.8, 'temp': 30.19, 'lipoC3S3': 11.51, 'lipoC3S2': 7.61, 'rot1': 0, 'rot0': 0, 'rot3': 3, 'rot2': 2, 'state': 'normal', 'yaw': -0.34, 'datetime': '2018-10-09 23:44:28.250577', 'mgs': 0, 'volt': 0.8057, 'depth': 0.089, 'time': 4, 'pitch': -8.21, 'roll': -0.79, 'pres': 165}
{'lipoC2': 7.28, 'lipoC3S1': 3.8, 'temp': 30.25, 'lipoC3S3': 11.52, 'lipoC3S2': 7.64, 'rot1': 0, 'rot0': 0, 'rot3': 4, 'rot2': 2, 'state': 'normal', 'yaw': -0.65, 'datetime': '2018-10-09 23:44:28.269181', 'mgs': 0, 'volt': 0.8105, 'depth': 0.165, 'time': 4, 'pitch': -8.68, 'roll': -0.21, 'pres': 166}
{'lipoC2': 7.29, 'lipoC3S1': 3.81, 'temp': 30.25, 'lipoC3S3': 11.48, 'lipoC3S2': 7.63, 'rot1': 0, 'rot0': 0, 'rot3': 5, 'rot2': 3, 'state': 'normal', 'yaw': -0.41, 'datetime': '2018-10-09 23:44:28.282232', 'mgs': 0, 'volt': 0.8105, 'depth': 0.165, 'time': 4, 'pitch': -8.54, 'roll': 0.15, 'pres': 166}
{'lipoC2': 7.29, 'lipoC3S1': 3.8, 'temp': 30.25, 'lipoC3S3': 11.52, 'lipoC3S2': 7.63, 'rot1': 0, 'rot0': 0, 'rot3': 6, 'rot2': 4, 'state': 'normal', 'yaw': 0.24, 'datetime': '2018-10-09 23:44:28.301257', 'mgs': 0, 'volt': 0.8105, 'depth': 0.165, 'time': 5, 'pitch': -7.85, 'roll': 0.09, 'pres': 166}
{'lipoC2': 7.28, 'lipoC3S1': 3.81, 'temp': 30.19, 'lipoC3S3': 11.5, 'lipoC3S2': 7.65, 'rot1': 0, 'rot0': 0, 'rot3': 8, 'rot2': 5, 'state': 'normal', 'yaw': 1.11, 'datetime': '2018-10-09 23:44:28.320387', 'mgs': 0, 'volt': 0.8105, 'depth': 0.165, 'time': 5, 'pitch': -6.64, 'roll': -0.54, 'pres': 166}
{'lipoC2': 7.29, 'lipoC3S1': 3.79, 'temp': 30.19, 'lipoC3S3': 11.51, 'lipoC3S2': 7.61, 'rot1': 0, 'rot0': 0, 'rot3': 9, 'rot2': 6, 'state': 'normal', 'yaw': 1.45, 'datetime': '2018-10-09 23:44:28.333526', 'mgs': 0, 'volt': 0.8154, 'depth': 0.241, 'time': 5, 'pitch': -5.59, 'roll': -1.35, 'pres': 167}
{'lipoC2': 7.28, 'lipoC3S1': 3.81, 'temp': 30.19, 'lipoC3S3': 11.47, 'lipoC3S2': 7.63, 'rot1': 0, 'rot0': 0, 'rot3': 10, 'rot2': 7, 'state': 'normal', 'yaw': 1.22, 'datetime': '2018-10-09 23:44:28.353069', 'mgs': 0, 'volt': 0.8105, 'depth': 0.165, 'time': 5, 'pitch': -5.47, 'roll': -2.19, 'pres': 166}
{'lipoC2': 7.29, 'lipoC3S1': 3.81, 'temp': 30.19, 'lipoC3S3': 11.5, 'lipoC3S2': 7.61, 'rot1': 0, 'rot0': 0, 'rot3': 11, 'rot2': 7, 'state': 'normal', 'yaw': 0.52, 'datetime': '2018-10-09 23:44:28.371756', 'mgs': 0, 'volt': 0.8008, 'depth': 0.012, 'time': 5, 'pitch': -6.55, 'roll': -2.85, 'pres': 164}
{'lipoC2': 7.29, 'lipoC3S1': 3.79, 'temp': 30.19, 'lipoC3S3': 11.51, 'lipoC3S2': 7.61, 'rot1': 0, 'rot0': 0, 'rot3': 12, 'rot2': 8, 'state': 'normal', 'yaw': -0.11, 'datetime': '2018-10-09 23:44:28.384921', 'mgs': 0, 'volt': 0.8057, 'depth': 0.089, 'time': 5, 'pitch': -7.73, 'roll': -3.16, 'pres': 165}
{'lipoC2': 7.28, 'lipoC3S1': 3.8, 'temp': 30.19, 'lipoC3S3': 11.51, 'lipoC3S2': 7.63, 'rot1': 0, 'rot0': 0, 'rot3': 13, 'rot2': 9, 'state': 'normal', 'yaw': -0.59, 'datetime': '2018-10-09 23:44:28.404053', 'mgs': 0, 'volt': 0.8203, 'depth': 0.317, 'time': 5, 'pitch': -8.28, 'roll': -3.07, 'pres': 168}
{'lipoC2': 7.28, 'lipoC3S1': 3.81, 'temp': 30.19, 'lipoC3S3': 11.51, 'lipoC3S2': 7.63, 'rot1': 0, 'rot0': 0, 'rot3': 15, 'rot2': 10, 'state': 'normal', 'yaw': -0.69, 'datetime': '2018-10-09 23:44:28.423170', 'mgs': 0, 'volt': 0.8154, 'depth': 0.241, 'time': 5, 'pitch': -7.94, 'roll': -2.57, 'pres': 167}
{'lipoC2': 7.28, 'lipoC3S1': 3.8, 'temp': 30.19, 'lipoC3S3': 11.51, 'lipoC3S2': 7.64, 'rot1': 0, 'rot0': 0, 'rot3': 16, 'rot2': 11, 'state': 'normal', 'yaw': -0.35, 'datetime': '2018-10-09 23:44:28.450232', 'mgs': 0, 'volt': 0.8154, 'depth': 0.241, 'time': 5, 'pitch': -6.72, 'roll': -1.56, 'pres': 167}
{'lipoC2': 7.28, 'lipoC3S1': 3.8, 'temp': 30.19, 'lipoC3S3': 11.47, 'lipoC3S2': 7.63, 'rot1': 0, 'rot0': 0, 'rot3': 17, 'rot2': 12, 'state': 'normal', 'yaw': 0.27, 'datetime': '2018-10-09 23:44:28.483589', 'mgs': 0, 'volt': 0.8203, 'depth': 0.317, 'time': 5, 'pitch': -5.34, 'roll': -0.58, 'pres': 168}
{'lipoC2': 7.28, 'lipoC3S1': 3.8, 'temp': 30.13, 'lipoC3S3': 11.51, 'lipoC3S2': 7.62, 'rot1': 0, 'rot0': 0, 'rot3': 18, 'rot2': 12, 'state': 'normal', 'yaw': 0.97, 'datetime': '2018-10-09 23:44:28.513863', 'mgs': 0, 'volt': 0.8203, 'depth': 0.317, 'time': 6, 'pitch': -4.43, 'roll': -0.09, 'pres': 168}
{'lipoC2': 7.28, 'lipoC3S1': 3.8, 'temp': 30.13, 'lipoC3S3': 11.51, 'lipoC3S2': 7.63, 'rot1': 0, 'rot0': 0, 'rot3': 19, 'rot2': 13, 'state': 'normal', 'yaw': 1.48, 'datetime': '2018-10-09 23:44:28.531668', 'mgs': 0, 'volt': 0.8252, 'depth': 0.394, 'time': 6, 'pitch': -4.72, 'roll': -0.35, 'pres': 169}
{'lipoC2': 7.29, 'lipoC3S1': 3.79, 'temp': 30.19, 'lipoC3S3': 11.51, 'lipoC3S2': 7.61, 'rot1': 0, 'rot0': 0, 'rot3': 21, 'rot2': 14, 'state': 'normal', 'yaw': 1.59, 'datetime': '2018-10-09 23:44:28.547624', 'mgs': 0, 'volt': 0.8008, 'depth': 0.012, 'time': 6, 'pitch': -5.95, 'roll': -1.13, 'pres': 164}
{'lipoC2': 7.29, 'lipoC3S1': 3.81, 'temp': 30.19, 'lipoC3S3': 11.48, 'lipoC3S2': 7.6, 'rot1': 0, 'rot0': 0, 'rot3': 22, 'rot2': 15, 'state': 'normal', 'yaw': 1.51, 'datetime': '2018-10-09 23:44:28.563538', 'mgs': 0, 'volt': 0.8154, 'depth': 0.241, 'time': 6, 'pitch': -7.39, 'roll': -2.05, 'pres': 167}
{'lipoC2': 7.28, 'lipoC3S1': 3.81, 'temp': 30.19, 'lipoC3S3': 11.48, 'lipoC3S2': 7.6, 'rot1': 0, 'rot0': 0, 'rot3': 23, 'rot2': 16, 'state': 'normal', 'yaw': 1.26, 'datetime': '2018-10-09 23:44:28.573743', 'mgs': 0, 'volt': 0.8154, 'depth': 0.241, 'time': 6, 'pitch': -8.18, 'roll': -2.59, 'pres': 167}
{'lipoC2': 7.28, 'lipoC3S1': 3.8, 'temp': 30.13, 'lipoC3S3': 11.51, 'lipoC3S2': 7.63, 'rot1': 0, 'rot0': 0, 'rot3': 24, 'rot2': 17, 'state': 'normal', 'yaw': 1.02, 'datetime': '2018-10-09 23:44:28.589692', 'mgs': 0, 'volt': 0.8154, 'depth': 0.241, 'time': 6, 'pitch': -7.95, 'roll': -2.33, 'pres': 167}
{'lipoC2': 7.29, 'lipoC3S1': 3.8, 'temp': 30.13, 'lipoC3S3': 11.52, 'lipoC3S2': 7.61, 'rot1': 0, 'rot0': 0, 'rot3': 25, 'rot2': 17, 'state': 'normal', 'yaw': 0.99, 'datetime': '2018-10-09 23:44:28.605633', 'mgs': 0, 'volt': 0.8203, 'depth': 0.317, 'time': 6, 'pitch': -7.02, 'roll': -1.47, 'pres': 168}
{'lipoC2': 7.29, 'lipoC3S1': 3.79, 'temp': 30.19, 'lipoC3S3': 11.51, 'lipoC3S2': 7.62, 'rot1': 0, 'rot0': 0, 'rot3': 26, 'rot2': 18, 'state': 'normal', 'yaw': 1.37, 'datetime': '2018-10-09 23:44:28.615179', 'mgs': 0, 'volt': 0.8203, 'depth': 0.317, 'time': 6, 'pitch': -6.03, 'roll': -0.71, 'pres': 168}
{'lipoC2': 7.28, 'lipoC3S1': 3.8, 'temp': 30.19, 'lipoC3S3': 11.51, 'lipoC3S2': 7.62, 'rot1': 0, 'rot0': 0, 'rot3': 28, 'rot2': 19, 'state': 'normal', 'yaw': 1.99, 'datetime': '2018-10-09 23:44:28.630541', 'mgs': 0, 'volt': 0.8154, 'depth': 0.241, 'time': 6, 'pitch': -5.2, 'roll': -0.51, 'pres': 167}
{'lipoC2': 7.29, 'lipoC3S1': 3.79, 'temp': 30.19, 'lipoC3S3': 11.51, 'lipoC3S2': 7.61, 'rot1': 0, 'rot0': 0, 'rot3': 29, 'rot2': 20, 'state': 'normal', 'yaw': 2.54, 'datetime': '2018-10-09 23:44:28.645829', 'mgs': 0, 'volt': 0.8252, 'depth': 0.394, 'time': 7, 'pitch': -4.68, 'roll': -0.97, 'pres': 169}
{'lipoC2': 7.29, 'lipoC3S1': 3.79, 'temp': 30.19, 'lipoC3S3': 11.52, 'lipoC3S2': 7.62, 'rot1': 0, 'rot0': 0, 'rot3': 30, 'rot2': 21, 'state': 'normal', 'yaw': 2.75, 'datetime': '2018-10-09 23:44:28.655344', 'mgs': 0, 'volt': 0.8301, 'depth': 0.47, 'time': 7, 'pitch': -4.64, 'roll': -1.85, 'pres': 170}
{'lipoC2': 7.28, 'lipoC3S1': 3.79, 'temp': 30.19, 'lipoC3S3': 11.51, 'lipoC3S2': 7.62, 'rot1': 0, 'rot0': 0, 'rot3': 31, 'rot2': 21, 'state': 'normal', 'yaw': 2.6, 'datetime': '2018-10-09 23:44:28.670775', 'mgs': 0, 'volt': 0.8252, 'depth': 0.394, 'time': 7, 'pitch': -5.07, 'roll': -2.55, 'pres': 169}
{'lipoC2': 7.28, 'lipoC3S1': 3.8, 'temp': 30.25, 'lipoC3S3': 11.51, 'lipoC3S2': 7.62, 'rot1': 0, 'rot0': 0, 'rot3': 32, 'rot2': 22, 'state': 'normal', 'yaw': 2.36, 'datetime': '2018-10-09 23:44:28.686115', 'mgs': 0, 'volt': 0.8252, 'depth': 0.394, 'time': 7, 'pitch': -5.62, 'roll': -2.84, 'pres': 169}
{'lipoC2': 7.28, 'lipoC3S1': 3.8, 'temp': 30.25, 'lipoC3S3': 11.51, 'lipoC3S2': 7.63, 'rot1': 0, 'rot0': 0, 'rot3': 33, 'rot2': 23, 'state': 'normal', 'yaw': 2.09, 'datetime': '2018-10-09 23:44:28.695584', 'mgs': 0, 'volt': 0.8203, 'depth': 0.317, 'time': 7, 'pitch': -6.33, 'roll': -2.71, 'pres': 168}
{'lipoC2': 7.29, 'lipoC3S1': 3.82, 'temp': 30.25, 'lipoC3S3': 11.54, 'lipoC3S2': 7.64, 'rot1': 0, 'rot0': 0, 'rot3': 34, 'rot2': 24, 'state': 'normal', 'yaw': 1.92, 'datetime': '2018-10-09 23:44:28.710936', 'mgs': 0, 'volt': 0.8057, 'depth': 0.089, 'time': 7, 'pitch': -6.83, 'roll': -2.48, 'pres': 165}
{'lipoC2': 7.29, 'lipoC3S1': 3.81, 'temp': 30.25, 'lipoC3S3': 11.42, 'lipoC3S2': 7.61, 'rot1': 0, 'rot0': 0, 'rot3': 34, 'rot2': 24, 'state': 'normal', 'yaw': 1.82, 'datetime': '2018-10-09 23:44:28.726363', 'mgs': 0, 'volt': 0.8057, 'depth': 0.089, 'time': 7, 'pitch': -7.22, 'roll': -2.38, 'pres': 165}
{'lipoC2': 7.29, 'lipoC3S1': 3.81, 'temp': 30.13, 'lipoC3S3': 11.44, 'lipoC3S2': 7.64, 'rot1': 1, 'rot0': 1, 'rot3': 34, 'rot2': 24, 'state': 'normal', 'yaw': 1.58, 'datetime': '2018-10-09 23:44:28.735931', 'mgs': 0, 'volt': 0.8105, 'depth': 0.165, 'time': 7, 'pitch': -6.89, 'roll': -2.26, 'pres': 166}
{'lipoC2': 7.27, 'lipoC3S1': 3.81, 'temp': 30.13, 'lipoC3S3': 11.51, 'lipoC3S2': 7.63, 'rot1': 2, 'rot0': 2, 'rot3': 34, 'rot2': 24, 'state': 'normal', 'yaw': 1.29, 'datetime': '2018-10-09 23:44:28.751421', 'mgs': 0, 'volt': 0.8398, 'depth': 0.623, 'time': 7, 'pitch': -5.74, 'roll': -1.96, 'pres': 172}
{'lipoC2': 7.29, 'lipoC3S1': 3.75, 'temp': 30.13, 'lipoC3S3': 11.52, 'lipoC3S2': 7.63, 'rot1': 3, 'rot0': 3, 'rot3': 34, 'rot2': 24, 'state': 'normal', 'yaw': 1.01, 'datetime': '2018-10-09 23:44:28.767035', 'mgs': 0, 'volt': 0.8154, 'depth': 0.241, 'time': 7, 'pitch': -4.17, 'roll': -1.51, 'pres': 167}
{'lipoC2': 7.29, 'lipoC3S1': 3.77, 'temp': 30.06, 'lipoC3S3': 11.51, 'lipoC3S2': 7.63, 'rot1': 4, 'rot0': 4, 'rot3': 34, 'rot2': 24, 'state': 'normal', 'yaw': 0.8, 'datetime': '2018-10-09 23:44:28.776695', 'mgs': 0, 'volt': 0.8154, 'depth': 0.241, 'time': 8, 'pitch': -2.67, 'roll': -1.14, 'pres': 167}
{'lipoC2': 7.29, 'lipoC3S1': 3.75, 'temp': 30.06, 'lipoC3S3': 11.51, 'lipoC3S2': 7.63, 'rot1': 5, 'rot0': 6, 'rot3': 34, 'rot2': 24, 'state': 'normal', 'yaw': 0.67, 'datetime': '2018-10-09 23:44:28.792146', 'mgs': 0, 'volt': 0.8252, 'depth': 0.394, 'time': 8, 'pitch': -1.85, 'roll': -1.17, 'pres': 169}
{'lipoC2': 7.29, 'lipoC3S1': 3.81, 'temp': 30.19, 'lipoC3S3': 11.51, 'lipoC3S2': 7.63, 'rot1': 6, 'rot0': 7, 'rot3': 34, 'rot2': 24, 'state': 'normal', 'yaw': 0.62, 'datetime': '2018-10-09 23:44:28.807562', 'mgs': 0, 'volt': 0.8789, 'depth': 1.233, 'time': 8, 'pitch': -1.25, 'roll': -1.55, 'pres': 180}
{'lipoC2': 7.29, 'lipoC3S1': 3.81, 'temp': 30.19, 'lipoC3S3': 11.51, 'lipoC3S2': 7.63, 'rot1': 8, 'rot0': 8, 'rot3': 34, 'rot2': 24, 'state': 'normal', 'yaw': 0.59, 'datetime': '2018-10-09 23:44:28.817154', 'mgs': 0, 'volt': 0.8691, 'depth': 1.08, 'time': 8, 'pitch': -0.39, 'roll': -2.13, 'pres': 178}
{'lipoC2': 7.26, 'lipoC3S1': 3.81, 'temp': 30.13, 'lipoC3S3': 11.5, 'lipoC3S2': 7.63, 'rot1': 9, 'rot0': 9, 'rot3': 34, 'rot2': 24, 'state': 'normal', 'yaw': 0.54, 'datetime': '2018-10-09 23:44:28.832651', 'mgs': 0, 'volt': 0.8496, 'depth': 0.775, 'time': 8, 'pitch': 0.77, 'roll': -2.52, 'pres': 174}
{'lipoC2': 7.28, 'lipoC3S1': 3.81, 'temp': 30.13, 'lipoC3S3': 11.48, 'lipoC3S2': 7.63, 'rot1': 10, 'rot0': 10, 'rot3': 34, 'rot2': 24, 'state': 'normal', 'yaw': 0.49, 'datetime': '2018-10-09 23:44:28.848208', 'mgs': 0, 'volt': 0.835, 'depth': 0.546, 'time': 8, 'pitch': 1.88, 'roll': -2.71, 'pres': 171}
{'lipoC2': 7.29, 'lipoC3S1': 3.81, 'temp': 30.13, 'lipoC3S3': 11.51, 'lipoC3S2': 7.63, 'rot1': 11, 'rot0': 11, 'rot3': 34, 'rot2': 24, 'state': 'normal', 'yaw': 0.47, 'datetime': '2018-10-09 23:44:28.887971', 'mgs': 0, 'volt': 0.8936, 'depth': 1.462, 'time': 8, 'pitch': 2.24, 'roll': -2.87, 'pres': 183}
{'lipoC2': 7.29, 'lipoC3S1': 3.8, 'temp': 30.19, 'lipoC3S3': 11.51, 'lipoC3S2': 7.55, 'rot1': 12, 'rot0': 12, 'rot3': 34, 'rot2': 24, 'state': 'normal', 'yaw': 0.48, 'datetime': '2018-10-09 23:44:28.991545', 'mgs': 0, 'volt': 0.8398, 'depth': 0.623, 'time': 8, 'pitch': 1.95, 'roll': -2.99, 'pres': 172}
{'lipoC2': 7.28, 'lipoC3S1': 3.81, 'temp': 30.19, 'lipoC3S3': 11.3, 'lipoC3S2': 7.57, 'rot1': 13, 'rot0': 13, 'rot3': 35, 'rot2': 24, 'state': 'normal', 'yaw': 0.54, 'datetime': '2018-10-09 23:44:29.095096', 'mgs': 0, 'volt': 0.8398, 'depth': 0.623, 'time': 8, 'pitch': 1.93, 'roll': -2.89, 'pres': 172}
{'lipoC2': 7.29, 'lipoC3S1': 3.81, 'temp': 30.19, 'lipoC3S3': 11.48, 'lipoC3S2': 7.62, 'rot1': 14, 'rot0': 14, 'rot3': 35, 'rot2': 25, 'state': 'normal', 'yaw': 0.6, 'datetime': '2018-10-09 23:44:29.198714', 'mgs': 0, 'volt': 0.8887, 'depth': 1.385, 'time': 8, 'pitch': 3.18, 'roll': -2.53, 'pres': 182}
{'lipoC2': 7.29, 'lipoC3S1': 3.73, 'temp': 30.19, 'lipoC3S3': 11.5, 'lipoC3S2': 7.63, 'rot1': 15, 'rot0': 16, 'rot3': 36, 'rot2': 26, 'state': 'normal', 'yaw': 0.58, 'datetime': '2018-10-09 23:44:29.302976', 'mgs': 0, 'volt': 0.835, 'depth': 0.546, 'time': 9, 'pitch': 4.84, 'roll': -2.2, 'pres': 171}
{'lipoC2': 7.29, 'lipoC3S1': 3.8, 'temp': 30.19, 'lipoC3S3': 11.4, 'lipoC3S2': 7.57, 'rot1': 16, 'rot0': 17, 'rot3': 37, 'rot2': 26, 'state': 'normal', 'yaw': 0.54, 'datetime': '2018-10-09 23:44:29.407513', 'mgs': 0, 'volt': 0.8398, 'depth': 0.623, 'time': 9, 'pitch': 5.81, 'roll': -2.19, 'pres': 172}
{'lipoC2': 7.27, 'lipoC3S1': 3.81, 'temp': 30.19, 'lipoC3S3': 11.43, 'lipoC3S2': 7.62, 'rot1': 17, 'rot0': 18, 'rot3': 37, 'rot2': 27, 'state': 'normal', 'yaw': 0.45, 'datetime': '2018-10-09 23:44:29.510978', 'mgs': 0, 'volt': 0.8545, 'depth': 0.851, 'time': 9, 'pitch': 5.68, 'roll': -2.73, 'pres': 175}
{'lipoC2': 7.29, 'lipoC3S1': 3.81, 'temp': 30.19, 'lipoC3S3': 11.47, 'lipoC3S2': 7.57, 'rot1': 18, 'rot0': 19, 'rot3': 37, 'rot2': 27, 'state': 'normal', 'yaw': 0.29, 'datetime': '2018-10-09 23:44:29.615849', 'mgs': 0, 'volt': 0.8447, 'depth': 0.699, 'time': 9, 'pitch': 4.91, 'roll': -3.45, 'pres': 173}
{'lipoC2': 7.28, 'lipoC3S1': 3.81, 'temp': 30.19, 'lipoC3S3': 11.48, 'lipoC3S2': 7.62, 'rot1': 19, 'rot0': 20, 'rot3': 38, 'rot2': 27, 'state': 'normal', 'yaw': 0.07, 'datetime': '2018-10-09 23:44:29.719360', 'mgs': 0, 'volt': 0.8447, 'depth': 0.699, 'time': 9, 'pitch': 3.93, 'roll': -4.08, 'pres': 173}
{'lipoC2': 7.29, 'lipoC3S1': 3.81, 'temp': 30.19, 'lipoC3S3': 11.51, 'lipoC3S2': 7.63, 'rot1': 20, 'rot0': 21, 'rot3': 38, 'rot2': 27, 'state': 'normal', 'yaw': -0.08, 'datetime': '2018-10-09 23:44:29.822886', 'mgs': 0, 'volt': 0.9082, 'depth': 1.691, 'time': 9, 'pitch': 3.34, 'roll': -4.25, 'pres': 186}
{'lipoC2': 7.28, 'lipoC3S1': 3.81, 'temp': 30.13, 'lipoC3S3': 11.31, 'lipoC3S2': 7.56, 'rot1': 22, 'rot0': 22, 'rot3': 38, 'rot2': 27, 'state': 'normal', 'yaw': -0.13, 'datetime': '2018-10-09 23:44:29.927708', 'mgs': 0, 'volt': 0.8398, 'depth': 0.623, 'time': 9, 'pitch': 3.19, 'roll': -4.0, 'pres': 172}
{'lipoC2': 7.28, 'lipoC3S1': 3.81, 'temp': 30.13, 'lipoC3S3': 11.48, 'lipoC3S2': 7.62, 'rot1': 23, 'rot0': 23, 'rot3': 38, 'rot2': 28, 'state': 'normal', 'yaw': -0.16, 'datetime': '2018-10-09 23:44:30.031279', 'mgs': 0, 'volt': 0.8984, 'depth': 1.538, 'time': 9, 'pitch': 3.61, 'roll': -3.36, 'pres': 184}
{'lipoC2': 7.29, 'lipoC3S1': 3.76, 'temp': 30.19, 'lipoC3S3': 11.5, 'lipoC3S2': 7.59, 'rot1': 24, 'rot0': 24, 'rot3': 39, 'rot2': 28, 'state': 'normal', 'yaw': -0.25, 'datetime': '2018-10-09 23:44:30.134836', 'mgs': 0, 'volt': 0.8398, 'depth': 0.623, 'time': 9, 'pitch': 4.14, 'roll': -2.82, 'pres': 172}
{'lipoC2': 7.29, 'lipoC3S1': 3.81, 'temp': 30.19, 'lipoC3S3': 11.4, 'lipoC3S2': 7.61, 'rot1': 25, 'rot0': 26, 'rot3': 39, 'rot2': 29, 'state': 'normal', 'yaw': -0.46, 'datetime': '2018-10-09 23:44:30.238449', 'mgs': 0, 'volt': 0.8398, 'depth': 0.623, 'time': 10, 'pitch': 4.43, 'roll': -2.78, 'pres': 172}
{'lipoC2': 7.29, 'lipoC3S1': 3.81, 'temp': 30.19, 'lipoC3S3': 11.51, 'lipoC3S2': 7.63, 'rot1': 26, 'rot0': 27, 'rot3': 39, 'rot2': 29, 'state': 'normal', 'yaw': -0.73, 'datetime': '2018-10-09 23:44:30.342185', 'mgs': 0, 'volt': 0.8545, 'depth': 0.851, 'time': 10, 'pitch': 3.79, 'roll': -3.36, 'pres': 175}
{'lipoC2': 7.29, 'lipoC3S1': 3.81, 'temp': 30.19, 'lipoC3S3': 11.43, 'lipoC3S2': 7.66, 'rot1': 27, 'rot0': 28, 'rot3': 39, 'rot2': 29, 'state': 'normal', 'yaw': -0.97, 'datetime': '2018-10-09 23:44:30.445871', 'mgs': 0, 'volt': 0.8398, 'depth': 0.623, 'time': 10, 'pitch': 2.21, 'roll': -3.83, 'pres': 172}
{'lipoC2': 7.29, 'lipoC3S1': 3.75, 'temp': 30.19, 'lipoC3S3': 11.51, 'lipoC3S2': 7.63, 'rot1': 28, 'rot0': 29, 'rot3': 39, 'rot2': 29, 'state': 'normal', 'yaw': -1.24, 'datetime': '2018-10-09 23:44:30.549775', 'mgs': 0, 'volt': 0.8398, 'depth': 0.623, 'time': 10, 'pitch': 0.52, 'roll': -4.0, 'pres': 172}
{'lipoC2': 7.28, 'lipoC3S1': 3.81, 'temp': 30.19, 'lipoC3S3': 11.34, 'lipoC3S2': 7.62, 'rot1': 29, 'rot0': 30, 'rot3': 39, 'rot2': 29, 'state': 'normal', 'yaw': -1.45, 'datetime': '2018-10-09 23:44:30.653495', 'mgs': 0, 'volt': 0.835, 'depth': 0.546, 'time': 10, 'pitch': -0.31, 'roll': -3.65, 'pres': 171}
{'lipoC2': 7.28, 'lipoC3S1': 3.81, 'temp': 30.19, 'lipoC3S3': 11.48, 'lipoC3S2': 7.62, 'rot1': 30, 'rot0': 31, 'rot3': 39, 'rot2': 29, 'state': 'normal', 'yaw': -1.51, 'datetime': '2018-10-09 23:44:30.757733', 'mgs': 0, 'volt': 0.8398, 'depth': 0.623, 'time': 10, 'pitch': 0.29, 'roll': -3.06, 'pres': 172}
{'lipoC2': 7.29, 'lipoC3S1': 3.72, 'temp': 30.19, 'lipoC3S3': 11.51, 'lipoC3S2': 7.58, 'rot1': 31, 'rot0': 32, 'rot3': 39, 'rot2': 29, 'state': 'normal', 'yaw': -1.41, 'datetime': '2018-10-09 23:44:30.861426', 'mgs': 0, 'volt': 0.8398, 'depth': 0.623, 'time': 10, 'pitch': 1.94, 'roll': -2.78, 'pres': 172}
{'lipoC2': 7.28, 'lipoC3S1': 3.81, 'temp': 30.19, 'lipoC3S3': 11.48, 'lipoC3S2': 7.62, 'rot1': 32, 'rot0': 33, 'rot3': 39, 'rot2': 29, 'state': 'normal', 'yaw': -1.18, 'datetime': '2018-10-09 23:44:30.965180', 'mgs': 0, 'volt': 0.8447, 'depth': 0.699, 'time': 10, 'pitch': 3.1, 'roll': -3.16, 'pres': 173}
{'lipoC2': 7.29, 'lipoC3S1': 3.81, 'temp': 30.19, 'lipoC3S3': 11.38, 'lipoC3S2': 7.62, 'rot1': 34, 'rot0': 35, 'rot3': 39, 'rot2': 29, 'state': 'normal', 'yaw': -0.68, 'datetime': '2018-10-09 23:44:31.070217', 'mgs': 0, 'volt': 0.8447, 'depth': 0.699, 'time': 10, 'pitch': 2.85, 'roll': -3.97, 'pres': 173}
{'lipoC2': 7.29, 'lipoC3S1': 3.78, 'temp': 30.19, 'lipoC3S3': 11.51, 'lipoC3S2': 7.63, 'rot1': 35, 'rot0': 36, 'rot3': 39, 'rot2': 29, 'state': 'normal', 'yaw': 0.02, 'datetime': '2018-10-09 23:44:31.173893', 'mgs': 0, 'volt': 0.8154, 'depth': 0.241, 'time': 10, 'pitch': 1.24, 'roll': -4.83, 'pres': 167}
{'lipoC2': 7.27, 'lipoC3S1': 3.81, 'temp': 30.19, 'lipoC3S3': 11.5, 'lipoC3S2': 7.63, 'rot1': 36, 'rot0': 37, 'rot3': 39, 'rot2': 29, 'state': 'normal', 'yaw': 0.57, 'datetime': '2018-10-09 23:44:31.278868', 'mgs': 0, 'volt': 0.8838, 'depth': 1.309, 'time': 11, 'pitch': -0.01, 'roll': -5.23, 'pres': 181}
{'lipoC2': 7.29, 'lipoC3S1': 3.81, 'temp': 30.19, 'lipoC3S3': 11.34, 'lipoC3S2': 7.62, 'rot1': 37, 'rot0': 38, 'rot3': 39, 'rot2': 29, 'state': 'normal', 'yaw': 0.92, 'datetime': '2018-10-09 23:44:31.382795', 'mgs': 0, 'volt': 0.8447, 'depth': 0.699, 'time': 11, 'pitch': 0.01, 'roll': -5.06, 'pres': 173}
{'lipoC2': 7.29, 'lipoC3S1': 3.78, 'temp': 30.19, 'lipoC3S3': 11.51, 'lipoC3S2': 7.63, 'rot1': 38, 'rot0': 39, 'rot3': 39, 'rot2': 29, 'state': 'normal', 'yaw': 1.0, 'datetime': '2018-10-09 23:44:31.486512', 'mgs': 0, 'volt': 0.8496, 'depth': 0.775, 'time': 11, 'pitch': 1.25, 'roll': -4.46, 'pres': 174}
{'lipoC2': 7.29, 'lipoC3S1': 3.81, 'temp': 30.19, 'lipoC3S3': 11.39, 'lipoC3S2': 7.61, 'rot1': 39, 'rot0': 40, 'rot3': 39, 'rot2': 29, 'state': 'normal', 'yaw': 0.94, 'datetime': '2018-10-09 23:44:31.590265', 'mgs': 0, 'volt': 0.8447, 'depth': 0.699, 'time': 11, 'pitch': 2.99, 'roll': -3.73, 'pres': 173}
{'lipoC2': 7.29, 'lipoC3S1': 3.79, 'temp': 30.19, 'lipoC3S3': 11.51, 'lipoC3S2': 7.63, 'rot1': 40, 'rot0': 41, 'rot3': 39, 'rot2': 29, 'state': 'normal', 'yaw': 0.85, 'datetime': '2018-10-09 23:44:31.693948', 'mgs': 0, 'volt': 0.918, 'depth': 1.843, 'time': 11, 'pitch': 4.41, 'roll': -3.14, 'pres': 188}
{'lipoC2': 7.29, 'lipoC3S1': 3.8, 'temp': 30.19, 'lipoC3S3': 11.39, 'lipoC3S2': 7.57, 'rot1': 41, 'rot0': 43, 'rot3': 39, 'rot2': 29, 'state': 'normal', 'yaw': 0.85, 'datetime': '2018-10-09 23:44:31.797648', 'mgs': 0, 'volt': 0.8447, 'depth': 0.699, 'time': 11, 'pitch': 4.6, 'roll': -3.06, 'pres': 173}
{'lipoC2': 7.28, 'lipoC3S1': 3.81, 'temp': 30.19, 'lipoC3S3': 11.48, 'lipoC3S2': 7.62, 'rot1': 42, 'rot0': 44, 'rot3': 40, 'rot2': 29, 'state': 'normal', 'yaw': 0.87, 'datetime': '2018-10-09 23:44:31.901383', 'mgs': 0, 'volt': 0.9277, 'depth': 1.996, 'time': 11, 'pitch': 4.2, 'roll': -3.38, 'pres': 190}
{'lipoC2': 7.29, 'lipoC3S1': 3.81, 'temp': 30.19, 'lipoC3S3': 11.43, 'lipoC3S2': 7.52, 'rot1': 43, 'rot0': 45, 'rot3': 41, 'rot2': 30, 'state': 'normal', 'yaw': 0.91, 'datetime': '2018-10-09 23:44:32.005015', 'mgs': 0, 'volt': 0.8496, 'depth': 0.775, 'time': 11, 'pitch': 3.15, 'roll': -3.81, 'pres': 174}
{'lipoC2': 7.29, 'lipoC3S1': 3.81, 'temp': 30.19, 'lipoC3S3': 11.5, 'lipoC3S2': 7.63, 'rot1': 44, 'rot0': 46, 'rot3': 41, 'rot2': 30, 'state': 'normal', 'yaw': 0.88, 'datetime': '2018-10-09 23:44:32.108804', 'mgs': 0, 'volt': 0.8936, 'depth': 1.462, 'time': 11, 'pitch': 1.97, 'roll': -3.97, 'pres': 183}
{'lipoC2': 7.28, 'lipoC3S1': 3.81, 'temp': 30.19, 'lipoC3S3': 11.34, 'lipoC3S2': 7.62, 'rot1': 45, 'rot0': 47, 'rot3': 41, 'rot2': 30, 'state': 'normal', 'yaw': 0.83, 'datetime': '2018-10-09 23:44:32.213767', 'mgs': 0, 'volt': 0.8447, 'depth': 0.699, 'time': 12, 'pitch': 0.81, 'roll': -3.97, 'pres': 173}
{'lipoC2': 7.29, 'lipoC3S1': 3.75, 'temp': 30.19, 'lipoC3S3': 11.51, 'lipoC3S2': 7.63, 'rot1': 47, 'rot0': 48, 'rot3': 41, 'rot2': 30, 'state': 'normal', 'yaw': 0.68, 'datetime': '2018-10-09 23:44:32.317369', 'mgs': 0, 'volt': 0.8447, 'depth': 0.699, 'time': 12, 'pitch': 0.02, 'roll': -3.97, 'pres': 173}
{'lipoC2': 7.29, 'lipoC3S1': 3.81, 'temp': 30.19, 'lipoC3S3': 11.5, 'lipoC3S2': 7.62, 'rot1': 48, 'rot0': 49, 'rot3': 41, 'rot2': 30, 'state': 'normal', 'yaw': 0.44, 'datetime': '2018-10-09 23:44:32.422364', 'mgs': 0, 'volt': 0.9033, 'depth': 1.614, 'time': 12, 'pitch': 0.13, 'roll': -3.97, 'pres': 185}
{'lipoC2': 7.29, 'lipoC3S1': 3.81, 'temp': 30.19, 'lipoC3S3': 11.48, 'lipoC3S2': 7.52, 'rot1': 49, 'rot0': 50, 'rot3': 41, 'rot2': 30, 'state': 'normal', 'yaw': 0.15, 'datetime': '2018-10-09 23:44:32.526071', 'mgs': 0, 'volt': 0.8447, 'depth': 0.699, 'time': 12, 'pitch': 1.24, 'roll': -4.03, 'pres': 173}
{'lipoC2': 7.29, 'lipoC3S1': 3.81, 'temp': 30.31, 'lipoC3S3': 11.51, 'lipoC3S2': 7.56, 'rot1': 50, 'rot0': 52, 'rot3': 41, 'rot2': 30, 'state': 'normal', 'yaw': -0.05, 'datetime': '2018-10-09 23:44:32.630115', 'mgs': 0, 'volt': 0.8447, 'depth': 0.699, 'time': 12, 'pitch': 2.39, 'roll': -4.04, 'pres': 173}
{'lipoC2': 7.29, 'lipoC3S1': 3.77, 'temp': 30.31, 'lipoC3S3': 11.5, 'lipoC3S2': 7.63, 'rot1': 51, 'rot0': 53, 'rot3': 41, 'rot2': 30, 'state': 'normal', 'yaw': -0.14, 'datetime': '2018-10-09 23:44:32.735133', 'mgs': 0, 'volt': 0.8545, 'depth': 0.851, 'time': 12, 'pitch': 2.25, 'roll': -4.04, 'pres': 175}
{'lipoC2': 7.29, 'lipoC3S1': 3.81, 'temp': 30.13, 'lipoC3S3': 11.39, 'lipoC3S2': 7.61, 'rot1': 52, 'rot0': 54, 'rot3': 41, 'rot2': 30, 'state': 'normal', 'yaw': -0.15, 'datetime': '2018-10-09 23:44:32.838836', 'mgs': 0, 'volt': 0.8496, 'depth': 0.775, 'time': 12, 'pitch': 0.61, 'roll': -3.99, 'pres': 174}
{'lipoC2': 7.29, 'lipoC3S1': 3.79, 'temp': 30.13, 'lipoC3S3': 11.5, 'lipoC3S2': 7.63, 'rot1': 53, 'rot0': 55, 'rot3': 41, 'rot2': 30, 'state': 'normal', 'yaw': -0.29, 'datetime': '2018-10-09 23:44:32.942494', 'mgs': 0, 'volt': 0.8105, 'depth': 0.165, 'time': 12, 'pitch': -0.98, 'roll': -3.93, 'pres': 166}
{'lipoC2': 7.29, 'lipoC3S1': 3.81, 'temp': 30.19, 'lipoC3S3': 11.35, 'lipoC3S2': 7.61, 'rot1': 54, 'rot0': 56, 'rot3': 41, 'rot2': 30, 'state': 'normal', 'yaw': -0.65, 'datetime': '2018-10-09 23:44:33.046307', 'mgs': 0, 'volt': 0.8447, 'depth': 0.699, 'time': 12, 'pitch': -1.8, 'roll': -3.66, 'pres': 173}
