{'lipoC2': 0.0, 'lipoC3S1': 3.96, 'temp': 26.31, 'lipoC3S3': 12.0, 'lipoC3S2': 7.91, 'rot1': 380, 'rot0': 372, 'rot3': 205, 'rot2': 180, 'state': 'normal', 'yaw': -106.2, 'datetime': '2018-10-03 17:00:07.091545', 'mgs': 0, 'volt': 1.001, 'depth': 3.14, 'time': 57, 'pitch': 0.85, 'roll': 10.4, 'pres': 205}
{'lipoC2': 0.0, 'lipoC3S1': 3.96, 'temp': 26.31, 'lipoC3S3': 12.0, 'lipoC3S2': 7.91, 'rot1': 0, 'rot0': 0, 'rot3': 0, 'rot2': 0, 'state': 'normal', 'yaw': -0.0, 'datetime': '2018-10-03 17:00:07.115648', 'mgs': 0, 'volt': 1.0107, 'depth': 3.293, 'time': 1, 'pitch': -4.33, 'roll': 4.54, 'pres': 207}
{'lipoC2': 0.0, 'lipoC3S1': 3.96, 'temp': 26.31, 'lipoC3S3': 12.0, 'lipoC3S2': 7.91, 'rot1': 0, 'rot0': 0, 'rot3': 0, 'rot2': 0, 'state': 'normal', 'yaw': -0.01, 'datetime': '2018-10-03 17:00:07.138906', 'mgs': 0, 'volt': 1.0107, 'depth': 3.293, 'time': 1, 'pitch': -4.77, 'roll': 4.05, 'pres': 207}
{'lipoC2': 0.0, 'lipoC3S1': 3.96, 'temp': 26.31, 'lipoC3S3': 12.0, 'lipoC3S2': 7.91, 'rot1': 0, 'rot0': 0, 'rot3': 0, 'rot2': 0, 'state': 'normal', 'yaw': 0.03, 'datetime': '2018-10-03 17:00:07.162097', 'mgs': 0, 'volt': 1.0107, 'depth': 3.293, 'time': 1, 'pitch': -5.12, 'roll': 3.76, 'pres': 207}
{'lipoC2': 0.0, 'lipoC3S1': 3.96, 'temp': 26.31, 'lipoC3S3': 12.0, 'lipoC3S2': 7.91, 'rot1': 0, 'rot0': 0, 'rot3': 0, 'rot2': 0, 'state': 'normal', 'yaw': 0.05, 'datetime': '2018-10-03 17:00:07.185493', 'mgs': 0, 'volt': 1.0107, 'depth': 3.293, 'time': 1, 'pitch': -5.29, 'roll': 3.79, 'pres': 207}
{'lipoC2': 0.0, 'lipoC3S1': 3.96, 'temp': 26.31, 'lipoC3S3': 12.0, 'lipoC3S2': 7.91, 'rot1': 0, 'rot0': 0, 'rot3': 0, 'rot2': 0, 'state': 'normal', 'yaw': 0.07, 'datetime': '2018-10-03 17:00:07.200775', 'mgs': 0, 'volt': 1.0107, 'depth': 3.293, 'time': 1, 'pitch': -5.41, 'roll': 3.92, 'pres': 207}
{'lipoC2': 0.0, 'lipoC3S1': 3.96, 'temp': 26.38, 'lipoC3S3': 12.0, 'lipoC3S2': 7.91, 'rot1': 0, 'rot0': 0, 'rot3': 0, 'rot2': 0, 'state': 'normal', 'yaw': 0.03, 'datetime': '2018-10-03 17:00:07.210867', 'mgs': 0, 'volt': 1.0107, 'depth': 3.293, 'time': 1, 'pitch': -5.33, 'roll': 3.92, 'pres': 207}
{'lipoC2': 0.0, 'lipoC3S1': 3.96, 'temp': 26.38, 'lipoC3S3': 12.0, 'lipoC3S2': 7.91, 'rot1': 0, 'rot0': 0, 'rot3': 0, 'rot2': 0, 'state': 'normal', 'yaw': -0.06, 'datetime': '2018-10-03 17:00:07.220888', 'mgs': 0, 'volt': 1.0107, 'depth': 3.293, 'time': 1, 'pitch': -5.17, 'roll': 3.72, 'pres': 207}
{'lipoC2': 0.0, 'lipoC3S1': 3.96, 'temp': 26.31, 'lipoC3S3': 12.0, 'lipoC3S2': 7.91, 'rot1': 0, 'rot0': 0, 'rot3': 0, 'rot2': 0, 'state': 'normal', 'yaw': -0.16, 'datetime': '2018-10-03 17:00:07.231006', 'mgs': 0, 'volt': 1.0107, 'depth': 3.293, 'time': 1, 'pitch': -5.04, 'roll': 3.42, 'pres': 207}
{'lipoC2': 0.0, 'lipoC3S1': 3.96, 'temp': 26.31, 'lipoC3S3': 12.0, 'lipoC3S2': 7.91, 'rot1': 0, 'rot0': 0, 'rot3': 0, 'rot2': 0, 'state': 'normal', 'yaw': -0.28, 'datetime': '2018-10-03 17:00:07.241024', 'mgs': 0, 'volt': 1.0107, 'depth': 3.293, 'time': 2, 'pitch': -5.0, 'roll': 3.04, 'pres': 207}
{'lipoC2': 0.0, 'lipoC3S1': 3.96, 'temp': 26.31, 'lipoC3S3': 12.0, 'lipoC3S2': 7.91, 'rot1': 0, 'rot0': 0, 'rot3': 0, 'rot2': 0, 'state': 'normal', 'yaw': -0.41, 'datetime': '2018-10-03 17:00:07.251129', 'mgs': 0, 'volt': 1.0107, 'depth': 3.293, 'time': 2, 'pitch': -5.03, 'roll': 2.65, 'pres': 207}
{'lipoC2': 0.0, 'lipoC3S1': 3.96, 'temp': 26.31, 'lipoC3S3': 12.0, 'lipoC3S2': 7.91, 'rot1': 0, 'rot0': 0, 'rot3': 0, 'rot2': 0, 'state': 'normal', 'yaw': -0.5, 'datetime': '2018-10-03 17:00:07.261124', 'mgs': 0, 'volt': 1.0059, 'depth': 3.217, 'time': 2, 'pitch': -5.05, 'roll': 2.28, 'pres': 206}
{'lipoC2': 0.0, 'lipoC3S1': 3.96, 'temp': 26.31, 'lipoC3S3': 12.0, 'lipoC3S2': 7.91, 'rot1': 0, 'rot0': 0, 'rot3': 0, 'rot2': 0, 'state': 'normal', 'yaw': -0.42, 'datetime': '2018-10-03 17:00:07.271117', 'mgs': 0, 'volt': 1.0059, 'depth': 3.217, 'time': 2, 'pitch': -4.96, 'roll': 2.09, 'pres': 206}
{'lipoC2': 0.0, 'lipoC3S1': 3.96, 'temp': 26.38, 'lipoC3S3': 12.0, 'lipoC3S2': 7.91, 'rot1': 0, 'rot0': 0, 'rot3': 0, 'rot2': 0, 'state': 'normal', 'yaw': -0.25, 'datetime': '2018-10-03 17:00:07.281161', 'mgs': 0, 'volt': 1.0059, 'depth': 3.217, 'time': 2, 'pitch': -4.84, 'roll': 1.98, 'pres': 206}
{'lipoC2': 0.0, 'lipoC3S1': 3.96, 'temp': 26.38, 'lipoC3S3': 12.0, 'lipoC3S2': 7.91, 'rot1': 0, 'rot0': 0, 'rot3': 0, 'rot2': 0, 'state': 'normal', 'yaw': -0.11, 'datetime': '2018-10-03 17:00:07.291857', 'mgs': 0, 'volt': 1.0059, 'depth': 3.217, 'time': 2, 'pitch': -4.81, 'roll': 1.89, 'pres': 206}
{'lipoC2': 0.0, 'lipoC3S1': 3.96, 'temp': 26.38, 'lipoC3S3': 12.0, 'lipoC3S2': 7.91, 'rot1': 0, 'rot0': 0, 'rot3': 0, 'rot2': 0, 'state': 'normal', 'yaw': 0.02, 'datetime': '2018-10-03 17:00:07.303354', 'mgs': 0, 'volt': 1.0059, 'depth': 3.217, 'time': 2, 'pitch': -4.88, 'roll': 1.78, 'pres': 206}
{'lipoC2': 0.0, 'lipoC3S1': 3.96, 'temp': 26.38, 'lipoC3S3': 12.0, 'lipoC3S2': 7.91, 'rot1': 0, 'rot0': 0, 'rot3': 0, 'rot2': 0, 'state': 'normal', 'yaw': 0.12, 'datetime': '2018-10-03 17:00:07.313806', 'mgs': 0, 'volt': 1.0059, 'depth': 3.217, 'time': 2, 'pitch': -5.04, 'roll': 1.68, 'pres': 206}
{'lipoC2': 0.0, 'lipoC3S1': 3.96, 'temp': 26.31, 'lipoC3S3': 12.0, 'lipoC3S2': 7.91, 'rot1': 0, 'rot0': 0, 'rot3': 0, 'rot2': 0, 'state': 'normal', 'yaw': 0.18, 'datetime': '2018-10-03 17:00:07.324164', 'mgs': 0, 'volt': 1.0059, 'depth': 3.217, 'time': 2, 'pitch': -5.29, 'roll': 1.59, 'pres': 206}
{'lipoC2': 0.0, 'lipoC3S1': 3.96, 'temp': 26.31, 'lipoC3S3': 12.0, 'lipoC3S2': 7.91, 'rot1': 0, 'rot0': 0, 'rot3': 0, 'rot2': 0, 'state': 'normal', 'yaw': 0.18, 'datetime': '2018-10-03 17:00:07.334875', 'mgs': 0, 'volt': 1.0059, 'depth': 3.217, 'time': 3, 'pitch': -5.62, 'roll': 1.53, 'pres': 206}
{'lipoC2': 0.0, 'lipoC3S1': 3.96, 'temp': 26.31, 'lipoC3S3': 12.0, 'lipoC3S2': 7.91, 'rot1': 0, 'rot0': 0, 'rot3': 0, 'rot2': 0, 'state': 'normal', 'yaw': 0.17, 'datetime': '2018-10-03 17:00:07.345214', 'mgs': 0, 'volt': 1.001, 'depth': 3.14, 'time': 3, 'pitch': -5.97, 'roll': 1.48, 'pres': 205}
{'lipoC2': 0.0, 'lipoC3S1': 3.96, 'temp': 26.31, 'lipoC3S3': 12.0, 'lipoC3S2': 7.91, 'rot1': 0, 'rot0': 0, 'rot3': 0, 'rot2': 0, 'state': 'normal', 'yaw': 0.17, 'datetime': '2018-10-03 17:00:07.355315', 'mgs': 0, 'volt': 1.001, 'depth': 3.14, 'time': 3, 'pitch': -6.33, 'roll': 1.45, 'pres': 205}
{'lipoC2': 0.0, 'lipoC3S1': 3.96, 'temp': 26.31, 'lipoC3S3': 12.0, 'lipoC3S2': 7.91, 'rot1': 0, 'rot0': 0, 'rot3': 0, 'rot2': 0, 'state': 'normal', 'yaw': 0.16, 'datetime': '2018-10-03 17:00:07.365353', 'mgs': 0, 'volt': 1.001, 'depth': 3.14, 'time': 3, 'pitch': -6.74, 'roll': 1.41, 'pres': 205}
{'lipoC2': 0.0, 'lipoC3S1': 3.96, 'temp': 26.31, 'lipoC3S3': 12.0, 'lipoC3S2': 7.91, 'rot1': 0, 'rot0': 0, 'rot3': 0, 'rot2': 0, 'state': 'normal', 'yaw': 0.16, 'datetime': '2018-10-03 17:00:07.375691', 'mgs': 0, 'volt': 1.001, 'depth': 3.14, 'time': 3, 'pitch': -7.09, 'roll': 1.4, 'pres': 205}
{'lipoC2': 0.0, 'lipoC3S1': 3.96, 'temp': 26.31, 'lipoC3S3': 12.0, 'lipoC3S2': 7.91, 'rot1': 0, 'rot0': 0, 'rot3': 0, 'rot2': 0, 'state': 'normal', 'yaw': 0.12, 'datetime': '2018-10-03 17:00:07.385807', 'mgs': 0, 'volt': 1.001, 'depth': 3.14, 'time': 3, 'pitch': -7.4, 'roll': 1.41, 'pres': 205}
{'lipoC2': 0.0, 'lipoC3S1': 3.96, 'temp': 26.38, 'lipoC3S3': 12.0, 'lipoC3S2': 7.91, 'rot1': 0, 'rot0': 0, 'rot3': 0, 'rot2': 0, 'state': 'normal', 'yaw': 0.04, 'datetime': '2018-10-03 17:00:07.395830', 'mgs': 0, 'volt': 1.001, 'depth': 3.14, 'time': 3, 'pitch': -7.67, 'roll': 1.44, 'pres': 205}
{'lipoC2': 0.0, 'lipoC3S1': 3.96, 'temp': 26.38, 'lipoC3S3': 12.0, 'lipoC3S2': 7.91, 'rot1': 0, 'rot0': 0, 'rot3': 0, 'rot2': 0, 'state': 'normal', 'yaw': -0.07, 'datetime': '2018-10-03 17:00:07.405855', 'mgs': 0, 'volt': 1.001, 'depth': 3.14, 'time': 3, 'pitch': -7.9, 'roll': 1.51, 'pres': 205}
{'lipoC2': 0.0, 'lipoC3S1': 3.96, 'temp': 26.38, 'lipoC3S3': 12.0, 'lipoC3S2': 7.91, 'rot1': 0, 'rot0': 0, 'rot3': 0, 'rot2': 0, 'state': 'normal', 'yaw': -0.19, 'datetime': '2018-10-03 17:00:07.415852', 'mgs': 0, 'volt': 1.001, 'depth': 3.14, 'time': 3, 'pitch': -8.04, 'roll': 1.59, 'pres': 205}
{'lipoC2': 0.0, 'lipoC3S1': 3.96, 'temp': 26.38, 'lipoC3S3': 12.0, 'lipoC3S2': 7.91, 'rot1': 0, 'rot0': 0, 'rot3': 0, 'rot2': 0, 'state': 'normal', 'yaw': -0.31, 'datetime': '2018-10-03 17:00:07.425850', 'mgs': 0, 'volt': 1.001, 'depth': 3.14, 'time': 3, 'pitch': -8.12, 'roll': 1.66, 'pres': 205}
{'lipoC2': 0.0, 'lipoC3S1': 3.96, 'temp': 26.38, 'lipoC3S3': 12.0, 'lipoC3S2': 7.91, 'rot1': 0, 'rot0': 0, 'rot3': 0, 'rot2': 0, 'state': 'normal', 'yaw': -0.45, 'datetime': '2018-10-03 17:00:07.436114', 'mgs': 0, 'volt': 1.0059, 'depth': 3.217, 'time': 4, 'pitch': -8.11, 'roll': 1.68, 'pres': 206}
{'lipoC2': 0.0, 'lipoC3S1': 3.96, 'temp': 26.38, 'lipoC3S3': 12.0, 'lipoC3S2': 7.91, 'rot1': 0, 'rot0': 0, 'rot3': 0, 'rot2': 0, 'state': 'normal', 'yaw': -0.58, 'datetime': '2018-10-03 17:00:07.446166', 'mgs': 0, 'volt': 1.0059, 'depth': 3.217, 'time': 4, 'pitch': -8.07, 'roll': 1.7, 'pres': 206}
{'lipoC2': 0.0, 'lipoC3S1': 3.96, 'temp': 26.38, 'lipoC3S3': 12.0, 'lipoC3S2': 7.91, 'rot1': 0, 'rot0': 0, 'rot3': 0, 'rot2': 0, 'state': 'normal', 'yaw': -0.71, 'datetime': '2018-10-03 17:00:07.456154', 'mgs': 0, 'volt': 1.0059, 'depth': 3.217, 'time': 4, 'pitch': -7.96, 'roll': 1.74, 'pres': 206}
{'lipoC2': 0.0, 'lipoC3S1': 3.96, 'temp': 26.44, 'lipoC3S3': 12.0, 'lipoC3S2': 7.91, 'rot1': 0, 'rot0': 0, 'rot3': 0, 'rot2': 0, 'state': 'normal', 'yaw': -0.88, 'datetime': '2018-10-03 17:00:07.466167', 'mgs': 0, 'volt': 1.0059, 'depth': 3.217, 'time': 4, 'pitch': -7.78, 'roll': 1.8, 'pres': 206}
{'lipoC2': 0.0, 'lipoC3S1': 3.96, 'temp': 26.44, 'lipoC3S3': 12.0, 'lipoC3S2': 7.91, 'rot1': 0, 'rot0': 0, 'rot3': 0, 'rot2': 0, 'state': 'normal', 'yaw': -1.03, 'datetime': '2018-10-03 17:00:07.476209', 'mgs': 0, 'volt': 1.0059, 'depth': 3.217, 'time': 4, 'pitch': -7.54, 'roll': 1.91, 'pres': 206}
{'lipoC2': 0.0, 'lipoC3S1': 3.96, 'temp': 26.44, 'lipoC3S3': 12.0, 'lipoC3S2': 7.91, 'rot1': 0, 'rot0': 0, 'rot3': 0, 'rot2': 0, 'state': 'normal', 'yaw': -1.15, 'datetime': '2018-10-03 17:00:07.486254', 'mgs': 0, 'volt': 1.0107, 'depth': 3.293, 'time': 4, 'pitch': -7.28, 'roll': 2.09, 'pres': 207}
{'lipoC2': 0.0, 'lipoC3S1': 3.96, 'temp': 26.38, 'lipoC3S3': 12.0, 'lipoC3S2': 7.91, 'rot1': 0, 'rot0': 0, 'rot3': 0, 'rot2': 0, 'state': 'normal', 'yaw': -1.26, 'datetime': '2018-10-03 17:00:07.496286', 'mgs': 0, 'volt': 1.0107, 'depth': 3.293, 'time': 4, 'pitch': -7.0, 'roll': 2.29, 'pres': 207}
{'lipoC2': 0.0, 'lipoC3S1': 3.96, 'temp': 26.38, 'lipoC3S3': 12.0, 'lipoC3S2': 7.91, 'rot1': 0, 'rot0': 0, 'rot3': 0, 'rot2': 0, 'state': 'normal', 'yaw': -1.33, 'datetime': '2018-10-03 17:00:07.506314', 'mgs': 0, 'volt': 1.0107, 'depth': 3.293, 'time': 4, 'pitch': -6.77, 'roll': 2.45, 'pres': 207}
{'lipoC2': 0.0, 'lipoC3S1': 3.96, 'temp': 26.38, 'lipoC3S3': 12.0, 'lipoC3S2': 7.91, 'rot1': 0, 'rot0': 0, 'rot3': 0, 'rot2': 0, 'state': 'normal', 'yaw': -1.36, 'datetime': '2018-10-03 17:00:07.516345', 'mgs': 0, 'volt': 1.0107, 'depth': 3.293, 'time': 4, 'pitch': -6.56, 'roll': 2.57, 'pres': 207}
{'lipoC2': 0.0, 'lipoC3S1': 3.96, 'temp': 26.38, 'lipoC3S3': 12.0, 'lipoC3S2': 7.91, 'rot1': 0, 'rot0': 0, 'rot3': 0, 'rot2': 0, 'state': 'normal', 'yaw': -1.34, 'datetime': '2018-10-03 17:00:07.526363', 'mgs': 0, 'volt': 1.0156, 'depth': 3.369, 'time': 4, 'pitch': -6.34, 'roll': 2.66, 'pres': 208}
{'lipoC2': 0.0, 'lipoC3S1': 3.96, 'temp': 26.44, 'lipoC3S3': 12.0, 'lipoC3S2': 7.91, 'rot1': 0, 'rot0': 0, 'rot3': 0, 'rot2': 0, 'state': 'normal', 'yaw': -1.32, 'datetime': '2018-10-03 17:00:07.536545', 'mgs': 0, 'volt': 1.0156, 'depth': 3.369, 'time': 5, 'pitch': -6.13, 'roll': 2.76, 'pres': 208}
{'lipoC2': 0.0, 'lipoC3S1': 3.96, 'temp': 26.44, 'lipoC3S3': 12.0, 'lipoC3S2': 7.91, 'rot1': 0, 'rot0': 0, 'rot3': 0, 'rot2': 0, 'state': 'normal', 'yaw': -1.24, 'datetime': '2018-10-03 17:00:07.546652', 'mgs': 0, 'volt': 1.0156, 'depth': 3.369, 'time': 5, 'pitch': -6.02, 'roll': 2.77, 'pres': 208}
{'lipoC2': 0.0, 'lipoC3S1': 3.96, 'temp': 26.44, 'lipoC3S3': 12.0, 'lipoC3S2': 7.91, 'rot1': 0, 'rot0': 0, 'rot3': 0, 'rot2': 0, 'state': 'normal', 'yaw': -1.24, 'datetime': '2018-10-03 17:00:07.556712', 'mgs': 0, 'volt': 1.0156, 'depth': 3.369, 'time': 5, 'pitch': -5.97, 'roll': 2.6, 'pres': 208}
{'lipoC2': 0.0, 'lipoC3S1': 3.96, 'temp': 26.44, 'lipoC3S3': 12.0, 'lipoC3S2': 7.91, 'rot1': 0, 'rot0': 0, 'rot3': 0, 'rot2': 0, 'state': 'normal', 'yaw': -1.23, 'datetime': '2018-10-03 17:00:07.566716', 'mgs': 0, 'volt': 1.0107, 'depth': 3.293, 'time': 5, 'pitch': -5.95, 'roll': 2.52, 'pres': 207}
{'lipoC2': 0.0, 'lipoC3S1': 3.96, 'temp': 26.44, 'lipoC3S3': 12.0, 'lipoC3S2': 7.91, 'rot1': 0, 'rot0': 0, 'rot3': 0, 'rot2': 0, 'state': 'normal', 'yaw': -1.23, 'datetime': '2018-10-03 17:00:07.576943', 'mgs': 0, 'volt': 1.0107, 'depth': 3.293, 'time': 5, 'pitch': -6.02, 'roll': 2.47, 'pres': 207}
{'lipoC2': 0.0, 'lipoC3S1': 3.96, 'temp': 26.38, 'lipoC3S3': 12.0, 'lipoC3S2': 7.91, 'rot1': 0, 'rot0': 0, 'rot3': 0, 'rot2': 0, 'state': 'normal', 'yaw': -1.23, 'datetime': '2018-10-03 17:00:07.586974', 'mgs': 0, 'volt': 1.0107, 'depth': 3.293, 'time': 5, 'pitch': -6.17, 'roll': 2.4, 'pres': 207}
{'lipoC2': 0.0, 'lipoC3S1': 3.96, 'temp': 26.38, 'lipoC3S3': 12.0, 'lipoC3S2': 7.91, 'rot1': 0, 'rot0': 0, 'rot3': 0, 'rot2': 0, 'state': 'normal', 'yaw': -1.24, 'datetime': '2018-10-03 17:00:07.597052', 'mgs': 0, 'volt': 1.0107, 'depth': 3.293, 'time': 5, 'pitch': -6.4, 'roll': 2.28, 'pres': 207}
{'lipoC2': 0.0, 'lipoC3S1': 3.96, 'temp': 26.38, 'lipoC3S3': 12.0, 'lipoC3S2': 7.91, 'rot1': 0, 'rot0': 0, 'rot3': 0, 'rot2': 0, 'state': 'normal', 'yaw': -1.25, 'datetime': '2018-10-03 17:00:07.607069', 'mgs': 0, 'volt': 1.0107, 'depth': 3.293, 'time': 5, 'pitch': -6.63, 'roll': 2.18, 'pres': 207}
{'lipoC2': 0.0, 'lipoC3S1': 3.96, 'temp': 26.44, 'lipoC3S3': 12.0, 'lipoC3S2': 7.92, 'rot1': 0, 'rot0': 0, 'rot3': 0, 'rot2': 0, 'state': 'normal', 'yaw': -1.26, 'datetime': '2018-10-03 17:00:07.617095', 'mgs': 0, 'volt': 1.0107, 'depth': 3.293, 'time': 5, 'pitch': -6.88, 'roll': 2.15, 'pres': 207}
{'lipoC2': 0.0, 'lipoC3S1': 3.96, 'temp': 26.44, 'lipoC3S3': 12.0, 'lipoC3S2': 7.91, 'rot1': 0, 'rot0': 0, 'rot3': 0, 'rot2': 0, 'state': 'normal', 'yaw': -1.29, 'datetime': '2018-10-03 17:00:07.627055', 'mgs': 0, 'volt': 1.0107, 'depth': 3.293, 'time': 6, 'pitch': -7.13, 'roll': 2.13, 'pres': 207}
{'lipoC2': 0.0, 'lipoC3S1': 3.96, 'temp': 26.31, 'lipoC3S3': 12.0, 'lipoC3S2': 7.91, 'rot1': 0, 'rot0': 0, 'rot3': 0, 'rot2': 0, 'state': 'normal', 'yaw': -1.41, 'datetime': '2018-10-03 17:00:07.637037', 'mgs': 0, 'volt': 1.0107, 'depth': 3.293, 'time': 6, 'pitch': -7.14, 'roll': 2.02, 'pres': 207}
{'lipoC2': 0.0, 'lipoC3S1': 3.96, 'temp': 26.31, 'lipoC3S3': 12.0, 'lipoC3S2': 7.91, 'rot1': 0, 'rot0': 0, 'rot3': 0, 'rot2': 0, 'state': 'normal', 'yaw': -1.56, 'datetime': '2018-10-03 17:00:07.647072', 'mgs': 0, 'volt': 1.0107, 'depth': 3.293, 'time': 6, 'pitch': -7.1, 'roll': 1.88, 'pres': 207}
{'lipoC2': 0.0, 'lipoC3S1': 3.96, 'temp': 26.31, 'lipoC3S3': 12.0, 'lipoC3S2': 7.91, 'rot1': 0, 'rot0': 0, 'rot3': 0, 'rot2': 0, 'state': 'normal', 'yaw': -1.73, 'datetime': '2018-10-03 17:00:07.657073', 'mgs': 0, 'volt': 1.0107, 'depth': 3.293, 'time': 6, 'pitch': -7.05, 'roll': 1.8, 'pres': 207}
{'lipoC2': 0.0, 'lipoC3S1': 3.96, 'temp': 26.31, 'lipoC3S3': 12.0, 'lipoC3S2': 7.91, 'rot1': 0, 'rot0': 0, 'rot3': 0, 'rot2': 0, 'state': 'normal', 'yaw': -1.87, 'datetime': '2018-10-03 17:00:07.667105', 'mgs': 0, 'volt': 1.0107, 'depth': 3.293, 'time': 6, 'pitch': -7.0, 'roll': 1.79, 'pres': 207}
{'lipoC2': 0.0, 'lipoC3S1': 3.96, 'temp': 26.31, 'lipoC3S3': 12.0, 'lipoC3S2': 7.92, 'rot1': 0, 'rot0': 0, 'rot3': 0, 'rot2': 0, 'state': 'normal', 'yaw': -1.95, 'datetime': '2018-10-03 17:00:07.677181', 'mgs': 0, 'volt': 1.0107, 'depth': 3.293, 'time': 6, 'pitch': -6.92, 'roll': 1.85, 'pres': 207}
{'lipoC2': 0.0, 'lipoC3S1': 3.96, 'temp': 26.38, 'lipoC3S3': 12.0, 'lipoC3S2': 7.91, 'rot1': 0, 'rot0': 0, 'rot3': 0, 'rot2': 0, 'state': 'normal', 'yaw': -1.96, 'datetime': '2018-10-03 17:00:07.687230', 'mgs': 0, 'volt': 1.0107, 'depth': 3.293, 'time': 6, 'pitch': -6.79, 'roll': 1.92, 'pres': 207}
{'lipoC2': 0.0, 'lipoC3S1': 3.96, 'temp': 26.38, 'lipoC3S3': 12.0, 'lipoC3S2': 7.92, 'rot1': 0, 'rot0': 0, 'rot3': 0, 'rot2': 0, 'state': 'normal', 'yaw': -1.95, 'datetime': '2018-10-03 17:00:07.697257', 'mgs': 0, 'volt': 1.0107, 'depth': 3.293, 'time': 6, 'pitch': -6.78, 'roll': 1.91, 'pres': 207}
{'lipoC2': 0.0, 'lipoC3S1': 3.96, 'temp': 26.38, 'lipoC3S3': 12.0, 'lipoC3S2': 7.91, 'rot1': 0, 'rot0': 0, 'rot3': 0, 'rot2': 0, 'state': 'normal', 'yaw': -2.01, 'datetime': '2018-10-03 17:00:07.707443', 'mgs': 0, 'volt': 1.0107, 'depth': 3.293, 'time': 6, 'pitch': -6.71, 'roll': 1.84, 'pres': 207}
{'lipoC2': 0.0, 'lipoC3S1': 3.96, 'temp': 26.38, 'lipoC3S3': 12.0, 'lipoC3S2': 7.91, 'rot1': 0, 'rot0': 0, 'rot3': 0, 'rot2': 0, 'state': 'normal', 'yaw': -2.09, 'datetime': '2018-10-03 17:00:07.717526', 'mgs': 0, 'volt': 1.0107, 'depth': 3.293, 'time': 6, 'pitch': -6.64, 'roll': 1.71, 'pres': 207}
{'lipoC2': 0.0, 'lipoC3S1': 3.96, 'temp': 26.38, 'lipoC3S3': 12.0, 'lipoC3S2': 7.91, 'rot1': 0, 'rot0': 0, 'rot3': 0, 'rot2': 0, 'state': 'normal', 'yaw': -2.18, 'datetime': '2018-10-03 17:00:07.727509', 'mgs': 0, 'volt': 1.0107, 'depth': 3.293, 'time': 7, 'pitch': -6.66, 'roll': 1.59, 'pres': 207}
{'lipoC2': 0.0, 'lipoC3S1': 3.96, 'temp': 26.38, 'lipoC3S3': 12.0, 'lipoC3S2': 7.91, 'rot1': 0, 'rot0': 0, 'rot3': 0, 'rot2': 0, 'state': 'normal', 'yaw': -2.3, 'datetime': '2018-10-03 17:00:07.737513', 'mgs': 0, 'volt': 1.0107, 'depth': 3.293, 'time': 7, 'pitch': -6.71, 'roll': 1.47, 'pres': 207}
{'lipoC2': 0.0, 'lipoC3S1': 3.96, 'temp': 26.38, 'lipoC3S3': 12.0, 'lipoC3S2': 7.91, 'rot1': 0, 'rot0': 0, 'rot3': 0, 'rot2': 0, 'state': 'normal', 'yaw': -2.43, 'datetime': '2018-10-03 17:00:07.747505', 'mgs': 0, 'volt': 1.0107, 'depth': 3.293, 'time': 7, 'pitch': -6.83, 'roll': 1.35, 'pres': 207}
{'lipoC2': 0.0, 'lipoC3S1': 3.96, 'temp': 26.38, 'lipoC3S3': 12.0, 'lipoC3S2': 7.92, 'rot1': 0, 'rot0': 0, 'rot3': 0, 'rot2': 0, 'state': 'normal', 'yaw': -2.55, 'datetime': '2018-10-03 17:00:07.757532', 'mgs': 0, 'volt': 1.0107, 'depth': 3.293, 'time': 7, 'pitch': -6.94, 'roll': 1.3, 'pres': 207}
{'lipoC2': 0.0, 'lipoC3S1': 3.96, 'temp': 26.38, 'lipoC3S3': 12.0, 'lipoC3S2': 7.91, 'rot1': 0, 'rot0': 0, 'rot3': 0, 'rot2': 0, 'state': 'normal', 'yaw': -2.57, 'datetime': '2018-10-03 17:00:07.767555', 'mgs': 0, 'volt': 1.0107, 'depth': 3.293, 'time': 7, 'pitch': -7.01, 'roll': 1.33, 'pres': 207}
{'lipoC2': 0.0, 'lipoC3S1': 3.96, 'temp': 26.38, 'lipoC3S3': 12.0, 'lipoC3S2': 7.92, 'rot1': 0, 'rot0': 0, 'rot3': 0, 'rot2': 0, 'state': 'normal', 'yaw': -2.57, 'datetime': '2018-10-03 17:00:07.777570', 'mgs': 0, 'volt': 1.0107, 'depth': 3.293, 'time': 7, 'pitch': -7.0, 'roll': 1.45, 'pres': 207}
{'lipoC2': 0.0, 'lipoC3S1': 3.96, 'temp': 26.38, 'lipoC3S3': 12.0, 'lipoC3S2': 7.91, 'rot1': 0, 'rot0': 0, 'rot3': 0, 'rot2': 0, 'state': 'normal', 'yaw': -2.56, 'datetime': '2018-10-03 17:00:07.787666', 'mgs': 0, 'volt': 1.0107, 'depth': 3.293, 'time': 7, 'pitch': -6.96, 'roll': 1.6, 'pres': 207}
{'lipoC2': 0.0, 'lipoC3S1': 3.96, 'temp': 26.38, 'lipoC3S3': 12.0, 'lipoC3S2': 7.91, 'rot1': 0, 'rot0': 0, 'rot3': 0, 'rot2': 0, 'state': 'normal', 'yaw': -2.55, 'datetime': '2018-10-03 17:00:07.797739', 'mgs': 0, 'volt': 1.0107, 'depth': 3.293, 'time': 7, 'pitch': -6.94, 'roll': 1.74, 'pres': 207}
{'lipoC2': 0.0, 'lipoC3S1': 3.96, 'temp': 26.38, 'lipoC3S3': 12.0, 'lipoC3S2': 7.91, 'rot1': 0, 'rot0': 0, 'rot3': 0, 'rot2': 0, 'state': 'normal', 'yaw': -2.55, 'datetime': '2018-10-03 17:00:07.807855', 'mgs': 0, 'volt': 1.0107, 'depth': 3.293, 'time': 7, 'pitch': -6.98, 'roll': 1.86, 'pres': 207}
{'lipoC2': 0.0, 'lipoC3S1': 3.96, 'temp': 26.38, 'lipoC3S3': 12.0, 'lipoC3S2': 7.92, 'rot1': 0, 'rot0': 0, 'rot3': 0, 'rot2': 0, 'state': 'normal', 'yaw': -2.55, 'datetime': '2018-10-03 17:00:07.817970', 'mgs': 0, 'volt': 1.0156, 'depth': 3.369, 'time': 7, 'pitch': -6.97, 'roll': 1.89, 'pres': 208}
{'lipoC2': 0.0, 'lipoC3S1': 3.96, 'temp': 26.31, 'lipoC3S3': 12.0, 'lipoC3S2': 7.91, 'rot1': 0, 'rot0': 0, 'rot3': 0, 'rot2': 0, 'state': 'normal', 'yaw': -2.6, 'datetime': '2018-10-03 17:00:07.827997', 'mgs': 0, 'volt': 1.0156, 'depth': 3.369, 'time': 8, 'pitch': -6.96, 'roll': 1.84, 'pres': 208}
{'lipoC2': 0.0, 'lipoC3S1': 3.96, 'temp': 26.31, 'lipoC3S3': 12.0, 'lipoC3S2': 7.92, 'rot1': 0, 'rot0': 0, 'rot3': 0, 'rot2': 0, 'state': 'normal', 'yaw': -2.67, 'datetime': '2018-10-03 17:00:07.838030', 'mgs': 0, 'volt': 1.0156, 'depth': 3.369, 'time': 8, 'pitch': -6.96, 'roll': 1.76, 'pres': 208}
{'lipoC2': 0.0, 'lipoC3S1': 3.96, 'temp': 26.38, 'lipoC3S3': 12.0, 'lipoC3S2': 7.92, 'rot1': 0, 'rot0': 0, 'rot3': 0, 'rot2': 0, 'state': 'normal', 'yaw': -2.76, 'datetime': '2018-10-03 17:00:07.848236', 'mgs': 0, 'volt': 1.0156, 'depth': 3.369, 'time': 8, 'pitch': -6.96, 'roll': 1.66, 'pres': 208}
{'lipoC2': 0.0, 'lipoC3S1': 3.96, 'temp': 26.38, 'lipoC3S3': 12.0, 'lipoC3S2': 7.92, 'rot1': 0, 'rot0': 0, 'rot3': 0, 'rot2': 0, 'state': 'normal', 'yaw': -2.86, 'datetime': '2018-10-03 17:00:07.857747', 'mgs': 0, 'volt': 1.0156, 'depth': 3.369, 'time': 8, 'pitch': -7.01, 'roll': 1.57, 'pres': 208}
{'lipoC2': 0.0, 'lipoC3S1': 3.96, 'temp': 26.38, 'lipoC3S3': 12.0, 'lipoC3S2': 7.91, 'rot1': 0, 'rot0': 0, 'rot3': 0, 'rot2': 0, 'state': 'normal', 'yaw': -2.96, 'datetime': '2018-10-03 17:00:07.867219', 'mgs': 0, 'volt': 1.0156, 'depth': 3.369, 'time': 8, 'pitch': -7.08, 'roll': 1.49, 'pres': 208}
{'lipoC2': 0.0, 'lipoC3S1': 3.96, 'temp': 26.38, 'lipoC3S3': 12.0, 'lipoC3S2': 7.92, 'rot1': 0, 'rot0': 0, 'rot3': 0, 'rot2': 0, 'state': 'normal', 'yaw': -3.06, 'datetime': '2018-10-03 17:00:07.876773', 'mgs': 0, 'volt': 1.0156, 'depth': 3.369, 'time': 8, 'pitch': -7.03, 'roll': 1.41, 'pres': 208}
{'lipoC2': 0.0, 'lipoC3S1': 3.96, 'temp': 26.38, 'lipoC3S3': 12.0, 'lipoC3S2': 7.92, 'rot1': 0, 'rot0': 0, 'rot3': 0, 'rot2': 0, 'state': 'normal', 'yaw': -3.06, 'datetime': '2018-10-03 17:00:07.886268', 'mgs': 0, 'volt': 1.0156, 'depth': 3.369, 'time': 8, 'pitch': -6.96, 'roll': 1.45, 'pres': 208}
{'lipoC2': 0.0, 'lipoC3S1': 3.96, 'temp': 26.38, 'lipoC3S3': 12.0, 'lipoC3S2': 7.91, 'rot1': 0, 'rot0': 0, 'rot3': 0, 'rot2': 0, 'state': 'normal', 'yaw': -3.06, 'datetime': '2018-10-03 17:00:07.895725', 'mgs': 0, 'volt': 1.0107, 'depth': 3.293, 'time': 8, 'pitch': -6.98, 'roll': 1.51, 'pres': 207}
{'lipoC2': 0.0, 'lipoC3S1': 3.96, 'temp': 26.38, 'lipoC3S3': 12.0, 'lipoC3S2': 7.91, 'rot1': 0, 'rot0': 0, 'rot3': 0, 'rot2': 0, 'state': 'normal', 'yaw': -3.05, 'datetime': '2018-10-03 17:00:07.905243', 'mgs': 0, 'volt': 1.0156, 'depth': 3.369, 'time': 8, 'pitch': -7.05, 'roll': 1.55, 'pres': 208}
{'lipoC2': 0.0, 'lipoC3S1': 3.96, 'temp': 26.38, 'lipoC3S3': 12.0, 'lipoC3S2': 7.92, 'rot1': 0, 'rot0': 0, 'rot3': 0, 'rot2': 0, 'state': 'normal', 'yaw': -3.06, 'datetime': '2018-10-03 17:00:07.914737', 'mgs': 0, 'volt': 1.0107, 'depth': 3.293, 'time': 9, 'pitch': -7.13, 'roll': 1.54, 'pres': 207}
{'lipoC2': 0.0, 'lipoC3S1': 3.96, 'temp': 26.38, 'lipoC3S3': 12.0, 'lipoC3S2': 7.91, 'rot1': 0, 'rot0': 0, 'rot3': 0, 'rot2': 0, 'state': 'normal', 'yaw': -3.11, 'datetime': '2018-10-03 17:00:07.924197', 'mgs': 0, 'volt': 1.0107, 'depth': 3.293, 'time': 9, 'pitch': -7.13, 'roll': 1.5, 'pres': 207}
{'lipoC2': 0.0, 'lipoC3S1': 3.96, 'temp': 26.38, 'lipoC3S3': 12.0, 'lipoC3S2': 7.92, 'rot1': 0, 'rot0': 0, 'rot3': 0, 'rot2': 0, 'state': 'normal', 'yaw': -3.2, 'datetime': '2018-10-03 17:00:07.933664', 'mgs': 0, 'volt': 1.0107, 'depth': 3.293, 'time': 9, 'pitch': -7.11, 'roll': 1.48, 'pres': 207}
{'lipoC2': 0.0, 'lipoC3S1': 3.96, 'temp': 26.38, 'lipoC3S3': 12.0, 'lipoC3S2': 7.92, 'rot1': 0, 'rot0': 0, 'rot3': 0, 'rot2': 0, 'state': 'normal', 'yaw': -3.28, 'datetime': '2018-10-03 17:00:07.943158', 'mgs': 0, 'volt': 1.0107, 'depth': 3.293, 'time': 9, 'pitch': -7.14, 'roll': 1.46, 'pres': 207}
{'lipoC2': 0.0, 'lipoC3S1': 3.96, 'temp': 26.38, 'lipoC3S3': 12.0, 'lipoC3S2': 7.91, 'rot1': 0, 'rot0': 0, 'rot3': 0, 'rot2': 0, 'state': 'normal', 'yaw': -3.37, 'datetime': '2018-10-03 17:00:07.952600', 'mgs': 0, 'volt': 1.0107, 'depth': 3.293, 'time': 9, 'pitch': -7.2, 'roll': 1.45, 'pres': 207}
{'lipoC2': 0.0, 'lipoC3S1': 3.96, 'temp': 26.44, 'lipoC3S3': 12.0, 'lipoC3S2': 7.92, 'rot1': 0, 'rot0': 0, 'rot3': 0, 'rot2': 0, 'state': 'normal', 'yaw': -3.49, 'datetime': '2018-10-03 17:00:07.962044', 'mgs': 0, 'volt': 1.0107, 'depth': 3.293, 'time': 9, 'pitch': -7.22, 'roll': 1.37, 'pres': 207}
{'lipoC2': 0.0, 'lipoC3S1': 3.96, 'temp': 26.44, 'lipoC3S3': 12.0, 'lipoC3S2': 7.91, 'rot1': 0, 'rot0': 0, 'rot3': 0, 'rot2': 0, 'state': 'normal', 'yaw': -3.62, 'datetime': '2018-10-03 17:00:07.971455', 'mgs': 0, 'volt': 1.0107, 'depth': 3.293, 'time': 9, 'pitch': -7.19, 'roll': 1.27, 'pres': 207}
{'lipoC2': 0.0, 'lipoC3S1': 3.96, 'temp': 26.31, 'lipoC3S3': 12.0, 'lipoC3S2': 7.92, 'rot1': 0, 'rot0': 0, 'rot3': 0, 'rot2': 0, 'state': 'normal', 'yaw': -3.76, 'datetime': '2018-10-03 17:00:07.981160', 'mgs': 0, 'volt': 1.0107, 'depth': 3.293, 'time': 9, 'pitch': -7.16, 'roll': 1.19, 'pres': 207}
{'lipoC2': 0.0, 'lipoC3S1': 3.96, 'temp': 26.31, 'lipoC3S3': 12.0, 'lipoC3S2': 7.92, 'rot1': 0, 'rot0': 0, 'rot3': 0, 'rot2': 0, 'state': 'normal', 'yaw': -3.89, 'datetime': '2018-10-03 17:00:07.990700', 'mgs': 0, 'volt': 1.0107, 'depth': 3.293, 'time': 9, 'pitch': -7.13, 'roll': 1.15, 'pres': 207}
{'lipoC2': 0.0, 'lipoC3S1': 3.96, 'temp': 26.31, 'lipoC3S3': 12.0, 'lipoC3S2': 7.92, 'rot1': 0, 'rot0': 0, 'rot3': 0, 'rot2': 0, 'state': 'normal', 'yaw': -3.96, 'datetime': '2018-10-03 17:00:08.000177', 'mgs': 0, 'volt': 1.0107, 'depth': 3.293, 'time': 9, 'pitch': -6.95, 'roll': 1.12, 'pres': 207}
{'lipoC2': 0.0, 'lipoC3S1': 3.96, 'temp': 26.31, 'lipoC3S3': 12.0, 'lipoC3S2': 7.92, 'rot1': 0, 'rot0': 0, 'rot3': 0, 'rot2': 0, 'state': 'normal', 'yaw': -3.94, 'datetime': '2018-10-03 17:00:08.009663', 'mgs': 0, 'volt': 1.0107, 'depth': 3.293, 'time': 10, 'pitch': -6.73, 'roll': 1.09, 'pres': 207}
{'lipoC2': 0.0, 'lipoC3S1': 3.96, 'temp': 26.31, 'lipoC3S3': 12.0, 'lipoC3S2': 7.92, 'rot1': 0, 'rot0': 0, 'rot3': 0, 'rot2': 0, 'state': 'normal', 'yaw': -3.93, 'datetime': '2018-10-03 17:00:08.049532', 'mgs': 0, 'volt': 1.0107, 'depth': 3.293, 'time': 10, 'pitch': -6.56, 'roll': 1.15, 'pres': 207}
{'lipoC2': 0.0, 'lipoC3S1': 3.96, 'temp': 26.31, 'lipoC3S3': 12.0, 'lipoC3S2': 7.92, 'rot1': 0, 'rot0': 0, 'rot3': 0, 'rot2': 0, 'state': 'normal', 'yaw': -3.93, 'datetime': '2018-10-03 17:00:08.152808', 'mgs': 0, 'volt': 1.0107, 'depth': 3.293, 'time': 10, 'pitch': -6.5, 'roll': 1.19, 'pres': 207}
{'lipoC2': 0.0, 'lipoC3S1': 3.96, 'temp': 26.31, 'lipoC3S3': 12.0, 'lipoC3S2': 7.92, 'rot1': 0, 'rot0': 0, 'rot3': 0, 'rot2': 0, 'state': 'normal', 'yaw': -3.92, 'datetime': '2018-10-03 17:00:08.256554', 'mgs': 0, 'volt': 1.0107, 'depth': 3.293, 'time': 10, 'pitch': -6.49, 'roll': 1.24, 'pres': 207}
{'lipoC2': 0.0, 'lipoC3S1': 3.96, 'temp': 26.38, 'lipoC3S3': 12.0, 'lipoC3S2': 7.92, 'rot1': 0, 'rot0': 0, 'rot3': 0, 'rot2': 0, 'state': 'normal', 'yaw': -3.94, 'datetime': '2018-10-03 17:00:08.360615', 'mgs': 0, 'volt': 1.0107, 'depth': 3.293, 'time': 10, 'pitch': -6.55, 'roll': 1.3, 'pres': 207}
{'lipoC2': 0.0, 'lipoC3S1': 3.96, 'temp': 26.38, 'lipoC3S3': 12.0, 'lipoC3S2': 7.92, 'rot1': 0, 'rot0': 0, 'rot3': 0, 'rot2': 0, 'state': 'normal', 'yaw': -4.0, 'datetime': '2018-10-03 17:00:08.463902', 'mgs': 0, 'volt': 1.0107, 'depth': 3.293, 'time': 10, 'pitch': -6.67, 'roll': 1.38, 'pres': 207}
{'lipoC2': 0.0, 'lipoC3S1': 3.96, 'temp': 26.31, 'lipoC3S3': 12.0, 'lipoC3S2': 7.91, 'rot1': 0, 'rot0': 0, 'rot3': 0, 'rot2': 0, 'state': 'normal', 'yaw': -4.09, 'datetime': '2018-10-03 17:00:08.568000', 'mgs': 0, 'volt': 1.0107, 'depth': 3.293, 'time': 10, 'pitch': -6.8, 'roll': 1.45, 'pres': 207}
{'lipoC2': 0.0, 'lipoC3S1': 3.96, 'temp': 26.31, 'lipoC3S3': 12.0, 'lipoC3S2': 7.92, 'rot1': 0, 'rot0': 0, 'rot3': 0, 'rot2': 0, 'state': 'normal', 'yaw': -4.17, 'datetime': '2018-10-03 17:00:08.672596', 'mgs': 0, 'volt': 1.0107, 'depth': 3.293, 'time': 10, 'pitch': -6.95, 'roll': 1.51, 'pres': 207}
{'lipoC2': 0.0, 'lipoC3S1': 3.96, 'temp': 26.31, 'lipoC3S3': 12.0, 'lipoC3S2': 7.92, 'rot1': 0, 'rot0': 0, 'rot3': 0, 'rot2': 0, 'state': 'normal', 'yaw': -4.21, 'datetime': '2018-10-03 17:00:08.780301', 'mgs': 0, 'volt': 1.0107, 'depth': 3.293, 'time': 10, 'pitch': -7.04, 'roll': 1.46, 'pres': 207}
{'lipoC2': 0.0, 'lipoC3S1': 3.96, 'temp': 26.31, 'lipoC3S3': 12.0, 'lipoC3S2': 7.91, 'rot1': 0, 'rot0': 0, 'rot3': 0, 'rot2': 0, 'state': 'normal', 'yaw': -4.25, 'datetime': '2018-10-03 17:00:08.886243', 'mgs': 0, 'volt': 1.0107, 'depth': 3.293, 'time': 10, 'pitch': -7.1, 'roll': 1.39, 'pres': 207}
{'lipoC2': 0.0, 'lipoC3S1': 3.96, 'temp': 26.31, 'lipoC3S3': 12.0, 'lipoC3S2': 7.92, 'rot1': 0, 'rot0': 0, 'rot3': 0, 'rot2': 0, 'state': 'normal', 'yaw': -4.34, 'datetime': '2018-10-03 17:00:08.989819', 'mgs': 0, 'volt': 1.0107, 'depth': 3.293, 'time': 11, 'pitch': -7.17, 'roll': 1.35, 'pres': 207}
{'lipoC2': 0.0, 'lipoC3S1': 3.96, 'temp': 26.44, 'lipoC3S3': 12.01, 'lipoC3S2': 7.92, 'rot1': 0, 'rot0': 0, 'rot3': 0, 'rot2': 0, 'state': 'normal', 'yaw': -4.43, 'datetime': '2018-10-03 17:00:09.093100', 'mgs': 0, 'volt': 1.0107, 'depth': 3.293, 'time': 11, 'pitch': -7.19, 'roll': 1.28, 'pres': 207}
{'lipoC2': 0.0, 'lipoC3S1': 3.96, 'temp': 26.44, 'lipoC3S3': 12.0, 'lipoC3S2': 7.92, 'rot1': 0, 'rot0': 0, 'rot3': 0, 'rot2': 0, 'state': 'normal', 'yaw': -4.41, 'datetime': '2018-10-03 17:00:09.196385', 'mgs': 0, 'volt': 1.0107, 'depth': 3.293, 'time': 11, 'pitch': -7.13, 'roll': 1.19, 'pres': 207}
{'lipoC2': 0.0, 'lipoC3S1': 3.96, 'temp': 26.38, 'lipoC3S3': 12.0, 'lipoC3S2': 7.92, 'rot1': 0, 'rot0': 0, 'rot3': 0, 'rot2': 0, 'state': 'normal', 'yaw': -4.39, 'datetime': '2018-10-03 17:00:09.299518', 'mgs': 0, 'volt': 1.0107, 'depth': 3.293, 'time': 11, 'pitch': -6.99, 'roll': 1.26, 'pres': 207}
{'lipoC2': 0.0, 'lipoC3S1': 3.96, 'temp': 26.38, 'lipoC3S3': 12.0, 'lipoC3S2': 7.92, 'rot1': 0, 'rot0': 0, 'rot3': 0, 'rot2': 0, 'state': 'normal', 'yaw': -4.38, 'datetime': '2018-10-03 17:00:09.402713', 'mgs': 0, 'volt': 1.0156, 'depth': 3.369, 'time': 11, 'pitch': -6.83, 'roll': 1.44, 'pres': 208}
{'lipoC2': 0.0, 'lipoC3S1': 3.96, 'temp': 26.38, 'lipoC3S3': 12.0, 'lipoC3S2': 7.92, 'rot1': 0, 'rot0': 0, 'rot3': 0, 'rot2': 0, 'state': 'normal', 'yaw': -4.37, 'datetime': '2018-10-03 17:00:09.505924', 'mgs': 0, 'volt': 1.0107, 'depth': 3.293, 'time': 11, 'pitch': -6.71, 'roll': 1.63, 'pres': 207}
{'lipoC2': 0.0, 'lipoC3S1': 3.96, 'temp': 26.44, 'lipoC3S3': 12.0, 'lipoC3S2': 7.92, 'rot1': 0, 'rot0': 0, 'rot3': 0, 'rot2': 0, 'state': 'normal', 'yaw': -4.36, 'datetime': '2018-10-03 17:00:09.610644', 'mgs': 0, 'volt': 1.0156, 'depth': 3.369, 'time': 11, 'pitch': -6.67, 'roll': 1.69, 'pres': 208}
{'lipoC2': 0.0, 'lipoC3S1': 3.96, 'temp': 26.44, 'lipoC3S3': 12.0, 'lipoC3S2': 7.92, 'rot1': 0, 'rot0': 0, 'rot3': 0, 'rot2': 0, 'state': 'normal', 'yaw': -4.36, 'datetime': '2018-10-03 17:00:09.713765', 'mgs': 0, 'volt': 1.0156, 'depth': 3.369, 'time': 11, 'pitch': -6.63, 'roll': 1.72, 'pres': 208}
{'lipoC2': 0.0, 'lipoC3S1': 3.96, 'temp': 26.38, 'lipoC3S3': 12.0, 'lipoC3S2': 7.92, 'rot1': 0, 'rot0': 0, 'rot3': 0, 'rot2': 0, 'state': 'normal', 'yaw': -4.35, 'datetime': '2018-10-03 17:00:09.817323', 'mgs': 0, 'volt': 1.0156, 'depth': 3.369, 'time': 11, 'pitch': -6.6, 'roll': 1.7, 'pres': 208}
{'lipoC2': 0.0, 'lipoC3S1': 3.96, 'temp': 26.38, 'lipoC3S3': 12.0, 'lipoC3S2': 7.92, 'rot1': 0, 'rot0': 0, 'rot3': 0, 'rot2': 0, 'state': 'normal', 'yaw': -4.35, 'datetime': '2018-10-03 17:00:09.921895', 'mgs': 0, 'volt': 1.0156, 'depth': 3.369, 'time': 12, 'pitch': -6.59, 'roll': 1.69, 'pres': 208}
{'lipoC2': 0.0, 'lipoC3S1': 3.96, 'temp': 26.38, 'lipoC3S3': 12.0, 'lipoC3S2': 7.92, 'rot1': 0, 'rot0': 0, 'rot3': 0, 'rot2': 0, 'state': 'normal', 'yaw': -4.36, 'datetime': '2018-10-03 17:00:10.025095', 'mgs': 0, 'volt': 1.0156, 'depth': 3.369, 'time': 12, 'pitch': -6.69, 'roll': 1.66, 'pres': 208}
{'lipoC2': 0.0, 'lipoC3S1': 3.96, 'temp': 26.38, 'lipoC3S3': 12.0, 'lipoC3S2': 7.92, 'rot1': 0, 'rot0': 0, 'rot3': 0, 'rot2': 0, 'state': 'normal', 'yaw': -4.36, 'datetime': '2018-10-03 17:00:10.128479', 'mgs': 0, 'volt': 1.0156, 'depth': 3.369, 'time': 12, 'pitch': -6.82, 'roll': 1.56, 'pres': 208}
{'lipoC2': 0.0, 'lipoC3S1': 3.96, 'temp': 26.38, 'lipoC3S3': 12.0, 'lipoC3S2': 7.92, 'rot1': 0, 'rot0': 0, 'rot3': 0, 'rot2': 0, 'state': 'normal', 'yaw': -4.37, 'datetime': '2018-10-03 17:00:10.232873', 'mgs': 0, 'volt': 1.0107, 'depth': 3.293, 'time': 12, 'pitch': -6.93, 'roll': 1.45, 'pres': 207}
{'lipoC2': 0.0, 'lipoC3S1': 3.96, 'temp': 26.31, 'lipoC3S3': 12.0, 'lipoC3S2': 7.92, 'rot1': 0, 'rot0': 0, 'rot3': 0, 'rot2': 0, 'state': 'normal', 'yaw': -4.39, 'datetime': '2018-10-03 17:00:10.336145', 'mgs': 0, 'volt': 1.0156, 'depth': 3.369, 'time': 12, 'pitch': -6.93, 'roll': 1.27, 'pres': 208}
{'lipoC2': 0.0, 'lipoC3S1': 3.96, 'temp': 26.31, 'lipoC3S3': 12.0, 'lipoC3S2': 7.92, 'rot1': 0, 'rot0': 0, 'rot3': 0, 'rot2': 0, 'state': 'normal', 'yaw': -4.47, 'datetime': '2018-10-03 17:00:10.439992', 'mgs': 0, 'volt': 1.0156, 'depth': 3.369, 'time': 12, 'pitch': -6.9, 'roll': 1.12, 'pres': 208}
{'lipoC2': 0.0, 'lipoC3S1': 3.96, 'temp': 26.38, 'lipoC3S3': 12.0, 'lipoC3S2': 7.91, 'rot1': 0, 'rot0': 0, 'rot3': 0, 'rot2': 0, 'state': 'normal', 'yaw': -4.56, 'datetime': '2018-10-03 17:00:10.544202', 'mgs': 0, 'volt': 1.0156, 'depth': 3.369, 'time': 12, 'pitch': -6.88, 'roll': 1.11, 'pres': 208}
{'lipoC2': 0.0, 'lipoC3S1': 3.96, 'temp': 26.38, 'lipoC3S3': 12.0, 'lipoC3S2': 7.92, 'rot1': 0, 'rot0': 0, 'rot3': 0, 'rot2': 0, 'state': 'normal', 'yaw': -4.66, 'datetime': '2018-10-03 17:00:10.647473', 'mgs': 0, 'volt': 1.0156, 'depth': 3.369, 'time': 12, 'pitch': -6.86, 'roll': 1.21, 'pres': 208}
{'lipoC2': 0.0, 'lipoC3S1': 3.96, 'temp': 26.44, 'lipoC3S3': 12.0, 'lipoC3S2': 7.92, 'rot1': 0, 'rot0': 0, 'rot3': 0, 'rot2': 0, 'state': 'normal', 'yaw': -4.66, 'datetime': '2018-10-03 17:00:10.750680', 'mgs': 0, 'volt': 1.0156, 'depth': 3.369, 'time': 12, 'pitch': -6.84, 'roll': 1.2, 'pres': 208}
{'lipoC2': 0.0, 'lipoC3S1': 3.96, 'temp': 26.44, 'lipoC3S3': 12.0, 'lipoC3S2': 7.92, 'rot1': 0, 'rot0': 0, 'rot3': 0, 'rot2': 0, 'state': 'normal', 'yaw': -4.73, 'datetime': '2018-10-03 17:00:10.854926', 'mgs': 0, 'volt': 1.0156, 'depth': 3.369, 'time': 12, 'pitch': -6.81, 'roll': 1.18, 'pres': 208}
{'lipoC2': 0.0, 'lipoC3S1': 3.96, 'temp': 26.44, 'lipoC3S3': 12.0, 'lipoC3S2': 7.92, 'rot1': 0, 'rot0': 0, 'rot3': 0, 'rot2': 0, 'state': 'normal', 'yaw': -4.81, 'datetime': '2018-10-03 17:00:10.958161', 'mgs': 0, 'volt': 1.0107, 'depth': 3.293, 'time': 13, 'pitch': -6.78, 'roll': 1.15, 'pres': 207}
{'lipoC2': 0.0, 'lipoC3S1': 3.96, 'temp': 26.44, 'lipoC3S3': 12.0, 'lipoC3S2': 7.92, 'rot1': 0, 'rot0': 0, 'rot3': 0, 'rot2': 0, 'state': 'normal', 'yaw': -4.88, 'datetime': '2018-10-03 17:00:11.061873', 'mgs': 0, 'volt': 1.0107, 'depth': 3.293, 'time': 13, 'pitch': -6.76, 'roll': 1.13, 'pres': 207}
{'lipoC2': 0.0, 'lipoC3S1': 3.96, 'temp': 26.44, 'lipoC3S3': 12.0, 'lipoC3S2': 7.92, 'rot1': 0, 'rot0': 0, 'rot3': 0, 'rot2': 0, 'state': 'normal', 'yaw': -4.9, 'datetime': '2018-10-03 17:00:11.166256', 'mgs': 0, 'volt': 1.0107, 'depth': 3.293, 'time': 13, 'pitch': -6.74, 'roll': 1.12, 'pres': 207}
{'lipoC2': 0.0, 'lipoC3S1': 3.96, 'temp': 26.38, 'lipoC3S3': 12.01, 'lipoC3S2': 7.92, 'rot1': 0, 'rot0': 0, 'rot3': 0, 'rot2': 0, 'state': 'normal', 'yaw': -4.9, 'datetime': '2018-10-03 17:00:11.269178', 'mgs': 0, 'volt': 1.0107, 'depth': 3.293, 'time': 13, 'pitch': -6.72, 'roll': 1.14, 'pres': 207}
{'lipoC2': 0.0, 'lipoC3S1': 3.96, 'temp': 26.38, 'lipoC3S3': 12.01, 'lipoC3S2': 7.92, 'rot1': 0, 'rot0': 0, 'rot3': 0, 'rot2': 0, 'state': 'normal', 'yaw': -4.9, 'datetime': '2018-10-03 17:00:11.373460', 'mgs': 0, 'volt': 1.0107, 'depth': 3.293, 'time': 13, 'pitch': -6.7, 'roll': 1.18, 'pres': 207}
{'lipoC2': 0.0, 'lipoC3S1': 3.96, 'temp': 26.38, 'lipoC3S3': 12.01, 'lipoC3S2': 7.92, 'rot1': 0, 'rot0': 0, 'rot3': 0, 'rot2': 0, 'state': 'normal', 'yaw': -4.9, 'datetime': '2018-10-03 17:00:11.477310', 'mgs': 0, 'volt': 1.0107, 'depth': 3.293, 'time': 13, 'pitch': -6.68, 'roll': 1.25, 'pres': 207}
{'lipoC2': 0.0, 'lipoC3S1': 3.96, 'temp': 26.38, 'lipoC3S3': 12.01, 'lipoC3S2': 7.92, 'rot1': 0, 'rot0': 0, 'rot3': 0, 'rot2': 0, 'state': 'normal', 'yaw': -4.92, 'datetime': '2018-10-03 17:00:11.580581', 'mgs': 0, 'volt': 1.0107, 'depth': 3.293, 'time': 13, 'pitch': -6.68, 'roll': 1.35, 'pres': 207}
{'lipoC2': 0.0, 'lipoC3S1': 3.96, 'temp': 26.38, 'lipoC3S3': 12.0, 'lipoC3S2': 7.92, 'rot1': 0, 'rot0': 0, 'rot3': 0, 'rot2': 0, 'state': 'normal', 'yaw': -5.0, 'datetime': '2018-10-03 17:00:11.679811', 'mgs': 0, 'volt': 1.0107, 'depth': 3.293, 'time': 13, 'pitch': -6.71, 'roll': 1.47, 'pres': 207}
{'lipoC2': 0.0, 'lipoC3S1': 3.96, 'temp': 26.38, 'lipoC3S3': 12.0, 'lipoC3S2': 7.92, 'rot1': 0, 'rot0': 0, 'rot3': 0, 'rot2': 0, 'state': 'normal', 'yaw': -5.08, 'datetime': '2018-10-03 17:00:11.782575', 'mgs': 0, 'volt': 1.0107, 'depth': 3.293, 'time': 13, 'pitch': -6.73, 'roll': 1.59, 'pres': 207}
{'lipoC2': 0.0, 'lipoC3S1': 3.96, 'temp': 26.38, 'lipoC3S3': 12.0, 'lipoC3S2': 7.92, 'rot1': 0, 'rot0': 0, 'rot3': 0, 'rot2': 0, 'state': 'normal', 'yaw': -5.14, 'datetime': '2018-10-03 17:00:11.886088', 'mgs': 0, 'volt': 1.0107, 'depth': 3.293, 'time': 13, 'pitch': -6.74, 'roll': 1.61, 'pres': 207}
{'lipoC2': 0.0, 'lipoC3S1': 3.96, 'temp': 26.38, 'lipoC3S3': 12.01, 'lipoC3S2': 7.92, 'rot1': 0, 'rot0': 0, 'rot3': 0, 'rot2': 0, 'state': 'normal', 'yaw': -5.15, 'datetime': '2018-10-03 17:00:11.990214', 'mgs': 0, 'volt': 1.0107, 'depth': 3.293, 'time': 14, 'pitch': -6.72, 'roll': 1.45, 'pres': 207}
{'lipoC2': 0.0, 'lipoC3S1': 3.96, 'temp': 26.38, 'lipoC3S3': 12.01, 'lipoC3S2': 7.92, 'rot1': 0, 'rot0': 0, 'rot3': 0, 'rot2': 0, 'state': 'normal', 'yaw': -5.14, 'datetime': '2018-10-03 17:00:12.093568', 'mgs': 0, 'volt': 1.0107, 'depth': 3.293, 'time': 14, 'pitch': -6.59, 'roll': 1.35, 'pres': 207}
{'lipoC2': 0.0, 'lipoC3S1': 3.96, 'temp': 26.38, 'lipoC3S3': 12.0, 'lipoC3S2': 7.92, 'rot1': 0, 'rot0': 0, 'rot3': 0, 'rot2': 0, 'state': 'normal', 'yaw': -5.13, 'datetime': '2018-10-03 17:00:12.196802', 'mgs': 0, 'volt': 1.0107, 'depth': 3.293, 'time': 14, 'pitch': -6.48, 'roll': 1.39, 'pres': 207}
{'lipoC2': 0.0, 'lipoC3S1': 3.96, 'temp': 26.38, 'lipoC3S3': 12.01, 'lipoC3S2': 7.92, 'rot1': 0, 'rot0': 0, 'rot3': 0, 'rot2': 0, 'state': 'normal', 'yaw': -5.12, 'datetime': '2018-10-03 17:00:12.300195', 'mgs': 0, 'volt': 1.0107, 'depth': 3.293, 'time': 14, 'pitch': -6.41, 'roll': 1.47, 'pres': 207}
{'lipoC2': 0.0, 'lipoC3S1': 3.96, 'temp': 26.38, 'lipoC3S3': 12.01, 'lipoC3S2': 7.92, 'rot1': 0, 'rot0': 0, 'rot3': 0, 'rot2': 0, 'state': 'normal', 'yaw': -5.12, 'datetime': '2018-10-03 17:00:12.403931', 'mgs': 0, 'volt': 1.0107, 'depth': 3.293, 'time': 14, 'pitch': -6.36, 'roll': 1.54, 'pres': 207}
{'lipoC2': 0.0, 'lipoC3S1': 3.96, 'temp': 26.38, 'lipoC3S3': 12.0, 'lipoC3S2': 7.92, 'rot1': 0, 'rot0': 0, 'rot3': 0, 'rot2': 0, 'state': 'normal', 'yaw': -5.12, 'datetime': '2018-10-03 17:00:12.507152', 'mgs': 0, 'volt': 1.0107, 'depth': 3.293, 'time': 14, 'pitch': -6.35, 'roll': 1.6, 'pres': 207}
{'lipoC2': 0.0, 'lipoC3S1': 3.96, 'temp': 26.38, 'lipoC3S3': 12.01, 'lipoC3S2': 7.92, 'rot1': 0, 'rot0': 0, 'rot3': 0, 'rot2': 0, 'state': 'normal', 'yaw': -5.14, 'datetime': '2018-10-03 17:00:12.610981', 'mgs': 0, 'volt': 1.0107, 'depth': 3.293, 'time': 14, 'pitch': -6.33, 'roll': 1.58, 'pres': 207}
{'lipoC2': 0.0, 'lipoC3S1': 3.96, 'temp': 26.38, 'lipoC3S3': 12.0, 'lipoC3S2': 7.92, 'rot1': 0, 'rot0': 0, 'rot3': 0, 'rot2': 0, 'state': 'normal', 'yaw': -5.15, 'datetime': '2018-10-03 17:00:12.714902', 'mgs': 0, 'volt': 1.0107, 'depth': 3.293, 'time': 14, 'pitch': -6.47, 'roll': 1.5, 'pres': 207}
{'lipoC2': 0.0, 'lipoC3S1': 3.96, 'temp': 26.38, 'lipoC3S3': 12.01, 'lipoC3S2': 7.92, 'rot1': 0, 'rot0': 0, 'rot3': 0, 'rot2': 0, 'state': 'normal', 'yaw': -5.08, 'datetime': '2018-10-03 17:00:12.817735', 'mgs': 0, 'volt': 1.0107, 'depth': 3.293, 'time': 14, 'pitch': -6.86, 'roll': 1.25, 'pres': 207}
{'lipoC2': 0.0, 'lipoC3S1': 3.96, 'temp': 26.38, 'lipoC3S3': 12.0, 'lipoC3S2': 7.92, 'rot1': 0, 'rot0': 0, 'rot3': 0, 'rot2': 0, 'state': 'normal', 'yaw': -4.41, 'datetime': '2018-10-03 17:00:12.920974', 'mgs': 0, 'volt': 1.0107, 'depth': 3.293, 'time': 15, 'pitch': -6.83, 'roll': 1.02, 'pres': 207}
{'lipoC2': 0.0, 'lipoC3S1': 3.96, 'temp': 26.38, 'lipoC3S3': 12.01, 'lipoC3S2': 7.92, 'rot1': 0, 'rot0': 0, 'rot3': 0, 'rot2': 0, 'state': 'normal', 'yaw': -2.57, 'datetime': '2018-10-03 17:00:13.025257', 'mgs': 0, 'volt': 1.0107, 'depth': 3.293, 'time': 15, 'pitch': -6.65, 'roll': 1.43, 'pres': 207}
{'lipoC2': 0.0, 'lipoC3S1': 3.96, 'temp': 26.38, 'lipoC3S3': 12.01, 'lipoC3S2': 7.92, 'rot1': 0, 'rot0': 0, 'rot3': 0, 'rot2': 0, 'state': 'normal', 'yaw': 0.45, 'datetime': '2018-10-03 17:00:13.128512', 'mgs': 0, 'volt': 1.0107, 'depth': 3.293, 'time': 15, 'pitch': -7.0, 'roll': 1.93, 'pres': 207}
{'lipoC2': 0.0, 'lipoC3S1': 3.96, 'temp': 26.38, 'lipoC3S3': 12.01, 'lipoC3S2': 7.92, 'rot1': 0, 'rot0': 0, 'rot3': 0, 'rot2': 0, 'state': 'normal', 'yaw': 3.74, 'datetime': '2018-10-03 17:00:13.232075', 'mgs': 0, 'volt': 1.0107, 'depth': 3.293, 'time': 15, 'pitch': -7.53, 'roll': 2.36, 'pres': 207}
{'lipoC2': 0.0, 'lipoC3S1': 3.96, 'temp': 26.38, 'lipoC3S3': 12.0, 'lipoC3S2': 7.92, 'rot1': 0, 'rot0': 0, 'rot3': 0, 'rot2': 0, 'state': 'normal', 'yaw': 7.13, 'datetime': '2018-10-03 17:00:13.336387', 'mgs': 0, 'volt': 1.0107, 'depth': 3.293, 'time': 15, 'pitch': -7.95, 'roll': 2.76, 'pres': 207}
{'lipoC2': 0.0, 'lipoC3S1': 3.96, 'temp': 26.38, 'lipoC3S3': 12.01, 'lipoC3S2': 7.92, 'rot1': 0, 'rot0': 0, 'rot3': 0, 'rot2': 0, 'state': 'normal', 'yaw': 10.72, 'datetime': '2018-10-03 17:00:13.439651', 'mgs': 0, 'volt': 1.0107, 'depth': 3.293, 'time': 15, 'pitch': -8.33, 'roll': 3.14, 'pres': 207}
{'lipoC2': 0.0, 'lipoC3S1': 3.96, 'temp': 26.38, 'lipoC3S3': 12.01, 'lipoC3S2': 7.92, 'rot1': 0, 'rot0': 0, 'rot3': 0, 'rot2': 0, 'state': 'normal', 'yaw': 14.02, 'datetime': '2018-10-03 17:00:13.543341', 'mgs': 0, 'volt': 1.0107, 'depth': 3.293, 'time': 15, 'pitch': -8.85, 'roll': 3.2, 'pres': 207}
{'lipoC2': 0.0, 'lipoC3S1': 3.96, 'temp': 26.44, 'lipoC3S3': 12.0, 'lipoC3S2': 7.92, 'rot1': 0, 'rot0': 0, 'rot3': 0, 'rot2': 0, 'state': 'normal', 'yaw': 17.4, 'datetime': '2018-10-03 17:00:13.647558', 'mgs': 0, 'volt': 1.0059, 'depth': 3.217, 'time': 15, 'pitch': -9.36, 'roll': 3.15, 'pres': 206}
{'lipoC2': 0.0, 'lipoC3S1': 3.96, 'temp': 26.44, 'lipoC3S3': 12.01, 'lipoC3S2': 7.92, 'rot1': 0, 'rot0': 0, 'rot3': 0, 'rot2': 0, 'state': 'normal', 'yaw': 21.17, 'datetime': '2018-10-03 17:00:13.754201', 'mgs': 0, 'volt': 1.0059, 'depth': 3.217, 'time': 15, 'pitch': -9.73, 'roll': 3.07, 'pres': 206}
{'lipoC2': 0.0, 'lipoC3S1': 3.96, 'temp': 26.44, 'lipoC3S3': 12.01, 'lipoC3S2': 7.92, 'rot1': 0, 'rot0': 0, 'rot3': 0, 'rot2': 0, 'state': 'normal', 'yaw': 24.58, 'datetime': '2018-10-03 17:00:13.854089', 'mgs': 0, 'volt': 1.0059, 'depth': 3.217, 'time': 15, 'pitch': -9.96, 'roll': 2.89, 'pres': 206}
{'lipoC2': 0.0, 'lipoC3S1': 3.96, 'temp': 26.38, 'lipoC3S3': 12.01, 'lipoC3S2': 7.92, 'rot1': 0, 'rot0': 0, 'rot3': 0, 'rot2': 0, 'state': 'normal', 'yaw': 27.89, 'datetime': '2018-10-03 17:00:13.957310', 'mgs': 0, 'volt': 1.0059, 'depth': 3.217, 'time': 16, 'pitch': -10.05, 'roll': 2.63, 'pres': 206}
{'lipoC2': 0.0, 'lipoC3S1': 3.96, 'temp': 26.38, 'lipoC3S3': 12.01, 'lipoC3S2': 7.92, 'rot1': 0, 'rot0': 0, 'rot3': 0, 'rot2': 0, 'state': 'normal', 'yaw': 31.39, 'datetime': '2018-10-03 17:00:14.060598', 'mgs': 0, 'volt': 1.0059, 'depth': 3.217, 'time': 16, 'pitch': -9.89, 'roll': 2.33, 'pres': 206}
{'lipoC2': 0.0, 'lipoC3S1': 3.96, 'temp': 26.44, 'lipoC3S3': 12.01, 'lipoC3S2': 7.92, 'rot1': 0, 'rot0': 0, 'rot3': 0, 'rot2': 0, 'state': 'normal', 'yaw': 34.51, 'datetime': '2018-10-03 17:00:14.163868', 'mgs': 0, 'volt': 1.0059, 'depth': 3.217, 'time': 16, 'pitch': -9.58, 'roll': 2.07, 'pres': 206}
{'lipoC2': 0.0, 'lipoC3S1': 3.96, 'temp': 26.44, 'lipoC3S3': 12.01, 'lipoC3S2': 7.92, 'rot1': 0, 'rot0': 0, 'rot3': 0, 'rot2': 0, 'state': 'normal', 'yaw': 37.58, 'datetime': '2018-10-03 17:00:14.267126', 'mgs': 0, 'volt': 1.0107, 'depth': 3.293, 'time': 16, 'pitch': -9.2, 'roll': 1.89, 'pres': 207}
{'lipoC2': 0.0, 'lipoC3S1': 3.96, 'temp': 26.31, 'lipoC3S3': 12.01, 'lipoC3S2': 7.92, 'rot1': 0, 'rot0': 0, 'rot3': 0, 'rot2': 0, 'state': 'normal', 'yaw': 41.0, 'datetime': '2018-10-03 17:00:14.370371', 'mgs': 0, 'volt': 1.0059, 'depth': 3.217, 'time': 16, 'pitch': -8.93, 'roll': 1.6, 'pres': 206}
{'lipoC2': 0.0, 'lipoC3S1': 3.96, 'temp': 26.31, 'lipoC3S3': 12.01, 'lipoC3S2': 7.92, 'rot1': 0, 'rot0': 0, 'rot3': 0, 'rot2': 0, 'state': 'normal', 'yaw': 44.01, 'datetime': '2018-10-03 17:00:14.473622', 'mgs': 0, 'volt': 1.0107, 'depth': 3.293, 'time': 16, 'pitch': -8.65, 'roll': 1.34, 'pres': 207}
{'lipoC2': 0.0, 'lipoC3S1': 3.96, 'temp': 26.31, 'lipoC3S3': 12.01, 'lipoC3S2': 7.92, 'rot1': 0, 'rot0': 0, 'rot3': 0, 'rot2': 0, 'state': 'normal', 'yaw': 46.85, 'datetime': '2018-10-03 17:00:14.576873', 'mgs': 0, 'volt': 1.0107, 'depth': 3.293, 'time': 16, 'pitch': -8.3, 'roll': 1.08, 'pres': 207}
{'lipoC2': 0.0, 'lipoC3S1': 3.96, 'temp': 26.38, 'lipoC3S3': 12.01, 'lipoC3S2': 7.92, 'rot1': 0, 'rot0': 0, 'rot3': 0, 'rot2': 0, 'state': 'normal', 'yaw': 49.55, 'datetime': '2018-10-03 17:00:14.680664', 'mgs': 0, 'volt': 1.0107, 'depth': 3.293, 'time': 16, 'pitch': -7.88, 'roll': 0.87, 'pres': 207}
{'lipoC2': 0.0, 'lipoC3S1': 3.96, 'temp': 26.38, 'lipoC3S3': 12.01, 'lipoC3S2': 7.92, 'rot1': 0, 'rot0': 0, 'rot3': 0, 'rot2': 0, 'state': 'normal', 'yaw': 52.37, 'datetime': '2018-10-03 17:00:14.783917', 'mgs': 0, 'volt': 1.0059, 'depth': 3.217, 'time': 16, 'pitch': -7.53, 'roll': 1.02, 'pres': 206}
{'lipoC2': 0.0, 'lipoC3S1': 3.96, 'temp': 26.44, 'lipoC3S3': 12.01, 'lipoC3S2': 7.92, 'rot1': 0, 'rot0': 0, 'rot3': 0, 'rot2': 0, 'state': 'normal', 'yaw': 54.7, 'datetime': '2018-10-03 17:00:14.890002', 'mgs': 0, 'volt': 1.0107, 'depth': 3.293, 'time': 16, 'pitch': -7.18, 'roll': 1.03, 'pres': 207}
{'lipoC2': 0.0, 'lipoC3S1': 3.96, 'temp': 26.44, 'lipoC3S3': 12.01, 'lipoC3S2': 7.92, 'rot1': 0, 'rot0': 0, 'rot3': 0, 'rot2': 0, 'state': 'normal', 'yaw': 57.06, 'datetime': '2018-10-03 17:00:14.991681', 'mgs': 0, 'volt': 1.0107, 'depth': 3.293, 'time': 17, 'pitch': -6.69, 'roll': 1.19, 'pres': 207}
{'lipoC2': 0.0, 'lipoC3S1': 3.96, 'temp': 26.38, 'lipoC3S3': 12.01, 'lipoC3S2': 7.92, 'rot1': 0, 'rot0': 0, 'rot3': 0, 'rot2': 0, 'state': 'normal', 'yaw': 59.55, 'datetime': '2018-10-03 17:00:15.094931', 'mgs': 0, 'volt': 1.0107, 'depth': 3.293, 'time': 17, 'pitch': -6.11, 'roll': 1.49, 'pres': 207}
{'lipoC2': 0.0, 'lipoC3S1': 3.96, 'temp': 26.38, 'lipoC3S3': 12.01, 'lipoC3S2': 7.92, 'rot1': 0, 'rot0': 0, 'rot3': 0, 'rot2': 0, 'state': 'normal', 'yaw': 61.73, 'datetime': '2018-10-03 17:00:15.199212', 'mgs': 0, 'volt': 1.0107, 'depth': 3.293, 'time': 17, 'pitch': -5.67, 'roll': 1.72, 'pres': 207}
{'lipoC2': 0.0, 'lipoC3S1': 3.96, 'temp': 26.38, 'lipoC3S3': 12.0, 'lipoC3S2': 7.92, 'rot1': 0, 'rot0': 0, 'rot3': 0, 'rot2': 0, 'state': 'normal', 'yaw': 64.04, 'datetime': '2018-10-03 17:00:15.302952', 'mgs': 0, 'volt': 1.0107, 'depth': 3.293, 'time': 17, 'pitch': -5.32, 'roll': 1.9, 'pres': 207}
{'lipoC2': 0.0, 'lipoC3S1': 3.96, 'temp': 26.38, 'lipoC3S3': 12.01, 'lipoC3S2': 7.92, 'rot1': 0, 'rot0': 0, 'rot3': 0, 'rot2': 0, 'state': 'normal', 'yaw': 66.07, 'datetime': '2018-10-03 17:00:15.406140', 'mgs': 0, 'volt': 1.0107, 'depth': 3.293, 'time': 17, 'pitch': -5.14, 'roll': 2.01, 'pres': 207}
{'lipoC2': 0.0, 'lipoC3S1': 3.96, 'temp': 26.38, 'lipoC3S3': 12.01, 'lipoC3S2': 7.92, 'rot1': 0, 'rot0': 0, 'rot3': 0, 'rot2': 0, 'state': 'normal', 'yaw': 68.04, 'datetime': '2018-10-03 17:00:15.509374', 'mgs': 0, 'volt': 1.0107, 'depth': 3.293, 'time': 17, 'pitch': -5.07, 'roll': 2.03, 'pres': 207}
{'lipoC2': 0.0, 'lipoC3S1': 3.96, 'temp': 26.38, 'lipoC3S3': 12.01, 'lipoC3S2': 7.92, 'rot1': 0, 'rot0': 0, 'rot3': 0, 'rot2': 0, 'state': 'normal', 'yaw': 69.92, 'datetime': '2018-10-03 17:00:15.612851', 'mgs': 0, 'volt': 1.0107, 'depth': 3.293, 'time': 17, 'pitch': -5.06, 'roll': 1.89, 'pres': 207}
{'lipoC2': 0.0, 'lipoC3S1': 3.96, 'temp': 26.38, 'lipoC3S3': 12.0, 'lipoC3S2': 7.92, 'rot1': 0, 'rot0': 0, 'rot3': 0, 'rot2': 0, 'state': 'normal', 'yaw': 71.75, 'datetime': '2018-10-03 17:00:15.716071', 'mgs': 0, 'volt': 1.0107, 'depth': 3.293, 'time': 17, 'pitch': -4.77, 'roll': 1.39, 'pres': 207}
{'lipoC2': 0.0, 'lipoC3S1': 3.96, 'temp': 26.44, 'lipoC3S3': 12.01, 'lipoC3S2': 7.92, 'rot1': 0, 'rot0': 0, 'rot3': 0, 'rot2': 0, 'state': 'normal', 'yaw': 73.26, 'datetime': '2018-10-03 17:00:15.819324', 'mgs': 0, 'volt': 1.0156, 'depth': 3.369, 'time': 17, 'pitch': -4.38, 'roll': 0.7, 'pres': 208}
{'lipoC2': 0.0, 'lipoC3S1': 3.96, 'temp': 26.44, 'lipoC3S3': 12.01, 'lipoC3S2': 7.92, 'rot1': 0, 'rot0': 0, 'rot3': 0, 'rot2': 0, 'state': 'normal', 'yaw': 74.47, 'datetime': '2018-10-03 17:00:15.922660', 'mgs': 0, 'volt': 1.0156, 'depth': 3.369, 'time': 18, 'pitch': -3.92, 'roll': 0.0, 'pres': 208}
{'lipoC2': 0.0, 'lipoC3S1': 3.96, 'temp': 26.44, 'lipoC3S3': 12.01, 'lipoC3S2': 7.92, 'rot1': 0, 'rot0': 0, 'rot3': 0, 'rot2': 0, 'state': 'normal', 'yaw': 75.28, 'datetime': '2018-10-03 17:00:16.025880', 'mgs': 0, 'volt': 1.0156, 'depth': 3.369, 'time': 18, 'pitch': -4.17, 'roll': 0.5, 'pres': 208}
{'lipoC2': 0.0, 'lipoC3S1': 3.96, 'temp': 26.38, 'lipoC3S3': 12.01, 'lipoC3S2': 7.92, 'rot1': 0, 'rot0': 0, 'rot3': 0, 'rot2': 0, 'state': 'normal', 'yaw': 75.74, 'datetime': '2018-10-03 17:00:16.129085', 'mgs': 0, 'volt': 1.0107, 'depth': 3.293, 'time': 18, 'pitch': -4.16, 'roll': 0.38, 'pres': 207}
{'lipoC2': 0.0, 'lipoC3S1': 3.96, 'temp': 26.38, 'lipoC3S3': 12.01, 'lipoC3S2': 7.92, 'rot1': 0, 'rot0': 0, 'rot3': 0, 'rot2': 0, 'state': 'normal', 'yaw': 76.09, 'datetime': '2018-10-03 17:00:16.232402', 'mgs': 0, 'volt': 1.0156, 'depth': 3.369, 'time': 18, 'pitch': -3.86, 'roll': 0.34, 'pres': 208}
{'lipoC2': 0.0, 'lipoC3S1': 3.96, 'temp': 26.38, 'lipoC3S3': 12.01, 'lipoC3S2': 7.92, 'rot1': 0, 'rot0': 0, 'rot3': 0, 'rot2': 0, 'state': 'normal', 'yaw': 76.52, 'datetime': '2018-10-03 17:00:16.335869', 'mgs': 0, 'volt': 1.0156, 'depth': 3.369, 'time': 18, 'pitch': -3.34, 'roll': 0.36, 'pres': 208}
{'lipoC2': 0.0, 'lipoC3S1': 3.96, 'temp': 26.38, 'lipoC3S3': 12.01, 'lipoC3S2': 7.92, 'rot1': 0, 'rot0': 0, 'rot3': 0, 'rot2': 0, 'state': 'normal', 'yaw': 77.03, 'datetime': '2018-10-03 17:00:16.439145', 'mgs': 0, 'volt': 1.0156, 'depth': 3.369, 'time': 18, 'pitch': -2.92, 'roll': 0.36, 'pres': 208}
{'lipoC2': 0.0, 'lipoC3S1': 3.96, 'temp': 26.38, 'lipoC3S3': 12.01, 'lipoC3S2': 7.92, 'rot1': 0, 'rot0': 0, 'rot3': 0, 'rot2': 0, 'state': 'normal', 'yaw': 77.68, 'datetime': '2018-10-03 17:00:16.543632', 'mgs': 0, 'volt': 1.0156, 'depth': 3.369, 'time': 18, 'pitch': -2.75, 'roll': 0.22, 'pres': 208}
{'lipoC2': 0.0, 'lipoC3S1': 3.96, 'temp': 26.38, 'lipoC3S3': 12.01, 'lipoC3S2': 7.92, 'rot1': 0, 'rot0': 0, 'rot3': 0, 'rot2': 0, 'state': 'normal', 'yaw': 78.56, 'datetime': '2018-10-03 17:00:16.646948', 'mgs': 0, 'volt': 1.0156, 'depth': 3.369, 'time': 18, 'pitch': -2.87, 'roll': -0.11, 'pres': 208}
{'lipoC2': 0.0, 'lipoC3S1': 3.96, 'temp': 26.38, 'lipoC3S3': 12.01, 'lipoC3S2': 7.92, 'rot1': 0, 'rot0': 0, 'rot3': 0, 'rot2': 0, 'state': 'normal', 'yaw': 79.5, 'datetime': '2018-10-03 17:00:16.750194', 'mgs': 0, 'volt': 1.0156, 'depth': 3.369, 'time': 18, 'pitch': -3.33, 'roll': -0.58, 'pres': 208}
{'lipoC2': 0.0, 'lipoC3S1': 3.96, 'temp': 26.44, 'lipoC3S3': 12.01, 'lipoC3S2': 7.92, 'rot1': 0, 'rot0': 0, 'rot3': 0, 'rot2': 0, 'state': 'normal', 'yaw': 80.46, 'datetime': '2018-10-03 17:00:16.854790', 'mgs': 0, 'volt': 1.0156, 'depth': 3.369, 'time': 18, 'pitch': -4.06, 'roll': -1.06, 'pres': 208}
{'lipoC2': 0.0, 'lipoC3S1': 3.96, 'temp': 26.44, 'lipoC3S3': 12.01, 'lipoC3S2': 7.92, 'rot1': 0, 'rot0': 0, 'rot3': 0, 'rot2': 0, 'state': 'normal', 'yaw': 81.3, 'datetime': '2018-10-03 17:00:16.958066', 'mgs': 0, 'volt': 1.0156, 'depth': 3.369, 'time': 19, 'pitch': -4.84, 'roll': -1.4, 'pres': 208}
{'lipoC2': 0.0, 'lipoC3S1': 3.96, 'temp': 26.31, 'lipoC3S3': 12.01, 'lipoC3S2': 7.92, 'rot1': 0, 'rot0': 0, 'rot3': 0, 'rot2': 0, 'state': 'normal', 'yaw': 81.65, 'datetime': '2018-10-03 17:00:17.061251', 'mgs': 0, 'volt': 1.0107, 'depth': 3.293, 'time': 19, 'pitch': -5.28, 'roll': -1.27, 'pres': 207}
{'lipoC2': 0.0, 'lipoC3S1': 3.96, 'temp': 26.31, 'lipoC3S3': 12.01, 'lipoC3S2': 7.92, 'rot1': 0, 'rot0': 0, 'rot3': 0, 'rot2': 0, 'state': 'normal', 'yaw': 81.78, 'datetime': '2018-10-03 17:00:17.164545', 'mgs': 0, 'volt': 1.0107, 'depth': 3.293, 'time': 19, 'pitch': -5.49, 'roll': -0.95, 'pres': 207}
{'lipoC2': 0.0, 'lipoC3S1': 3.96, 'temp': 26.31, 'lipoC3S3': 12.01, 'lipoC3S2': 7.92, 'rot1': 0, 'rot0': 0, 'rot3': 0, 'rot2': 0, 'state': 'normal', 'yaw': 81.74, 'datetime': '2018-10-03 17:00:17.267973', 'mgs': 0, 'volt': 1.0156, 'depth': 3.369, 'time': 19, 'pitch': -5.49, 'roll': -0.55, 'pres': 208}
{'lipoC2': 0.0, 'lipoC3S1': 3.96, 'temp': 26.38, 'lipoC3S3': 12.01, 'lipoC3S2': 7.92, 'rot1': 0, 'rot0': 0, 'rot3': 0, 'rot2': 0, 'state': 'normal', 'yaw': 81.55, 'datetime': '2018-10-03 17:00:17.372209', 'mgs': 0, 'volt': 1.0156, 'depth': 3.369, 'time': 19, 'pitch': -5.18, 'roll': 0.06, 'pres': 208}
{'lipoC2': 0.0, 'lipoC3S1': 3.96, 'temp': 26.38, 'lipoC3S3': 12.01, 'lipoC3S2': 7.92, 'rot1': 0, 'rot0': 0, 'rot3': 0, 'rot2': 0, 'state': 'normal', 'yaw': 81.49, 'datetime': '2018-10-03 17:00:17.474473', 'mgs': 0, 'volt': 1.0156, 'depth': 3.369, 'time': 19, 'pitch': -4.95, 'roll': 0.34, 'pres': 208}
{'lipoC2': 0.0, 'lipoC3S1': 3.96, 'temp': 26.38, 'lipoC3S3': 12.01, 'lipoC3S2': 7.92, 'rot1': 0, 'rot0': 0, 'rot3': 0, 'rot2': 0, 'state': 'normal', 'yaw': 81.4, 'datetime': '2018-10-03 17:00:17.577708', 'mgs': 0, 'volt': 1.0156, 'depth': 3.369, 'time': 19, 'pitch': -4.62, 'roll': 0.23, 'pres': 208}
{'lipoC2': 0.0, 'lipoC3S1': 3.96, 'temp': 26.38, 'lipoC3S3': 12.01, 'lipoC3S2': 7.92, 'rot1': 0, 'rot0': 0, 'rot3': 0, 'rot2': 0, 'state': 'normal', 'yaw': 81.25, 'datetime': '2018-10-03 17:00:17.680989', 'mgs': 0, 'volt': 1.0156, 'depth': 3.369, 'time': 19, 'pitch': -4.31, 'roll': 0.26, 'pres': 208}
{'lipoC2': 0.0, 'lipoC3S1': 3.96, 'temp': 26.44, 'lipoC3S3': 12.01, 'lipoC3S2': 7.92, 'rot1': 0, 'rot0': 0, 'rot3': 0, 'rot2': 0, 'state': 'normal', 'yaw': 81.23, 'datetime': '2018-10-03 17:00:17.784186', 'mgs': 0, 'volt': 1.0156, 'depth': 3.369, 'time': 19, 'pitch': -4.18, 'roll': 0.26, 'pres': 208}
{'lipoC2': 0.0, 'lipoC3S1': 3.96, 'temp': 26.44, 'lipoC3S3': 12.01, 'lipoC3S2': 7.92, 'rot1': 0, 'rot0': 0, 'rot3': 0, 'rot2': 0, 'state': 'normal', 'yaw': 81.23, 'datetime': '2018-10-03 17:00:17.888979', 'mgs': 0, 'volt': 1.0156, 'depth': 3.369, 'time': 19, 'pitch': -4.22, 'roll': 0.25, 'pres': 208}
{'lipoC2': 0.0, 'lipoC3S1': 3.96, 'temp': 26.44, 'lipoC3S3': 12.01, 'lipoC3S2': 7.92, 'rot1': 0, 'rot0': 0, 'rot3': 0, 'rot2': 0, 'state': 'normal', 'yaw': 81.22, 'datetime': '2018-10-03 17:00:17.994495', 'mgs': 0, 'volt': 1.0156, 'depth': 3.369, 'time': 20, 'pitch': -4.51, 'roll': 0.26, 'pres': 208}
{'lipoC2': 0.0, 'lipoC3S1': 3.96, 'temp': 26.38, 'lipoC3S3': 12.01, 'lipoC3S2': 7.92, 'rot1': 0, 'rot0': 0, 'rot3': 0, 'rot2': 0, 'state': 'normal', 'yaw': 81.18, 'datetime': '2018-10-03 17:00:18.100168', 'mgs': 0, 'volt': 1.0156, 'depth': 3.369, 'time': 20, 'pitch': -4.95, 'roll': 0.25, 'pres': 208}
{'lipoC2': 0.0, 'lipoC3S1': 3.96, 'temp': 26.38, 'lipoC3S3': 12.01, 'lipoC3S2': 7.92, 'rot1': 0, 'rot0': 0, 'rot3': 0, 'rot2': 0, 'state': 'normal', 'yaw': 81.18, 'datetime': '2018-10-03 17:00:18.204712', 'mgs': 0, 'volt': 1.0156, 'depth': 3.369, 'time': 20, 'pitch': -5.5, 'roll': 0.31, 'pres': 208}
{'lipoC2': 0.0, 'lipoC3S1': 3.96, 'temp': 26.44, 'lipoC3S3': 12.01, 'lipoC3S2': 7.92, 'rot1': 0, 'rot0': 0, 'rot3': 0, 'rot2': 0, 'state': 'normal', 'yaw': 81.17, 'datetime': '2018-10-03 17:00:18.307905', 'mgs': 0, 'volt': 1.0156, 'depth': 3.369, 'time': 20, 'pitch': -6.27, 'roll': 0.47, 'pres': 208}
{'lipoC2': 0.0, 'lipoC3S1': 3.96, 'temp': 26.44, 'lipoC3S3': 12.01, 'lipoC3S2': 7.92, 'rot1': 0, 'rot0': 0, 'rot3': 0, 'rot2': 0, 'state': 'normal', 'yaw': 81.02, 'datetime': '2018-10-03 17:00:18.411088', 'mgs': 0, 'volt': 1.0107, 'depth': 3.293, 'time': 20, 'pitch': -6.95, 'roll': 0.56, 'pres': 207}
{'lipoC2': 0.0, 'lipoC3S1': 3.96, 'temp': 26.44, 'lipoC3S3': 12.01, 'lipoC3S2': 7.92, 'rot1': 0, 'rot0': 0, 'rot3': 0, 'rot2': 0, 'state': 'normal', 'yaw': 80.7, 'datetime': '2018-10-03 17:00:18.515538', 'mgs': 0, 'volt': 1.0107, 'depth': 3.293, 'time': 20, 'pitch': -7.28, 'roll': 0.59, 'pres': 207}
{'lipoC2': 0.0, 'lipoC3S1': 3.96, 'temp': 26.44, 'lipoC3S3': 12.01, 'lipoC3S2': 7.92, 'rot1': 0, 'rot0': 0, 'rot3': 0, 'rot2': 0, 'state': 'normal', 'yaw': 79.84, 'datetime': '2018-10-03 17:00:18.618943', 'mgs': 0, 'volt': 1.0107, 'depth': 3.293, 'time': 20, 'pitch': -7.25, 'roll': 0.7, 'pres': 207}
{'lipoC2': 0.0, 'lipoC3S1': 3.96, 'temp': 26.44, 'lipoC3S3': 12.01, 'lipoC3S2': 7.92, 'rot1': 0, 'rot0': 0, 'rot3': 0, 'rot2': 0, 'state': 'normal', 'yaw': 78.95, 'datetime': '2018-10-03 17:00:18.722108', 'mgs': 0, 'volt': 1.0107, 'depth': 3.293, 'time': 20, 'pitch': -6.97, 'roll': 0.72, 'pres': 207}
{'lipoC2': 0.0, 'lipoC3S1': 3.96, 'temp': 26.44, 'lipoC3S3': 12.01, 'lipoC3S2': 7.92, 'rot1': 0, 'rot0': 0, 'rot3': 0, 'rot2': 0, 'state': 'normal', 'yaw': 77.91, 'datetime': '2018-10-03 17:00:18.821897', 'mgs': 0, 'volt': 1.0107, 'depth': 3.293, 'time': 20, 'pitch': -6.57, 'roll': 0.79, 'pres': 207}
{'lipoC2': 0.0, 'lipoC3S1': 3.96, 'temp': 26.44, 'lipoC3S3': 12.01, 'lipoC3S2': 7.92, 'rot1': 0, 'rot0': 0, 'rot3': 0, 'rot2': 0, 'state': 'normal', 'yaw': 77.1, 'datetime': '2018-10-03 17:00:18.928965', 'mgs': 0, 'volt': 1.0107, 'depth': 3.293, 'time': 20, 'pitch': -6.29, 'roll': 0.68, 'pres': 207}
{'lipoC2': 0.0, 'lipoC3S1': 3.96, 'temp': 26.38, 'lipoC3S3': 12.01, 'lipoC3S2': 7.92, 'rot1': 0, 'rot0': 0, 'rot3': 0, 'rot2': 0, 'state': 'normal', 'yaw': 76.62, 'datetime': '2018-10-03 17:00:19.032057', 'mgs': 0, 'volt': 1.0059, 'depth': 3.217, 'time': 21, 'pitch': -6.14, 'roll': 0.25, 'pres': 206}
{'lipoC2': 0.0, 'lipoC3S1': 3.96, 'temp': 26.38, 'lipoC3S3': 12.01, 'lipoC3S2': 7.92, 'rot1': 0, 'rot0': 0, 'rot3': 0, 'rot2': 0, 'state': 'normal', 'yaw': 76.24, 'datetime': '2018-10-03 17:00:19.135642', 'mgs': 0, 'volt': 1.0059, 'depth': 3.217, 'time': 21, 'pitch': -6.13, 'roll': 0.35, 'pres': 206}
{'lipoC2': 0.0, 'lipoC3S1': 3.96, 'temp': 26.38, 'lipoC3S3': 12.01, 'lipoC3S2': 7.92, 'rot1': 0, 'rot0': 0, 'rot3': 0, 'rot2': 0, 'state': 'normal', 'yaw': 75.98, 'datetime': '2018-10-03 17:00:19.239634', 'mgs': 0, 'volt': 1.0107, 'depth': 3.293, 'time': 21, 'pitch': -6.21, 'roll': 0.36, 'pres': 207}
{'lipoC2': 0.0, 'lipoC3S1': 3.96, 'temp': 26.38, 'lipoC3S3': 12.01, 'lipoC3S2': 7.92, 'rot1': 0, 'rot0': 0, 'rot3': 0, 'rot2': 0, 'state': 'normal', 'yaw': 75.98, 'datetime': '2018-10-03 17:00:19.342939', 'mgs': 0, 'volt': 1.0107, 'depth': 3.293, 'time': 21, 'pitch': -6.26, 'roll': 0.4, 'pres': 207}
{'lipoC2': 0.0, 'lipoC3S1': 3.96, 'temp': 26.38, 'lipoC3S3': 12.01, 'lipoC3S2': 7.92, 'rot1': 0, 'rot0': 0, 'rot3': 0, 'rot2': 0, 'state': 'normal', 'yaw': 75.97, 'datetime': '2018-10-03 17:00:19.445480', 'mgs': 0, 'volt': 1.0107, 'depth': 3.293, 'time': 21, 'pitch': -6.27, 'roll': 0.5, 'pres': 207}
{'lipoC2': 0.0, 'lipoC3S1': 3.96, 'temp': 26.38, 'lipoC3S3': 12.01, 'lipoC3S2': 7.92, 'rot1': 0, 'rot0': 0, 'rot3': 0, 'rot2': 0, 'state': 'normal', 'yaw': 75.93, 'datetime': '2018-10-03 17:00:19.551069', 'mgs': 0, 'volt': 1.0107, 'depth': 3.293, 'time': 21, 'pitch': -6.29, 'roll': 0.57, 'pres': 207}
