{'lipoC2': 7.27, 'lipoC3S1': 3.8, 'temp': 30.44, 'lipoC3S3': 11.47, 'lipoC3S2': 7.6, 'rot1': 0, 'rot0': 0, 'rot3': 0, 'rot2': 0, 'state': 'normal', 'yaw': 0.0, 'datetime': '2018-10-09 23:52:04.823726', 'mgs': 0, 'volt': 0.8252, 'depth': 0.394, 'time': 1, 'pitch': 2.02, 'roll': 4.84, 'pres': 169}
{'lipoC2': 7.27, 'lipoC3S1': 3.8, 'temp': 30.44, 'lipoC3S3': 11.47, 'lipoC3S2': 7.6, 'rot1': 0, 'rot0': 0, 'rot3': 0, 'rot2': 0, 'state': 'normal', 'yaw': 0.68, 'datetime': '2018-10-09 23:52:04.845501', 'mgs': 0, 'volt': 0.8252, 'depth': 0.394, 'time': 1, 'pitch': 2.32, 'roll': 4.95, 'pres': 169}
{'lipoC2': 7.27, 'lipoC3S1': 3.8, 'temp': 30.44, 'lipoC3S3': 11.47, 'lipoC3S2': 7.6, 'rot1': 0, 'rot0': 0, 'rot3': 0, 'rot2': 0, 'state': 'normal', 'yaw': 1.19, 'datetime': '2018-10-09 23:52:04.867324', 'mgs': 0, 'volt': 0.8252, 'depth': 0.394, 'time': 1, 'pitch': 2.57, 'roll': 5.26, 'pres': 169}
{'lipoC2': 7.27, 'lipoC3S1': 3.8, 'temp': 30.44, 'lipoC3S3': 11.47, 'lipoC3S2': 7.6, 'rot1': 0, 'rot0': 0, 'rot3': 0, 'rot2': 0, 'state': 'normal', 'yaw': 1.5, 'datetime': '2018-10-09 23:52:04.881235', 'mgs': 0, 'volt': 0.8252, 'depth': 0.394, 'time': 1, 'pitch': 2.97, 'roll': 5.51, 'pres': 169}
{'lipoC2': 7.27, 'lipoC3S1': 3.8, 'temp': 30.44, 'lipoC3S3': 11.47, 'lipoC3S2': 7.6, 'rot1': 0, 'rot0': 0, 'rot3': 0, 'rot2': 0, 'state': 'normal', 'yaw': 1.6, 'datetime': '2018-10-09 23:52:04.890728', 'mgs': 0, 'volt': 0.8252, 'depth': 0.394, 'time': 1, 'pitch': 3.48, 'roll': 5.64, 'pres': 169}
{'lipoC2': 7.27, 'lipoC3S1': 3.8, 'temp': 30.44, 'lipoC3S3': 11.47, 'lipoC3S2': 7.6, 'rot1': 0, 'rot0': 0, 'rot3': 0, 'rot2': 0, 'state': 'normal', 'yaw': 1.68, 'datetime': '2018-10-09 23:52:04.900185', 'mgs': 0, 'volt': 0.8252, 'depth': 0.394, 'time': 1, 'pitch': 3.7, 'roll': 5.73, 'pres': 169}
{'lipoC2': 7.27, 'lipoC3S1': 3.8, 'temp': 30.44, 'lipoC3S3': 11.47, 'lipoC3S2': 7.6, 'rot1': 0, 'rot0': 0, 'rot3': 0, 'rot2': 0, 'state': 'normal', 'yaw': 1.8, 'datetime': '2018-10-09 23:52:05.003218', 'mgs': 0, 'volt': 0.8252, 'depth': 0.394, 'time': 1, 'pitch': 3.74, 'roll': 5.96, 'pres': 169}
{'lipoC2': 7.27, 'lipoC3S1': 3.8, 'temp': 30.38, 'lipoC3S3': 11.47, 'lipoC3S2': 7.6, 'rot1': 0, 'rot0': 0, 'rot3': 0, 'rot2': 0, 'state': 'normal', 'yaw': 2.02, 'datetime': '2018-10-09 23:52:05.106484', 'mgs': 0, 'volt': 0.8252, 'depth': 0.394, 'time': 1, 'pitch': 3.73, 'roll': 6.35, 'pres': 169}
{'lipoC2': 7.27, 'lipoC3S1': 3.8, 'temp': 30.38, 'lipoC3S3': 11.47, 'lipoC3S2': 7.6, 'rot1': 0, 'rot0': 0, 'rot3': 0, 'rot2': 0, 'state': 'normal', 'yaw': 2.4, 'datetime': '2018-10-09 23:52:05.209672', 'mgs': 0, 'volt': 0.8252, 'depth': 0.394, 'time': 2, 'pitch': 3.79, 'roll': 6.63, 'pres': 169}
{'lipoC2': 7.27, 'lipoC3S1': 3.8, 'temp': 30.44, 'lipoC3S3': 11.47, 'lipoC3S2': 7.6, 'rot1': 0, 'rot0': 0, 'rot3': 0, 'rot2': 0, 'state': 'normal', 'yaw': 2.75, 'datetime': '2018-10-09 23:52:05.314224', 'mgs': 0, 'volt': 0.8301, 'depth': 0.47, 'time': 2, 'pitch': 3.92, 'roll': 6.56, 'pres': 170}
{'lipoC2': 7.27, 'lipoC3S1': 3.8, 'temp': 30.44, 'lipoC3S3': 11.47, 'lipoC3S2': 7.6, 'rot1': 0, 'rot0': 0, 'rot3': 0, 'rot2': 0, 'state': 'normal', 'yaw': 2.76, 'datetime': '2018-10-09 23:52:05.417470', 'mgs': 0, 'volt': 0.8252, 'depth': 0.394, 'time': 2, 'pitch': 3.99, 'roll': 6.1, 'pres': 169}
{'lipoC2': 7.27, 'lipoC3S1': 3.8, 'temp': 30.44, 'lipoC3S3': 11.47, 'lipoC3S2': 7.6, 'rot1': 0, 'rot0': 0, 'rot3': 0, 'rot2': 0, 'state': 'normal', 'yaw': 2.36, 'datetime': '2018-10-09 23:52:05.520738', 'mgs': 0, 'volt': 0.8301, 'depth': 0.47, 'time': 2, 'pitch': 4.11, 'roll': 5.51, 'pres': 170}
{'lipoC2': 7.27, 'lipoC3S1': 3.8, 'temp': 30.38, 'lipoC3S3': 11.47, 'lipoC3S2': 7.6, 'rot1': 0, 'rot0': 0, 'rot3': 0, 'rot2': 0, 'state': 'normal', 'yaw': 1.79, 'datetime': '2018-10-09 23:52:05.624651', 'mgs': 0, 'volt': 0.8301, 'depth': 0.47, 'time': 2, 'pitch': 4.26, 'roll': 5.1, 'pres': 170}
{'lipoC2': 7.27, 'lipoC3S1': 3.8, 'temp': 30.38, 'lipoC3S3': 11.47, 'lipoC3S2': 7.6, 'rot1': 0, 'rot0': 0, 'rot3': 0, 'rot2': 0, 'state': 'normal', 'yaw': 1.24, 'datetime': '2018-10-09 23:52:05.732749', 'mgs': 0, 'volt': 0.8301, 'depth': 0.47, 'time': 2, 'pitch': 4.33, 'roll': 5.03, 'pres': 170}
{'lipoC2': 7.27, 'lipoC3S1': 3.8, 'temp': 30.44, 'lipoC3S3': 11.47, 'lipoC3S2': 7.6, 'rot1': 0, 'rot0': 0, 'rot3': 0, 'rot2': 0, 'state': 'normal', 'yaw': 0.84, 'datetime': '2018-10-09 23:52:05.837060', 'mgs': 0, 'volt': 0.8301, 'depth': 0.47, 'time': 2, 'pitch': 4.61, 'roll': 5.33, 'pres': 170}
{'lipoC2': 7.27, 'lipoC3S1': 3.8, 'temp': 30.44, 'lipoC3S3': 11.47, 'lipoC3S2': 7.6, 'rot1': 0, 'rot0': 0, 'rot3': 0, 'rot2': 0, 'state': 'normal', 'yaw': 0.77, 'datetime': '2018-10-09 23:52:05.940339', 'mgs': 0, 'volt': 0.835, 'depth': 0.546, 'time': 2, 'pitch': 5.16, 'roll': 5.59, 'pres': 171}
{'lipoC2': 7.27, 'lipoC3S1': 3.8, 'temp': 30.44, 'lipoC3S3': 11.47, 'lipoC3S2': 7.6, 'rot1': 0, 'rot0': 0, 'rot3': 0, 'rot2': 0, 'state': 'normal', 'yaw': 0.92, 'datetime': '2018-10-09 23:52:06.043620', 'mgs': 0, 'volt': 0.835, 'depth': 0.546, 'time': 2, 'pitch': 5.91, 'roll': 5.55, 'pres': 171}
{'lipoC2': 7.27, 'lipoC3S1': 3.8, 'temp': 30.44, 'lipoC3S3': 11.47, 'lipoC3S2': 7.6, 'rot1': 0, 'rot0': 0, 'rot3': 0, 'rot2': 0, 'state': 'normal', 'yaw': 1.19, 'datetime': '2018-10-09 23:52:06.146914', 'mgs': 0, 'volt': 0.8301, 'depth': 0.47, 'time': 3, 'pitch': 6.51, 'roll': 5.03, 'pres': 170}
{'lipoC2': 7.27, 'lipoC3S1': 3.8, 'temp': 30.44, 'lipoC3S3': 11.47, 'lipoC3S2': 7.6, 'rot1': 0, 'rot0': 0, 'rot3': 0, 'rot2': 0, 'state': 'normal', 'yaw': 1.31, 'datetime': '2018-10-09 23:52:06.250092', 'mgs': 0, 'volt': 0.835, 'depth': 0.546, 'time': 3, 'pitch': 6.55, 'roll': 4.36, 'pres': 171}
{'lipoC2': 7.27, 'lipoC3S1': 3.8, 'temp': 30.44, 'lipoC3S3': 11.47, 'lipoC3S2': 7.6, 'rot1': 0, 'rot0': 0, 'rot3': 0, 'rot2': 0, 'state': 'normal', 'yaw': 1.22, 'datetime': '2018-10-09 23:52:06.354510', 'mgs': 0, 'volt': 0.835, 'depth': 0.546, 'time': 3, 'pitch': 6.22, 'roll': 3.81, 'pres': 171}
{'lipoC2': 7.27, 'lipoC3S1': 3.8, 'temp': 30.44, 'lipoC3S3': 11.47, 'lipoC3S2': 7.6, 'rot1': 0, 'rot0': 0, 'rot3': 0, 'rot2': 0, 'state': 'normal', 'yaw': 0.94, 'datetime': '2018-10-09 23:52:06.457678', 'mgs': 0, 'volt': 0.835, 'depth': 0.546, 'time': 3, 'pitch': 5.77, 'roll': 3.56, 'pres': 171}
{'lipoC2': 7.27, 'lipoC3S1': 3.8, 'temp': 30.44, 'lipoC3S3': 11.47, 'lipoC3S2': 7.6, 'rot1': 0, 'rot0': 0, 'rot3': 0, 'rot2': 0, 'state': 'normal', 'yaw': 0.64, 'datetime': '2018-10-09 23:52:06.561452', 'mgs': 0, 'volt': 0.835, 'depth': 0.546, 'time': 3, 'pitch': 5.54, 'roll': 3.76, 'pres': 171}
{'lipoC2': 7.27, 'lipoC3S1': 3.8, 'temp': 30.44, 'lipoC3S3': 11.47, 'lipoC3S2': 7.6, 'rot1': 0, 'rot0': 0, 'rot3': 0, 'rot2': 0, 'state': 'normal', 'yaw': 0.37, 'datetime': '2018-10-09 23:52:06.665577', 'mgs': 0, 'volt': 0.835, 'depth': 0.546, 'time': 3, 'pitch': 5.34, 'roll': 4.26, 'pres': 171}
{'lipoC2': 7.27, 'lipoC3S1': 3.8, 'temp': 30.44, 'lipoC3S3': 11.47, 'lipoC3S2': 7.6, 'rot1': 0, 'rot0': 0, 'rot3': 0, 'rot2': 0, 'state': 'normal', 'yaw': 0.19, 'datetime': '2018-10-09 23:52:06.768787', 'mgs': 0, 'volt': 0.835, 'depth': 0.546, 'time': 3, 'pitch': 5.03, 'roll': 4.8, 'pres': 171}
{'lipoC2': 7.27, 'lipoC3S1': 3.8, 'temp': 30.44, 'lipoC3S3': 11.47, 'lipoC3S2': 7.6, 'rot1': 0, 'rot0': 0, 'rot3': 0, 'rot2': 0, 'state': 'normal', 'yaw': 0.29, 'datetime': '2018-10-09 23:52:06.873146', 'mgs': 0, 'volt': 0.835, 'depth': 0.546, 'time': 3, 'pitch': 4.69, 'roll': 4.97, 'pres': 171}
{'lipoC2': 7.27, 'lipoC3S1': 3.8, 'temp': 30.44, 'lipoC3S3': 11.47, 'lipoC3S2': 7.6, 'rot1': 0, 'rot0': 0, 'rot3': 0, 'rot2': 0, 'state': 'normal', 'yaw': 0.59, 'datetime': '2018-10-09 23:52:06.977060', 'mgs': 0, 'volt': 0.8301, 'depth': 0.47, 'time': 3, 'pitch': 4.29, 'roll': 4.78, 'pres': 170}
{'lipoC2': 7.27, 'lipoC3S1': 3.8, 'temp': 30.44, 'lipoC3S3': 11.47, 'lipoC3S2': 7.6, 'rot1': 0, 'rot0': 0, 'rot3': 0, 'rot2': 0, 'state': 'normal', 'yaw': 0.78, 'datetime': '2018-10-09 23:52:07.080221', 'mgs': 0, 'volt': 0.835, 'depth': 0.546, 'time': 3, 'pitch': 3.92, 'roll': 4.44, 'pres': 171}
{'lipoC2': 7.27, 'lipoC3S1': 3.8, 'temp': 30.44, 'lipoC3S3': 11.47, 'lipoC3S2': 7.6, 'rot1': 0, 'rot0': 0, 'rot3': 0, 'rot2': 0, 'state': 'normal', 'yaw': 0.76, 'datetime': '2018-10-09 23:52:07.183439', 'mgs': 0, 'volt': 0.8301, 'depth': 0.47, 'time': 4, 'pitch': 3.68, 'roll': 4.21, 'pres': 170}
{'lipoC2': 7.27, 'lipoC3S1': 3.8, 'temp': 30.44, 'lipoC3S3': 11.47, 'lipoC3S2': 7.6, 'rot1': 0, 'rot0': 0, 'rot3': 0, 'rot2': 0, 'state': 'normal', 'yaw': 0.59, 'datetime': '2018-10-09 23:52:07.286793', 'mgs': 0, 'volt': 0.835, 'depth': 0.546, 'time': 4, 'pitch': 3.66, 'roll': 4.23, 'pres': 171}
{'lipoC2': 7.27, 'lipoC3S1': 3.8, 'temp': 30.44, 'lipoC3S3': 11.47, 'lipoC3S2': 7.6, 'rot1': 0, 'rot0': 0, 'rot3': 0, 'rot2': 0, 'state': 'normal', 'yaw': 0.48, 'datetime': '2018-10-09 23:52:07.389959', 'mgs': 0, 'volt': 0.8301, 'depth': 0.47, 'time': 4, 'pitch': 3.65, 'roll': 4.42, 'pres': 170}
{'lipoC2': 7.27, 'lipoC3S1': 3.8, 'temp': 30.44, 'lipoC3S3': 11.47, 'lipoC3S2': 7.6, 'rot1': 0, 'rot0': 0, 'rot3': 0, 'rot2': 0, 'state': 'normal', 'yaw': 0.59, 'datetime': '2018-10-09 23:52:07.493160', 'mgs': 0, 'volt': 0.8301, 'depth': 0.47, 'time': 4, 'pitch': 3.43, 'roll': 4.57, 'pres': 170}
{'lipoC2': 7.27, 'lipoC3S1': 3.8, 'temp': 30.44, 'lipoC3S3': 11.47, 'lipoC3S2': 7.6, 'rot1': 0, 'rot0': 0, 'rot3': 0, 'rot2': 0, 'state': 'normal', 'yaw': 0.9, 'datetime': '2018-10-09 23:52:07.596404', 'mgs': 0, 'volt': 0.8301, 'depth': 0.47, 'time': 4, 'pitch': 2.95, 'roll': 4.59, 'pres': 170}
{'lipoC2': 7.27, 'lipoC3S1': 3.8, 'temp': 30.44, 'lipoC3S3': 11.47, 'lipoC3S2': 7.6, 'rot1': 0, 'rot0': 0, 'rot3': 0, 'rot2': 0, 'state': 'normal', 'yaw': 1.16, 'datetime': '2018-10-09 23:52:07.699618', 'mgs': 0, 'volt': 0.8301, 'depth': 0.47, 'time': 4, 'pitch': 2.24, 'roll': 4.57, 'pres': 170}
{'lipoC2': 7.27, 'lipoC3S1': 3.8, 'temp': 30.44, 'lipoC3S3': 11.47, 'lipoC3S2': 7.6, 'rot1': 0, 'rot0': 0, 'rot3': 0, 'rot2': 0, 'state': 'normal', 'yaw': 1.16, 'datetime': '2018-10-09 23:52:07.803120', 'mgs': 0, 'volt': 0.8301, 'depth': 0.47, 'time': 4, 'pitch': 1.95, 'roll': 4.6, 'pres': 170}
{'lipoC2': 7.27, 'lipoC3S1': 3.8, 'temp': 30.44, 'lipoC3S3': 11.47, 'lipoC3S2': 7.6, 'rot1': 0, 'rot0': 0, 'rot3': 0, 'rot2': 0, 'state': 'normal', 'yaw': 0.87, 'datetime': '2018-10-09 23:52:07.907682', 'mgs': 0, 'volt': 0.8301, 'depth': 0.47, 'time': 4, 'pitch': 2.24, 'roll': 4.85, 'pres': 170}
{'lipoC2': 7.27, 'lipoC3S1': 3.8, 'temp': 30.44, 'lipoC3S3': 11.47, 'lipoC3S2': 7.6, 'rot1': 0, 'rot0': 0, 'rot3': 0, 'rot2': 0, 'state': 'normal', 'yaw': 0.48, 'datetime': '2018-10-09 23:52:08.010760', 'mgs': 0, 'volt': 0.8301, 'depth': 0.47, 'time': 4, 'pitch': 2.97, 'roll': 5.27, 'pres': 170}
{'lipoC2': 7.27, 'lipoC3S1': 3.8, 'temp': 30.44, 'lipoC3S3': 11.47, 'lipoC3S2': 7.6, 'rot1': 0, 'rot0': 0, 'rot3': 0, 'rot2': 0, 'state': 'normal', 'yaw': 0.17, 'datetime': '2018-10-09 23:52:08.114673', 'mgs': 0, 'volt': 0.8301, 'depth': 0.47, 'time': 4, 'pitch': 3.61, 'roll': 5.46, 'pres': 170}
{'lipoC2': 7.27, 'lipoC3S1': 3.8, 'temp': 30.44, 'lipoC3S3': 11.47, 'lipoC3S2': 7.6, 'rot1': 0, 'rot0': 0, 'rot3': 0, 'rot2': 0, 'state': 'normal', 'yaw': 0.04, 'datetime': '2018-10-09 23:52:08.218950', 'mgs': 0, 'volt': 0.8252, 'depth': 0.394, 'time': 5, 'pitch': 4.13, 'roll': 5.11, 'pres': 169}
{'lipoC2': 7.27, 'lipoC3S1': 3.8, 'temp': 30.44, 'lipoC3S3': 11.47, 'lipoC3S2': 7.6, 'rot1': 0, 'rot0': 0, 'rot3': 0, 'rot2': 0, 'state': 'normal', 'yaw': 0.23, 'datetime': '2018-10-09 23:52:08.322123', 'mgs': 0, 'volt': 0.8252, 'depth': 0.394, 'time': 5, 'pitch': 4.06, 'roll': 3.85, 'pres': 169}
{'lipoC2': 7.27, 'lipoC3S1': 3.8, 'temp': 30.44, 'lipoC3S3': 11.47, 'lipoC3S2': 7.6, 'rot1': 0, 'rot0': 0, 'rot3': 0, 'rot2': 0, 'state': 'normal', 'yaw': 0.64, 'datetime': '2018-10-09 23:52:08.426846', 'mgs': 0, 'volt': 0.8252, 'depth': 0.394, 'time': 5, 'pitch': 3.67, 'roll': 2.4, 'pres': 169}
{'lipoC2': 7.27, 'lipoC3S1': 3.8, 'temp': 30.38, 'lipoC3S3': 11.47, 'lipoC3S2': 7.6, 'rot1': 0, 'rot0': 0, 'rot3': 0, 'rot2': 0, 'state': 'normal', 'yaw': 0.97, 'datetime': '2018-10-09 23:52:08.530671', 'mgs': 0, 'volt': 0.8252, 'depth': 0.394, 'time': 5, 'pitch': 3.09, 'roll': 1.33, 'pres': 169}
{'lipoC2': 7.27, 'lipoC3S1': 3.8, 'temp': 30.38, 'lipoC3S3': 11.47, 'lipoC3S2': 7.6, 'rot1': 0, 'rot0': 0, 'rot3': 0, 'rot2': 0, 'state': 'normal', 'yaw': 1.01, 'datetime': '2018-10-09 23:52:08.633893', 'mgs': 1, 'volt': 0.8252, 'depth': 0.394, 'time': 5, 'pitch': 2.13, 'roll': 1.13, 'pres': 169}
{'lipoC2': 7.27, 'lipoC3S1': 3.8, 'temp': 30.44, 'lipoC3S3': 11.47, 'lipoC3S2': 7.6, 'rot1': 0, 'rot0': 0, 'rot3': 0, 'rot2': 0, 'state': 'normal', 'yaw': -0.0, 'datetime': '2018-10-09 23:52:13.162893', 'mgs': 1, 'volt': 0.8301, 'depth': 0.47, 'time': 1, 'pitch': -0.62, 'roll': 2.96, 'pres': 170}
{'lipoC2': 7.27, 'lipoC3S1': 3.8, 'temp': 30.44, 'lipoC3S3': 11.47, 'lipoC3S2': 7.6, 'rot1': 0, 'rot0': 0, 'rot3': 0, 'rot2': 0, 'state': 'normal', 'yaw': -0.01, 'datetime': '2018-10-09 23:52:16.214320', 'mgs': 1, 'volt': 0.8301, 'depth': 0.47, 'time': 1, 'pitch': -0.89, 'roll': 2.98, 'pres': 170}
{'lipoC2': 7.27, 'lipoC3S1': 3.8, 'temp': 30.44, 'lipoC3S3': 11.47, 'lipoC3S2': 7.6, 'rot1': 0, 'rot0': 0, 'rot3': 0, 'rot2': 0, 'state': 'normal', 'yaw': -0.05, 'datetime': '2018-10-09 23:52:16.250783', 'mgs': 1, 'volt': 0.8301, 'depth': 0.47, 'time': 1, 'pitch': -1.23, 'roll': 3.55, 'pres': 170}
{'lipoC2': 7.27, 'lipoC3S1': 3.8, 'temp': 30.44, 'lipoC3S3': 11.47, 'lipoC3S2': 7.6, 'rot1': 0, 'rot0': 0, 'rot3': 0, 'rot2': 0, 'state': 'normal', 'yaw': -0.18, 'datetime': '2018-10-09 23:52:16.272851', 'mgs': 1, 'volt': 0.8301, 'depth': 0.47, 'time': 1, 'pitch': -1.41, 'roll': 4.52, 'pres': 170}
{'lipoC2': 7.27, 'lipoC3S1': 3.8, 'temp': 30.44, 'lipoC3S3': 11.47, 'lipoC3S2': 7.6, 'rot1': 0, 'rot0': 0, 'rot3': 0, 'rot2': 0, 'state': 'normal', 'yaw': -0.33, 'datetime': '2018-10-09 23:52:16.292854', 'mgs': 1, 'volt': 0.8252, 'depth': 0.394, 'time': 1, 'pitch': -1.32, 'roll': 5.08, 'pres': 169}
{'lipoC2': 7.27, 'lipoC3S1': 3.8, 'temp': 30.38, 'lipoC3S3': 11.47, 'lipoC3S2': 7.6, 'rot1': 0, 'rot0': 0, 'rot3': 0, 'rot2': 0, 'state': 'normal', 'yaw': -0.62, 'datetime': '2018-10-09 23:52:16.311843', 'mgs': 1, 'volt': 0.8252, 'depth': 0.394, 'time': 1, 'pitch': -1.09, 'roll': 5.01, 'pres': 169}
{'lipoC2': 7.27, 'lipoC3S1': 3.8, 'temp': 30.38, 'lipoC3S3': 11.47, 'lipoC3S2': 7.6, 'rot1': 0, 'rot0': 0, 'rot3': 0, 'rot2': 0, 'state': 'normal', 'yaw': -1.06, 'datetime': '2018-10-09 23:52:16.324970', 'mgs': 1, 'volt': 0.8252, 'depth': 0.394, 'time': 1, 'pitch': -0.83, 'roll': 4.32, 'pres': 169}
{'lipoC2': 7.27, 'lipoC3S1': 3.8, 'temp': 30.38, 'lipoC3S3': 11.47, 'lipoC3S2': 7.6, 'rot1': 0, 'rot0': 0, 'rot3': 0, 'rot2': 0, 'state': 'normal', 'yaw': -1.76, 'datetime': '2018-10-09 23:52:16.343977', 'mgs': 1, 'volt': 0.8301, 'depth': 0.47, 'time': 1, 'pitch': -1.05, 'roll': 3.46, 'pres': 170}
{'lipoC2': 7.27, 'lipoC3S1': 3.8, 'temp': 30.38, 'lipoC3S3': 11.47, 'lipoC3S2': 7.6, 'rot1': 0, 'rot0': 0, 'rot3': 0, 'rot2': 0, 'state': 'normal', 'yaw': -2.45, 'datetime': '2018-10-09 23:52:16.362991', 'mgs': 1, 'volt': 0.8301, 'depth': 0.47, 'time': 2, 'pitch': -1.43, 'roll': 2.94, 'pres': 170}
{'lipoC2': 7.27, 'lipoC3S1': 3.8, 'temp': 30.5, 'lipoC3S3': 11.47, 'lipoC3S2': 7.6, 'rot1': 0, 'rot0': 0, 'rot3': 0, 'rot2': 0, 'state': 'normal', 'yaw': -3.17, 'datetime': '2018-10-09 23:52:16.376733', 'mgs': 1, 'volt': 0.8301, 'depth': 0.47, 'time': 2, 'pitch': -1.59, 'roll': 2.76, 'pres': 170}
{'lipoC2': 7.27, 'lipoC3S1': 3.8, 'temp': 30.5, 'lipoC3S3': 11.47, 'lipoC3S2': 7.6, 'rot1': 0, 'rot0': 0, 'rot3': 0, 'rot2': 0, 'state': 'normal', 'yaw': -3.85, 'datetime': '2018-10-09 23:52:16.394942', 'mgs': 1, 'volt': 0.8252, 'depth': 0.394, 'time': 2, 'pitch': -1.66, 'roll': 2.87, 'pres': 169}
{'lipoC2': 7.27, 'lipoC3S1': 3.8, 'temp': 30.5, 'lipoC3S3': 11.47, 'lipoC3S2': 7.6, 'rot1': 0, 'rot0': 0, 'rot3': 0, 'rot2': 0, 'state': 'normal', 'yaw': -4.52, 'datetime': '2018-10-09 23:52:16.413813', 'mgs': 1, 'volt': 0.8252, 'depth': 0.394, 'time': 2, 'pitch': -1.61, 'roll': 3.03, 'pres': 169}
{'lipoC2': 7.27, 'lipoC3S1': 3.8, 'temp': 30.5, 'lipoC3S3': 11.47, 'lipoC3S2': 7.6, 'rot1': 0, 'rot0': 0, 'rot3': 0, 'rot2': 0, 'state': 'normal', 'yaw': -5.13, 'datetime': '2018-10-09 23:52:16.426920', 'mgs': 1, 'volt': 0.8252, 'depth': 0.394, 'time': 2, 'pitch': -1.2, 'roll': 3.03, 'pres': 169}
{'lipoC2': 7.27, 'lipoC3S1': 3.8, 'temp': 30.5, 'lipoC3S3': 11.47, 'lipoC3S2': 7.6, 'rot1': 0, 'rot0': 0, 'rot3': 0, 'rot2': 0, 'state': 'normal', 'yaw': -5.62, 'datetime': '2018-10-09 23:52:16.445854', 'mgs': 1, 'volt': 0.8252, 'depth': 0.394, 'time': 2, 'pitch': -0.39, 'roll': 2.73, 'pres': 169}
{'lipoC2': 7.27, 'lipoC3S1': 3.8, 'temp': 30.44, 'lipoC3S3': 11.47, 'lipoC3S2': 7.6, 'rot1': 0, 'rot0': 0, 'rot3': 0, 'rot2': 0, 'state': 'normal', 'yaw': -5.8, 'datetime': '2018-10-09 23:52:16.464914', 'mgs': 1, 'volt': 0.8252, 'depth': 0.394, 'time': 2, 'pitch': 0.66, 'roll': 2.11, 'pres': 169}
{'lipoC2': 7.27, 'lipoC3S1': 3.8, 'temp': 30.44, 'lipoC3S3': 11.47, 'lipoC3S2': 7.6, 'rot1': 0, 'rot0': 0, 'rot3': 0, 'rot2': 0, 'state': 'normal', 'yaw': -5.78, 'datetime': '2018-10-09 23:52:16.478523', 'mgs': 0, 'volt': 0.8252, 'depth': 0.394, 'time': 2, 'pitch': 0.97, 'roll': 1.49, 'pres': 169}
{'lipoC2': 7.27, 'lipoC3S1': 3.8, 'temp': 30.44, 'lipoC3S3': 11.47, 'lipoC3S2': 7.6, 'rot1': 0, 'rot0': 0, 'rot3': 0, 'rot2': 0, 'state': 'normal', 'yaw': -5.84, 'datetime': '2018-10-09 23:52:16.495575', 'mgs': 0, 'volt': 0.8252, 'depth': 0.394, 'time': 2, 'pitch': 0.45, 'roll': 0.96, 'pres': 169}
{'lipoC2': 7.27, 'lipoC3S1': 3.8, 'temp': 30.44, 'lipoC3S3': 11.47, 'lipoC3S2': 7.6, 'rot1': 0, 'rot0': 0, 'rot3': 0, 'rot2': 0, 'state': 'normal', 'yaw': -5.89, 'datetime': '2018-10-09 23:52:16.514485', 'mgs': 0, 'volt': 0.8252, 'depth': 0.394, 'time': 3, 'pitch': -0.52, 'roll': 0.5, 'pres': 169}
{'lipoC2': 7.27, 'lipoC3S1': 3.8, 'temp': 30.44, 'lipoC3S3': 11.47, 'lipoC3S2': 7.6, 'rot1': 0, 'rot0': 0, 'rot3': 0, 'rot2': 0, 'state': 'normal', 'yaw': -5.91, 'datetime': '2018-10-09 23:52:16.527710', 'mgs': 0, 'volt': 0.8252, 'depth': 0.394, 'time': 3, 'pitch': -1.13, 'roll': 0.36, 'pres': 169}
{'lipoC2': 7.27, 'lipoC3S1': 3.8, 'temp': 30.5, 'lipoC3S3': 11.47, 'lipoC3S2': 7.61, 'rot1': 0, 'rot0': 0, 'rot3': 0, 'rot2': 0, 'state': 'normal', 'yaw': -6.01, 'datetime': '2018-10-09 23:52:16.546735', 'mgs': 0, 'volt': 0.8252, 'depth': 0.394, 'time': 3, 'pitch': -1.16, 'roll': 0.61, 'pres': 169}
{'lipoC2': 7.27, 'lipoC3S1': 3.8, 'temp': 30.5, 'lipoC3S3': 11.47, 'lipoC3S2': 7.6, 'rot1': 0, 'rot0': 0, 'rot3': 0, 'rot2': 0, 'state': 'normal', 'yaw': -6.13, 'datetime': '2018-10-09 23:52:16.565819', 'mgs': 0, 'volt': 0.8252, 'depth': 0.394, 'time': 3, 'pitch': -0.58, 'roll': 1.37, 'pres': 169}
{'lipoC2': 7.27, 'lipoC3S1': 3.8, 'temp': 30.44, 'lipoC3S3': 11.47, 'lipoC3S2': 7.6, 'rot1': 0, 'rot0': 0, 'rot3': 0, 'rot2': 0, 'state': 'normal', 'yaw': -6.02, 'datetime': '2018-10-09 23:52:16.578576', 'mgs': 0, 'volt': 0.8252, 'depth': 0.394, 'time': 3, 'pitch': 0.32, 'roll': 2.63, 'pres': 169}
{'lipoC2': 7.27, 'lipoC3S1': 3.8, 'temp': 30.44, 'lipoC3S3': 11.47, 'lipoC3S2': 7.6, 'rot1': 0, 'rot0': 0, 'rot3': 0, 'rot2': 0, 'state': 'normal', 'yaw': -5.62, 'datetime': '2018-10-09 23:52:16.597584', 'mgs': 0, 'volt': 0.8252, 'depth': 0.394, 'time': 3, 'pitch': 0.67, 'roll': 3.77, 'pres': 169}
{'lipoC2': 7.27, 'lipoC3S1': 3.8, 'temp': 30.44, 'lipoC3S3': 11.47, 'lipoC3S2': 7.6, 'rot1': 0, 'rot0': 0, 'rot3': 0, 'rot2': 0, 'state': 'normal', 'yaw': -4.97, 'datetime': '2018-10-09 23:52:16.616479', 'mgs': 0, 'volt': 0.8252, 'depth': 0.394, 'time': 3, 'pitch': 0.5, 'roll': 4.48, 'pres': 169}
{'lipoC2': 7.27, 'lipoC3S1': 3.8, 'temp': 30.44, 'lipoC3S3': 11.47, 'lipoC3S2': 7.6, 'rot1': 0, 'rot0': 0, 'rot3': 0, 'rot2': 0, 'state': 'normal', 'yaw': -4.15, 'datetime': '2018-10-09 23:52:16.629565', 'mgs': 0, 'volt': 0.8252, 'depth': 0.394, 'time': 3, 'pitch': 0.25, 'roll': 4.66, 'pres': 169}
{'lipoC2': 7.27, 'lipoC3S1': 3.8, 'temp': 30.44, 'lipoC3S3': 11.47, 'lipoC3S2': 7.6, 'rot1': 0, 'rot0': 0, 'rot3': 0, 'rot2': 0, 'state': 'normal', 'yaw': -3.58, 'datetime': '2018-10-09 23:52:16.648514', 'mgs': 0, 'volt': 0.8252, 'depth': 0.394, 'time': 3, 'pitch': 0.02, 'roll': 4.47, 'pres': 169}
{'lipoC2': 7.27, 'lipoC3S1': 3.8, 'temp': 30.5, 'lipoC3S3': 11.47, 'lipoC3S2': 7.6, 'rot1': 0, 'rot0': 0, 'rot3': 0, 'rot2': 0, 'state': 'normal', 'yaw': -3.26, 'datetime': '2018-10-09 23:52:16.667389', 'mgs': 0, 'volt': 0.8252, 'depth': 0.394, 'time': 3, 'pitch': -0.69, 'roll': 4.12, 'pres': 169}
{'lipoC2': 7.27, 'lipoC3S1': 3.8, 'temp': 30.5, 'lipoC3S3': 11.47, 'lipoC3S2': 7.6, 'rot1': 0, 'rot0': 0, 'rot3': 0, 'rot2': 0, 'state': 'normal', 'yaw': -3.17, 'datetime': '2018-10-09 23:52:16.680795', 'mgs': 0, 'volt': 0.8203, 'depth': 0.317, 'time': 4, 'pitch': -1.5, 'roll': 3.91, 'pres': 168}
{'lipoC2': 7.27, 'lipoC3S1': 3.8, 'temp': 30.44, 'lipoC3S3': 11.47, 'lipoC3S2': 7.6, 'rot1': 0, 'rot0': 0, 'rot3': 0, 'rot2': 0, 'state': 'normal', 'yaw': -3.2, 'datetime': '2018-10-09 23:52:16.698791', 'mgs': 0, 'volt': 0.8203, 'depth': 0.317, 'time': 4, 'pitch': -1.97, 'roll': 4.05, 'pres': 168}
{'lipoC2': 7.27, 'lipoC3S1': 3.8, 'temp': 30.44, 'lipoC3S3': 11.47, 'lipoC3S2': 7.6, 'rot1': 0, 'rot0': 0, 'rot3': 0, 'rot2': 0, 'state': 'normal', 'yaw': -3.08, 'datetime': '2018-10-09 23:52:16.718126', 'mgs': 0, 'volt': 0.8203, 'depth': 0.317, 'time': 4, 'pitch': -1.98, 'roll': 4.46, 'pres': 168}
{'lipoC2': 7.27, 'lipoC3S1': 3.8, 'temp': 30.44, 'lipoC3S3': 11.47, 'lipoC3S2': 7.6, 'rot1': 0, 'rot0': 0, 'rot3': 0, 'rot2': 0, 'state': 'normal', 'yaw': -2.87, 'datetime': '2018-10-09 23:52:16.731451', 'mgs': 0, 'volt': 0.8203, 'depth': 0.317, 'time': 4, 'pitch': -1.73, 'roll': 4.97, 'pres': 168}
{'lipoC2': 7.27, 'lipoC3S1': 3.8, 'temp': 30.44, 'lipoC3S3': 11.47, 'lipoC3S2': 7.6, 'rot1': 0, 'rot0': 0, 'rot3': 0, 'rot2': 0, 'state': 'normal', 'yaw': -2.58, 'datetime': '2018-10-09 23:52:16.750617', 'mgs': 0, 'volt': 0.8154, 'depth': 0.241, 'time': 4, 'pitch': -1.27, 'roll': 5.46, 'pres': 167}
{'lipoC2': 7.26, 'lipoC3S1': 3.77, 'temp': 30.44, 'lipoC3S3': 11.47, 'lipoC3S2': 7.58, 'rot1': 0, 'rot0': 0, 'rot3': 0, 'rot2': 1, 'state': 'normal', 'yaw': -2.14, 'datetime': '2018-10-09 23:52:16.769770', 'mgs': 0, 'volt': 0.8398, 'depth': 0.623, 'time': 4, 'pitch': -0.69, 'roll': 5.85, 'pres': 172}
{'lipoC2': 7.27, 'lipoC3S1': 3.77, 'temp': 30.5, 'lipoC3S3': 11.42, 'lipoC3S2': 7.55, 'rot1': 0, 'rot0': 0, 'rot3': 1, 'rot2': 2, 'state': 'normal', 'yaw': -1.68, 'datetime': '2018-10-09 23:52:16.783047', 'mgs': 0, 'volt': 0.8154, 'depth': 0.241, 'time': 4, 'pitch': -0.33, 'roll': 5.75, 'pres': 167}
{'lipoC2': 7.27, 'lipoC3S1': 3.78, 'temp': 30.5, 'lipoC3S3': 11.46, 'lipoC3S2': 7.58, 'rot1': 0, 'rot0': 0, 'rot3': 3, 'rot2': 2, 'state': 'normal', 'yaw': -1.22, 'datetime': '2018-10-09 23:52:16.799992', 'mgs': 0, 'volt': 0.835, 'depth': 0.546, 'time': 4, 'pitch': -0.26, 'roll': 5.01, 'pres': 171}
{'lipoC2': 7.26, 'lipoC3S1': 3.78, 'temp': 30.44, 'lipoC3S3': 11.44, 'lipoC3S2': 7.59, 'rot1': 0, 'rot0': 0, 'rot3': 4, 'rot2': 3, 'state': 'normal', 'yaw': -0.97, 'datetime': '2018-10-09 23:52:16.816017', 'mgs': 0, 'volt': 0.8301, 'depth': 0.47, 'time': 4, 'pitch': -0.15, 'roll': 3.99, 'pres': 170}
{'lipoC2': 7.27, 'lipoC3S1': 3.79, 'temp': 30.44, 'lipoC3S3': 11.42, 'lipoC3S2': 7.55, 'rot1': 0, 'rot0': 0, 'rot3': 5, 'rot2': 4, 'state': 'normal', 'yaw': -1.14, 'datetime': '2018-10-09 23:52:16.826112', 'mgs': 0, 'volt': 0.8154, 'depth': 0.241, 'time': 4, 'pitch': 0.12, 'roll': 3.09, 'pres': 167}
{'lipoC2': 7.26, 'lipoC3S1': 3.78, 'temp': 30.44, 'lipoC3S3': 11.44, 'lipoC3S2': 7.58, 'rot1': 0, 'rot0': 0, 'rot3': 6, 'rot2': 5, 'state': 'normal', 'yaw': -1.52, 'datetime': '2018-10-09 23:52:16.841965', 'mgs': 0, 'volt': 0.8252, 'depth': 0.394, 'time': 5, 'pitch': 0.39, 'roll': 2.97, 'pres': 169}
{'lipoC2': 7.27, 'lipoC3S1': 3.78, 'temp': 30.44, 'lipoC3S3': 11.44, 'lipoC3S2': 7.58, 'rot1': 0, 'rot0': 0, 'rot3': 7, 'rot2': 6, 'state': 'normal', 'yaw': -1.71, 'datetime': '2018-10-09 23:52:16.857844', 'mgs': 0, 'volt': 0.8301, 'depth': 0.47, 'time': 5, 'pitch': 0.56, 'roll': 3.52, 'pres': 170}
{'lipoC2': 7.27, 'lipoC3S1': 3.77, 'temp': 30.44, 'lipoC3S3': 11.42, 'lipoC3S2': 7.55, 'rot1': 0, 'rot0': 0, 'rot3': 9, 'rot2': 7, 'state': 'normal', 'yaw': -1.33, 'datetime': '2018-10-09 23:52:16.871019', 'mgs': 0, 'volt': 0.8105, 'depth': 0.165, 'time': 5, 'pitch': 0.58, 'roll': 4.36, 'pres': 166}
{'lipoC2': 7.26, 'lipoC3S1': 3.78, 'temp': 30.44, 'lipoC3S3': 11.44, 'lipoC3S2': 7.59, 'rot1': 0, 'rot0': 0, 'rot3': 10, 'rot2': 7, 'state': 'normal', 'yaw': -0.39, 'datetime': '2018-10-09 23:52:16.890455', 'mgs': 0, 'volt': 0.8301, 'depth': 0.47, 'time': 5, 'pitch': 0.7, 'roll': 4.72, 'pres': 170}
{'lipoC2': 7.27, 'lipoC3S1': 3.79, 'temp': 30.44, 'lipoC3S3': 11.4, 'lipoC3S2': 7.59, 'rot1': 0, 'rot0': 0, 'rot3': 11, 'rot2': 8, 'state': 'normal', 'yaw': 0.72, 'datetime': '2018-10-09 23:52:16.908579', 'mgs': 0, 'volt': 0.8154, 'depth': 0.241, 'time': 5, 'pitch': 0.95, 'roll': 4.61, 'pres': 167}
{'lipoC2': 7.27, 'lipoC3S1': 3.79, 'temp': 30.44, 'lipoC3S3': 11.4, 'lipoC3S2': 7.55, 'rot1': 0, 'rot0': 0, 'rot3': 12, 'rot2': 9, 'state': 'normal', 'yaw': 1.52, 'datetime': '2018-10-09 23:52:16.921970', 'mgs': 0, 'volt': 0.8154, 'depth': 0.241, 'time': 5, 'pitch': 1.16, 'roll': 4.11, 'pres': 167}
{'lipoC2': 7.27, 'lipoC3S1': 3.77, 'temp': 30.44, 'lipoC3S3': 11.43, 'lipoC3S2': 7.56, 'rot1': 0, 'rot0': 0, 'rot3': 13, 'rot2': 10, 'state': 'normal', 'yaw': 1.89, 'datetime': '2018-10-09 23:52:16.941692', 'mgs': 0, 'volt': 0.8105, 'depth': 0.165, 'time': 5, 'pitch': 1.03, 'roll': 3.21, 'pres': 166}
{'lipoC2': 7.27, 'lipoC3S1': 3.77, 'temp': 30.44, 'lipoC3S3': 11.43, 'lipoC3S2': 7.56, 'rot1': 0, 'rot0': 0, 'rot3': 15, 'rot2': 11, 'state': 'normal', 'yaw': 1.79, 'datetime': '2018-10-09 23:52:16.960875', 'mgs': 0, 'volt': 0.8105, 'depth': 0.165, 'time': 5, 'pitch': 0.24, 'roll': 2.21, 'pres': 166}
{'lipoC2': 7.27, 'lipoC3S1': 3.76, 'temp': 30.44, 'lipoC3S3': 11.43, 'lipoC3S2': 7.56, 'rot1': 0, 'rot0': 0, 'rot3': 16, 'rot2': 12, 'state': 'normal', 'yaw': 1.44, 'datetime': '2018-10-09 23:52:16.974269', 'mgs': 0, 'volt': 0.8252, 'depth': 0.394, 'time': 5, 'pitch': -0.54, 'roll': 1.63, 'pres': 169}
{'lipoC2': 7.27, 'lipoC3S1': 3.77, 'temp': 30.44, 'lipoC3S3': 11.44, 'lipoC3S2': 7.57, 'rot1': 0, 'rot0': 0, 'rot3': 17, 'rot2': 13, 'state': 'normal', 'yaw': 1.11, 'datetime': '2018-10-09 23:52:16.993799', 'mgs': 0, 'volt': 0.8203, 'depth': 0.317, 'time': 5, 'pitch': -1.08, 'roll': 1.71, 'pres': 168}
{'lipoC2': 7.27, 'lipoC3S1': 3.77, 'temp': 30.44, 'lipoC3S3': 11.44, 'lipoC3S2': 7.57, 'rot1': 0, 'rot0': 0, 'rot3': 18, 'rot2': 13, 'state': 'normal', 'yaw': 0.92, 'datetime': '2018-10-09 23:52:17.013697', 'mgs': 0, 'volt': 0.8252, 'depth': 0.394, 'time': 6, 'pitch': -1.56, 'roll': 2.07, 'pres': 169}
{'lipoC2': 7.26, 'lipoC3S1': 3.77, 'temp': 30.44, 'lipoC3S3': 11.44, 'lipoC3S2': 7.58, 'rot1': 0, 'rot0': 0, 'rot3': 19, 'rot2': 14, 'state': 'normal', 'yaw': 0.69, 'datetime': '2018-10-09 23:52:17.026892', 'mgs': 0, 'volt': 0.8203, 'depth': 0.317, 'time': 6, 'pitch': -2.14, 'roll': 2.29, 'pres': 168}
{'lipoC2': 7.27, 'lipoC3S1': 3.78, 'temp': 30.44, 'lipoC3S3': 11.44, 'lipoC3S2': 7.58, 'rot1': 0, 'rot0': 0, 'rot3': 21, 'rot2': 15, 'state': 'normal', 'yaw': 0.05, 'datetime': '2018-10-09 23:52:17.045888', 'mgs': 0, 'volt': 0.8252, 'depth': 0.394, 'time': 6, 'pitch': -2.58, 'roll': 2.12, 'pres': 169}
{'lipoC2': 7.26, 'lipoC3S1': 3.77, 'temp': 30.44, 'lipoC3S3': 11.44, 'lipoC3S2': 7.57, 'rot1': 0, 'rot0': 0, 'rot3': 22, 'rot2': 16, 'state': 'normal', 'yaw': -0.7, 'datetime': '2018-10-09 23:52:17.064927', 'mgs': 0, 'volt': 0.8252, 'depth': 0.394, 'time': 6, 'pitch': -2.56, 'roll': 1.6, 'pres': 169}
{'lipoC2': 7.27, 'lipoC3S1': 3.77, 'temp': 30.44, 'lipoC3S3': 11.43, 'lipoC3S2': 7.56, 'rot1': 0, 'rot0': 0, 'rot3': 23, 'rot2': 17, 'state': 'normal', 'yaw': -1.39, 'datetime': '2018-10-09 23:52:17.078187', 'mgs': 0, 'volt': 0.8105, 'depth': 0.165, 'time': 6, 'pitch': -2.12, 'roll': 1.3, 'pres': 166}
{'lipoC2': 7.27, 'lipoC3S1': 3.76, 'temp': 30.5, 'lipoC3S3': 11.43, 'lipoC3S2': 7.56, 'rot1': 0, 'rot0': 0, 'rot3': 24, 'rot2': 18, 'state': 'normal', 'yaw': -1.97, 'datetime': '2018-10-09 23:52:17.097904', 'mgs': 0, 'volt': 0.7959, 'depth': -0.064, 'time': 6, 'pitch': -1.43, 'roll': 1.36, 'pres': 163}
{'lipoC2': 7.27, 'lipoC3S1': 3.77, 'temp': 30.5, 'lipoC3S3': 11.43, 'lipoC3S2': 7.56, 'rot1': 0, 'rot0': 0, 'rot3': 25, 'rot2': 19, 'state': 'normal', 'yaw': -2.33, 'datetime': '2018-10-09 23:52:17.116599', 'mgs': 0, 'volt': 0.8057, 'depth': 0.089, 'time': 6, 'pitch': -1.34, 'roll': 1.75, 'pres': 165}
{'lipoC2': 7.27, 'lipoC3S1': 3.79, 'temp': 30.44, 'lipoC3S3': 11.42, 'lipoC3S2': 7.55, 'rot1': 0, 'rot0': 0, 'rot3': 26, 'rot2': 19, 'state': 'normal', 'yaw': -2.28, 'datetime': '2018-10-09 23:52:17.126363', 'mgs': 0, 'volt': 0.8105, 'depth': 0.165, 'time': 6, 'pitch': -1.89, 'roll': 1.86, 'pres': 166}
{'lipoC2': 7.27, 'lipoC3S1': 3.77, 'temp': 30.44, 'lipoC3S3': 11.42, 'lipoC3S2': 7.55, 'rot1': 0, 'rot0': 0, 'rot3': 28, 'rot2': 20, 'state': 'normal', 'yaw': -1.82, 'datetime': '2018-10-09 23:52:17.141784', 'mgs': 0, 'volt': 0.8057, 'depth': 0.089, 'time': 6, 'pitch': -2.8, 'roll': 1.5, 'pres': 165}
{'lipoC2': 7.27, 'lipoC3S1': 3.77, 'temp': 30.44, 'lipoC3S3': 11.42, 'lipoC3S2': 7.55, 'rot1': 0, 'rot0': 0, 'rot3': 29, 'rot2': 21, 'state': 'normal', 'yaw': -1.36, 'datetime': '2018-10-09 23:52:17.157306', 'mgs': 0, 'volt': 0.8057, 'depth': 0.089, 'time': 7, 'pitch': -3.45, 'roll': 0.87, 'pres': 165}
{'lipoC2': 7.27, 'lipoC3S1': 3.76, 'temp': 30.44, 'lipoC3S3': 11.42, 'lipoC3S2': 7.55, 'rot1': 0, 'rot0': 0, 'rot3': 30, 'rot2': 22, 'state': 'normal', 'yaw': -1.07, 'datetime': '2018-10-09 23:52:17.167014', 'mgs': 0, 'volt': 0.8105, 'depth': 0.165, 'time': 7, 'pitch': -3.59, 'roll': 0.28, 'pres': 166}
{'lipoC2': 7.27, 'lipoC3S1': 3.76, 'temp': 30.44, 'lipoC3S3': 11.4, 'lipoC3S2': 7.55, 'rot1': 0, 'rot0': 0, 'rot3': 31, 'rot2': 23, 'state': 'normal', 'yaw': -1.24, 'datetime': '2018-10-09 23:52:17.182635', 'mgs': 0, 'volt': 0.8105, 'depth': 0.165, 'time': 7, 'pitch': -3.13, 'roll': 0.11, 'pres': 166}
{'lipoC2': 7.27, 'lipoC3S1': 3.77, 'temp': 30.44, 'lipoC3S3': 11.42, 'lipoC3S2': 7.56, 'rot1': 0, 'rot0': 0, 'rot3': 32, 'rot2': 24, 'state': 'normal', 'yaw': -1.89, 'datetime': '2018-10-09 23:52:17.198202', 'mgs': 0, 'volt': 0.8105, 'depth': 0.165, 'time': 7, 'pitch': -2.49, 'roll': 0.43, 'pres': 166}
{'lipoC2': 7.27, 'lipoC3S1': 3.76, 'temp': 30.44, 'lipoC3S3': 11.42, 'lipoC3S2': 7.55, 'rot1': 0, 'rot0': 0, 'rot3': 33, 'rot2': 25, 'state': 'normal', 'yaw': -2.39, 'datetime': '2018-10-09 23:52:17.207964', 'mgs': 0, 'volt': 0.8105, 'depth': 0.165, 'time': 7, 'pitch': -1.92, 'roll': 0.88, 'pres': 166}
{'lipoC2': 7.27, 'lipoC3S1': 3.8, 'temp': 30.5, 'lipoC3S3': 11.46, 'lipoC3S2': 7.6, 'rot1': 0, 'rot0': 0, 'rot3': 34, 'rot2': 25, 'state': 'normal', 'yaw': -2.75, 'datetime': '2018-10-09 23:52:17.223511', 'mgs': 0, 'volt': 0.8057, 'depth': 0.089, 'time': 7, 'pitch': -1.45, 'roll': 1.62, 'pres': 165}
{'lipoC2': 7.27, 'lipoC3S1': 3.78, 'temp': 30.5, 'lipoC3S3': 11.36, 'lipoC3S2': 7.44, 'rot1': 0, 'rot0': 0, 'rot3': 34, 'rot2': 25, 'state': 'normal', 'yaw': -2.57, 'datetime': '2018-10-09 23:52:17.239052', 'mgs': 0, 'volt': 0.8105, 'depth': 0.165, 'time': 7, 'pitch': -1.47, 'roll': 1.92, 'pres': 166}
{'lipoC2': 7.27, 'lipoC3S1': 3.78, 'temp': 30.44, 'lipoC3S3': 11.4, 'lipoC3S2': 7.54, 'rot1': 1, 'rot0': 1, 'rot3': 34, 'rot2': 25, 'state': 'normal', 'yaw': -2.04, 'datetime': '2018-10-09 23:52:17.248750', 'mgs': 0, 'volt': 0.8105, 'depth': 0.165, 'time': 7, 'pitch': -1.14, 'roll': 1.63, 'pres': 166}
{'lipoC2': 7.27, 'lipoC3S1': 3.81, 'temp': 30.44, 'lipoC3S3': 11.44, 'lipoC3S2': 7.48, 'rot1': 2, 'rot0': 3, 'rot3': 34, 'rot2': 25, 'state': 'normal', 'yaw': -1.31, 'datetime': '2018-10-09 23:52:17.264384', 'mgs': 0, 'volt': 0.8105, 'depth': 0.165, 'time': 7, 'pitch': -0.64, 'roll': 0.84, 'pres': 166}
{'lipoC2': 7.27, 'lipoC3S1': 3.7, 'temp': 30.44, 'lipoC3S3': 11.44, 'lipoC3S2': 7.52, 'rot1': 4, 'rot0': 4, 'rot3': 34, 'rot2': 25, 'state': 'normal', 'yaw': -0.8, 'datetime': '2018-10-09 23:52:17.279932', 'mgs': 0, 'volt': 0.8105, 'depth': 0.165, 'time': 7, 'pitch': -0.78, 'roll': -0.32, 'pres': 166}
{'lipoC2': 7.27, 'lipoC3S1': 3.75, 'temp': 30.38, 'lipoC3S3': 11.43, 'lipoC3S2': 7.54, 'rot1': 5, 'rot0': 5, 'rot3': 34, 'rot2': 25, 'state': 'normal', 'yaw': -0.76, 'datetime': '2018-10-09 23:52:17.289587', 'mgs': 0, 'volt': 0.8154, 'depth': 0.241, 'time': 8, 'pitch': -1.13, 'roll': -1.2, 'pres': 167}
{'lipoC2': 7.27, 'lipoC3S1': 3.78, 'temp': 30.38, 'lipoC3S3': 11.35, 'lipoC3S2': 7.5, 'rot1': 6, 'rot0': 7, 'rot3': 34, 'rot2': 25, 'state': 'normal', 'yaw': -0.97, 'datetime': '2018-10-09 23:52:17.305832', 'mgs': 0, 'volt': 0.8154, 'depth': 0.241, 'time': 8, 'pitch': -1.05, 'roll': -1.64, 'pres': 167}
{'lipoC2': 7.27, 'lipoC3S1': 3.78, 'temp': 30.44, 'lipoC3S3': 11.39, 'lipoC3S2': 7.45, 'rot1': 7, 'rot0': 8, 'rot3': 34, 'rot2': 25, 'state': 'normal', 'yaw': -1.32, 'datetime': '2018-10-09 23:52:17.323498', 'mgs': 0, 'volt': 0.8154, 'depth': 0.241, 'time': 8, 'pitch': 0.15, 'roll': -1.18, 'pres': 167}
{'lipoC2': 7.26, 'lipoC3S1': 3.68, 'temp': 30.44, 'lipoC3S3': 11.43, 'lipoC3S2': 7.49, 'rot1': 9, 'rot0': 9, 'rot3': 34, 'rot2': 25, 'state': 'normal', 'yaw': -1.67, 'datetime': '2018-10-09 23:52:17.333214', 'mgs': 0, 'volt': 0.8203, 'depth': 0.317, 'time': 8, 'pitch': 1.99, 'roll': -0.26, 'pres': 168}
{'lipoC2': 7.26, 'lipoC3S1': 3.78, 'temp': 30.44, 'lipoC3S3': 11.23, 'lipoC3S2': 7.56, 'rot1': 10, 'rot0': 11, 'rot3': 34, 'rot2': 25, 'state': 'normal', 'yaw': -2.01, 'datetime': '2018-10-09 23:52:17.348927', 'mgs': 0, 'volt': 0.8252, 'depth': 0.394, 'time': 8, 'pitch': 4.24, 'roll': 0.64, 'pres': 169}
{'lipoC2': 7.24, 'lipoC3S1': 3.79, 'temp': 30.44, 'lipoC3S3': 11.42, 'lipoC3S2': 7.58, 'rot1': 11, 'rot0': 12, 'rot3': 34, 'rot2': 25, 'state': 'normal', 'yaw': -2.44, 'datetime': '2018-10-09 23:52:17.364585', 'mgs': 0, 'volt': 0.8838, 'depth': 1.309, 'time': 8, 'pitch': 6.21, 'roll': 1.0, 'pres': 181}
{'lipoC2': 7.27, 'lipoC3S1': 3.7, 'temp': 30.44, 'lipoC3S3': 11.43, 'lipoC3S2': 7.53, 'rot1': 13, 'rot0': 14, 'rot3': 34, 'rot2': 25, 'state': 'normal', 'yaw': -2.75, 'datetime': '2018-10-09 23:52:17.428088', 'mgs': 0, 'volt': 0.835, 'depth': 0.546, 'time': 8, 'pitch': 6.59, 'roll': 0.59, 'pres': 171}
{'lipoC2': 7.27, 'lipoC3S1': 3.78, 'temp': 30.44, 'lipoC3S3': 11.3, 'lipoC3S2': 7.41, 'rot1': 14, 'rot0': 15, 'rot3': 34, 'rot2': 25, 'state': 'normal', 'yaw': -2.92, 'datetime': '2018-10-09 23:52:17.531688', 'mgs': 0, 'volt': 0.835, 'depth': 0.546, 'time': 8, 'pitch': 6.61, 'roll': 0.02, 'pres': 171}
{'lipoC2': 7.25, 'lipoC3S1': 3.79, 'temp': 30.44, 'lipoC3S3': 11.42, 'lipoC3S2': 7.57, 'rot1': 15, 'rot0': 17, 'rot3': 34, 'rot2': 25, 'state': 'normal', 'yaw': -3.2, 'datetime': '2018-10-09 23:52:17.635207', 'mgs': 0, 'volt': 0.874, 'depth': 1.157, 'time': 8, 'pitch': 7.2, 'roll': -0.23, 'pres': 179}
{'lipoC2': 7.27, 'lipoC3S1': 3.72, 'temp': 30.44, 'lipoC3S3': 11.43, 'lipoC3S2': 7.58, 'rot1': 17, 'rot0': 18, 'rot3': 34, 'rot2': 25, 'state': 'normal', 'yaw': -3.58, 'datetime': '2018-10-09 23:52:17.745386', 'mgs': 0, 'volt': 0.8398, 'depth': 0.623, 'time': 8, 'pitch': 8.06, 'roll': -0.19, 'pres': 172}
{'lipoC2': 7.27, 'lipoC3S1': 3.78, 'temp': 30.44, 'lipoC3S3': 11.34, 'lipoC3S2': 7.5, 'rot1': 18, 'rot0': 19, 'rot3': 34, 'rot2': 25, 'state': 'normal', 'yaw': -3.97, 'datetime': '2018-10-09 23:52:17.848936', 'mgs': 0, 'volt': 0.835, 'depth': 0.546, 'time': 9, 'pitch': 9.05, 'roll': 0.2, 'pres': 171}
{'lipoC2': 7.26, 'lipoC3S1': 3.79, 'temp': 30.5, 'lipoC3S3': 11.4, 'lipoC3S2': 7.57, 'rot1': 19, 'rot0': 21, 'rot3': 34, 'rot2': 25, 'state': 'normal', 'yaw': -4.45, 'datetime': '2018-10-09 23:52:17.952435', 'mgs': 0, 'volt': 0.8643, 'depth': 1.004, 'time': 9, 'pitch': 9.98, 'roll': 1.03, 'pres': 177}
{'lipoC2': 7.27, 'lipoC3S1': 3.75, 'temp': 30.5, 'lipoC3S3': 11.43, 'lipoC3S2': 7.58, 'rot1': 21, 'rot0': 22, 'rot3': 34, 'rot2': 25, 'state': 'normal', 'yaw': -4.93, 'datetime': '2018-10-09 23:52:18.055999', 'mgs': 0, 'volt': 0.9229, 'depth': 1.92, 'time': 9, 'pitch': 10.67, 'roll': 1.9, 'pres': 189}
{'lipoC2': 7.27, 'lipoC3S1': 3.75, 'temp': 30.5, 'lipoC3S3': 11.4, 'lipoC3S2': 7.42, 'rot1': 22, 'rot0': 23, 'rot3': 34, 'rot2': 26, 'state': 'normal', 'yaw': -5.49, 'datetime': '2018-10-09 23:52:18.159533', 'mgs': 0, 'volt': 0.8398, 'depth': 0.623, 'time': 9, 'pitch': 11.02, 'roll': 2.45, 'pres': 172}
{'lipoC2': 7.26, 'lipoC3S1': 3.78, 'temp': 30.44, 'lipoC3S3': 11.21, 'lipoC3S2': 7.55, 'rot1': 23, 'rot0': 25, 'rot3': 35, 'rot2': 26, 'state': 'normal', 'yaw': -6.22, 'datetime': '2018-10-09 23:52:18.263035', 'mgs': 0, 'volt': 0.8398, 'depth': 0.623, 'time': 9, 'pitch': 10.77, 'roll': 2.34, 'pres': 172}
{'lipoC2': 7.26, 'lipoC3S1': 3.78, 'temp': 30.44, 'lipoC3S3': 11.4, 'lipoC3S2': 7.57, 'rot1': 24, 'rot0': 26, 'rot3': 35, 'rot2': 27, 'state': 'normal', 'yaw': -6.82, 'datetime': '2018-10-09 23:52:18.366784', 'mgs': 0, 'volt': 0.918, 'depth': 1.843, 'time': 9, 'pitch': 10.27, 'roll': 1.95, 'pres': 188}
{'lipoC2': 7.27, 'lipoC3S1': 3.78, 'temp': 30.38, 'lipoC3S3': 11.26, 'lipoC3S2': 7.51, 'rot1': 26, 'rot0': 27, 'rot3': 36, 'rot2': 27, 'state': 'normal', 'yaw': -7.22, 'datetime': '2018-10-09 23:52:18.471380', 'mgs': 0, 'volt': 0.835, 'depth': 0.546, 'time': 9, 'pitch': 9.71, 'roll': 1.68, 'pres': 171}
{'lipoC2': 7.24, 'lipoC3S1': 3.78, 'temp': 30.38, 'lipoC3S3': 11.4, 'lipoC3S2': 7.57, 'rot1': 27, 'rot0': 29, 'rot3': 37, 'rot2': 28, 'state': 'normal', 'yaw': -7.51, 'datetime': '2018-10-09 23:52:18.575006', 'mgs': 0, 'volt': 0.8887, 'depth': 1.385, 'time': 9, 'pitch': 8.78, 'roll': 1.91, 'pres': 182}
{'lipoC2': 7.27, 'lipoC3S1': 3.77, 'temp': 30.44, 'lipoC3S3': 11.32, 'lipoC3S2': 7.39, 'rot1': 28, 'rot0': 30, 'rot3': 37, 'rot2': 28, 'state': 'normal', 'yaw': -7.69, 'datetime': '2018-10-09 23:52:18.678867', 'mgs': 0, 'volt': 0.835, 'depth': 0.546, 'time': 9, 'pitch': 7.97, 'roll': 2.6, 'pres': 171}
{'lipoC2': 7.25, 'lipoC3S1': 3.78, 'temp': 30.44, 'lipoC3S3': 11.4, 'lipoC3S2': 7.57, 'rot1': 29, 'rot0': 31, 'rot3': 38, 'rot2': 29, 'state': 'normal', 'yaw': -7.88, 'datetime': '2018-10-09 23:52:18.783605', 'mgs': 0, 'volt': 0.8496, 'depth': 0.775, 'time': 10, 'pitch': 7.55, 'roll': 3.44, 'pres': 174}
{'lipoC2': 7.27, 'lipoC3S1': 3.76, 'temp': 30.44, 'lipoC3S3': 11.43, 'lipoC3S2': 7.53, 'rot1': 30, 'rot0': 33, 'rot3': 38, 'rot2': 29, 'state': 'normal', 'yaw': -8.09, 'datetime': '2018-10-09 23:52:18.887546', 'mgs': 0, 'volt': 0.8398, 'depth': 0.623, 'time': 10, 'pitch': 7.07, 'roll': 4.15, 'pres': 172}
{'lipoC2': 7.25, 'lipoC3S1': 3.78, 'temp': 30.44, 'lipoC3S3': 11.43, 'lipoC3S2': 7.57, 'rot1': 32, 'rot0': 34, 'rot3': 38, 'rot2': 29, 'state': 'normal', 'yaw': -8.31, 'datetime': '2018-10-09 23:52:18.991205', 'mgs': 0, 'volt': 0.8398, 'depth': 0.623, 'time': 10, 'pitch': 5.74, 'roll': 4.28, 'pres': 172}
{'lipoC2': 7.27, 'lipoC3S1': 3.71, 'temp': 30.44, 'lipoC3S3': 11.43, 'lipoC3S2': 7.55, 'rot1': 33, 'rot0': 35, 'rot3': 38, 'rot2': 29, 'state': 'normal', 'yaw': -8.53, 'datetime': '2018-10-09 23:52:19.094730', 'mgs': 0, 'volt': 0.8398, 'depth': 0.623, 'time': 10, 'pitch': 4.81, 'roll': 3.98, 'pres': 172}
{'lipoC2': 7.25, 'lipoC3S1': 3.78, 'temp': 30.44, 'lipoC3S3': 11.32, 'lipoC3S2': 7.56, 'rot1': 34, 'rot0': 36, 'rot3': 38, 'rot2': 29, 'state': 'normal', 'yaw': -8.77, 'datetime': '2018-10-09 23:52:19.198478', 'mgs': 0, 'volt': 0.8398, 'depth': 0.623, 'time': 10, 'pitch': 4.81, 'roll': 3.39, 'pres': 172}
{'lipoC2': 7.27, 'lipoC3S1': 3.72, 'temp': 30.44, 'lipoC3S3': 11.43, 'lipoC3S2': 7.56, 'rot1': 36, 'rot0': 38, 'rot3': 38, 'rot2': 29, 'state': 'normal', 'yaw': -8.89, 'datetime': '2018-10-09 23:52:19.302233', 'mgs': 0, 'volt': 0.8447, 'depth': 0.699, 'time': 10, 'pitch': 5.9, 'roll': 2.65, 'pres': 173}
{'lipoC2': 7.26, 'lipoC3S1': 3.78, 'temp': 30.44, 'lipoC3S3': 11.31, 'lipoC3S2': 7.57, 'rot1': 37, 'rot0': 39, 'rot3': 38, 'rot2': 29, 'state': 'normal', 'yaw': -9.0, 'datetime': '2018-10-09 23:52:19.405837', 'mgs': 0, 'volt': 0.8447, 'depth': 0.699, 'time': 10, 'pitch': 7.84, 'roll': 2.1, 'pres': 173}
{'lipoC2': 7.27, 'lipoC3S1': 3.72, 'temp': 30.44, 'lipoC3S3': 11.43, 'lipoC3S2': 7.56, 'rot1': 38, 'rot0': 40, 'rot3': 38, 'rot2': 29, 'state': 'normal', 'yaw': -9.2, 'datetime': '2018-10-09 23:52:19.509599', 'mgs': 0, 'volt': 0.8447, 'depth': 0.699, 'time': 10, 'pitch': 8.87, 'roll': 1.72, 'pres': 173}
{'lipoC2': 7.26, 'lipoC3S1': 3.78, 'temp': 30.44, 'lipoC3S3': 11.22, 'lipoC3S2': 7.57, 'rot1': 39, 'rot0': 41, 'rot3': 38, 'rot2': 29, 'state': 'normal', 'yaw': -9.52, 'datetime': '2018-10-09 23:52:19.613333', 'mgs': 0, 'volt': 0.8447, 'depth': 0.699, 'time': 10, 'pitch': 8.46, 'roll': 1.22, 'pres': 173}
{'lipoC2': 7.27, 'lipoC3S1': 3.72, 'temp': 30.44, 'lipoC3S3': 11.43, 'lipoC3S2': 7.57, 'rot1': 41, 'rot0': 42, 'rot3': 38, 'rot2': 29, 'state': 'normal', 'yaw': -9.88, 'datetime': '2018-10-09 23:52:19.717056', 'mgs': 0, 'volt': 0.8496, 'depth': 0.775, 'time': 10, 'pitch': 7.28, 'roll': 0.66, 'pres': 174}
{'lipoC2': 7.27, 'lipoC3S1': 3.78, 'temp': 30.44, 'lipoC3S3': 11.32, 'lipoC3S2': 7.49, 'rot1': 42, 'rot0': 44, 'rot3': 38, 'rot2': 29, 'state': 'normal', 'yaw': -10.17, 'datetime': '2018-10-09 23:52:19.821597', 'mgs': 0, 'volt': 0.8447, 'depth': 0.699, 'time': 11, 'pitch': 6.84, 'roll': 0.25, 'pres': 173}
{'lipoC2': 7.26, 'lipoC3S1': 3.78, 'temp': 30.44, 'lipoC3S3': 11.4, 'lipoC3S2': 7.57, 'rot1': 43, 'rot0': 45, 'rot3': 38, 'rot2': 29, 'state': 'normal', 'yaw': -10.38, 'datetime': '2018-10-09 23:52:19.926085', 'mgs': 0, 'volt': 0.8545, 'depth': 0.851, 'time': 11, 'pitch': 7.58, 'roll': 0.18, 'pres': 175}
{'lipoC2': 7.27, 'lipoC3S1': 3.7, 'temp': 30.44, 'lipoC3S3': 11.43, 'lipoC3S2': 7.54, 'rot1': 45, 'rot0': 46, 'rot3': 38, 'rot2': 29, 'state': 'normal', 'yaw': -10.5, 'datetime': '2018-10-09 23:52:20.029732', 'mgs': 0, 'volt': 0.8496, 'depth': 0.775, 'time': 11, 'pitch': 9.14, 'roll': 0.61, 'pres': 174}
{'lipoC2': 7.27, 'lipoC3S1': 3.75, 'temp': 30.44, 'lipoC3S3': 11.43, 'lipoC3S2': 7.57, 'rot1': 46, 'rot0': 47, 'rot3': 38, 'rot2': 29, 'state': 'normal', 'yaw': -10.52, 'datetime': '2018-10-09 23:52:20.134706', 'mgs': 0, 'volt': 0.874, 'depth': 1.157, 'time': 11, 'pitch': 10.26, 'roll': 1.21, 'pres': 179}
{'lipoC2': 7.27, 'lipoC3S1': 3.78, 'temp': 30.44, 'lipoC3S3': 11.31, 'lipoC3S2': 7.49, 'rot1': 47, 'rot0': 49, 'rot3': 38, 'rot2': 29, 'state': 'normal', 'yaw': -10.57, 'datetime': '2018-10-09 23:52:20.238444', 'mgs': 0, 'volt': 0.8496, 'depth': 0.775, 'time': 11, 'pitch': 9.72, 'roll': 1.51, 'pres': 174}
{'lipoC2': 7.27, 'lipoC3S1': 3.76, 'temp': 30.44, 'lipoC3S3': 11.42, 'lipoC3S2': 7.57, 'rot1': 48, 'rot0': 50, 'rot3': 38, 'rot2': 29, 'state': 'normal', 'yaw': -10.61, 'datetime': '2018-10-09 23:52:20.342149', 'mgs': 0, 'volt': 0.9229, 'depth': 1.92, 'time': 11, 'pitch': 8.28, 'roll': 1.37, 'pres': 189}
{'lipoC2': 7.27, 'lipoC3S1': 3.78, 'temp': 30.44, 'lipoC3S3': 11.3, 'lipoC3S2': 7.47, 'rot1': 50, 'rot0': 51, 'rot3': 38, 'rot2': 29, 'state': 'normal', 'yaw': -10.6, 'datetime': '2018-10-09 23:52:20.445933', 'mgs': 0, 'volt': 0.8545, 'depth': 0.851, 'time': 11, 'pitch': 7.14, 'roll': 1.1, 'pres': 175}
{'lipoC2': 7.27, 'lipoC3S1': 3.75, 'temp': 30.44, 'lipoC3S3': 11.42, 'lipoC3S2': 7.57, 'rot1': 51, 'rot0': 52, 'rot3': 38, 'rot2': 29, 'state': 'normal', 'yaw': -10.58, 'datetime': '2018-10-09 23:52:20.549822', 'mgs': 0, 'volt': 0.9229, 'depth': 1.92, 'time': 11, 'pitch': 7.07, 'roll': 0.77, 'pres': 189}
{'lipoC2': 7.27, 'lipoC3S1': 3.77, 'temp': 30.44, 'lipoC3S3': 11.23, 'lipoC3S2': 7.42, 'rot1': 52, 'rot0': 54, 'rot3': 38, 'rot2': 29, 'state': 'normal', 'yaw': -10.56, 'datetime': '2018-10-09 23:52:20.653329', 'mgs': 0, 'volt': 0.8496, 'depth': 0.775, 'time': 11, 'pitch': 7.86, 'roll': 0.87, 'pres': 174}
{'lipoC2': 7.27, 'lipoC3S1': 3.67, 'temp': 30.44, 'lipoC3S3': 11.42, 'lipoC3S2': 7.52, 'rot1': 53, 'rot0': 55, 'rot3': 38, 'rot2': 30, 'state': 'normal', 'yaw': -10.56, 'datetime': '2018-10-09 23:52:20.757300', 'mgs': 0, 'volt': 0.8496, 'depth': 0.775, 'time': 11, 'pitch': 9.03, 'roll': 1.5, 'pres': 174}
{'lipoC2': 7.25, 'lipoC3S1': 3.78, 'temp': 30.5, 'lipoC3S3': 11.36, 'lipoC3S2': 7.55, 'rot1': 55, 'rot0': 56, 'rot3': 39, 'rot2': 30, 'state': 'normal', 'yaw': -10.57, 'datetime': '2018-10-09 23:52:20.861015', 'mgs': 0, 'volt': 0.8447, 'depth': 0.699, 'time': 12, 'pitch': 9.71, 'roll': 2.45, 'pres': 173}
{'lipoC2': 7.27, 'lipoC3S1': 3.71, 'temp': 30.5, 'lipoC3S3': 11.43, 'lipoC3S2': 7.55, 'rot1': 56, 'rot0': 57, 'rot3': 39, 'rot2': 31, 'state': 'normal', 'yaw': -10.68, 'datetime': '2018-10-09 23:52:20.964769', 'mgs': 0, 'volt': 0.8447, 'depth': 0.699, 'time': 12, 'pitch': 9.13, 'roll': 2.48, 'pres': 173}
{'lipoC2': 7.27, 'lipoC3S1': 3.73, 'temp': 30.5, 'lipoC3S3': 11.43, 'lipoC3S2': 7.57, 'rot1': 57, 'rot0': 58, 'rot3': 39, 'rot2': 31, 'state': 'normal', 'yaw': -10.88, 'datetime': '2018-10-09 23:52:21.068852', 'mgs': 0, 'volt': 0.9033, 'depth': 1.614, 'time': 12, 'pitch': 7.76, 'roll': 1.84, 'pres': 185}
{'lipoC2': 7.26, 'lipoC3S1': 3.78, 'temp': 30.56, 'lipoC3S3': 11.34, 'lipoC3S2': 7.56, 'rot1': 58, 'rot0': 60, 'rot3': 39, 'rot2': 31, 'state': 'normal', 'yaw': -11.12, 'datetime': '2018-10-09 23:52:21.172544', 'mgs': 0, 'volt': 0.8447, 'depth': 0.699, 'time': 12, 'pitch': 6.42, 'roll': 0.84, 'pres': 173}
{'lipoC2': 7.27, 'lipoC3S1': 3.78, 'temp': 30.56, 'lipoC3S3': 11.36, 'lipoC3S2': 7.43, 'rot1': 60, 'rot0': 61, 'rot3': 39, 'rot2': 31, 'state': 'normal', 'yaw': -11.37, 'datetime': '2018-10-09 23:52:21.277559', 'mgs': 0, 'volt': 0.8447, 'depth': 0.699, 'time': 12, 'pitch': 6.34, 'roll': 0.04, 'pres': 173}
{'lipoC2': 7.26, 'lipoC3S1': 3.78, 'temp': 30.44, 'lipoC3S3': 11.42, 'lipoC3S2': 7.57, 'rot1': 61, 'rot0': 62, 'rot3': 39, 'rot2': 31, 'state': 'normal', 'yaw': -11.63, 'datetime': '2018-10-09 23:52:21.381288', 'mgs': 0, 'volt': 0.9082, 'depth': 1.691, 'time': 12, 'pitch': 7.06, 'roll': -0.16, 'pres': 186}
{'lipoC2': 7.25, 'lipoC3S1': 3.78, 'temp': 30.44, 'lipoC3S3': 11.4, 'lipoC3S2': 7.57, 'rot1': 62, 'rot0': 63, 'rot3': 39, 'rot2': 31, 'state': 'normal', 'yaw': -11.8, 'datetime': '2018-10-09 23:52:21.486396', 'mgs': 0, 'volt': 0.8887, 'depth': 1.385, 'time': 12, 'pitch': 7.86, 'roll': 0.36, 'pres': 182}
{'lipoC2': 7.25, 'lipoC3S1': 3.78, 'temp': 30.5, 'lipoC3S3': 11.23, 'lipoC3S2': 7.56, 'rot1': 63, 'rot0': 64, 'rot3': 40, 'rot2': 31, 'state': 'normal', 'yaw': -12.03, 'datetime': '2018-10-09 23:52:21.590410', 'mgs': 0, 'volt': 0.8447, 'depth': 0.699, 'time': 12, 'pitch': 7.24, 'roll': 0.88, 'pres': 173}
{'lipoC2': 7.27, 'lipoC3S1': 3.69, 'temp': 30.5, 'lipoC3S3': 11.42, 'lipoC3S2': 7.54, 'rot1': 65, 'rot0': 66, 'rot3': 40, 'rot2': 31, 'state': 'normal', 'yaw': -12.39, 'datetime': '2018-10-09 23:52:21.694109', 'mgs': 0, 'volt': 0.8496, 'depth': 0.775, 'time': 12, 'pitch': 6.01, 'roll': 0.85, 'pres': 174}
{'lipoC2': 7.25, 'lipoC3S1': 3.78, 'temp': 30.5, 'lipoC3S3': 11.26, 'lipoC3S2': 7.55, 'rot1': 66, 'rot0': 67, 'rot3': 41, 'rot2': 32, 'state': 'normal', 'yaw': -12.68, 'datetime': '2018-10-09 23:52:21.797843', 'mgs': 0, 'volt': 0.8496, 'depth': 0.775, 'time': 13, 'pitch': 5.46, 'roll': 0.76, 'pres': 174}
{'lipoC2': 7.27, 'lipoC3S1': 3.71, 'temp': 30.56, 'lipoC3S3': 11.43, 'lipoC3S2': 7.54, 'rot1': 67, 'rot0': 68, 'rot3': 41, 'rot2': 32, 'state': 'normal', 'yaw': -12.77, 'datetime': '2018-10-09 23:52:21.901582', 'mgs': 0, 'volt': 0.8496, 'depth': 0.775, 'time': 13, 'pitch': 6.26, 'roll': 1.03, 'pres': 174}
{'lipoC2': 7.26, 'lipoC3S1': 3.78, 'temp': 30.56, 'lipoC3S3': 11.31, 'lipoC3S2': 7.57, 'rot1': 69, 'rot0': 69, 'rot3': 41, 'rot2': 32, 'state': 'normal', 'yaw': -12.62, 'datetime': '2018-10-09 23:52:22.005439', 'mgs': 0, 'volt': 0.8496, 'depth': 0.775, 'time': 13, 'pitch': 7.66, 'roll': 1.8, 'pres': 174}
{'lipoC2': 7.27, 'lipoC3S1': 3.68, 'temp': 30.44, 'lipoC3S3': 11.43, 'lipoC3S2': 7.53, 'rot1': 70, 'rot0': 70, 'rot3': 41, 'rot2': 32, 'state': 'normal', 'yaw': -12.2, 'datetime': '2018-10-09 23:52:22.108081', 'mgs': 0, 'volt': 0.8496, 'depth': 0.775, 'time': 13, 'pitch': 8.67, 'roll': 2.99, 'pres': 174}
{'lipoC2': 7.25, 'lipoC3S1': 3.78, 'temp': 30.44, 'lipoC3S3': 11.43, 'lipoC3S2': 7.57, 'rot1': 71, 'rot0': 71, 'rot3': 41, 'rot2': 32, 'state': 'normal', 'yaw': -11.55, 'datetime': '2018-10-09 23:52:22.220359', 'mgs': 0, 'volt': 0.8643, 'depth': 1.004, 'time': 13, 'pitch': 8.71, 'roll': 4.16, 'pres': 177}
{'lipoC2': 7.27, 'lipoC3S1': 3.7, 'temp': 30.44, 'lipoC3S3': 11.43, 'lipoC3S2': 7.53, 'rot1': 73, 'rot0': 72, 'rot3': 41, 'rot2': 32, 'state': 'normal', 'yaw': -10.89, 'datetime': '2018-10-09 23:52:22.310121', 'mgs': 0, 'volt': 0.8545, 'depth': 0.851, 'time': 13, 'pitch': 8.13, 'roll': 4.74, 'pres': 175}
{'lipoC2': 7.25, 'lipoC3S1': 3.78, 'temp': 30.44, 'lipoC3S3': 11.43, 'lipoC3S2': 7.57, 'rot1': 74, 'rot0': 73, 'rot3': 41, 'rot2': 32, 'state': 'normal', 'yaw': -10.26, 'datetime': '2018-10-09 23:52:22.413480', 'mgs': 0, 'volt': 0.8594, 'depth': 0.928, 'time': 13, 'pitch': 7.6, 'roll': 4.51, 'pres': 176}
{'lipoC2': 7.27, 'lipoC3S1': 3.69, 'temp': 30.44, 'lipoC3S3': 11.43, 'lipoC3S2': 7.52, 'rot1': 75, 'rot0': 74, 'rot3': 41, 'rot2': 32, 'state': 'normal', 'yaw': -9.6, 'datetime': '2018-10-09 23:52:22.517257', 'mgs': 0, 'volt': 0.8545, 'depth': 0.851, 'time': 13, 'pitch': 7.27, 'roll': 3.76, 'pres': 175}
{'lipoC2': 7.27, 'lipoC3S1': 3.75, 'temp': 30.44, 'lipoC3S3': 11.42, 'lipoC3S2': 7.57, 'rot1': 76, 'rot0': 76, 'rot3': 41, 'rot2': 32, 'state': 'normal', 'yaw': -9.01, 'datetime': '2018-10-09 23:52:22.621276', 'mgs': 0, 'volt': 0.9424, 'depth': 2.225, 'time': 13, 'pitch': 7.14, 'roll': 3.28, 'pres': 193}
{'lipoC2': 7.27, 'lipoC3S1': 3.73, 'temp': 30.44, 'lipoC3S3': 11.43, 'lipoC3S2': 7.49, 'rot1': 78, 'rot0': 77, 'rot3': 41, 'rot2': 32, 'state': 'normal', 'yaw': -8.45, 'datetime': '2018-10-09 23:52:22.725670', 'mgs': 0, 'volt': 0.8545, 'depth': 0.851, 'time': 13, 'pitch': 7.22, 'roll': 3.16, 'pres': 175}
{'lipoC2': 7.25, 'lipoC3S1': 3.78, 'temp': 30.44, 'lipoC3S3': 11.4, 'lipoC3S2': 7.57, 'rot1': 79, 'rot0': 78, 'rot3': 41, 'rot2': 32, 'state': 'normal', 'yaw': -7.89, 'datetime': '2018-10-09 23:52:22.829448', 'mgs': 0, 'volt': 0.8887, 'depth': 1.385, 'time': 14, 'pitch': 7.25, 'roll': 3.29, 'pres': 182}
{'lipoC2': 7.26, 'lipoC3S1': 3.78, 'temp': 30.44, 'lipoC3S3': 11.22, 'lipoC3S2': 7.56, 'rot1': 80, 'rot0': 79, 'rot3': 41, 'rot2': 32, 'state': 'normal', 'yaw': -7.45, 'datetime': '2018-10-09 23:52:22.934471', 'mgs': 0, 'volt': 0.8496, 'depth': 0.775, 'time': 14, 'pitch': 7.25, 'roll': 3.3, 'pres': 174}
{'lipoC2': 7.27, 'lipoC3S1': 3.73, 'temp': 30.44, 'lipoC3S3': 11.42, 'lipoC3S2': 7.57, 'rot1': 81, 'rot0': 81, 'rot3': 41, 'rot2': 32, 'state': 'normal', 'yaw': -7.14, 'datetime': '2018-10-09 23:52:23.041904', 'mgs': 0, 'volt': 0.8496, 'depth': 0.775, 'time': 14, 'pitch': 7.48, 'roll': 2.77, 'pres': 174}
{'lipoC2': 7.26, 'lipoC3S1': 3.78, 'temp': 30.44, 'lipoC3S3': 11.25, 'lipoC3S2': 7.56, 'rot1': 83, 'rot0': 82, 'rot3': 41, 'rot2': 32, 'state': 'normal', 'yaw': -7.07, 'datetime': '2018-10-09 23:52:23.145981', 'mgs': 0, 'volt': 0.8496, 'depth': 0.775, 'time': 14, 'pitch': 7.64, 'roll': 1.78, 'pres': 174}
{'lipoC2': 7.27, 'lipoC3S1': 3.75, 'temp': 30.44, 'lipoC3S3': 11.42, 'lipoC3S2': 7.54, 'rot1': 84, 'rot0': 83, 'rot3': 41, 'rot2': 32, 'state': 'normal', 'yaw': -7.14, 'datetime': '2018-10-09 23:52:23.249487', 'mgs': 0, 'volt': 0.8545, 'depth': 0.851, 'time': 14, 'pitch': 7.81, 'roll': 0.74, 'pres': 175}
{'lipoC2': 7.26, 'lipoC3S1': 3.78, 'temp': 30.44, 'lipoC3S3': 11.22, 'lipoC3S2': 7.56, 'rot1': 85, 'rot0': 84, 'rot3': 41, 'rot2': 32, 'state': 'normal', 'yaw': -7.34, 'datetime': '2018-10-09 23:52:23.353254', 'mgs': 0, 'volt': 0.8496, 'depth': 0.775, 'time': 14, 'pitch': 8.15, 'roll': 0.15, 'pres': 174}
{'lipoC2': 7.27, 'lipoC3S1': 3.72, 'temp': 30.44, 'lipoC3S3': 11.42, 'lipoC3S2': 7.56, 'rot1': 86, 'rot0': 86, 'rot3': 41, 'rot2': 32, 'state': 'normal', 'yaw': -7.57, 'datetime': '2018-10-09 23:52:23.457890', 'mgs': 0, 'volt': 0.8545, 'depth': 0.851, 'time': 14, 'pitch': 8.08, 'roll': 0.13, 'pres': 175}
{'lipoC2': 7.26, 'lipoC3S1': 3.78, 'temp': 30.5, 'lipoC3S3': 11.22, 'lipoC3S2': 7.56, 'rot1': 88, 'rot0': 87, 'rot3': 41, 'rot2': 32, 'state': 'normal', 'yaw': -7.83, 'datetime': '2018-10-09 23:52:23.557447', 'mgs': 0, 'volt': 0.8496, 'depth': 0.775, 'time': 14, 'pitch': 7.58, 'roll': 0.22, 'pres': 174}
{'lipoC2': 7.27, 'lipoC3S1': 3.73, 'temp': 30.5, 'lipoC3S3': 11.42, 'lipoC3S2': 7.57, 'rot1': 89, 'rot0': 88, 'rot3': 41, 'rot2': 32, 'state': 'normal', 'yaw': -8.07, 'datetime': '2018-10-09 23:52:23.661040', 'mgs': 0, 'volt': 0.8496, 'depth': 0.775, 'time': 14, 'pitch': 7.03, 'roll': 0.28, 'pres': 174}
{'lipoC2': 7.26, 'lipoC3S1': 3.78, 'temp': 30.56, 'lipoC3S3': 11.26, 'lipoC3S2': 7.55, 'rot1': 90, 'rot0': 90, 'rot3': 41, 'rot2': 32, 'state': 'normal', 'yaw': -8.2, 'datetime': '2018-10-09 23:52:23.764850', 'mgs': 0, 'volt': 0.8496, 'depth': 0.775, 'time': 15, 'pitch': 6.94, 'roll': 0.29, 'pres': 174}
{'lipoC2': 7.25, 'lipoC3S1': 3.78, 'temp': 30.56, 'lipoC3S3': 11.42, 'lipoC3S2': 7.56, 'rot1': 92, 'rot0': 91, 'rot3': 41, 'rot2': 32, 'state': 'normal', 'yaw': -8.21, 'datetime': '2018-10-09 23:52:23.869149', 'mgs': 0, 'volt': 0.8594, 'depth': 0.928, 'time': 15, 'pitch': 7.74, 'roll': 0.3, 'pres': 176}
{'lipoC2': 7.27, 'lipoC3S1': 3.7, 'temp': 30.56, 'lipoC3S3': 11.42, 'lipoC3S2': 7.53, 'rot1': 93, 'rot0': 92, 'rot3': 41, 'rot2': 32, 'state': 'normal', 'yaw': -8.1, 'datetime': '2018-10-09 23:52:23.972822', 'mgs': 0, 'volt': 0.8545, 'depth': 0.851, 'time': 15, 'pitch': 8.72, 'roll': 0.32, 'pres': 175}
{'lipoC2': 7.27, 'lipoC3S1': 3.76, 'temp': 30.5, 'lipoC3S3': 11.42, 'lipoC3S2': 7.57, 'rot1': 94, 'rot0': 93, 'rot3': 41, 'rot2': 32, 'state': 'normal', 'yaw': -7.82, 'datetime': '2018-10-09 23:52:24.077851', 'mgs': 0, 'volt': 0.8789, 'depth': 1.233, 'time': 15, 'pitch': 8.71, 'roll': 0.51, 'pres': 180}
{'lipoC2': 7.27, 'lipoC3S1': 3.78, 'temp': 30.5, 'lipoC3S3': 11.31, 'lipoC3S2': 7.58, 'rot1': 95, 'rot0': 95, 'rot3': 41, 'rot2': 32, 'state': 'normal', 'yaw': -7.44, 'datetime': '2018-10-09 23:52:24.181621', 'mgs': 0, 'volt': 0.8496, 'depth': 0.775, 'time': 15, 'pitch': 7.9, 'roll': 0.77, 'pres': 174}
{'lipoC2': 7.27, 'lipoC3S1': 3.7, 'temp': 30.5, 'lipoC3S3': 11.42, 'lipoC3S2': 7.54, 'rot1': 97, 'rot0': 96, 'rot3': 41, 'rot2': 32, 'state': 'normal', 'yaw': -7.12, 'datetime': '2018-10-09 23:52:24.285455', 'mgs': 0, 'volt': 0.8545, 'depth': 0.851, 'time': 15, 'pitch': 7.43, 'roll': 0.95, 'pres': 175}
{'lipoC2': 7.25, 'lipoC3S1': 3.78, 'temp': 30.5, 'lipoC3S3': 11.4, 'lipoC3S2': 7.57, 'rot1': 98, 'rot0': 97, 'rot3': 41, 'rot2': 32, 'state': 'normal', 'yaw': -6.84, 'datetime': '2018-10-09 23:52:24.390306', 'mgs': 0, 'volt': 0.8838, 'depth': 1.309, 'time': 15, 'pitch': 7.73, 'roll': 1.06, 'pres': 181}
{'lipoC2': 7.27, 'lipoC3S1': 3.69, 'temp': 30.5, 'lipoC3S3': 11.42, 'lipoC3S2': 7.51, 'rot1': 100, 'rot0': 99, 'rot3': 41, 'rot2': 32, 'state': 'normal', 'yaw': -6.58, 'datetime': '2018-10-09 23:52:24.494125', 'mgs': 0, 'volt': 0.8545, 'depth': 0.851, 'time': 15, 'pitch': 8.12, 'roll': 1.07, 'pres': 175}
{'lipoC2': 7.25, 'lipoC3S1': 3.78, 'temp': 30.5, 'lipoC3S3': 11.4, 'lipoC3S2': 7.57, 'rot1': 101, 'rot0': 100, 'rot3': 41, 'rot2': 32, 'state': 'normal', 'yaw': -6.44, 'datetime': '2018-10-09 23:52:24.597982', 'mgs': 0, 'volt': 0.9033, 'depth': 1.614, 'time': 15, 'pitch': 7.83, 'roll': 0.98, 'pres': 185}
{'lipoC2': 7.27, 'lipoC3S1': 3.77, 'temp': 30.5, 'lipoC3S3': 11.25, 'lipoC3S2': 7.49, 'rot1': 102, 'rot0': 101, 'rot3': 41, 'rot2': 32, 'state': 'normal', 'yaw': -6.34, 'datetime': '2018-10-09 23:52:24.701950', 'mgs': 0, 'volt': 0.8496, 'depth': 0.775, 'time': 15, 'pitch': 7.09, 'roll': 0.84, 'pres': 174}
{'lipoC2': 7.27, 'lipoC3S1': 3.71, 'temp': 30.5, 'lipoC3S3': 11.42, 'lipoC3S2': 7.47, 'rot1': 104, 'rot0': 102, 'rot3': 42, 'rot2': 33, 'state': 'normal', 'yaw': -6.19, 'datetime': '2018-10-09 23:52:24.805875', 'mgs': 0, 'volt': 0.8545, 'depth': 0.851, 'time': 16, 'pitch': 6.58, 'roll': 0.69, 'pres': 175}
{'lipoC2': 7.27, 'lipoC3S1': 3.76, 'temp': 30.5, 'lipoC3S3': 11.39, 'lipoC3S2': 7.56, 'rot1': 105, 'rot0': 104, 'rot3': 42, 'rot2': 33, 'state': 'normal', 'yaw': -5.99, 'datetime': '2018-10-09 23:52:24.909812', 'mgs': 0, 'volt': 0.9375, 'depth': 2.148, 'time': 16, 'pitch': 6.95, 'roll': 0.51, 'pres': 192}
{'lipoC2': 7.25, 'lipoC3S1': 3.78, 'temp': 30.5, 'lipoC3S3': 11.27, 'lipoC3S2': 7.55, 'rot1': 106, 'rot0': 105, 'rot3': 43, 'rot2': 34, 'state': 'normal', 'yaw': -5.71, 'datetime': '2018-10-09 23:52:25.013804', 'mgs': 0, 'volt': 0.8496, 'depth': 0.775, 'time': 16, 'pitch': 8.34, 'roll': 0.64, 'pres': 174}
{'lipoC2': 7.27, 'lipoC3S1': 3.74, 'temp': 30.5, 'lipoC3S3': 11.36, 'lipoC3S2': 7.42, 'rot1': 108, 'rot0': 107, 'rot3': 44, 'rot2': 35, 'state': 'normal', 'yaw': -5.47, 'datetime': '2018-10-09 23:52:25.117625', 'mgs': 0, 'volt': 0.8496, 'depth': 0.775, 'time': 16, 'pitch': 9.71, 'roll': 1.14, 'pres': 174}
{'lipoC2': 7.25, 'lipoC3S1': 3.78, 'temp': 30.44, 'lipoC3S3': 11.32, 'lipoC3S2': 7.55, 'rot1': 109, 'rot0': 108, 'rot3': 44, 'rot2': 35, 'state': 'normal', 'yaw': -5.28, 'datetime': '2018-10-09 23:52:25.222233', 'mgs': 0, 'volt': 0.8887, 'depth': 1.385, 'time': 16, 'pitch': 10.82, 'roll': 1.76, 'pres': 182}
{'lipoC2': 7.27, 'lipoC3S1': 3.77, 'temp': 30.44, 'lipoC3S3': 11.29, 'lipoC3S2': 7.38, 'rot1': 110, 'rot0': 109, 'rot3': 45, 'rot2': 36, 'state': 'normal', 'yaw': -5.2, 'datetime': '2018-10-09 23:52:25.326219', 'mgs': 0, 'volt': 0.8496, 'depth': 0.775, 'time': 16, 'pitch': 10.84, 'roll': 2.19, 'pres': 174}
{'lipoC2': 7.27, 'lipoC3S1': 3.77, 'temp': 30.44, 'lipoC3S3': 11.26, 'lipoC3S2': 7.4, 'rot1': 111, 'rot0': 110, 'rot3': 46, 'rot2': 36, 'state': 'normal', 'yaw': -5.19, 'datetime': '2018-10-09 23:52:25.431413', 'mgs': 0, 'volt': 0.8496, 'depth': 0.775, 'time': 16, 'pitch': 9.9, 'roll': 2.31, 'pres': 174}
{'lipoC2': 7.27, 'lipoC3S1': 3.68, 'temp': 30.5, 'lipoC3S3': 11.4, 'lipoC3S2': 7.53, 'rot1': 113, 'rot0': 112, 'rot3': 46, 'rot2': 37, 'state': 'normal', 'yaw': -5.12, 'datetime': '2018-10-09 23:52:25.535317', 'mgs': 0, 'volt': 0.8496, 'depth': 0.775, 'time': 16, 'pitch': 8.78, 'roll': 2.34, 'pres': 174}
{'lipoC2': 7.27, 'lipoC3S1': 3.75, 'temp': 30.5, 'lipoC3S3': 11.42, 'lipoC3S2': 7.49, 'rot1': 114, 'rot0': 113, 'rot3': 46, 'rot2': 37, 'state': 'normal', 'yaw': -4.91, 'datetime': '2018-10-09 23:52:25.640561', 'mgs': 0, 'volt': 0.8447, 'depth': 0.699, 'time': 16, 'pitch': 7.95, 'roll': 2.0, 'pres': 173}
{'lipoC2': 7.27, 'lipoC3S1': 3.78, 'temp': 30.44, 'lipoC3S3': 11.4, 'lipoC3S2': 7.56, 'rot1': 115, 'rot0': 114, 'rot3': 46, 'rot2': 37, 'state': 'normal', 'yaw': -4.65, 'datetime': '2018-10-09 23:52:25.744447', 'mgs': 0, 'volt': 0.9375, 'depth': 2.148, 'time': 16, 'pitch': 8.16, 'roll': 1.66, 'pres': 192}
{'lipoC2': 7.26, 'lipoC3S1': 3.78, 'temp': 30.44, 'lipoC3S3': 11.23, 'lipoC3S2': 7.56, 'rot1': 116, 'rot0': 116, 'rot3': 46, 'rot2': 37, 'state': 'normal', 'yaw': -4.47, 'datetime': '2018-10-09 23:52:25.848344', 'mgs': 0, 'volt': 0.8447, 'depth': 0.699, 'time': 17, 'pitch': 8.86, 'roll': 1.7, 'pres': 173}
{'lipoC2': 7.27, 'lipoC3S1': 3.79, 'temp': 30.5, 'lipoC3S3': 11.4, 'lipoC3S2': 7.47, 'rot1': 118, 'rot0': 117, 'rot3': 46, 'rot2': 37, 'state': 'normal', 'yaw': -4.35, 'datetime': '2018-10-09 23:52:25.952322', 'mgs': 0, 'volt': 0.8447, 'depth': 0.699, 'time': 17, 'pitch': 9.93, 'roll': 2.02, 'pres': 173}
{'lipoC2': 7.27, 'lipoC3S1': 3.74, 'temp': 30.5, 'lipoC3S3': 11.4, 'lipoC3S2': 7.56, 'rot1': 119, 'rot0': 118, 'rot3': 46, 'rot2': 37, 'state': 'normal', 'yaw': -4.41, 'datetime': '2018-10-09 23:52:26.056221', 'mgs': 0, 'volt': 0.9375, 'depth': 2.148, 'time': 17, 'pitch': 9.02, 'roll': 2.28, 'pres': 192}
