{'lipoC2': 7.33, 'lipoC3S1': 3.85, 'temp': 26.88, 'lipoC3S3': 11.64, 'lipoC3S2': 7.71, 'rot1': 26, 'rot0': 27, 'rot3': 55, 'rot2': 43, 'state': 'normal', 'yaw': 79.09, 'datetime': '2018-10-09 20:02:57.569530', 'mgs': 0, 'volt': 0.8594, 'depth': 0.928, 'time': 22, 'pitch': -1.36, 'roll': 9.19, 'pres': 176}
{'lipoC2': 7.33, 'lipoC3S1': 3.85, 'temp': 26.88, 'lipoC3S3': 11.64, 'lipoC3S2': 7.71, 'rot1': 26, 'rot0': 27, 'rot3': 55, 'rot2': 43, 'state': 'normal', 'yaw': 81.9, 'datetime': '2018-10-09 20:03:00.597251', 'mgs': 0, 'volt': 0.8643, 'depth': 1.004, 'time': 22, 'pitch': -0.96, 'roll': 8.99, 'pres': 177}
{'lipoC2': 7.33, 'lipoC3S1': 3.85, 'temp': 26.94, 'lipoC3S3': 11.64, 'lipoC3S2': 7.71, 'rot1': 26, 'rot0': 27, 'rot3': 55, 'rot2': 43, 'state': 'normal', 'yaw': 84.4, 'datetime': '2018-10-09 20:03:03.640104', 'mgs': 0, 'volt': 0.8594, 'depth': 0.928, 'time': 22, 'pitch': -0.64, 'roll': 8.36, 'pres': 176}
{'lipoC2': 7.33, 'lipoC3S1': 3.85, 'temp': 26.94, 'lipoC3S3': 11.64, 'lipoC3S2': 7.71, 'rot1': 26, 'rot0': 27, 'rot3': 55, 'rot2': 43, 'state': 'normal', 'yaw': 86.86, 'datetime': '2018-10-09 20:03:03.671022', 'mgs': 0, 'volt': 0.8594, 'depth': 0.928, 'time': 22, 'pitch': -0.37, 'roll': 7.39, 'pres': 176}
{'lipoC2': 7.33, 'lipoC3S1': 3.85, 'temp': 26.94, 'lipoC3S3': 11.64, 'lipoC3S2': 7.71, 'rot1': 26, 'rot0': 27, 'rot3': 55, 'rot2': 43, 'state': 'normal', 'yaw': 89.51, 'datetime': '2018-10-09 20:03:03.701406', 'mgs': 0, 'volt': 0.8594, 'depth': 0.928, 'time': 22, 'pitch': -0.05, 'roll': 6.03, 'pres': 176}
{'lipoC2': 7.33, 'lipoC3S1': 3.85, 'temp': 26.94, 'lipoC3S3': 11.64, 'lipoC3S2': 7.71, 'rot1': 26, 'rot0': 27, 'rot3': 55, 'rot2': 43, 'state': 'normal', 'yaw': 91.86, 'datetime': '2018-10-09 20:03:03.731841', 'mgs': 0, 'volt': 0.8594, 'depth': 0.928, 'time': 22, 'pitch': 0.28, 'roll': 4.63, 'pres': 176}
{'lipoC2': 7.33, 'lipoC3S1': 3.85, 'temp': 26.94, 'lipoC3S3': 11.64, 'lipoC3S2': 7.71, 'rot1': 26, 'rot0': 27, 'rot3': 55, 'rot2': 43, 'state': 'normal', 'yaw': 94.37, 'datetime': '2018-10-09 20:03:03.754135', 'mgs': 0, 'volt': 0.8594, 'depth': 0.928, 'time': 22, 'pitch': 0.64, 'roll': 3.08, 'pres': 176}
{'lipoC2': 7.33, 'lipoC3S1': 3.85, 'temp': 27.0, 'lipoC3S3': 11.64, 'lipoC3S2': 7.71, 'rot1': 26, 'rot0': 27, 'rot3': 55, 'rot2': 43, 'state': 'normal', 'yaw': 96.59, 'datetime': '2018-10-09 20:03:03.770081', 'mgs': 0, 'volt': 0.8594, 'depth': 0.928, 'time': 22, 'pitch': 0.89, 'roll': 1.78, 'pres': 176}
{'lipoC2': 7.33, 'lipoC3S1': 3.85, 'temp': 27.0, 'lipoC3S3': 11.64, 'lipoC3S2': 7.71, 'rot1': 26, 'rot0': 27, 'rot3': 55, 'rot2': 43, 'state': 'normal', 'yaw': 98.66, 'datetime': '2018-10-09 20:03:03.786079', 'mgs': 0, 'volt': 0.8594, 'depth': 0.928, 'time': 22, 'pitch': 0.8, 'roll': 0.75, 'pres': 176}
{'lipoC2': 7.33, 'lipoC3S1': 3.85, 'temp': 26.94, 'lipoC3S3': 11.64, 'lipoC3S2': 7.71, 'rot1': 26, 'rot0': 27, 'rot3': 55, 'rot2': 43, 'state': 'normal', 'yaw': 100.82, 'datetime': '2018-10-09 20:03:03.802025', 'mgs': 0, 'volt': 0.8594, 'depth': 0.928, 'time': 22, 'pitch': 0.44, 'roll': 0.0, 'pres': 176}
{'lipoC2': 7.33, 'lipoC3S1': 3.85, 'temp': 26.94, 'lipoC3S3': 11.64, 'lipoC3S2': 7.71, 'rot1': 26, 'rot0': 27, 'rot3': 55, 'rot2': 43, 'state': 'normal', 'yaw': 102.82, 'datetime': '2018-10-09 20:03:03.817962', 'mgs': 0, 'volt': 0.8594, 'depth': 0.928, 'time': 23, 'pitch': 0.01, 'roll': -0.33, 'pres': 176}
{'lipoC2': 7.33, 'lipoC3S1': 3.85, 'temp': 26.94, 'lipoC3S3': 11.64, 'lipoC3S2': 7.71, 'rot1': 26, 'rot0': 27, 'rot3': 55, 'rot2': 43, 'state': 'normal', 'yaw': 105.02, 'datetime': '2018-10-09 20:03:03.833993', 'mgs': 0, 'volt': 0.8545, 'depth': 0.851, 'time': 23, 'pitch': -0.55, 'roll': -0.47, 'pres': 175}
{'lipoC2': 7.33, 'lipoC3S1': 3.85, 'temp': 26.94, 'lipoC3S3': 11.64, 'lipoC3S2': 7.7, 'rot1': 26, 'rot0': 27, 'rot3': 55, 'rot2': 43, 'state': 'normal', 'yaw': 106.64, 'datetime': '2018-10-09 20:03:03.850003', 'mgs': 0, 'volt': 0.8545, 'depth': 0.851, 'time': 23, 'pitch': -1.04, 'roll': -0.67, 'pres': 175}
{'lipoC2': 7.33, 'lipoC3S1': 3.85, 'temp': 26.94, 'lipoC3S3': 11.64, 'lipoC3S2': 7.71, 'rot1': 26, 'rot0': 27, 'rot3': 55, 'rot2': 43, 'state': 'normal', 'yaw': 107.48, 'datetime': '2018-10-09 20:03:03.866019', 'mgs': 0, 'volt': 0.8496, 'depth': 0.775, 'time': 23, 'pitch': -1.68, 'roll': -0.91, 'pres': 174}
{'lipoC2': 7.33, 'lipoC3S1': 3.85, 'temp': 26.88, 'lipoC3S3': 11.64, 'lipoC3S2': 7.71, 'rot1': 26, 'rot0': 27, 'rot3': 55, 'rot2': 43, 'state': 'normal', 'yaw': 107.21, 'datetime': '2018-10-09 20:03:03.882125', 'mgs': 0, 'volt': 0.8545, 'depth': 0.851, 'time': 23, 'pitch': -2.48, 'roll': -0.98, 'pres': 175}
{'lipoC2': 7.33, 'lipoC3S1': 3.85, 'temp': 26.88, 'lipoC3S3': 11.64, 'lipoC3S2': 7.71, 'rot1': 26, 'rot0': 27, 'rot3': 55, 'rot2': 43, 'state': 'normal', 'yaw': 106.02, 'datetime': '2018-10-09 20:03:03.898109', 'mgs': 0, 'volt': 0.8496, 'depth': 0.775, 'time': 23, 'pitch': -2.83, 'roll': -0.73, 'pres': 174}
{'lipoC2': 7.33, 'lipoC3S1': 3.85, 'temp': 26.94, 'lipoC3S3': 11.64, 'lipoC3S2': 7.7, 'rot1': 26, 'rot0': 27, 'rot3': 55, 'rot2': 43, 'state': 'normal', 'yaw': 104.09, 'datetime': '2018-10-09 20:03:03.914112', 'mgs': 0, 'volt': 0.8496, 'depth': 0.775, 'time': 23, 'pitch': -2.5, 'roll': -0.16, 'pres': 174}
{'lipoC2': 7.33, 'lipoC3S1': 3.85, 'temp': 26.94, 'lipoC3S3': 11.64, 'lipoC3S2': 7.71, 'rot1': 26, 'rot0': 27, 'rot3': 55, 'rot2': 43, 'state': 'normal', 'yaw': 101.23, 'datetime': '2018-10-09 20:03:03.930153', 'mgs': 0, 'volt': 0.8496, 'depth': 0.775, 'time': 23, 'pitch': -1.7, 'roll': 0.45, 'pres': 174}
{'lipoC2': 7.33, 'lipoC3S1': 3.85, 'temp': 26.94, 'lipoC3S3': 11.64, 'lipoC3S2': 7.71, 'rot1': 26, 'rot0': 27, 'rot3': 55, 'rot2': 43, 'state': 'normal', 'yaw': 98.29, 'datetime': '2018-10-09 20:03:03.946230', 'mgs': 0, 'volt': 0.8496, 'depth': 0.775, 'time': 23, 'pitch': -1.08, 'roll': 0.79, 'pres': 174}
{'lipoC2': 7.33, 'lipoC3S1': 3.85, 'temp': 26.88, 'lipoC3S3': 11.64, 'lipoC3S2': 7.71, 'rot1': 26, 'rot0': 27, 'rot3': 55, 'rot2': 43, 'state': 'normal', 'yaw': 95.24, 'datetime': '2018-10-09 20:03:03.962248', 'mgs': 0, 'volt': 0.8496, 'depth': 0.775, 'time': 24, 'pitch': -0.82, 'roll': 0.88, 'pres': 174}
{'lipoC2': 7.33, 'lipoC3S1': 3.85, 'temp': 26.88, 'lipoC3S3': 11.64, 'lipoC3S2': 7.71, 'rot1': 26, 'rot0': 27, 'rot3': 55, 'rot2': 43, 'state': 'normal', 'yaw': 93.15, 'datetime': '2018-10-09 20:03:03.978246', 'mgs': 0, 'volt': 0.8496, 'depth': 0.775, 'time': 24, 'pitch': -0.55, 'roll': 0.63, 'pres': 174}
{'lipoC2': 7.33, 'lipoC3S1': 3.85, 'temp': 26.94, 'lipoC3S3': 11.64, 'lipoC3S2': 7.71, 'rot1': 26, 'rot0': 27, 'rot3': 55, 'rot2': 43, 'state': 'normal', 'yaw': 91.79, 'datetime': '2018-10-09 20:03:03.994262', 'mgs': 0, 'volt': 0.8496, 'depth': 0.775, 'time': 24, 'pitch': -0.08, 'roll': 0.26, 'pres': 174}
{'lipoC2': 7.33, 'lipoC3S1': 3.85, 'temp': 26.94, 'lipoC3S3': 11.64, 'lipoC3S2': 7.71, 'rot1': 26, 'rot0': 27, 'rot3': 55, 'rot2': 43, 'state': 'normal', 'yaw': 91.13, 'datetime': '2018-10-09 20:03:04.010207', 'mgs': 0, 'volt': 0.8447, 'depth': 0.699, 'time': 24, 'pitch': 0.58, 'roll': -0.02, 'pres': 173}
{'lipoC2': 7.33, 'lipoC3S1': 3.85, 'temp': 27.0, 'lipoC3S3': 11.64, 'lipoC3S2': 7.71, 'rot1': 26, 'rot0': 27, 'rot3': 55, 'rot2': 43, 'state': 'normal', 'yaw': 91.05, 'datetime': '2018-10-09 20:03:04.026551', 'mgs': 0, 'volt': 0.8447, 'depth': 0.699, 'time': 24, 'pitch': 1.13, 'roll': -0.06, 'pres': 173}
{'lipoC2': 7.33, 'lipoC3S1': 3.85, 'temp': 27.0, 'lipoC3S3': 11.64, 'lipoC3S2': 7.71, 'rot1': 26, 'rot0': 27, 'rot3': 55, 'rot2': 43, 'state': 'normal', 'yaw': 91.39, 'datetime': '2018-10-09 20:03:04.042641', 'mgs': 0, 'volt': 0.8447, 'depth': 0.699, 'time': 24, 'pitch': 1.61, 'roll': 0.01, 'pres': 173}
{'lipoC2': 7.33, 'lipoC3S1': 3.85, 'temp': 27.0, 'lipoC3S3': 11.64, 'lipoC3S2': 7.71, 'rot1': 26, 'rot0': 27, 'rot3': 55, 'rot2': 43, 'state': 'normal', 'yaw': 91.98, 'datetime': '2018-10-09 20:03:04.058615', 'mgs': 0, 'volt': 0.8447, 'depth': 0.699, 'time': 24, 'pitch': 1.82, 'roll': 0.21, 'pres': 173}
{'lipoC2': 7.33, 'lipoC3S1': 3.85, 'temp': 26.88, 'lipoC3S3': 11.64, 'lipoC3S2': 7.71, 'rot1': 26, 'rot0': 27, 'rot3': 55, 'rot2': 43, 'state': 'normal', 'yaw': 92.4, 'datetime': '2018-10-09 20:03:04.074603', 'mgs': 0, 'volt': 0.8398, 'depth': 0.623, 'time': 24, 'pitch': 1.59, 'roll': 0.44, 'pres': 172}
{'lipoC2': 7.33, 'lipoC3S1': 3.85, 'temp': 26.88, 'lipoC3S3': 11.64, 'lipoC3S2': 7.71, 'rot1': 26, 'rot0': 27, 'rot3': 55, 'rot2': 43, 'state': 'normal', 'yaw': 92.61, 'datetime': '2018-10-09 20:03:04.090809', 'mgs': 0, 'volt': 0.8398, 'depth': 0.623, 'time': 24, 'pitch': 0.95, 'roll': 0.66, 'pres': 172}
{'lipoC2': 7.33, 'lipoC3S1': 3.85, 'temp': 26.94, 'lipoC3S3': 11.64, 'lipoC3S2': 7.71, 'rot1': 26, 'rot0': 27, 'rot3': 55, 'rot2': 43, 'state': 'normal', 'yaw': 92.58, 'datetime': '2018-10-09 20:03:04.106823', 'mgs': 0, 'volt': 0.8398, 'depth': 0.623, 'time': 24, 'pitch': 0.15, 'roll': 0.96, 'pres': 172}
{'lipoC2': 7.33, 'lipoC3S1': 3.85, 'temp': 26.94, 'lipoC3S3': 11.64, 'lipoC3S2': 7.71, 'rot1': 26, 'rot0': 27, 'rot3': 55, 'rot2': 43, 'state': 'normal', 'yaw': 92.37, 'datetime': '2018-10-09 20:03:04.122813', 'mgs': 0, 'volt': 0.8398, 'depth': 0.623, 'time': 25, 'pitch': -0.34, 'roll': 1.29, 'pres': 172}
{'lipoC2': 7.33, 'lipoC3S1': 3.85, 'temp': 26.94, 'lipoC3S3': 11.64, 'lipoC3S2': 7.71, 'rot1': 26, 'rot0': 27, 'rot3': 55, 'rot2': 43, 'state': 'normal', 'yaw': 92.2, 'datetime': '2018-10-09 20:03:04.138814', 'mgs': 0, 'volt': 0.8398, 'depth': 0.623, 'time': 25, 'pitch': -0.48, 'roll': 1.69, 'pres': 172}
{'lipoC2': 7.33, 'lipoC3S1': 3.85, 'temp': 26.94, 'lipoC3S3': 11.64, 'lipoC3S2': 7.71, 'rot1': 26, 'rot0': 27, 'rot3': 55, 'rot2': 43, 'state': 'normal', 'yaw': 92.15, 'datetime': '2018-10-09 20:03:04.154829', 'mgs': 0, 'volt': 0.8398, 'depth': 0.623, 'time': 25, 'pitch': -0.35, 'roll': 2.04, 'pres': 172}
{'lipoC2': 7.33, 'lipoC3S1': 3.85, 'temp': 26.94, 'lipoC3S3': 11.64, 'lipoC3S2': 7.71, 'rot1': 26, 'rot0': 27, 'rot3': 55, 'rot2': 43, 'state': 'normal', 'yaw': 92.16, 'datetime': '2018-10-09 20:03:04.170874', 'mgs': 0, 'volt': 0.8398, 'depth': 0.623, 'time': 25, 'pitch': -0.1, 'roll': 2.34, 'pres': 172}
{'lipoC2': 7.33, 'lipoC3S1': 3.85, 'temp': 26.94, 'lipoC3S3': 11.64, 'lipoC3S2': 7.71, 'rot1': 26, 'rot0': 27, 'rot3': 55, 'rot2': 43, 'state': 'normal', 'yaw': 92.17, 'datetime': '2018-10-09 20:03:04.186878', 'mgs': 0, 'volt': 0.8398, 'depth': 0.623, 'time': 25, 'pitch': 0.2, 'roll': 2.56, 'pres': 172}
{'lipoC2': 7.33, 'lipoC3S1': 3.85, 'temp': 26.94, 'lipoC3S3': 11.64, 'lipoC3S2': 7.71, 'rot1': 26, 'rot0': 27, 'rot3': 55, 'rot2': 43, 'state': 'normal', 'yaw': 92.18, 'datetime': '2018-10-09 20:03:04.202842', 'mgs': 0, 'volt': 0.8398, 'depth': 0.623, 'time': 25, 'pitch': 0.41, 'roll': 2.62, 'pres': 172}
{'lipoC2': 7.33, 'lipoC3S1': 3.85, 'temp': 26.94, 'lipoC3S3': 11.64, 'lipoC3S2': 7.71, 'rot1': 26, 'rot0': 27, 'rot3': 55, 'rot2': 43, 'state': 'normal', 'yaw': 92.21, 'datetime': '2018-10-09 20:03:04.218827', 'mgs': 0, 'volt': 0.8398, 'depth': 0.623, 'time': 25, 'pitch': 0.56, 'roll': 2.62, 'pres': 172}
{'lipoC2': 7.33, 'lipoC3S1': 3.85, 'temp': 26.94, 'lipoC3S3': 11.64, 'lipoC3S2': 7.71, 'rot1': 26, 'rot0': 27, 'rot3': 55, 'rot2': 43, 'state': 'normal', 'yaw': 92.29, 'datetime': '2018-10-09 20:03:04.234869', 'mgs': 0, 'volt': 0.8398, 'depth': 0.623, 'time': 25, 'pitch': 0.66, 'roll': 2.57, 'pres': 172}
{'lipoC2': 7.33, 'lipoC3S1': 3.85, 'temp': 26.94, 'lipoC3S3': 11.64, 'lipoC3S2': 7.71, 'rot1': 26, 'rot0': 27, 'rot3': 55, 'rot2': 43, 'state': 'normal', 'yaw': 92.44, 'datetime': '2018-10-09 20:03:04.250877', 'mgs': 0, 'volt': 0.8398, 'depth': 0.623, 'time': 25, 'pitch': 0.81, 'roll': 2.37, 'pres': 172}
{'lipoC2': 7.33, 'lipoC3S1': 3.85, 'temp': 26.94, 'lipoC3S3': 11.64, 'lipoC3S2': 7.71, 'rot1': 26, 'rot0': 27, 'rot3': 55, 'rot2': 43, 'state': 'normal', 'yaw': 92.65, 'datetime': '2018-10-09 20:03:04.266851', 'mgs': 0, 'volt': 0.8398, 'depth': 0.623, 'time': 26, 'pitch': 1.05, 'roll': 2.05, 'pres': 172}
{'lipoC2': 7.33, 'lipoC3S1': 3.85, 'temp': 26.94, 'lipoC3S3': 11.64, 'lipoC3S2': 7.71, 'rot1': 26, 'rot0': 27, 'rot3': 55, 'rot2': 43, 'state': 'normal', 'yaw': 92.86, 'datetime': '2018-10-09 20:03:04.282807', 'mgs': 0, 'volt': 0.8398, 'depth': 0.623, 'time': 26, 'pitch': 1.26, 'roll': 1.64, 'pres': 172}
{'lipoC2': 7.33, 'lipoC3S1': 3.85, 'temp': 26.94, 'lipoC3S3': 11.64, 'lipoC3S2': 7.71, 'rot1': 26, 'rot0': 27, 'rot3': 55, 'rot2': 43, 'state': 'normal', 'yaw': 93.05, 'datetime': '2018-10-09 20:03:04.298764', 'mgs': 0, 'volt': 0.8447, 'depth': 0.699, 'time': 26, 'pitch': 1.38, 'roll': 1.16, 'pres': 173}
{'lipoC2': 7.33, 'lipoC3S1': 3.85, 'temp': 26.94, 'lipoC3S3': 11.64, 'lipoC3S2': 7.71, 'rot1': 26, 'rot0': 27, 'rot3': 55, 'rot2': 43, 'state': 'normal', 'yaw': 93.24, 'datetime': '2018-10-09 20:03:04.314875', 'mgs': 0, 'volt': 0.8447, 'depth': 0.699, 'time': 26, 'pitch': 1.42, 'roll': 0.71, 'pres': 173}
{'lipoC2': 7.33, 'lipoC3S1': 3.85, 'temp': 26.94, 'lipoC3S3': 11.64, 'lipoC3S2': 7.71, 'rot1': 26, 'rot0': 27, 'rot3': 55, 'rot2': 43, 'state': 'normal', 'yaw': 93.4, 'datetime': '2018-10-09 20:03:04.330910', 'mgs': 0, 'volt': 0.8447, 'depth': 0.699, 'time': 26, 'pitch': 1.42, 'roll': 0.45, 'pres': 173}
{'lipoC2': 7.33, 'lipoC3S1': 3.85, 'temp': 26.94, 'lipoC3S3': 11.64, 'lipoC3S2': 7.71, 'rot1': 26, 'rot0': 27, 'rot3': 55, 'rot2': 43, 'state': 'normal', 'yaw': 93.56, 'datetime': '2018-10-09 20:03:04.346931', 'mgs': 0, 'volt': 0.8447, 'depth': 0.699, 'time': 26, 'pitch': 1.42, 'roll': 0.37, 'pres': 173}
{'lipoC2': 7.33, 'lipoC3S1': 3.85, 'temp': 27.0, 'lipoC3S3': 11.64, 'lipoC3S2': 7.71, 'rot1': 26, 'rot0': 27, 'rot3': 55, 'rot2': 43, 'state': 'normal', 'yaw': 93.68, 'datetime': '2018-10-09 20:03:04.362925', 'mgs': 0, 'volt': 0.8447, 'depth': 0.699, 'time': 26, 'pitch': 1.5, 'roll': 0.44, 'pres': 173}
{'lipoC2': 7.33, 'lipoC3S1': 3.85, 'temp': 27.0, 'lipoC3S3': 11.64, 'lipoC3S2': 7.71, 'rot1': 26, 'rot0': 27, 'rot3': 55, 'rot2': 43, 'state': 'normal', 'yaw': 93.48, 'datetime': '2018-10-09 20:03:04.378907', 'mgs': 0, 'volt': 0.8496, 'depth': 0.775, 'time': 26, 'pitch': 1.76, 'roll': 0.54, 'pres': 174}
{'lipoC2': 7.33, 'lipoC3S1': 3.85, 'temp': 27.0, 'lipoC3S3': 11.64, 'lipoC3S2': 7.71, 'rot1': 26, 'rot0': 27, 'rot3': 55, 'rot2': 43, 'state': 'normal', 'yaw': 92.17, 'datetime': '2018-10-09 20:03:04.394859', 'mgs': 0, 'volt': 0.8496, 'depth': 0.775, 'time': 26, 'pitch': 2.73, 'roll': 0.63, 'pres': 174}
{'lipoC2': 7.33, 'lipoC3S1': 3.85, 'temp': 26.88, 'lipoC3S3': 11.64, 'lipoC3S2': 7.71, 'rot1': 26, 'rot0': 27, 'rot3': 55, 'rot2': 43, 'state': 'normal', 'yaw': 89.09, 'datetime': '2018-10-09 20:03:04.410881', 'mgs': 0, 'volt': 0.8496, 'depth': 0.775, 'time': 26, 'pitch': 3.68, 'roll': 0.87, 'pres': 174}
{'lipoC2': 7.33, 'lipoC3S1': 3.85, 'temp': 26.88, 'lipoC3S3': 11.64, 'lipoC3S2': 7.71, 'rot1': 26, 'rot0': 27, 'rot3': 55, 'rot2': 43, 'state': 'normal', 'yaw': 84.18, 'datetime': '2018-10-09 20:03:04.426850', 'mgs': 0, 'volt': 0.8496, 'depth': 0.775, 'time': 27, 'pitch': 3.92, 'roll': 1.05, 'pres': 174}
{'lipoC2': 7.33, 'lipoC3S1': 3.85, 'temp': 27.0, 'lipoC3S3': 11.64, 'lipoC3S2': 7.71, 'rot1': 26, 'rot0': 27, 'rot3': 55, 'rot2': 43, 'state': 'normal', 'yaw': 77.43, 'datetime': '2018-10-09 20:03:04.442878', 'mgs': 0, 'volt': 0.8545, 'depth': 0.851, 'time': 27, 'pitch': 3.73, 'roll': 0.84, 'pres': 175}
{'lipoC2': 7.33, 'lipoC3S1': 3.85, 'temp': 27.0, 'lipoC3S3': 11.64, 'lipoC3S2': 7.71, 'rot1': 26, 'rot0': 27, 'rot3': 55, 'rot2': 43, 'state': 'normal', 'yaw': 70.69, 'datetime': '2018-10-09 20:03:04.458870', 'mgs': 0, 'volt': 0.8545, 'depth': 0.851, 'time': 27, 'pitch': 3.4, 'roll': 0.15, 'pres': 175}
{'lipoC2': 7.33, 'lipoC3S1': 3.85, 'temp': 26.94, 'lipoC3S3': 11.64, 'lipoC3S2': 7.71, 'rot1': 26, 'rot0': 27, 'rot3': 55, 'rot2': 43, 'state': 'normal', 'yaw': 63.42, 'datetime': '2018-10-09 20:03:04.474874', 'mgs': 0, 'volt': 0.8545, 'depth': 0.851, 'time': 27, 'pitch': 3.04, 'roll': -1.27, 'pres': 175}
{'lipoC2': 7.33, 'lipoC3S1': 3.85, 'temp': 26.94, 'lipoC3S3': 11.64, 'lipoC3S2': 7.71, 'rot1': 26, 'rot0': 27, 'rot3': 55, 'rot2': 43, 'state': 'normal', 'yaw': 55.84, 'datetime': '2018-10-09 20:03:04.490803', 'mgs': 0, 'volt': 0.8545, 'depth': 0.851, 'time': 27, 'pitch': 2.81, 'roll': -3.29, 'pres': 175}
{'lipoC2': 7.33, 'lipoC3S1': 3.85, 'temp': 26.94, 'lipoC3S3': 11.64, 'lipoC3S2': 7.71, 'rot1': 26, 'rot0': 27, 'rot3': 55, 'rot2': 43, 'state': 'normal', 'yaw': 49.45, 'datetime': '2018-10-09 20:03:04.506766', 'mgs': 0, 'volt': 0.8545, 'depth': 0.851, 'time': 27, 'pitch': 1.95, 'roll': -4.4, 'pres': 175}
{'lipoC2': 7.33, 'lipoC3S1': 3.85, 'temp': 26.94, 'lipoC3S3': 11.64, 'lipoC3S2': 7.71, 'rot1': 26, 'rot0': 27, 'rot3': 55, 'rot2': 43, 'state': 'normal', 'yaw': 43.37, 'datetime': '2018-10-09 20:03:04.522864', 'mgs': 0, 'volt': 0.8545, 'depth': 0.851, 'time': 27, 'pitch': 0.43, 'roll': -4.79, 'pres': 175}
{'lipoC2': 7.33, 'lipoC3S1': 3.85, 'temp': 26.94, 'lipoC3S3': 11.64, 'lipoC3S2': 7.71, 'rot1': 26, 'rot0': 27, 'rot3': 55, 'rot2': 43, 'state': 'normal', 'yaw': 36.84, 'datetime': '2018-10-09 20:03:04.538908', 'mgs': 0, 'volt': 0.8545, 'depth': 0.851, 'time': 27, 'pitch': -1.16, 'roll': -4.54, 'pres': 175}
{'lipoC2': 7.33, 'lipoC3S1': 3.85, 'temp': 26.94, 'lipoC3S3': 11.64, 'lipoC3S2': 7.71, 'rot1': 26, 'rot0': 27, 'rot3': 55, 'rot2': 43, 'state': 'normal', 'yaw': 30.97, 'datetime': '2018-10-09 20:03:04.554904', 'mgs': 0, 'volt': 0.8594, 'depth': 0.928, 'time': 27, 'pitch': -2.54, 'roll': -3.79, 'pres': 176}
{'lipoC2': 7.33, 'lipoC3S1': 3.85, 'temp': 26.94, 'lipoC3S3': 11.64, 'lipoC3S2': 7.71, 'rot1': 26, 'rot0': 27, 'rot3': 55, 'rot2': 43, 'state': 'normal', 'yaw': 24.5, 'datetime': '2018-10-09 20:03:04.570896', 'mgs': 0, 'volt': 0.8594, 'depth': 0.928, 'time': 27, 'pitch': -3.94, 'roll': -2.57, 'pres': 176}
{'lipoC2': 7.33, 'lipoC3S1': 3.85, 'temp': 26.94, 'lipoC3S3': 11.64, 'lipoC3S2': 7.71, 'rot1': 26, 'rot0': 27, 'rot3': 55, 'rot2': 43, 'state': 'normal', 'yaw': 18.65, 'datetime': '2018-10-09 20:03:04.591482', 'mgs': 0, 'volt': 0.8594, 'depth': 0.928, 'time': 28, 'pitch': -5.03, 'roll': -1.43, 'pres': 176}
{'lipoC2': 7.33, 'lipoC3S1': 3.85, 'temp': 26.94, 'lipoC3S3': 11.64, 'lipoC3S2': 7.71, 'rot1': 26, 'rot0': 27, 'rot3': 55, 'rot2': 43, 'state': 'normal', 'yaw': 13.06, 'datetime': '2018-10-09 20:03:04.601571', 'mgs': 0, 'volt': 0.8643, 'depth': 1.004, 'time': 28, 'pitch': -5.89, 'roll': -0.62, 'pres': 177}
{'lipoC2': 7.33, 'lipoC3S1': 3.85, 'temp': 26.94, 'lipoC3S3': 11.64, 'lipoC3S2': 7.71, 'rot1': 26, 'rot0': 27, 'rot3': 55, 'rot2': 43, 'state': 'normal', 'yaw': 7.43, 'datetime': '2018-10-09 20:03:04.617499', 'mgs': 0, 'volt': 0.8643, 'depth': 1.004, 'time': 28, 'pitch': -6.35, 'roll': -0.31, 'pres': 177}
{'lipoC2': 7.33, 'lipoC3S1': 3.85, 'temp': 26.94, 'lipoC3S3': 11.64, 'lipoC3S2': 7.71, 'rot1': 26, 'rot0': 27, 'rot3': 55, 'rot2': 43, 'state': 'normal', 'yaw': 3.16, 'datetime': '2018-10-09 20:03:04.633445', 'mgs': 0, 'volt': 0.8691, 'depth': 1.08, 'time': 28, 'pitch': -6.37, 'roll': -0.89, 'pres': 178}
{'lipoC2': 7.33, 'lipoC3S1': 3.85, 'temp': 26.94, 'lipoC3S3': 11.64, 'lipoC3S2': 7.71, 'rot1': 26, 'rot0': 27, 'rot3': 55, 'rot2': 43, 'state': 'normal', 'yaw': -0.64, 'datetime': '2018-10-09 20:03:04.643615', 'mgs': 0, 'volt': 0.8643, 'depth': 1.004, 'time': 28, 'pitch': -6.18, 'roll': -2.28, 'pres': 177}
{'lipoC2': 7.33, 'lipoC3S1': 3.85, 'temp': 27.0, 'lipoC3S3': 11.64, 'lipoC3S2': 7.71, 'rot1': 26, 'rot0': 27, 'rot3': 55, 'rot2': 43, 'state': 'normal', 'yaw': -2.51, 'datetime': '2018-10-09 20:03:04.659548', 'mgs': 0, 'volt': 0.8643, 'depth': 1.004, 'time': 28, 'pitch': -5.93, 'roll': -4.4, 'pres': 177}
{'lipoC2': 7.33, 'lipoC3S1': 3.85, 'temp': 27.0, 'lipoC3S3': 11.64, 'lipoC3S2': 7.71, 'rot1': 26, 'rot0': 27, 'rot3': 55, 'rot2': 43, 'state': 'normal', 'yaw': -2.93, 'datetime': '2018-10-09 20:03:04.675506', 'mgs': 0, 'volt': 0.8643, 'depth': 1.004, 'time': 28, 'pitch': -5.44, 'roll': -6.91, 'pres': 177}
{'lipoC2': 7.33, 'lipoC3S1': 3.85, 'temp': 26.94, 'lipoC3S3': 11.64, 'lipoC3S2': 7.71, 'rot1': 26, 'rot0': 27, 'rot3': 55, 'rot2': 43, 'state': 'normal', 'yaw': -2.73, 'datetime': '2018-10-09 20:03:04.685658', 'mgs': 0, 'volt': 0.8594, 'depth': 0.928, 'time': 28, 'pitch': -4.78, 'roll': -9.06, 'pres': 176}
{'lipoC2': 7.33, 'lipoC3S1': 3.85, 'temp': 26.94, 'lipoC3S3': 11.64, 'lipoC3S2': 7.71, 'rot1': 26, 'rot0': 27, 'rot3': 55, 'rot2': 43, 'state': 'normal', 'yaw': -2.6, 'datetime': '2018-10-09 20:03:04.701611', 'mgs': 0, 'volt': 0.8545, 'depth': 0.851, 'time': 28, 'pitch': -4.42, 'roll': -9.76, 'pres': 175}
{'lipoC2': 7.33, 'lipoC3S1': 3.85, 'temp': 26.94, 'lipoC3S3': 11.64, 'lipoC3S2': 7.71, 'rot1': 26, 'rot0': 27, 'rot3': 55, 'rot2': 43, 'state': 'normal', 'yaw': -2.28, 'datetime': '2018-10-09 20:03:04.717632', 'mgs': 0, 'volt': 0.8545, 'depth': 0.851, 'time': 29, 'pitch': -4.3, 'roll': -9.4, 'pres': 175}
{'lipoC2': 7.33, 'lipoC3S1': 3.85, 'temp': 26.94, 'lipoC3S3': 11.64, 'lipoC3S2': 7.71, 'rot1': 26, 'rot0': 27, 'rot3': 55, 'rot2': 43, 'state': 'normal', 'yaw': -1.71, 'datetime': '2018-10-09 20:03:04.727761', 'mgs': 0, 'volt': 0.8496, 'depth': 0.775, 'time': 29, 'pitch': -4.21, 'roll': -8.21, 'pres': 174}
{'lipoC2': 7.33, 'lipoC3S1': 3.85, 'temp': 26.94, 'lipoC3S3': 11.64, 'lipoC3S2': 7.71, 'rot1': 26, 'rot0': 27, 'rot3': 55, 'rot2': 43, 'state': 'normal', 'yaw': -0.77, 'datetime': '2018-10-09 20:03:04.743772', 'mgs': 0, 'volt': 0.8496, 'depth': 0.775, 'time': 29, 'pitch': -3.95, 'roll': -6.88, 'pres': 174}
{'lipoC2': 7.33, 'lipoC3S1': 3.85, 'temp': 27.0, 'lipoC3S3': 11.64, 'lipoC3S2': 7.71, 'rot1': 26, 'rot0': 27, 'rot3': 55, 'rot2': 43, 'state': 'normal', 'yaw': 0.22, 'datetime': '2018-10-09 20:03:04.759797', 'mgs': 0, 'volt': 0.8496, 'depth': 0.775, 'time': 29, 'pitch': -3.51, 'roll': -5.46, 'pres': 174}
{'lipoC2': 7.33, 'lipoC3S1': 3.85, 'temp': 27.0, 'lipoC3S3': 11.64, 'lipoC3S2': 7.71, 'rot1': 26, 'rot0': 27, 'rot3': 55, 'rot2': 43, 'state': 'normal', 'yaw': 0.78, 'datetime': '2018-10-09 20:03:04.770006', 'mgs': 0, 'volt': 0.8496, 'depth': 0.775, 'time': 29, 'pitch': -2.94, 'roll': -3.81, 'pres': 174}
{'lipoC2': 7.33, 'lipoC3S1': 3.85, 'temp': 26.94, 'lipoC3S3': 11.64, 'lipoC3S2': 7.71, 'rot1': 26, 'rot0': 27, 'rot3': 55, 'rot2': 43, 'state': 'normal', 'yaw': 0.72, 'datetime': '2018-10-09 20:03:04.786063', 'mgs': 0, 'volt': 0.8496, 'depth': 0.775, 'time': 29, 'pitch': -2.33, 'roll': -2.37, 'pres': 174}
{'lipoC2': 7.33, 'lipoC3S1': 3.85, 'temp': 26.94, 'lipoC3S3': 11.64, 'lipoC3S2': 7.71, 'rot1': 26, 'rot0': 27, 'rot3': 55, 'rot2': 43, 'state': 'normal', 'yaw': 0.58, 'datetime': '2018-10-09 20:03:04.802088', 'mgs': 0, 'volt': 0.8496, 'depth': 0.775, 'time': 29, 'pitch': -1.56, 'roll': -1.37, 'pres': 174}
{'lipoC2': 7.33, 'lipoC3S1': 3.85, 'temp': 26.94, 'lipoC3S3': 11.64, 'lipoC3S2': 7.71, 'rot1': 26, 'rot0': 27, 'rot3': 55, 'rot2': 43, 'state': 'normal', 'yaw': 0.84, 'datetime': '2018-10-09 20:03:04.812349', 'mgs': 0, 'volt': 0.8447, 'depth': 0.699, 'time': 29, 'pitch': -0.86, 'roll': -1.27, 'pres': 173}
{'lipoC2': 7.33, 'lipoC3S1': 3.85, 'temp': 27.0, 'lipoC3S3': 11.64, 'lipoC3S2': 7.71, 'rot1': 26, 'rot0': 27, 'rot3': 55, 'rot2': 43, 'state': 'normal', 'yaw': 1.13, 'datetime': '2018-10-09 20:03:04.828440', 'mgs': 0, 'volt': 0.8447, 'depth': 0.699, 'time': 29, 'pitch': -0.42, 'roll': -1.75, 'pres': 173}
{'lipoC2': 7.33, 'lipoC3S1': 3.85, 'temp': 27.0, 'lipoC3S3': 11.64, 'lipoC3S2': 7.71, 'rot1': 26, 'rot0': 27, 'rot3': 55, 'rot2': 43, 'state': 'normal', 'yaw': 1.07, 'datetime': '2018-10-09 20:03:04.844472', 'mgs': 0, 'volt': 0.8447, 'depth': 0.699, 'time': 29, 'pitch': -0.07, 'roll': -2.37, 'pres': 173}
{'lipoC2': 7.33, 'lipoC3S1': 3.85, 'temp': 26.94, 'lipoC3S3': 11.64, 'lipoC3S2': 7.71, 'rot1': 26, 'rot0': 27, 'rot3': 55, 'rot2': 43, 'state': 'normal', 'yaw': 0.82, 'datetime': '2018-10-09 20:03:04.854642', 'mgs': 0, 'volt': 0.8398, 'depth': 0.623, 'time': 30, 'pitch': 0.12, 'roll': -2.86, 'pres': 172}
{'lipoC2': 7.33, 'lipoC3S1': 3.85, 'temp': 26.94, 'lipoC3S3': 11.64, 'lipoC3S2': 7.71, 'rot1': 26, 'rot0': 27, 'rot3': 55, 'rot2': 43, 'state': 'normal', 'yaw': 0.64, 'datetime': '2018-10-09 20:03:04.870663', 'mgs': 0, 'volt': 0.8398, 'depth': 0.623, 'time': 30, 'pitch': 0.27, 'roll': -3.3, 'pres': 172}
{'lipoC2': 7.33, 'lipoC3S1': 3.85, 'temp': 26.94, 'lipoC3S3': 11.64, 'lipoC3S2': 7.71, 'rot1': 26, 'rot0': 27, 'rot3': 55, 'rot2': 43, 'state': 'normal', 'yaw': 0.75, 'datetime': '2018-10-09 20:03:04.886639', 'mgs': 0, 'volt': 0.835, 'depth': 0.546, 'time': 30, 'pitch': 0.63, 'roll': -3.77, 'pres': 171}
{'lipoC2': 7.33, 'lipoC3S1': 3.85, 'temp': 26.94, 'lipoC3S3': 11.64, 'lipoC3S2': 7.71, 'rot1': 26, 'rot0': 27, 'rot3': 55, 'rot2': 43, 'state': 'normal', 'yaw': 1.09, 'datetime': '2018-10-09 20:03:04.896835', 'mgs': 0, 'volt': 0.8301, 'depth': 0.47, 'time': 30, 'pitch': 1.06, 'roll': -4.07, 'pres': 170}
{'lipoC2': 7.33, 'lipoC3S1': 3.85, 'temp': 26.94, 'lipoC3S3': 11.64, 'lipoC3S2': 7.71, 'rot1': 26, 'rot0': 27, 'rot3': 55, 'rot2': 43, 'state': 'normal', 'yaw': 1.33, 'datetime': '2018-10-09 20:03:04.912993', 'mgs': 0, 'volt': 0.8301, 'depth': 0.47, 'time': 30, 'pitch': 1.37, 'roll': -4.08, 'pres': 170}
{'lipoC2': 7.33, 'lipoC3S1': 3.85, 'temp': 27.0, 'lipoC3S3': 11.64, 'lipoC3S2': 7.71, 'rot1': 26, 'rot0': 27, 'rot3': 55, 'rot2': 43, 'state': 'normal', 'yaw': 1.42, 'datetime': '2018-10-09 20:03:04.929033', 'mgs': 0, 'volt': 0.8301, 'depth': 0.47, 'time': 30, 'pitch': 1.7, 'roll': -3.81, 'pres': 170}
{'lipoC2': 7.33, 'lipoC3S1': 3.85, 'temp': 27.0, 'lipoC3S3': 11.64, 'lipoC3S2': 7.71, 'rot1': 26, 'rot0': 27, 'rot3': 55, 'rot2': 43, 'state': 'normal', 'yaw': 1.76, 'datetime': '2018-10-09 20:03:04.939273', 'mgs': 0, 'volt': 0.8252, 'depth': 0.394, 'time': 30, 'pitch': 2.03, 'roll': -3.58, 'pres': 169}
{'lipoC2': 7.33, 'lipoC3S1': 3.85, 'temp': 27.0, 'lipoC3S3': 11.64, 'lipoC3S2': 7.71, 'rot1': 26, 'rot0': 27, 'rot3': 55, 'rot2': 43, 'state': 'normal', 'yaw': 2.31, 'datetime': '2018-10-09 20:03:04.955323', 'mgs': 0, 'volt': 0.8252, 'depth': 0.394, 'time': 30, 'pitch': 2.28, 'roll': -3.3, 'pres': 169}
{'lipoC2': 7.33, 'lipoC3S1': 3.85, 'temp': 27.0, 'lipoC3S3': 11.64, 'lipoC3S2': 7.71, 'rot1': 26, 'rot0': 27, 'rot3': 55, 'rot2': 43, 'state': 'normal', 'yaw': 2.51, 'datetime': '2018-10-09 20:03:04.971720', 'mgs': 0, 'volt': 0.8252, 'depth': 0.394, 'time': 30, 'pitch': 2.39, 'roll': -2.84, 'pres': 169}
{'lipoC2': 7.33, 'lipoC3S1': 3.85, 'temp': 27.0, 'lipoC3S3': 11.64, 'lipoC3S2': 7.71, 'rot1': 26, 'rot0': 27, 'rot3': 55, 'rot2': 43, 'state': 'normal', 'yaw': 2.51, 'datetime': '2018-10-09 20:03:04.981990', 'mgs': 0, 'volt': 0.8252, 'depth': 0.394, 'time': 30, 'pitch': 2.39, 'roll': -2.31, 'pres': 169}
{'lipoC2': 7.33, 'lipoC3S1': 3.85, 'temp': 27.0, 'lipoC3S3': 11.64, 'lipoC3S2': 7.71, 'rot1': 26, 'rot0': 27, 'rot3': 55, 'rot2': 43, 'state': 'normal', 'yaw': 2.81, 'datetime': '2018-10-09 20:03:04.997977', 'mgs': 0, 'volt': 0.8252, 'depth': 0.394, 'time': 31, 'pitch': 2.43, 'roll': -1.95, 'pres': 169}
{'lipoC2': 7.33, 'lipoC3S1': 3.85, 'temp': 27.0, 'lipoC3S3': 11.64, 'lipoC3S2': 7.71, 'rot1': 26, 'rot0': 27, 'rot3': 55, 'rot2': 43, 'state': 'normal', 'yaw': 3.22, 'datetime': '2018-10-09 20:03:05.013911', 'mgs': 0, 'volt': 0.8252, 'depth': 0.394, 'time': 31, 'pitch': 2.52, 'roll': -1.87, 'pres': 169}
{'lipoC2': 7.33, 'lipoC3S1': 3.85, 'temp': 27.0, 'lipoC3S3': 11.64, 'lipoC3S2': 7.71, 'rot1': 26, 'rot0': 27, 'rot3': 55, 'rot2': 43, 'state': 'normal', 'yaw': 3.36, 'datetime': '2018-10-09 20:03:05.024044', 'mgs': 0, 'volt': 0.8252, 'depth': 0.394, 'time': 31, 'pitch': 2.53, 'roll': -1.84, 'pres': 169}
{'lipoC2': 7.33, 'lipoC3S1': 3.85, 'temp': 27.0, 'lipoC3S3': 11.64, 'lipoC3S2': 7.71, 'rot1': 26, 'rot0': 27, 'rot3': 55, 'rot2': 43, 'state': 'normal', 'yaw': 3.32, 'datetime': '2018-10-09 20:03:05.039987', 'mgs': 0, 'volt': 0.8252, 'depth': 0.394, 'time': 31, 'pitch': 2.52, 'roll': -1.9, 'pres': 169}
{'lipoC2': 7.33, 'lipoC3S1': 3.85, 'temp': 27.0, 'lipoC3S3': 11.64, 'lipoC3S2': 7.71, 'rot1': 26, 'rot0': 27, 'rot3': 55, 'rot2': 43, 'state': 'normal', 'yaw': 3.37, 'datetime': '2018-10-09 20:03:05.056189', 'mgs': 0, 'volt': 0.8252, 'depth': 0.394, 'time': 31, 'pitch': 2.53, 'roll': -2.2, 'pres': 169}
{'lipoC2': 7.33, 'lipoC3S1': 3.85, 'temp': 27.0, 'lipoC3S3': 11.64, 'lipoC3S2': 7.71, 'rot1': 26, 'rot0': 27, 'rot3': 55, 'rot2': 43, 'state': 'normal', 'yaw': 3.46, 'datetime': '2018-10-09 20:03:05.066397', 'mgs': 0, 'volt': 0.8252, 'depth': 0.394, 'time': 31, 'pitch': 2.53, 'roll': -2.57, 'pres': 169}
{'lipoC2': 7.33, 'lipoC3S1': 3.85, 'temp': 27.0, 'lipoC3S3': 11.64, 'lipoC3S2': 7.71, 'rot1': 26, 'rot0': 27, 'rot3': 55, 'rot2': 43, 'state': 'normal', 'yaw': 3.39, 'datetime': '2018-10-09 20:03:05.082407', 'mgs': 0, 'volt': 0.8252, 'depth': 0.394, 'time': 31, 'pitch': 2.53, 'roll': -2.77, 'pres': 169}
{'lipoC2': 7.33, 'lipoC3S1': 3.85, 'temp': 27.0, 'lipoC3S3': 11.64, 'lipoC3S2': 7.71, 'rot1': 26, 'rot0': 27, 'rot3': 55, 'rot2': 43, 'state': 'normal', 'yaw': 3.19, 'datetime': '2018-10-09 20:03:05.098528', 'mgs': 0, 'volt': 0.8252, 'depth': 0.394, 'time': 31, 'pitch': 2.42, 'roll': -2.81, 'pres': 169}
{'lipoC2': 7.33, 'lipoC3S1': 3.85, 'temp': 27.0, 'lipoC3S3': 11.64, 'lipoC3S2': 7.71, 'rot1': 0, 'rot0': 0, 'rot3': 0, 'rot2': 0, 'state': 'normal', 'yaw': 0.0, 'datetime': '2018-10-09 20:03:05.108559', 'mgs': 0, 'volt': 0.8398, 'depth': 0.623, 'time': 1, 'pitch': 2.76, 'roll': -3.12, 'pres': 172}
{'lipoC2': 7.33, 'lipoC3S1': 3.85, 'temp': 27.0, 'lipoC3S3': 11.64, 'lipoC3S2': 7.71, 'rot1': 0, 'rot0': 0, 'rot3': 0, 'rot2': 0, 'state': 'normal', 'yaw': 0.19, 'datetime': '2018-10-09 20:03:05.124306', 'mgs': 0, 'volt': 0.8398, 'depth': 0.623, 'time': 1, 'pitch': 3.06, 'roll': -3.52, 'pres': 172}
{'lipoC2': 7.33, 'lipoC3S1': 3.85, 'temp': 27.06, 'lipoC3S3': 11.65, 'lipoC3S2': 7.71, 'rot1': 0, 'rot0': 0, 'rot3': 0, 'rot2': 0, 'state': 'normal', 'yaw': 0.39, 'datetime': '2018-10-09 20:03:05.140041', 'mgs': 0, 'volt': 0.8398, 'depth': 0.623, 'time': 1, 'pitch': 3.17, 'roll': -3.81, 'pres': 172}
{'lipoC2': 7.33, 'lipoC3S1': 3.85, 'temp': 27.06, 'lipoC3S3': 11.64, 'lipoC3S2': 7.71, 'rot1': 0, 'rot0': 0, 'rot3': 0, 'rot2': 0, 'state': 'normal', 'yaw': 0.5, 'datetime': '2018-10-09 20:03:05.150013', 'mgs': 0, 'volt': 0.8447, 'depth': 0.699, 'time': 1, 'pitch': 3.14, 'roll': -3.97, 'pres': 173}
{'lipoC2': 7.33, 'lipoC3S1': 3.85, 'temp': 27.06, 'lipoC3S3': 11.64, 'lipoC3S2': 7.71, 'rot1': 0, 'rot0': 0, 'rot3': 0, 'rot2': 0, 'state': 'normal', 'yaw': 0.58, 'datetime': '2018-10-09 20:03:05.165835', 'mgs': 0, 'volt': 0.8447, 'depth': 0.699, 'time': 1, 'pitch': 3.02, 'roll': -3.97, 'pres': 173}
{'lipoC2': 7.33, 'lipoC3S1': 3.85, 'temp': 27.06, 'lipoC3S3': 11.65, 'lipoC3S2': 7.71, 'rot1': 0, 'rot0': 0, 'rot3': 0, 'rot2': 0, 'state': 'normal', 'yaw': 0.67, 'datetime': '2018-10-09 20:03:05.181587', 'mgs': 0, 'volt': 0.8496, 'depth': 0.775, 'time': 1, 'pitch': 2.94, 'roll': -3.89, 'pres': 174}
{'lipoC2': 7.33, 'lipoC3S1': 3.85, 'temp': 27.06, 'lipoC3S3': 11.64, 'lipoC3S2': 7.71, 'rot1': 0, 'rot0': 0, 'rot3': 0, 'rot2': 0, 'state': 'normal', 'yaw': 0.79, 'datetime': '2018-10-09 20:03:05.191583', 'mgs': 0, 'volt': 0.8496, 'depth': 0.775, 'time': 1, 'pitch': 2.87, 'roll': -3.75, 'pres': 174}
{'lipoC2': 7.33, 'lipoC3S1': 3.85, 'temp': 27.06, 'lipoC3S3': 11.64, 'lipoC3S2': 7.71, 'rot1': 0, 'rot0': 0, 'rot3': 0, 'rot2': 0, 'state': 'normal', 'yaw': 0.9, 'datetime': '2018-10-09 20:03:05.207368', 'mgs': 0, 'volt': 0.8496, 'depth': 0.775, 'time': 1, 'pitch': 2.72, 'roll': -3.58, 'pres': 174}
{'lipoC2': 7.33, 'lipoC3S1': 3.85, 'temp': 27.06, 'lipoC3S3': 11.64, 'lipoC3S2': 7.71, 'rot1': 0, 'rot0': 0, 'rot3': 0, 'rot2': 0, 'state': 'normal', 'yaw': 0.9, 'datetime': '2018-10-09 20:03:05.223135', 'mgs': 0, 'volt': 0.8496, 'depth': 0.775, 'time': 2, 'pitch': 2.37, 'roll': -3.38, 'pres': 174}
{'lipoC2': 7.33, 'lipoC3S1': 3.85, 'temp': 27.0, 'lipoC3S3': 11.64, 'lipoC3S2': 7.71, 'rot1': 0, 'rot0': 0, 'rot3': 0, 'rot2': 0, 'state': 'normal', 'yaw': 0.85, 'datetime': '2018-10-09 20:03:05.233085', 'mgs': 0, 'volt': 0.8496, 'depth': 0.775, 'time': 2, 'pitch': 1.89, 'roll': -3.17, 'pres': 174}
{'lipoC2': 7.33, 'lipoC3S1': 3.85, 'temp': 27.0, 'lipoC3S3': 11.64, 'lipoC3S2': 7.71, 'rot1': 0, 'rot0': 0, 'rot3': 0, 'rot2': 0, 'state': 'normal', 'yaw': 0.95, 'datetime': '2018-10-09 20:03:05.248859', 'mgs': 0, 'volt': 0.8496, 'depth': 0.775, 'time': 2, 'pitch': 1.4, 'roll': -3.12, 'pres': 174}
{'lipoC2': 7.33, 'lipoC3S1': 3.85, 'temp': 27.0, 'lipoC3S3': 11.64, 'lipoC3S2': 7.71, 'rot1': 0, 'rot0': 0, 'rot3': 0, 'rot2': 0, 'state': 'normal', 'yaw': 1.22, 'datetime': '2018-10-09 20:03:05.264611', 'mgs': 0, 'volt': 0.8545, 'depth': 0.851, 'time': 2, 'pitch': 1.03, 'roll': -3.13, 'pres': 175}
{'lipoC2': 7.33, 'lipoC3S1': 3.85, 'temp': 27.06, 'lipoC3S3': 11.64, 'lipoC3S2': 7.71, 'rot1': 0, 'rot0': 0, 'rot3': 0, 'rot2': 0, 'state': 'normal', 'yaw': 1.39, 'datetime': '2018-10-09 20:03:05.274582', 'mgs': 0, 'volt': 0.8545, 'depth': 0.851, 'time': 2, 'pitch': 0.86, 'roll': -3.12, 'pres': 175}
{'lipoC2': 7.33, 'lipoC3S1': 3.85, 'temp': 27.06, 'lipoC3S3': 11.64, 'lipoC3S2': 7.71, 'rot1': 0, 'rot0': 0, 'rot3': 0, 'rot2': 0, 'state': 'normal', 'yaw': 1.39, 'datetime': '2018-10-09 20:03:05.290458', 'mgs': 0, 'volt': 0.8545, 'depth': 0.851, 'time': 2, 'pitch': 0.76, 'roll': -3.06, 'pres': 175}
{'lipoC2': 7.33, 'lipoC3S1': 3.85, 'temp': 27.0, 'lipoC3S3': 11.65, 'lipoC3S2': 7.71, 'rot1': 0, 'rot0': 0, 'rot3': 0, 'rot2': 0, 'state': 'normal', 'yaw': 1.32, 'datetime': '2018-10-09 20:03:05.306219', 'mgs': 0, 'volt': 0.8545, 'depth': 0.851, 'time': 2, 'pitch': 0.65, 'roll': -2.98, 'pres': 175}
{'lipoC2': 7.33, 'lipoC3S1': 3.85, 'temp': 27.0, 'lipoC3S3': 11.64, 'lipoC3S2': 7.71, 'rot1': 0, 'rot0': 0, 'rot3': 0, 'rot2': 0, 'state': 'normal', 'yaw': 1.32, 'datetime': '2018-10-09 20:03:05.316198', 'mgs': 0, 'volt': 0.8545, 'depth': 0.851, 'time': 2, 'pitch': 0.63, 'roll': -2.98, 'pres': 175}
{'lipoC2': 7.33, 'lipoC3S1': 3.85, 'temp': 27.0, 'lipoC3S3': 11.64, 'lipoC3S2': 7.71, 'rot1': 0, 'rot0': 0, 'rot3': 0, 'rot2': 0, 'state': 'normal', 'yaw': 1.32, 'datetime': '2018-10-09 20:03:05.331988', 'mgs': 0, 'volt': 0.8545, 'depth': 0.851, 'time': 2, 'pitch': 0.63, 'roll': -2.98, 'pres': 175}
{'lipoC2': 7.32, 'lipoC3S1': 3.77, 'temp': 27.0, 'lipoC3S3': 11.46, 'lipoC3S2': 7.56, 'rot1': 0, 'rot0': 0, 'rot3': 0, 'rot2': 0, 'state': 'normal', 'yaw': 1.18, 'datetime': '2018-10-09 20:03:05.347759', 'mgs': 0, 'volt': 0.8789, 'depth': 1.233, 'time': 3, 'pitch': 0.71, 'roll': -2.93, 'pres': 180}
{'lipoC2': 7.32, 'lipoC3S1': 3.83, 'temp': 27.0, 'lipoC3S3': 11.52, 'lipoC3S2': 7.61, 'rot1': 0, 'rot0': 0, 'rot3': 1, 'rot2': 1, 'state': 'normal', 'yaw': 0.96, 'datetime': '2018-10-09 20:03:05.357736', 'mgs': 0, 'volt': 0.8643, 'depth': 1.004, 'time': 3, 'pitch': 1.16, 'roll': -2.78, 'pres': 177}
{'lipoC2': 7.32, 'lipoC3S1': 3.83, 'temp': 26.94, 'lipoC3S3': 11.51, 'lipoC3S2': 7.66, 'rot1': 0, 'rot0': 0, 'rot3': 2, 'rot2': 2, 'state': 'normal', 'yaw': 0.69, 'datetime': '2018-10-09 20:03:05.373497', 'mgs': 0, 'volt': 0.8691, 'depth': 1.08, 'time': 3, 'pitch': 2.11, 'roll': -2.5, 'pres': 178}
{'lipoC2': 7.32, 'lipoC3S1': 3.83, 'temp': 26.94, 'lipoC3S3': 11.54, 'lipoC3S2': 7.62, 'rot1': 0, 'rot0': 0, 'rot3': 3, 'rot2': 2, 'state': 'normal', 'yaw': 0.34, 'datetime': '2018-10-09 20:03:05.389238', 'mgs': 0, 'volt': 0.8643, 'depth': 1.004, 'time': 3, 'pitch': 3.14, 'roll': -2.13, 'pres': 177}
{'lipoC2': 7.33, 'lipoC3S1': 3.8, 'temp': 27.06, 'lipoC3S3': 11.54, 'lipoC3S2': 7.62, 'rot1': 0, 'rot0': 0, 'rot3': 4, 'rot2': 3, 'state': 'normal', 'yaw': -0.02, 'datetime': '2018-10-09 20:03:05.399216', 'mgs': 0, 'volt': 0.8545, 'depth': 0.851, 'time': 3, 'pitch': 4.19, 'roll': -1.72, 'pres': 175}
{'lipoC2': 7.33, 'lipoC3S1': 3.8, 'temp': 27.06, 'lipoC3S3': 11.55, 'lipoC3S2': 7.63, 'rot1': 0, 'rot0': 0, 'rot3': 5, 'rot2': 4, 'state': 'normal', 'yaw': -0.39, 'datetime': '2018-10-09 20:03:05.414991', 'mgs': 0, 'volt': 0.8545, 'depth': 0.851, 'time': 3, 'pitch': 5.15, 'roll': -1.36, 'pres': 175}
{'lipoC2': 7.33, 'lipoC3S1': 3.81, 'temp': 27.0, 'lipoC3S3': 11.58, 'lipoC3S2': 7.64, 'rot1': 0, 'rot0': 0, 'rot3': 6, 'rot2': 5, 'state': 'normal', 'yaw': -0.84, 'datetime': '2018-10-09 20:03:05.430770', 'mgs': 0, 'volt': 0.8691, 'depth': 1.08, 'time': 3, 'pitch': 6.08, 'roll': -1.07, 'pres': 178}
{'lipoC2': 7.32, 'lipoC3S1': 3.81, 'temp': 27.0, 'lipoC3S3': 11.58, 'lipoC3S2': 7.66, 'rot1': 0, 'rot0': 0, 'rot3': 7, 'rot2': 6, 'state': 'normal', 'yaw': -1.26, 'datetime': '2018-10-09 20:03:05.440754', 'mgs': 0, 'volt': 0.8691, 'depth': 1.08, 'time': 3, 'pitch': 6.88, 'roll': -0.93, 'pres': 178}
{'lipoC2': 7.32, 'lipoC3S1': 3.83, 'temp': 27.0, 'lipoC3S3': 11.52, 'lipoC3S2': 7.66, 'rot1': 0, 'rot0': 0, 'rot3': 8, 'rot2': 6, 'state': 'normal', 'yaw': -1.73, 'datetime': '2018-10-09 20:03:05.456525', 'mgs': 0, 'volt': 0.8643, 'depth': 1.004, 'time': 3, 'pitch': 7.63, 'roll': -0.89, 'pres': 177}
{'lipoC2': 7.33, 'lipoC3S1': 3.83, 'temp': 27.0, 'lipoC3S3': 11.54, 'lipoC3S2': 7.62, 'rot1': 0, 'rot0': 0, 'rot3': 9, 'rot2': 7, 'state': 'normal', 'yaw': -2.27, 'datetime': '2018-10-09 20:03:05.472358', 'mgs': 0, 'volt': 0.8496, 'depth': 0.775, 'time': 3, 'pitch': 8.32, 'roll': -1.03, 'pres': 174}
{'lipoC2': 7.33, 'lipoC3S1': 3.81, 'temp': 27.0, 'lipoC3S3': 11.56, 'lipoC3S2': 7.63, 'rot1': 0, 'rot0': 0, 'rot3': 10, 'rot2': 8, 'state': 'normal', 'yaw': -2.66, 'datetime': '2018-10-09 20:03:05.482360', 'mgs': 0, 'volt': 0.8447, 'depth': 0.699, 'time': 4, 'pitch': 8.75, 'roll': -1.42, 'pres': 173}
{'lipoC2': 7.32, 'lipoC3S1': 3.83, 'temp': 27.0, 'lipoC3S3': 11.54, 'lipoC3S2': 7.62, 'rot1': 0, 'rot0': 0, 'rot3': 11, 'rot2': 9, 'state': 'normal', 'yaw': -2.98, 'datetime': '2018-10-09 20:03:05.498183', 'mgs': 0, 'volt': 0.8496, 'depth': 0.775, 'time': 4, 'pitch': 8.97, 'roll': -1.96, 'pres': 174}
{'lipoC2': 7.32, 'lipoC3S1': 3.83, 'temp': 27.0, 'lipoC3S3': 11.54, 'lipoC3S2': 7.62, 'rot1': 0, 'rot0': 0, 'rot3': 12, 'rot2': 10, 'state': 'normal', 'yaw': -3.22, 'datetime': '2018-10-09 20:03:05.514058', 'mgs': 0, 'volt': 0.8447, 'depth': 0.699, 'time': 4, 'pitch': 8.91, 'roll': -2.57, 'pres': 173}
{'lipoC2': 7.32, 'lipoC3S1': 3.84, 'temp': 27.0, 'lipoC3S3': 11.54, 'lipoC3S2': 7.66, 'rot1': 0, 'rot0': 0, 'rot3': 13, 'rot2': 11, 'state': 'normal', 'yaw': -3.37, 'datetime': '2018-10-09 20:03:05.524128', 'mgs': 0, 'volt': 0.8447, 'depth': 0.699, 'time': 4, 'pitch': 8.59, 'roll': -3.06, 'pres': 173}
{'lipoC2': 7.32, 'lipoC3S1': 3.84, 'temp': 27.0, 'lipoC3S3': 11.54, 'lipoC3S2': 7.67, 'rot1': 0, 'rot0': 0, 'rot3': 14, 'rot2': 12, 'state': 'normal', 'yaw': -3.51, 'datetime': '2018-10-09 20:03:05.539974', 'mgs': 0, 'volt': 0.8398, 'depth': 0.623, 'time': 4, 'pitch': 8.06, 'roll': -3.33, 'pres': 172}
{'lipoC2': 7.33, 'lipoC3S1': 3.83, 'temp': 27.0, 'lipoC3S3': 11.6, 'lipoC3S2': 7.67, 'rot1': 0, 'rot0': 0, 'rot3': 15, 'rot2': 12, 'state': 'normal', 'yaw': -3.66, 'datetime': '2018-10-09 20:03:05.555847', 'mgs': 0, 'volt': 0.8398, 'depth': 0.623, 'time': 4, 'pitch': 7.3, 'roll': -3.37, 'pres': 172}
{'lipoC2': 7.33, 'lipoC3S1': 3.81, 'temp': 26.94, 'lipoC3S3': 11.56, 'lipoC3S2': 7.63, 'rot1': 0, 'rot0': 0, 'rot3': 17, 'rot2': 13, 'state': 'normal', 'yaw': -3.79, 'datetime': '2018-10-09 20:03:05.565899', 'mgs': 0, 'volt': 0.8252, 'depth': 0.394, 'time': 4, 'pitch': 6.57, 'roll': -3.24, 'pres': 169}
{'lipoC2': 7.33, 'lipoC3S1': 3.83, 'temp': 26.94, 'lipoC3S3': 11.55, 'lipoC3S2': 7.62, 'rot1': 0, 'rot0': 0, 'rot3': 18, 'rot2': 14, 'state': 'normal', 'yaw': -3.91, 'datetime': '2018-10-09 20:03:05.581780', 'mgs': 0, 'volt': 0.8301, 'depth': 0.47, 'time': 4, 'pitch': 5.85, 'roll': -3.02, 'pres': 170}
{'lipoC2': 7.33, 'lipoC3S1': 3.83, 'temp': 27.0, 'lipoC3S3': 11.55, 'lipoC3S2': 7.67, 'rot1': 0, 'rot0': 0, 'rot3': 19, 'rot2': 15, 'state': 'normal', 'yaw': -4.04, 'datetime': '2018-10-09 20:03:05.597620', 'mgs': 0, 'volt': 0.8301, 'depth': 0.47, 'time': 4, 'pitch': 5.36, 'roll': -2.79, 'pres': 170}
{'lipoC2': 7.32, 'lipoC3S1': 3.82, 'temp': 27.0, 'lipoC3S3': 11.59, 'lipoC3S2': 7.67, 'rot1': 0, 'rot0': 0, 'rot3': 20, 'rot2': 16, 'state': 'normal', 'yaw': -4.18, 'datetime': '2018-10-09 20:03:05.607689', 'mgs': 0, 'volt': 0.8398, 'depth': 0.623, 'time': 4, 'pitch': 5.02, 'roll': -2.66, 'pres': 172}
{'lipoC2': 7.33, 'lipoC3S1': 3.81, 'temp': 26.94, 'lipoC3S3': 11.59, 'lipoC3S2': 7.65, 'rot1': 0, 'rot0': 0, 'rot3': 21, 'rot2': 17, 'state': 'normal', 'yaw': -4.31, 'datetime': '2018-10-09 20:03:05.623567', 'mgs': 0, 'volt': 0.8398, 'depth': 0.623, 'time': 5, 'pitch': 4.77, 'roll': -2.7, 'pres': 172}
{'lipoC2': 7.33, 'lipoC3S1': 3.81, 'temp': 26.94, 'lipoC3S3': 11.56, 'lipoC3S2': 7.64, 'rot1': 0, 'rot0': 0, 'rot3': 22, 'rot2': 18, 'state': 'normal', 'yaw': -4.44, 'datetime': '2018-10-09 20:03:05.639410', 'mgs': 0, 'volt': 0.8203, 'depth': 0.317, 'time': 5, 'pitch': 4.63, 'roll': -2.96, 'pres': 168}
{'lipoC2': 7.32, 'lipoC3S1': 3.83, 'temp': 26.94, 'lipoC3S3': 11.55, 'lipoC3S2': 7.63, 'rot1': 0, 'rot0': 0, 'rot3': 24, 'rot2': 19, 'state': 'normal', 'yaw': -4.58, 'datetime': '2018-10-09 20:03:05.649426', 'mgs': 0, 'volt': 0.8203, 'depth': 0.317, 'time': 5, 'pitch': 4.6, 'roll': -3.36, 'pres': 168}
{'lipoC2': 7.33, 'lipoC3S1': 3.84, 'temp': 27.0, 'lipoC3S3': 11.55, 'lipoC3S2': 7.67, 'rot1': 0, 'rot0': 0, 'rot3': 25, 'rot2': 20, 'state': 'normal', 'yaw': -4.79, 'datetime': '2018-10-09 20:03:05.665476', 'mgs': 0, 'volt': 0.8252, 'depth': 0.394, 'time': 5, 'pitch': 4.68, 'roll': -3.87, 'pres': 169}
{'lipoC2': 7.32, 'lipoC3S1': 3.82, 'temp': 27.0, 'lipoC3S3': 11.58, 'lipoC3S2': 7.68, 'rot1': 0, 'rot0': 0, 'rot3': 26, 'rot2': 21, 'state': 'normal', 'yaw': -4.97, 'datetime': '2018-10-09 20:03:05.681407', 'mgs': 0, 'volt': 0.8301, 'depth': 0.47, 'time': 5, 'pitch': 4.92, 'roll': -4.37, 'pres': 170}
{'lipoC2': 7.33, 'lipoC3S1': 3.8, 'temp': 27.0, 'lipoC3S3': 11.56, 'lipoC3S2': 7.63, 'rot1': 0, 'rot0': 0, 'rot3': 27, 'rot2': 22, 'state': 'normal', 'yaw': -5.16, 'datetime': '2018-10-09 20:03:05.691447', 'mgs': 0, 'volt': 0.8154, 'depth': 0.241, 'time': 5, 'pitch': 5.29, 'roll': -4.78, 'pres': 167}
{'lipoC2': 7.33, 'lipoC3S1': 3.83, 'temp': 27.0, 'lipoC3S3': 11.55, 'lipoC3S2': 7.63, 'rot1': 0, 'rot0': 0, 'rot3': 28, 'rot2': 23, 'state': 'normal', 'yaw': -5.42, 'datetime': '2018-10-09 20:03:05.707301', 'mgs': 0, 'volt': 0.8252, 'depth': 0.394, 'time': 5, 'pitch': 5.7, 'roll': -5.05, 'pres': 169}
{'lipoC2': 7.33, 'lipoC3S1': 3.81, 'temp': 27.0, 'lipoC3S3': 11.59, 'lipoC3S2': 7.65, 'rot1': 0, 'rot0': 0, 'rot3': 29, 'rot2': 24, 'state': 'normal', 'yaw': -5.65, 'datetime': '2018-10-09 20:03:05.723153', 'mgs': 0, 'volt': 0.835, 'depth': 0.546, 'time': 5, 'pitch': 6.09, 'roll': -5.08, 'pres': 171}
{'lipoC2': 7.32, 'lipoC3S1': 3.83, 'temp': 27.0, 'lipoC3S3': 11.55, 'lipoC3S2': 7.63, 'rot1': 0, 'rot0': 0, 'rot3': 30, 'rot2': 25, 'state': 'normal', 'yaw': -5.89, 'datetime': '2018-10-09 20:03:05.733243', 'mgs': 0, 'volt': 0.8252, 'depth': 0.394, 'time': 5, 'pitch': 6.44, 'roll': -4.95, 'pres': 169}
{'lipoC2': 7.32, 'lipoC3S1': 3.77, 'temp': 27.0, 'lipoC3S3': 11.52, 'lipoC3S2': 7.66, 'rot1': 0, 'rot0': 0, 'rot3': 32, 'rot2': 26, 'state': 'normal', 'yaw': -6.11, 'datetime': '2018-10-09 20:03:05.749053', 'mgs': 0, 'volt': 0.8301, 'depth': 0.47, 'time': 6, 'pitch': 6.68, 'roll': -4.81, 'pres': 170}
{'lipoC2': 7.32, 'lipoC3S1': 3.8, 'temp': 27.0, 'lipoC3S3': 11.54, 'lipoC3S2': 7.61, 'rot1': 0, 'rot0': 0, 'rot3': 33, 'rot2': 27, 'state': 'normal', 'yaw': -6.44, 'datetime': '2018-10-09 20:03:05.764895', 'mgs': 0, 'volt': 0.8203, 'depth': 0.317, 'time': 6, 'pitch': 6.77, 'roll': -4.67, 'pres': 168}
{'lipoC2': 7.3, 'lipoC3S1': 3.82, 'temp': 27.0, 'lipoC3S3': 11.51, 'lipoC3S2': 7.61, 'rot1': 1, 'rot0': 1, 'rot3': 34, 'rot2': 28, 'state': 'normal', 'yaw': -7.67, 'datetime': '2018-10-09 20:03:05.774976', 'mgs': 0, 'volt': 0.835, 'depth': 0.546, 'time': 6, 'pitch': 6.72, 'roll': -4.56, 'pres': 171}
{'lipoC2': 7.32, 'lipoC3S1': 3.83, 'temp': 27.0, 'lipoC3S3': 11.51, 'lipoC3S2': 7.65, 'rot1': 2, 'rot0': 2, 'rot3': 35, 'rot2': 29, 'state': 'normal', 'yaw': -9.57, 'datetime': '2018-10-09 20:03:05.791692', 'mgs': 0, 'volt': 0.8838, 'depth': 1.309, 'time': 6, 'pitch': 6.68, 'roll': -4.54, 'pres': 181}
{'lipoC2': 7.32, 'lipoC3S1': 3.74, 'temp': 27.0, 'lipoC3S3': 11.55, 'lipoC3S2': 7.66, 'rot1': 3, 'rot0': 3, 'rot3': 36, 'rot2': 29, 'state': 'normal', 'yaw': -12.22, 'datetime': '2018-10-09 20:03:05.807556', 'mgs': 0, 'volt': 0.835, 'depth': 0.546, 'time': 6, 'pitch': 6.62, 'roll': -4.53, 'pres': 171}
{'lipoC2': 7.33, 'lipoC3S1': 3.81, 'temp': 26.88, 'lipoC3S3': 11.58, 'lipoC3S2': 7.53, 'rot1': 4, 'rot0': 4, 'rot3': 37, 'rot2': 30, 'state': 'normal', 'yaw': -15.65, 'datetime': '2018-10-09 20:03:05.817196', 'mgs': 0, 'volt': 0.835, 'depth': 0.546, 'time': 6, 'pitch': 6.49, 'roll': -4.63, 'pres': 171}
{'lipoC2': 7.32, 'lipoC3S1': 3.81, 'temp': 26.88, 'lipoC3S3': 11.4, 'lipoC3S2': 7.63, 'rot1': 5, 'rot0': 5, 'rot3': 38, 'rot2': 31, 'state': 'normal', 'yaw': -19.14, 'datetime': '2018-10-09 20:03:05.832610', 'mgs': 0, 'volt': 0.8057, 'depth': 0.089, 'time': 6, 'pitch': 6.24, 'roll': -4.78, 'pres': 165}
{'lipoC2': 7.3, 'lipoC3S1': 3.8, 'temp': 26.88, 'lipoC3S3': 11.52, 'lipoC3S2': 7.61, 'rot1': 6, 'rot0': 6, 'rot3': 40, 'rot2': 32, 'state': 'normal', 'yaw': -22.97, 'datetime': '2018-10-09 20:03:05.848158', 'mgs': 0, 'volt': 0.8203, 'depth': 0.317, 'time': 6, 'pitch': 5.86, 'roll': -4.99, 'pres': 168}
{'lipoC2': 7.32, 'lipoC3S1': 3.83, 'temp': 26.94, 'lipoC3S3': 11.51, 'lipoC3S2': 7.61, 'rot1': 7, 'rot0': 6, 'rot3': 41, 'rot2': 33, 'state': 'normal', 'yaw': -27.49, 'datetime': '2018-10-09 20:03:05.857769', 'mgs': 0, 'volt': 0.8252, 'depth': 0.394, 'time': 6, 'pitch': 5.27, 'roll': -5.28, 'pres': 169}
{'lipoC2': 7.32, 'lipoC3S1': 3.82, 'temp': 26.94, 'lipoC3S3': 11.54, 'lipoC3S2': 7.66, 'rot1': 7, 'rot0': 7, 'rot3': 42, 'rot2': 34, 'state': 'normal', 'yaw': -31.63, 'datetime': '2018-10-09 20:03:05.873154', 'mgs': 0, 'volt': 0.835, 'depth': 0.546, 'time': 6, 'pitch': 4.7, 'roll': -5.64, 'pres': 171}
{'lipoC2': 7.3, 'lipoC3S1': 3.76, 'temp': 26.88, 'lipoC3S3': 11.22, 'lipoC3S2': 7.53, 'rot1': 8, 'rot0': 7, 'rot3': 42, 'rot2': 34, 'state': 'normal', 'yaw': -35.38, 'datetime': '2018-10-09 20:03:05.888518', 'mgs': 0, 'volt': 0.8252, 'depth': 0.394, 'time': 7, 'pitch': 4.14, 'roll': -6.18, 'pres': 169}
{'lipoC2': 7.29, 'lipoC3S1': 3.81, 'temp': 26.88, 'lipoC3S3': 11.43, 'lipoC3S2': 7.57, 'rot1': 9, 'rot0': 9, 'rot3': 43, 'rot2': 35, 'state': 'normal', 'yaw': -39.13, 'datetime': '2018-10-09 20:03:05.898061', 'mgs': 0, 'volt': 0.8789, 'depth': 1.233, 'time': 7, 'pitch': 4.01, 'roll': -6.85, 'pres': 180}
{'lipoC2': 7.32, 'lipoC3S1': 3.8, 'temp': 26.94, 'lipoC3S3': 11.47, 'lipoC3S2': 7.45, 'rot1': 10, 'rot0': 10, 'rot3': 44, 'rot2': 35, 'state': 'normal', 'yaw': -42.3, 'datetime': '2018-10-09 20:03:05.913535', 'mgs': 0, 'volt': 0.8447, 'depth': 0.699, 'time': 7, 'pitch': 4.53, 'roll': -7.42, 'pres': 173}
{'lipoC2': 7.29, 'lipoC3S1': 3.81, 'temp': 26.94, 'lipoC3S3': 11.43, 'lipoC3S2': 7.57, 'rot1': 12, 'rot0': 12, 'rot3': 45, 'rot2': 36, 'state': 'normal', 'yaw': -45.49, 'datetime': '2018-10-09 20:03:05.928974', 'mgs': 0, 'volt': 0.8789, 'depth': 1.233, 'time': 7, 'pitch': 5.25, 'roll': -7.91, 'pres': 180}
{'lipoC2': 7.32, 'lipoC3S1': 3.78, 'temp': 26.94, 'lipoC3S3': 11.42, 'lipoC3S2': 7.45, 'rot1': 13, 'rot0': 13, 'rot3': 46, 'rot2': 37, 'state': 'normal', 'yaw': -48.02, 'datetime': '2018-10-09 20:03:05.938590', 'mgs': 0, 'volt': 0.8496, 'depth': 0.775, 'time': 7, 'pitch': 5.61, 'roll': -8.11, 'pres': 174}
{'lipoC2': 7.32, 'lipoC3S1': 3.78, 'temp': 26.88, 'lipoC3S3': 11.51, 'lipoC3S2': 7.54, 'rot1': 14, 'rot0': 14, 'rot3': 47, 'rot2': 38, 'state': 'normal', 'yaw': -50.21, 'datetime': '2018-10-09 20:03:05.954066', 'mgs': 0, 'volt': 0.8545, 'depth': 0.851, 'time': 7, 'pitch': 5.72, 'roll': -8.1, 'pres': 175}
{'lipoC2': 7.3, 'lipoC3S1': 3.81, 'temp': 26.88, 'lipoC3S3': 11.42, 'lipoC3S2': 7.56, 'rot1': 15, 'rot0': 16, 'rot3': 48, 'rot2': 39, 'state': 'normal', 'yaw': -52.43, 'datetime': '2018-10-09 20:03:05.969565', 'mgs': 0, 'volt': 0.8594, 'depth': 0.928, 'time': 7, 'pitch': 5.82, 'roll': -8.01, 'pres': 176}
{'lipoC2': 7.32, 'lipoC3S1': 3.67, 'temp': 26.94, 'lipoC3S3': 11.5, 'lipoC3S2': 7.52, 'rot1': 17, 'rot0': 17, 'rot3': 49, 'rot2': 39, 'state': 'normal', 'yaw': -54.35, 'datetime': '2018-10-09 20:03:05.979196', 'mgs': 0, 'volt': 0.8643, 'depth': 1.004, 'time': 7, 'pitch': 6.01, 'roll': -7.93, 'pres': 177}
{'lipoC2': 7.32, 'lipoC3S1': 3.8, 'temp': 26.94, 'lipoC3S3': 11.42, 'lipoC3S2': 7.6, 'rot1': 18, 'rot0': 19, 'rot3': 50, 'rot2': 40, 'state': 'normal', 'yaw': -56.25, 'datetime': '2018-10-09 20:03:05.994682', 'mgs': 0, 'volt': 0.9277, 'depth': 1.996, 'time': 7, 'pitch': 6.34, 'roll': -7.99, 'pres': 190}
{'lipoC2': 7.32, 'lipoC3S1': 3.77, 'temp': 26.94, 'lipoC3S3': 11.35, 'lipoC3S2': 7.4, 'rot1': 19, 'rot0': 20, 'rot3': 51, 'rot2': 41, 'state': 'normal', 'yaw': -57.74, 'datetime': '2018-10-09 20:03:06.010110', 'mgs': 0, 'volt': 0.8447, 'depth': 0.699, 'time': 7, 'pitch': 6.66, 'roll': -8.13, 'pres': 173}
