{'lipoC2': 7.29, 'lipoC3S1': 3.83, 'temp': 26.94, 'lipoC3S3': 11.56, 'lipoC3S2': 7.65, 'rot1': 239, 'rot0': 239, 'rot3': 239, 'rot2': 217, 'state': 'normal', 'yaw': 126.21, 'datetime': '2018-10-09 20:21:09.598075', 'mgs': 0, 'volt': 0.9082, 'depth': 1.691, 'time': 115, 'pitch': -2.08, 'roll': -1.18, 'pres': 186}
{'lipoC2': 7.29, 'lipoC3S1': 3.82, 'temp': 26.94, 'lipoC3S3': 11.56, 'lipoC3S2': 7.65, 'rot1': 239, 'rot0': 239, 'rot3': 239, 'rot2': 217, 'state': 'normal', 'yaw': 126.51, 'datetime': '2018-10-09 20:21:12.637100', 'mgs': 0, 'volt': 0.9082, 'depth': 1.691, 'time': 115, 'pitch': -2.47, 'roll': -1.19, 'pres': 186}
{'lipoC2': 7.29, 'lipoC3S1': 3.83, 'temp': 27.0, 'lipoC3S3': 11.56, 'lipoC3S2': 7.65, 'rot1': 239, 'rot0': 239, 'rot3': 239, 'rot2': 217, 'state': 'normal', 'yaw': 126.82, 'datetime': '2018-10-09 20:21:12.661279', 'mgs': 0, 'volt': 0.9082, 'depth': 1.691, 'time': 116, 'pitch': -2.93, 'roll': -1.17, 'pres': 186}
{'lipoC2': 7.29, 'lipoC3S1': 3.82, 'temp': 27.0, 'lipoC3S3': 11.56, 'lipoC3S2': 7.65, 'rot1': 239, 'rot0': 239, 'rot3': 239, 'rot2': 217, 'state': 'normal', 'yaw': 127.12, 'datetime': '2018-10-09 20:21:12.699890', 'mgs': 0, 'volt': 0.9033, 'depth': 1.614, 'time': 116, 'pitch': -3.31, 'roll': -1.14, 'pres': 185}
{'lipoC2': 7.29, 'lipoC3S1': 3.83, 'temp': 27.0, 'lipoC3S3': 11.56, 'lipoC3S2': 7.65, 'rot1': 239, 'rot0': 239, 'rot3': 239, 'rot2': 217, 'state': 'normal', 'yaw': 127.41, 'datetime': '2018-10-09 20:21:12.719967', 'mgs': 0, 'volt': 0.9082, 'depth': 1.691, 'time': 116, 'pitch': -3.5, 'roll': -1.1, 'pres': 186}
{'lipoC2': 7.29, 'lipoC3S1': 3.82, 'temp': 27.0, 'lipoC3S3': 11.56, 'lipoC3S2': 7.65, 'rot1': 239, 'rot0': 239, 'rot3': 239, 'rot2': 217, 'state': 'normal', 'yaw': 127.67, 'datetime': '2018-10-09 20:21:12.737195', 'mgs': 0, 'volt': 0.9082, 'depth': 1.691, 'time': 116, 'pitch': -3.41, 'roll': -1.07, 'pres': 186}
{'lipoC2': 7.29, 'lipoC3S1': 3.82, 'temp': 27.0, 'lipoC3S3': 11.56, 'lipoC3S2': 7.65, 'rot1': 239, 'rot0': 239, 'rot3': 239, 'rot2': 217, 'state': 'normal', 'yaw': 127.89, 'datetime': '2018-10-09 20:21:12.753483', 'mgs': 0, 'volt': 0.9082, 'depth': 1.691, 'time': 116, 'pitch': -3.13, 'roll': -1.04, 'pres': 186}
{'lipoC2': 7.29, 'lipoC3S1': 3.83, 'temp': 27.0, 'lipoC3S3': 11.56, 'lipoC3S2': 7.65, 'rot1': 239, 'rot0': 239, 'rot3': 239, 'rot2': 217, 'state': 'normal', 'yaw': 128.08, 'datetime': '2018-10-09 20:21:12.769741', 'mgs': 0, 'volt': 0.9082, 'depth': 1.691, 'time': 116, 'pitch': -2.69, 'roll': -1.01, 'pres': 186}
{'lipoC2': 7.29, 'lipoC3S1': 3.83, 'temp': 27.0, 'lipoC3S3': 11.56, 'lipoC3S2': 7.65, 'rot1': 239, 'rot0': 239, 'rot3': 239, 'rot2': 217, 'state': 'normal', 'yaw': 128.22, 'datetime': '2018-10-09 20:21:12.785970', 'mgs': 0, 'volt': 0.9082, 'depth': 1.691, 'time': 116, 'pitch': -2.24, 'roll': -0.98, 'pres': 186}
{'lipoC2': 7.29, 'lipoC3S1': 3.82, 'temp': 27.0, 'lipoC3S3': 11.56, 'lipoC3S2': 7.65, 'rot1': 239, 'rot0': 239, 'rot3': 239, 'rot2': 217, 'state': 'normal', 'yaw': 128.36, 'datetime': '2018-10-09 20:21:12.801981', 'mgs': 0, 'volt': 0.9082, 'depth': 1.691, 'time': 116, 'pitch': -1.77, 'roll': -0.95, 'pres': 186}
{'lipoC2': 7.29, 'lipoC3S1': 3.82, 'temp': 27.0, 'lipoC3S3': 11.55, 'lipoC3S2': 7.65, 'rot1': 239, 'rot0': 239, 'rot3': 239, 'rot2': 217, 'state': 'normal', 'yaw': 128.5, 'datetime': '2018-10-09 20:21:12.818248', 'mgs': 0, 'volt': 0.9082, 'depth': 1.691, 'time': 116, 'pitch': -1.43, 'roll': -0.94, 'pres': 186}
{'lipoC2': 7.28, 'lipoC3S1': 3.82, 'temp': 27.0, 'lipoC3S3': 11.55, 'lipoC3S2': 7.65, 'rot1': 239, 'rot0': 239, 'rot3': 239, 'rot2': 217, 'state': 'normal', 'yaw': 128.65, 'datetime': '2018-10-09 20:21:12.834648', 'mgs': 0, 'volt': 0.9082, 'depth': 1.691, 'time': 117, 'pitch': -1.17, 'roll': -0.96, 'pres': 186}
{'lipoC2': 7.29, 'lipoC3S1': 3.82, 'temp': 27.0, 'lipoC3S3': 11.55, 'lipoC3S2': 7.65, 'rot1': 239, 'rot0': 239, 'rot3': 239, 'rot2': 217, 'state': 'normal', 'yaw': 128.82, 'datetime': '2018-10-09 20:21:12.850950', 'mgs': 0, 'volt': 0.9082, 'depth': 1.691, 'time': 117, 'pitch': -1.02, 'roll': -1.03, 'pres': 186}
{'lipoC2': 7.29, 'lipoC3S1': 3.82, 'temp': 27.0, 'lipoC3S3': 11.55, 'lipoC3S2': 7.65, 'rot1': 239, 'rot0': 239, 'rot3': 239, 'rot2': 217, 'state': 'normal', 'yaw': 128.98, 'datetime': '2018-10-09 20:21:12.867199', 'mgs': 0, 'volt': 0.9082, 'depth': 1.691, 'time': 117, 'pitch': -1.02, 'roll': -1.12, 'pres': 186}
{'lipoC2': 7.29, 'lipoC3S1': 3.82, 'temp': 27.0, 'lipoC3S3': 11.55, 'lipoC3S2': 7.65, 'rot1': 239, 'rot0': 239, 'rot3': 239, 'rot2': 217, 'state': 'normal', 'yaw': 129.17, 'datetime': '2018-10-09 20:21:12.883634', 'mgs': 0, 'volt': 0.9033, 'depth': 1.614, 'time': 117, 'pitch': -1.18, 'roll': -1.24, 'pres': 185}
{'lipoC2': 7.29, 'lipoC3S1': 3.82, 'temp': 27.0, 'lipoC3S3': 11.55, 'lipoC3S2': 7.65, 'rot1': 239, 'rot0': 239, 'rot3': 239, 'rot2': 217, 'state': 'normal', 'yaw': 129.34, 'datetime': '2018-10-09 20:21:12.899870', 'mgs': 0, 'volt': 0.9082, 'depth': 1.691, 'time': 117, 'pitch': -1.44, 'roll': -1.36, 'pres': 186}
{'lipoC2': 7.28, 'lipoC3S1': 3.82, 'temp': 27.0, 'lipoC3S3': 11.55, 'lipoC3S2': 7.65, 'rot1': 239, 'rot0': 239, 'rot3': 239, 'rot2': 217, 'state': 'normal', 'yaw': 129.53, 'datetime': '2018-10-09 20:21:12.916040', 'mgs': 0, 'volt': 0.9082, 'depth': 1.691, 'time': 117, 'pitch': -1.75, 'roll': -1.49, 'pres': 186}
{'lipoC2': 7.29, 'lipoC3S1': 3.82, 'temp': 27.0, 'lipoC3S3': 11.55, 'lipoC3S2': 7.65, 'rot1': 239, 'rot0': 239, 'rot3': 239, 'rot2': 217, 'state': 'normal', 'yaw': 129.65, 'datetime': '2018-10-09 20:21:12.932386', 'mgs': 0, 'volt': 0.9082, 'depth': 1.691, 'time': 117, 'pitch': -1.95, 'roll': -1.53, 'pres': 186}
{'lipoC2': 7.28, 'lipoC3S1': 3.82, 'temp': 27.0, 'lipoC3S3': 11.55, 'lipoC3S2': 7.65, 'rot1': 239, 'rot0': 239, 'rot3': 239, 'rot2': 217, 'state': 'normal', 'yaw': 129.65, 'datetime': '2018-10-09 20:21:12.948692', 'mgs': 0, 'volt': 0.9033, 'depth': 1.614, 'time': 117, 'pitch': -2.0, 'roll': -1.52, 'pres': 185}
{'lipoC2': 7.29, 'lipoC3S1': 3.82, 'temp': 27.0, 'lipoC3S3': 11.55, 'lipoC3S2': 7.65, 'rot1': 239, 'rot0': 239, 'rot3': 239, 'rot2': 217, 'state': 'normal', 'yaw': 129.65, 'datetime': '2018-10-09 20:21:12.964950', 'mgs': 0, 'volt': 0.9033, 'depth': 1.614, 'time': 117, 'pitch': -2.04, 'roll': -1.42, 'pres': 185}
{'lipoC2': 7.29, 'lipoC3S1': 3.82, 'temp': 27.0, 'lipoC3S3': 11.55, 'lipoC3S2': 7.65, 'rot1': 239, 'rot0': 239, 'rot3': 239, 'rot2': 217, 'state': 'normal', 'yaw': 129.64, 'datetime': '2018-10-09 20:21:12.981181', 'mgs': 0, 'volt': 0.9033, 'depth': 1.614, 'time': 117, 'pitch': -2.02, 'roll': -1.32, 'pres': 185}
{'lipoC2': 7.29, 'lipoC3S1': 3.82, 'temp': 27.0, 'lipoC3S3': 11.55, 'lipoC3S2': 7.65, 'rot1': 0, 'rot0': 0, 'rot3': 0, 'rot2': 0, 'state': 'normal', 'yaw': 0.0, 'datetime': '2018-10-09 20:21:12.997188', 'mgs': 0, 'volt': 0.9082, 'depth': 1.691, 'time': 1, 'pitch': -1.07, 'roll': -1.34, 'pres': 186}
{'lipoC2': 7.29, 'lipoC3S1': 3.82, 'temp': 27.0, 'lipoC3S3': 11.55, 'lipoC3S2': 7.65, 'rot1': 0, 'rot0': 0, 'rot3': 0, 'rot2': 0, 'state': 'normal', 'yaw': 0.04, 'datetime': '2018-10-09 20:21:13.013144', 'mgs': 0, 'volt': 0.9033, 'depth': 1.614, 'time': 1, 'pitch': -1.06, 'roll': -1.34, 'pres': 185}
{'lipoC2': 7.29, 'lipoC3S1': 3.83, 'temp': 27.0, 'lipoC3S3': 11.56, 'lipoC3S2': 7.65, 'rot1': 0, 'rot0': 0, 'rot3': 0, 'rot2': 0, 'state': 'normal', 'yaw': 0.04, 'datetime': '2018-10-09 20:21:13.029785', 'mgs': 0, 'volt': 0.9082, 'depth': 1.691, 'time': 1, 'pitch': -1.06, 'roll': -1.33, 'pres': 186}
{'lipoC2': 7.29, 'lipoC3S1': 3.83, 'temp': 27.0, 'lipoC3S3': 11.56, 'lipoC3S2': 7.65, 'rot1': 0, 'rot0': 0, 'rot3': 0, 'rot2': 0, 'state': 'normal', 'yaw': 0.04, 'datetime': '2018-10-09 20:21:13.045781', 'mgs': 0, 'volt': 0.9082, 'depth': 1.691, 'time': 1, 'pitch': -1.05, 'roll': -1.29, 'pres': 186}
{'lipoC2': 7.28, 'lipoC3S1': 3.82, 'temp': 27.0, 'lipoC3S3': 11.56, 'lipoC3S2': 7.65, 'rot1': 0, 'rot0': 0, 'rot3': 0, 'rot2': 0, 'state': 'normal', 'yaw': 0.04, 'datetime': '2018-10-09 20:21:13.061636', 'mgs': 0, 'volt': 0.9082, 'depth': 1.691, 'time': 1, 'pitch': -1.04, 'roll': -1.29, 'pres': 186}
{'lipoC2': 7.29, 'lipoC3S1': 3.83, 'temp': 27.06, 'lipoC3S3': 11.56, 'lipoC3S2': 7.65, 'rot1': 0, 'rot0': 0, 'rot3': 0, 'rot2': 0, 'state': 'normal', 'yaw': 0.08, 'datetime': '2018-10-09 20:21:13.076971', 'mgs': 0, 'volt': 0.9082, 'depth': 1.691, 'time': 1, 'pitch': -0.93, 'roll': -1.29, 'pres': 186}
{'lipoC2': 7.29, 'lipoC3S1': 3.83, 'temp': 27.06, 'lipoC3S3': 11.55, 'lipoC3S2': 7.65, 'rot1': 0, 'rot0': 0, 'rot3': 0, 'rot2': 0, 'state': 'normal', 'yaw': 0.19, 'datetime': '2018-10-09 20:21:13.092447', 'mgs': 0, 'volt': 0.9082, 'depth': 1.691, 'time': 1, 'pitch': -0.82, 'roll': -1.3, 'pres': 186}
{'lipoC2': 7.28, 'lipoC3S1': 3.82, 'temp': 27.0, 'lipoC3S3': 11.55, 'lipoC3S2': 7.65, 'rot1': 0, 'rot0': 0, 'rot3': 0, 'rot2': 0, 'state': 'normal', 'yaw': 0.33, 'datetime': '2018-10-09 20:21:13.107780', 'mgs': 0, 'volt': 0.9082, 'depth': 1.691, 'time': 1, 'pitch': -0.77, 'roll': -1.38, 'pres': 186}
{'lipoC2': 7.29, 'lipoC3S1': 3.82, 'temp': 27.0, 'lipoC3S3': 11.55, 'lipoC3S2': 7.65, 'rot1': 0, 'rot0': 0, 'rot3': 0, 'rot2': 0, 'state': 'normal', 'yaw': 0.48, 'datetime': '2018-10-09 20:21:13.123151', 'mgs': 0, 'volt': 0.9082, 'depth': 1.691, 'time': 2, 'pitch': -0.77, 'roll': -1.47, 'pres': 186}
{'lipoC2': 7.29, 'lipoC3S1': 3.82, 'temp': 27.0, 'lipoC3S3': 11.55, 'lipoC3S2': 7.65, 'rot1': 0, 'rot0': 0, 'rot3': 0, 'rot2': 0, 'state': 'normal', 'yaw': 0.6, 'datetime': '2018-10-09 20:21:13.138701', 'mgs': 0, 'volt': 0.9033, 'depth': 1.614, 'time': 2, 'pitch': -0.82, 'roll': -1.51, 'pres': 185}
{'lipoC2': 7.28, 'lipoC3S1': 3.82, 'temp': 27.0, 'lipoC3S3': 11.55, 'lipoC3S2': 7.65, 'rot1': 0, 'rot0': 0, 'rot3': 0, 'rot2': 0, 'state': 'normal', 'yaw': 0.67, 'datetime': '2018-10-09 20:21:13.154055', 'mgs': 0, 'volt': 0.9033, 'depth': 1.614, 'time': 2, 'pitch': -0.93, 'roll': -1.51, 'pres': 185}
{'lipoC2': 7.28, 'lipoC3S1': 3.82, 'temp': 27.0, 'lipoC3S3': 11.55, 'lipoC3S2': 7.65, 'rot1': 0, 'rot0': 0, 'rot3': 0, 'rot2': 0, 'state': 'normal', 'yaw': 0.75, 'datetime': '2018-10-09 20:21:13.171921', 'mgs': 0, 'volt': 0.9082, 'depth': 1.691, 'time': 2, 'pitch': -1.05, 'roll': -1.52, 'pres': 186}
{'lipoC2': 7.29, 'lipoC3S1': 3.83, 'temp': 27.06, 'lipoC3S3': 11.56, 'lipoC3S2': 7.65, 'rot1': 0, 'rot0': 0, 'rot3': 0, 'rot2': 0, 'state': 'normal', 'yaw': 0.83, 'datetime': '2018-10-09 20:21:13.187333', 'mgs': 0, 'volt': 0.9082, 'depth': 1.691, 'time': 2, 'pitch': -1.15, 'roll': -1.51, 'pres': 186}
{'lipoC2': 7.29, 'lipoC3S1': 3.82, 'temp': 27.06, 'lipoC3S3': 11.56, 'lipoC3S2': 7.65, 'rot1': 0, 'rot0': 0, 'rot3': 0, 'rot2': 0, 'state': 'normal', 'yaw': 0.93, 'datetime': '2018-10-09 20:21:13.202764', 'mgs': 0, 'volt': 0.9033, 'depth': 1.614, 'time': 2, 'pitch': -1.25, 'roll': -1.52, 'pres': 185}
{'lipoC2': 7.29, 'lipoC3S1': 3.82, 'temp': 27.0, 'lipoC3S3': 11.56, 'lipoC3S2': 7.65, 'rot1': 0, 'rot0': 0, 'rot3': 0, 'rot2': 0, 'state': 'normal', 'yaw': 1.06, 'datetime': '2018-10-09 20:21:13.218106', 'mgs': 0, 'volt': 0.9082, 'depth': 1.691, 'time': 2, 'pitch': -1.35, 'roll': -1.52, 'pres': 186}
{'lipoC2': 7.28, 'lipoC3S1': 3.82, 'temp': 27.0, 'lipoC3S3': 11.56, 'lipoC3S2': 7.65, 'rot1': 0, 'rot0': 0, 'rot3': 0, 'rot2': 0, 'state': 'normal', 'yaw': 1.2, 'datetime': '2018-10-09 20:21:13.233702', 'mgs': 0, 'volt': 0.9082, 'depth': 1.691, 'time': 2, 'pitch': -1.44, 'roll': -1.52, 'pres': 186}
{'lipoC2': 7.28, 'lipoC3S1': 3.82, 'temp': 27.06, 'lipoC3S3': 11.56, 'lipoC3S2': 7.65, 'rot1': 0, 'rot0': 0, 'rot3': 0, 'rot2': 0, 'state': 'normal', 'yaw': 1.33, 'datetime': '2018-10-09 20:21:13.249062', 'mgs': 0, 'volt': 0.9033, 'depth': 1.614, 'time': 2, 'pitch': -1.51, 'roll': -1.52, 'pres': 185}
{'lipoC2': 7.28, 'lipoC3S1': 3.79, 'temp': 27.06, 'lipoC3S3': 11.51, 'lipoC3S2': 7.62, 'rot1': 0, 'rot0': 0, 'rot3': 0, 'rot2': 0, 'state': 'normal', 'yaw': 1.47, 'datetime': '2018-10-09 20:21:13.264372', 'mgs': 0, 'volt': 0.9277, 'depth': 1.996, 'time': 3, 'pitch': -1.5, 'roll': -1.53, 'pres': 190}
{'lipoC2': 7.28, 'lipoC3S1': 3.68, 'temp': 27.06, 'lipoC3S3': 11.47, 'lipoC3S2': 7.55, 'rot1': 0, 'rot0': 0, 'rot3': 0, 'rot2': 0, 'state': 'normal', 'yaw': 1.36, 'datetime': '2018-10-09 20:21:13.279664', 'mgs': 0, 'volt': 0.9033, 'depth': 1.614, 'time': 3, 'pitch': -1.43, 'roll': -1.44, 'pres': 185}
{'lipoC2': 7.28, 'lipoC3S1': 3.69, 'temp': 26.94, 'lipoC3S3': 11.48, 'lipoC3S2': 7.57, 'rot1': 2, 'rot0': 2, 'rot3': 1, 'rot2': 1, 'state': 'normal', 'yaw': -0.13, 'datetime': '2018-10-09 20:21:13.295157', 'mgs': 0, 'volt': 0.9033, 'depth': 1.614, 'time': 3, 'pitch': -1.06, 'roll': -1.03, 'pres': 185}
{'lipoC2': 7.27, 'lipoC3S1': 3.81, 'temp': 26.94, 'lipoC3S3': 11.5, 'lipoC3S2': 7.62, 'rot1': 3, 'rot0': 3, 'rot3': 2, 'rot2': 1, 'state': 'normal', 'yaw': -2.57, 'datetime': '2018-10-09 20:21:13.310517', 'mgs': 0, 'volt': 0.918, 'depth': 1.843, 'time': 3, 'pitch': -0.52, 'roll': -0.51, 'pres': 188}
{'lipoC2': 7.27, 'lipoC3S1': 3.81, 'temp': 26.94, 'lipoC3S3': 11.44, 'lipoC3S2': 7.62, 'rot1': 3, 'rot0': 3, 'rot3': 2, 'rot2': 2, 'state': 'normal', 'yaw': -5.4, 'datetime': '2018-10-09 20:21:13.325866', 'mgs': 0, 'volt': 0.9229, 'depth': 1.92, 'time': 3, 'pitch': 0.03, 'roll': -0.03, 'pres': 189}
{'lipoC2': 7.28, 'lipoC3S1': 3.81, 'temp': 26.94, 'lipoC3S3': 11.46, 'lipoC3S2': 7.62, 'rot1': 3, 'rot0': 3, 'rot3': 3, 'rot2': 2, 'state': 'normal', 'yaw': -7.79, 'datetime': '2018-10-09 20:21:13.341302', 'mgs': 0, 'volt': 0.9033, 'depth': 1.614, 'time': 3, 'pitch': 0.5, 'roll': 0.24, 'pres': 185}
{'lipoC2': 7.27, 'lipoC3S1': 3.81, 'temp': 26.88, 'lipoC3S3': 11.51, 'lipoC3S2': 7.58, 'rot1': 3, 'rot0': 3, 'rot3': 3, 'rot2': 3, 'state': 'normal', 'yaw': -10.07, 'datetime': '2018-10-09 20:21:13.356680', 'mgs': 0, 'volt': 0.9033, 'depth': 1.614, 'time': 3, 'pitch': 0.87, 'roll': 0.3, 'pres': 185}
{'lipoC2': 7.28, 'lipoC3S1': 3.78, 'temp': 26.88, 'lipoC3S3': 11.52, 'lipoC3S2': 7.61, 'rot1': 4, 'rot0': 3, 'rot3': 4, 'rot2': 3, 'state': 'normal', 'yaw': -11.9, 'datetime': '2018-10-09 20:21:13.451547', 'mgs': 0, 'volt': 0.9033, 'depth': 1.614, 'time': 3, 'pitch': 1.06, 'roll': 0.18, 'pres': 185}
{'lipoC2': 7.28, 'lipoC3S1': 3.77, 'temp': 26.88, 'lipoC3S3': 11.51, 'lipoC3S2': 7.62, 'rot1': 4, 'rot0': 4, 'rot3': 5, 'rot2': 4, 'state': 'normal', 'yaw': -13.46, 'datetime': '2018-10-09 20:21:13.554763', 'mgs': 0, 'volt': 0.918, 'depth': 1.843, 'time': 3, 'pitch': 1.1, 'roll': -0.11, 'pres': 188}
{'lipoC2': 7.27, 'lipoC3S1': 3.81, 'temp': 26.94, 'lipoC3S3': 11.5, 'lipoC3S2': 7.62, 'rot1': 4, 'rot0': 4, 'rot3': 5, 'rot2': 5, 'state': 'normal', 'yaw': -14.9, 'datetime': '2018-10-09 20:21:13.657954', 'mgs': 0, 'volt': 0.9033, 'depth': 1.614, 'time': 3, 'pitch': 1.02, 'roll': -0.59, 'pres': 185}
{'lipoC2': 7.27, 'lipoC3S1': 3.81, 'temp': 26.94, 'lipoC3S3': 11.47, 'lipoC3S2': 7.64, 'rot1': 5, 'rot0': 4, 'rot3': 6, 'rot2': 5, 'state': 'normal', 'yaw': -15.99, 'datetime': '2018-10-09 20:21:13.761150', 'mgs': 0, 'volt': 0.8887, 'depth': 1.385, 'time': 4, 'pitch': 0.83, 'roll': -1.11, 'pres': 182}
{'lipoC2': 7.28, 'lipoC3S1': 3.82, 'temp': 26.94, 'lipoC3S3': 11.54, 'lipoC3S2': 7.64, 'rot1': 5, 'rot0': 5, 'rot3': 6, 'rot2': 6, 'state': 'normal', 'yaw': -16.9, 'datetime': '2018-10-09 20:21:13.865632', 'mgs': 0, 'volt': 0.8887, 'depth': 1.385, 'time': 4, 'pitch': 0.57, 'roll': -1.65, 'pres': 182}
{'lipoC2': 7.28, 'lipoC3S1': 3.82, 'temp': 26.94, 'lipoC3S3': 11.54, 'lipoC3S2': 7.64, 'rot1': 5, 'rot0': 5, 'rot3': 6, 'rot2': 6, 'state': 'normal', 'yaw': -17.7, 'datetime': '2018-10-09 20:21:13.968845', 'mgs': 0, 'volt': 0.8838, 'depth': 1.309, 'time': 4, 'pitch': 0.12, 'roll': -2.24, 'pres': 181}
{'lipoC2': 7.28, 'lipoC3S1': 3.82, 'temp': 27.0, 'lipoC3S3': 11.54, 'lipoC3S2': 7.65, 'rot1': 6, 'rot0': 6, 'rot3': 6, 'rot2': 6, 'state': 'normal', 'yaw': -18.22, 'datetime': '2018-10-09 20:21:14.072042', 'mgs': 0, 'volt': 0.8838, 'depth': 1.309, 'time': 4, 'pitch': -0.39, 'roll': -2.74, 'pres': 181}
{'lipoC2': 7.28, 'lipoC3S1': 3.82, 'temp': 27.0, 'lipoC3S3': 11.52, 'lipoC3S2': 7.63, 'rot1': 6, 'rot0': 6, 'rot3': 6, 'rot2': 6, 'state': 'normal', 'yaw': -18.55, 'datetime': '2018-10-09 20:21:14.177188', 'mgs': 0, 'volt': 0.874, 'depth': 1.157, 'time': 4, 'pitch': -0.92, 'roll': -3.17, 'pres': 179}
{'lipoC2': 7.28, 'lipoC3S1': 3.79, 'temp': 27.0, 'lipoC3S3': 11.51, 'lipoC3S2': 7.62, 'rot1': 7, 'rot0': 7, 'rot3': 6, 'rot2': 7, 'state': 'normal', 'yaw': -18.75, 'datetime': '2018-10-09 20:21:14.285032', 'mgs': 0, 'volt': 0.8984, 'depth': 1.538, 'time': 4, 'pitch': -1.44, 'roll': -3.58, 'pres': 184}
{'lipoC2': 7.28, 'lipoC3S1': 3.81, 'temp': 27.0, 'lipoC3S3': 11.51, 'lipoC3S2': 7.62, 'rot1': 7, 'rot0': 7, 'rot3': 7, 'rot2': 7, 'state': 'normal', 'yaw': -18.74, 'datetime': '2018-10-09 20:21:14.389562', 'mgs': 0, 'volt': 0.8838, 'depth': 1.309, 'time': 4, 'pitch': -1.94, 'roll': -3.89, 'pres': 181}
{'lipoC2': 7.28, 'lipoC3S1': 3.8, 'temp': 27.0, 'lipoC3S3': 11.54, 'lipoC3S2': 7.64, 'rot1': 8, 'rot0': 7, 'rot3': 7, 'rot2': 7, 'state': 'normal', 'yaw': -18.63, 'datetime': '2018-10-09 20:21:14.494110', 'mgs': 0, 'volt': 0.874, 'depth': 1.157, 'time': 4, 'pitch': -2.43, 'roll': -4.12, 'pres': 179}
{'lipoC2': 7.28, 'lipoC3S1': 3.82, 'temp': 27.06, 'lipoC3S3': 11.54, 'lipoC3S2': 7.64, 'rot1': 8, 'rot0': 8, 'rot3': 7, 'rot2': 7, 'state': 'normal', 'yaw': -18.39, 'datetime': '2018-10-09 20:21:14.597276', 'mgs': 0, 'volt': 0.8838, 'depth': 1.309, 'time': 4, 'pitch': -2.75, 'roll': -4.26, 'pres': 181}
{'lipoC2': 7.28, 'lipoC3S1': 3.82, 'temp': 27.06, 'lipoC3S3': 11.54, 'lipoC3S2': 7.64, 'rot1': 8, 'rot0': 8, 'rot3': 7, 'rot2': 7, 'state': 'normal', 'yaw': -18.07, 'datetime': '2018-10-09 20:21:14.700839', 'mgs': 0, 'volt': 0.874, 'depth': 1.157, 'time': 4, 'pitch': -2.85, 'roll': -4.28, 'pres': 179}
{'lipoC2': 7.28, 'lipoC3S1': 3.82, 'temp': 27.0, 'lipoC3S3': 11.54, 'lipoC3S2': 7.63, 'rot1': 9, 'rot0': 9, 'rot3': 7, 'rot2': 7, 'state': 'normal', 'yaw': -17.64, 'datetime': '2018-10-09 20:21:14.803823', 'mgs': 0, 'volt': 0.8691, 'depth': 1.08, 'time': 5, 'pitch': -2.8, 'roll': -4.19, 'pres': 178}
{'lipoC2': 7.28, 'lipoC3S1': 3.77, 'temp': 27.0, 'lipoC3S3': 11.51, 'lipoC3S2': 7.58, 'rot1': 9, 'rot0': 9, 'rot3': 7, 'rot2': 8, 'state': 'normal', 'yaw': -17.11, 'datetime': '2018-10-09 20:21:14.907020', 'mgs': 0, 'volt': 0.874, 'depth': 1.157, 'time': 5, 'pitch': -2.58, 'roll': -4.03, 'pres': 179}
{'lipoC2': 7.28, 'lipoC3S1': 3.8, 'temp': 27.0, 'lipoC3S3': 11.51, 'lipoC3S2': 7.62, 'rot1': 10, 'rot0': 10, 'rot3': 8, 'rot2': 8, 'state': 'normal', 'yaw': -16.38, 'datetime': '2018-10-09 20:21:15.010616', 'mgs': 0, 'volt': 0.8984, 'depth': 1.538, 'time': 5, 'pitch': -2.28, 'roll': -3.86, 'pres': 184}
{'lipoC2': 7.28, 'lipoC3S1': 3.81, 'temp': 27.0, 'lipoC3S3': 11.54, 'lipoC3S2': 7.6, 'rot1': 10, 'rot0': 10, 'rot3': 8, 'rot2': 8, 'state': 'normal', 'yaw': -15.64, 'datetime': '2018-10-09 20:21:15.114144', 'mgs': 0, 'volt': 0.874, 'depth': 1.157, 'time': 5, 'pitch': -1.98, 'roll': -3.72, 'pres': 179}
{'lipoC2': 7.28, 'lipoC3S1': 3.82, 'temp': 27.0, 'lipoC3S3': 11.52, 'lipoC3S2': 7.64, 'rot1': 11, 'rot0': 10, 'rot3': 8, 'rot2': 8, 'state': 'normal', 'yaw': -14.83, 'datetime': '2018-10-09 20:21:15.217839', 'mgs': 0, 'volt': 0.8789, 'depth': 1.233, 'time': 5, 'pitch': -1.56, 'roll': -3.52, 'pres': 180}
{'lipoC2': 7.28, 'lipoC3S1': 3.82, 'temp': 27.0, 'lipoC3S3': 11.54, 'lipoC3S2': 7.64, 'rot1': 11, 'rot0': 11, 'rot3': 8, 'rot2': 8, 'state': 'normal', 'yaw': -13.85, 'datetime': '2018-10-09 20:21:15.321397', 'mgs': 0, 'volt': 0.8789, 'depth': 1.233, 'time': 5, 'pitch': -0.99, 'roll': -3.28, 'pres': 180}
{'lipoC2': 7.28, 'lipoC3S1': 3.82, 'temp': 27.0, 'lipoC3S3': 11.54, 'lipoC3S2': 7.64, 'rot1': 11, 'rot0': 11, 'rot3': 8, 'rot2': 8, 'state': 'normal', 'yaw': -12.88, 'datetime': '2018-10-09 20:21:15.425626', 'mgs': 0, 'volt': 0.8789, 'depth': 1.233, 'time': 5, 'pitch': -0.47, 'roll': -3.07, 'pres': 180}
{'lipoC2': 7.28, 'lipoC3S1': 3.82, 'temp': 27.0, 'lipoC3S3': 11.54, 'lipoC3S2': 7.64, 'rot1': 12, 'rot0': 12, 'rot3': 8, 'rot2': 8, 'state': 'normal', 'yaw': -11.72, 'datetime': '2018-10-09 20:21:15.529575', 'mgs': 0, 'volt': 0.8838, 'depth': 1.309, 'time': 5, 'pitch': 0.08, 'roll': -2.81, 'pres': 181}
{'lipoC2': 7.28, 'lipoC3S1': 3.8, 'temp': 27.0, 'lipoC3S3': 11.54, 'lipoC3S2': 7.64, 'rot1': 12, 'rot0': 12, 'rot3': 8, 'rot2': 8, 'state': 'normal', 'yaw': -10.6, 'datetime': '2018-10-09 20:21:15.633165', 'mgs': 0, 'volt': 0.8838, 'depth': 1.309, 'time': 5, 'pitch': 0.52, 'roll': -2.6, 'pres': 181}
{'lipoC2': 7.28, 'lipoC3S1': 3.82, 'temp': 27.0, 'lipoC3S3': 11.55, 'lipoC3S2': 7.64, 'rot1': 13, 'rot0': 12, 'rot3': 8, 'rot2': 8, 'state': 'normal', 'yaw': -9.45, 'datetime': '2018-10-09 20:21:15.737869', 'mgs': 0, 'volt': 0.8838, 'depth': 1.309, 'time': 6, 'pitch': 0.88, 'roll': -2.4, 'pres': 181}
{'lipoC2': 7.28, 'lipoC3S1': 3.82, 'temp': 27.0, 'lipoC3S3': 11.54, 'lipoC3S2': 7.64, 'rot1': 13, 'rot0': 13, 'rot3': 8, 'rot2': 8, 'state': 'normal', 'yaw': -8.15, 'datetime': '2018-10-09 20:21:15.841384', 'mgs': 0, 'volt': 0.8838, 'depth': 1.309, 'time': 6, 'pitch': 1.18, 'roll': -2.25, 'pres': 181}
{'lipoC2': 7.29, 'lipoC3S1': 3.82, 'temp': 27.0, 'lipoC3S3': 11.54, 'lipoC3S2': 7.64, 'rot1': 13, 'rot0': 13, 'rot3': 8, 'rot2': 8, 'state': 'normal', 'yaw': -6.93, 'datetime': '2018-10-09 20:21:15.944926', 'mgs': 0, 'volt': 0.8838, 'depth': 1.309, 'time': 6, 'pitch': 1.34, 'roll': -2.13, 'pres': 181}
{'lipoC2': 7.28, 'lipoC3S1': 3.82, 'temp': 27.0, 'lipoC3S3': 11.54, 'lipoC3S2': 7.64, 'rot1': 14, 'rot0': 13, 'rot3': 8, 'rot2': 8, 'state': 'normal', 'yaw': -5.67, 'datetime': '2018-10-09 20:21:16.049782', 'mgs': 0, 'volt': 0.8887, 'depth': 1.385, 'time': 6, 'pitch': 1.39, 'roll': -2.08, 'pres': 182}
{'lipoC2': 7.28, 'lipoC3S1': 3.82, 'temp': 27.0, 'lipoC3S3': 11.54, 'lipoC3S2': 7.59, 'rot1': 14, 'rot0': 14, 'rot3': 8, 'rot2': 8, 'state': 'normal', 'yaw': -4.28, 'datetime': '2018-10-09 20:21:16.153340', 'mgs': 0, 'volt': 0.8838, 'depth': 1.309, 'time': 6, 'pitch': 1.38, 'roll': -2.04, 'pres': 181}
{'lipoC2': 7.28, 'lipoC3S1': 3.82, 'temp': 26.94, 'lipoC3S3': 11.54, 'lipoC3S2': 7.64, 'rot1': 14, 'rot0': 14, 'rot3': 8, 'rot2': 8, 'state': 'normal', 'yaw': -3.0, 'datetime': '2018-10-09 20:21:16.256843', 'mgs': 0, 'volt': 0.8887, 'depth': 1.385, 'time': 6, 'pitch': 1.26, 'roll': -2.01, 'pres': 182}
{'lipoC2': 7.28, 'lipoC3S1': 3.82, 'temp': 26.94, 'lipoC3S3': 11.54, 'lipoC3S2': 7.64, 'rot1': 14, 'rot0': 14, 'rot3': 8, 'rot2': 8, 'state': 'normal', 'yaw': -1.72, 'datetime': '2018-10-09 20:21:16.360050', 'mgs': 0, 'volt': 0.8838, 'depth': 1.309, 'time': 6, 'pitch': 1.09, 'roll': -2.01, 'pres': 181}
{'lipoC2': 7.28, 'lipoC3S1': 3.82, 'temp': 26.94, 'lipoC3S3': 11.54, 'lipoC3S2': 7.64, 'rot1': 15, 'rot0': 15, 'rot3': 8, 'rot2': 8, 'state': 'normal', 'yaw': -0.36, 'datetime': '2018-10-09 20:21:16.463629', 'mgs': 0, 'volt': 0.8887, 'depth': 1.385, 'time': 6, 'pitch': 0.85, 'roll': -2.06, 'pres': 182}
{'lipoC2': 7.29, 'lipoC3S1': 3.82, 'temp': 27.0, 'lipoC3S3': 11.54, 'lipoC3S2': 7.64, 'rot1': 15, 'rot0': 15, 'rot3': 8, 'rot2': 8, 'state': 'normal', 'yaw': 0.87, 'datetime': '2018-10-09 20:21:16.567154', 'mgs': 0, 'volt': 0.8887, 'depth': 1.385, 'time': 6, 'pitch': 0.58, 'roll': -2.12, 'pres': 182}
{'lipoC2': 7.28, 'lipoC3S1': 3.82, 'temp': 27.0, 'lipoC3S3': 11.54, 'lipoC3S2': 7.64, 'rot1': 15, 'rot0': 15, 'rot3': 8, 'rot2': 8, 'state': 'normal', 'yaw': 2.1, 'datetime': '2018-10-09 20:21:16.670623', 'mgs': 0, 'volt': 0.8887, 'depth': 1.385, 'time': 6, 'pitch': 0.29, 'roll': -2.2, 'pres': 182}
{'lipoC2': 7.28, 'lipoC3S1': 3.82, 'temp': 26.94, 'lipoC3S3': 11.54, 'lipoC3S2': 7.64, 'rot1': 15, 'rot0': 15, 'rot3': 8, 'rot2': 8, 'state': 'normal', 'yaw': 3.44, 'datetime': '2018-10-09 20:21:16.774159', 'mgs': 0, 'volt': 0.8887, 'depth': 1.385, 'time': 7, 'pitch': -0.04, 'roll': -2.26, 'pres': 182}
{'lipoC2': 7.28, 'lipoC3S1': 3.82, 'temp': 26.94, 'lipoC3S3': 11.54, 'lipoC3S2': 7.64, 'rot1': 16, 'rot0': 15, 'rot3': 8, 'rot2': 8, 'state': 'normal', 'yaw': 4.67, 'datetime': '2018-10-09 20:21:16.877587', 'mgs': 0, 'volt': 0.8887, 'depth': 1.385, 'time': 7, 'pitch': -0.3, 'roll': -2.28, 'pres': 182}
{'lipoC2': 7.28, 'lipoC3S1': 3.82, 'temp': 26.94, 'lipoC3S3': 11.54, 'lipoC3S2': 7.64, 'rot1': 16, 'rot0': 16, 'rot3': 8, 'rot2': 8, 'state': 'normal', 'yaw': 5.86, 'datetime': '2018-10-09 20:21:16.982375', 'mgs': 0, 'volt': 0.8887, 'depth': 1.385, 'time': 7, 'pitch': -0.49, 'roll': -2.29, 'pres': 182}
{'lipoC2': 7.28, 'lipoC3S1': 3.82, 'temp': 26.94, 'lipoC3S3': 11.51, 'lipoC3S2': 7.64, 'rot1': 16, 'rot0': 16, 'rot3': 8, 'rot2': 8, 'state': 'normal', 'yaw': 7.14, 'datetime': '2018-10-09 20:21:17.085849', 'mgs': 0, 'volt': 0.8887, 'depth': 1.385, 'time': 7, 'pitch': -0.6, 'roll': -2.3, 'pres': 182}
{'lipoC2': 7.28, 'lipoC3S1': 3.82, 'temp': 26.94, 'lipoC3S3': 11.55, 'lipoC3S2': 7.64, 'rot1': 16, 'rot0': 16, 'rot3': 8, 'rot2': 8, 'state': 'normal', 'yaw': 8.26, 'datetime': '2018-10-09 20:21:17.190703', 'mgs': 0, 'volt': 0.8887, 'depth': 1.385, 'time': 7, 'pitch': -0.6, 'roll': -2.25, 'pres': 182}
{'lipoC2': 7.28, 'lipoC3S1': 3.82, 'temp': 27.0, 'lipoC3S3': 11.54, 'lipoC3S2': 7.64, 'rot1': 16, 'rot0': 16, 'rot3': 8, 'rot2': 8, 'state': 'normal', 'yaw': 9.45, 'datetime': '2018-10-09 20:21:17.294183', 'mgs': 0, 'volt': 0.8936, 'depth': 1.462, 'time': 7, 'pitch': -0.54, 'roll': -2.14, 'pres': 183}
{'lipoC2': 7.28, 'lipoC3S1': 3.82, 'temp': 27.0, 'lipoC3S3': 11.54, 'lipoC3S2': 7.64, 'rot1': 16, 'rot0': 16, 'rot3': 8, 'rot2': 8, 'state': 'normal', 'yaw': 10.49, 'datetime': '2018-10-09 20:21:17.397668', 'mgs': 0, 'volt': 0.8887, 'depth': 1.385, 'time': 7, 'pitch': -0.46, 'roll': -2.0, 'pres': 182}
{'lipoC2': 7.28, 'lipoC3S1': 3.82, 'temp': 27.0, 'lipoC3S3': 11.55, 'lipoC3S2': 7.64, 'rot1': 16, 'rot0': 16, 'rot3': 8, 'rot2': 8, 'state': 'normal', 'yaw': 11.49, 'datetime': '2018-10-09 20:21:17.502462', 'mgs': 0, 'volt': 0.8887, 'depth': 1.385, 'time': 7, 'pitch': -0.32, 'roll': -1.83, 'pres': 182}
{'lipoC2': 7.28, 'lipoC3S1': 3.82, 'temp': 27.0, 'lipoC3S3': 11.54, 'lipoC3S2': 7.64, 'rot1': 16, 'rot0': 16, 'rot3': 8, 'rot2': 8, 'state': 'normal', 'yaw': 12.57, 'datetime': '2018-10-09 20:21:17.605974', 'mgs': 0, 'volt': 0.8936, 'depth': 1.462, 'time': 7, 'pitch': -0.14, 'roll': -1.62, 'pres': 183}
{'lipoC2': 7.28, 'lipoC3S1': 3.82, 'temp': 26.94, 'lipoC3S3': 11.55, 'lipoC3S2': 7.64, 'rot1': 16, 'rot0': 16, 'rot3': 8, 'rot2': 8, 'state': 'normal', 'yaw': 13.51, 'datetime': '2018-10-09 20:21:17.710343', 'mgs': 0, 'volt': 0.8936, 'depth': 1.462, 'time': 7, 'pitch': 0.06, 'roll': -1.44, 'pres': 183}
{'lipoC2': 7.28, 'lipoC3S1': 3.82, 'temp': 26.94, 'lipoC3S3': 11.55, 'lipoC3S2': 7.64, 'rot1': 16, 'rot0': 16, 'rot3': 8, 'rot2': 8, 'state': 'normal', 'yaw': 14.42, 'datetime': '2018-10-09 20:21:17.813084', 'mgs': 0, 'volt': 0.8936, 'depth': 1.462, 'time': 8, 'pitch': 0.3, 'roll': -1.25, 'pres': 183}
{'lipoC2': 7.28, 'lipoC3S1': 3.82, 'temp': 26.94, 'lipoC3S3': 11.55, 'lipoC3S2': 7.64, 'rot1': 16, 'rot0': 16, 'rot3': 8, 'rot2': 8, 'state': 'normal', 'yaw': 15.41, 'datetime': '2018-10-09 20:21:17.916501', 'mgs': 0, 'volt': 0.8936, 'depth': 1.462, 'time': 8, 'pitch': 0.58, 'roll': -1.07, 'pres': 183}
{'lipoC2': 7.28, 'lipoC3S1': 3.82, 'temp': 26.94, 'lipoC3S3': 11.55, 'lipoC3S2': 7.64, 'rot1': 16, 'rot0': 16, 'rot3': 8, 'rot2': 8, 'state': 'normal', 'yaw': 16.27, 'datetime': '2018-10-09 20:21:18.019936', 'mgs': 0, 'volt': 0.8984, 'depth': 1.538, 'time': 8, 'pitch': 0.79, 'roll': -0.94, 'pres': 184}
{'lipoC2': 7.28, 'lipoC3S1': 3.82, 'temp': 26.94, 'lipoC3S3': 11.55, 'lipoC3S2': 7.64, 'rot1': 16, 'rot0': 16, 'rot3': 8, 'rot2': 8, 'state': 'normal', 'yaw': 17.13, 'datetime': '2018-10-09 20:21:18.123559', 'mgs': 0, 'volt': 0.8984, 'depth': 1.538, 'time': 8, 'pitch': 0.97, 'roll': -0.84, 'pres': 184}
{'lipoC2': 7.28, 'lipoC3S1': 3.82, 'temp': 27.0, 'lipoC3S3': 11.55, 'lipoC3S2': 7.64, 'rot1': 16, 'rot0': 16, 'rot3': 8, 'rot2': 8, 'state': 'normal', 'yaw': 18.06, 'datetime': '2018-10-09 20:21:18.227035', 'mgs': 0, 'volt': 0.8984, 'depth': 1.538, 'time': 8, 'pitch': 1.09, 'roll': -0.8, 'pres': 184}
{'lipoC2': 7.28, 'lipoC3S1': 3.82, 'temp': 27.0, 'lipoC3S3': 11.55, 'lipoC3S2': 7.64, 'rot1': 16, 'rot0': 16, 'rot3': 8, 'rot2': 8, 'state': 'normal', 'yaw': 18.87, 'datetime': '2018-10-09 20:21:18.330889', 'mgs': 0, 'volt': 0.8984, 'depth': 1.538, 'time': 8, 'pitch': 1.17, 'roll': -0.78, 'pres': 184}
{'lipoC2': 7.28, 'lipoC3S1': 3.82, 'temp': 26.94, 'lipoC3S3': 11.55, 'lipoC3S2': 7.64, 'rot1': 16, 'rot0': 16, 'rot3': 8, 'rot2': 8, 'state': 'normal', 'yaw': 19.68, 'datetime': '2018-10-09 20:21:18.435626', 'mgs': 0, 'volt': 0.8984, 'depth': 1.538, 'time': 8, 'pitch': 1.24, 'roll': -0.76, 'pres': 184}
{'lipoC2': 7.28, 'lipoC3S1': 3.82, 'temp': 26.94, 'lipoC3S3': 11.54, 'lipoC3S2': 7.64, 'rot1': 16, 'rot0': 16, 'rot3': 8, 'rot2': 8, 'state': 'normal', 'yaw': 20.56, 'datetime': '2018-10-09 20:21:18.537816', 'mgs': 0, 'volt': 0.8984, 'depth': 1.538, 'time': 8, 'pitch': 1.29, 'roll': -0.81, 'pres': 184}
{'lipoC2': 7.28, 'lipoC3S1': 3.82, 'temp': 26.94, 'lipoC3S3': 11.55, 'lipoC3S2': 7.64, 'rot1': 16, 'rot0': 16, 'rot3': 8, 'rot2': 8, 'state': 'normal', 'yaw': 21.33, 'datetime': '2018-10-09 20:21:18.643765', 'mgs': 0, 'volt': 0.8984, 'depth': 1.538, 'time': 8, 'pitch': 1.31, 'roll': -0.89, 'pres': 184}
{'lipoC2': 7.28, 'lipoC3S1': 3.82, 'temp': 27.0, 'lipoC3S3': 11.55, 'lipoC3S2': 7.64, 'rot1': 16, 'rot0': 16, 'rot3': 8, 'rot2': 8, 'state': 'normal', 'yaw': 22.09, 'datetime': '2018-10-09 20:21:18.747922', 'mgs': 0, 'volt': 0.8984, 'depth': 1.538, 'time': 9, 'pitch': 1.33, 'roll': -1.0, 'pres': 184}
{'lipoC2': 7.28, 'lipoC3S1': 3.82, 'temp': 27.0, 'lipoC3S3': 11.55, 'lipoC3S2': 7.64, 'rot1': 16, 'rot0': 16, 'rot3': 8, 'rot2': 8, 'state': 'normal', 'yaw': 22.9, 'datetime': '2018-10-09 20:21:18.852537', 'mgs': 0, 'volt': 0.8984, 'depth': 1.538, 'time': 9, 'pitch': 1.3, 'roll': -1.11, 'pres': 184}
{'lipoC2': 7.28, 'lipoC3S1': 3.82, 'temp': 27.0, 'lipoC3S3': 11.55, 'lipoC3S2': 7.64, 'rot1': 16, 'rot0': 16, 'rot3': 8, 'rot2': 8, 'state': 'normal', 'yaw': 23.64, 'datetime': '2018-10-09 20:21:18.956191', 'mgs': 0, 'volt': 0.9033, 'depth': 1.614, 'time': 9, 'pitch': 1.2, 'roll': -1.23, 'pres': 185}
{'lipoC2': 7.28, 'lipoC3S1': 3.82, 'temp': 27.0, 'lipoC3S3': 11.55, 'lipoC3S2': 7.64, 'rot1': 16, 'rot0': 16, 'rot3': 8, 'rot2': 8, 'state': 'normal', 'yaw': 24.42, 'datetime': '2018-10-09 20:21:19.059525', 'mgs': 0, 'volt': 0.8984, 'depth': 1.538, 'time': 9, 'pitch': 1.07, 'roll': -1.35, 'pres': 184}
{'lipoC2': 7.28, 'lipoC3S1': 3.82, 'temp': 27.0, 'lipoC3S3': 11.55, 'lipoC3S2': 7.64, 'rot1': 16, 'rot0': 16, 'rot3': 8, 'rot2': 8, 'state': 'normal', 'yaw': 25.13, 'datetime': '2018-10-09 20:21:19.166892', 'mgs': 0, 'volt': 0.8984, 'depth': 1.538, 'time': 9, 'pitch': 0.99, 'roll': -1.42, 'pres': 184}
{'lipoC2': 7.28, 'lipoC3S1': 3.82, 'temp': 27.0, 'lipoC3S3': 11.55, 'lipoC3S2': 7.64, 'rot1': 16, 'rot0': 16, 'rot3': 8, 'rot2': 8, 'state': 'normal', 'yaw': 25.8, 'datetime': '2018-10-09 20:21:19.266513', 'mgs': 0, 'volt': 0.8984, 'depth': 1.538, 'time': 9, 'pitch': 0.96, 'roll': -1.43, 'pres': 184}
{'lipoC2': 7.28, 'lipoC3S1': 3.82, 'temp': 27.0, 'lipoC3S3': 11.55, 'lipoC3S2': 7.64, 'rot1': 16, 'rot0': 16, 'rot3': 8, 'rot2': 8, 'state': 'normal', 'yaw': 26.53, 'datetime': '2018-10-09 20:21:19.370093', 'mgs': 0, 'volt': 0.8984, 'depth': 1.538, 'time': 9, 'pitch': 0.97, 'roll': -1.42, 'pres': 184}
{'lipoC2': 7.28, 'lipoC3S1': 3.82, 'temp': 26.94, 'lipoC3S3': 11.55, 'lipoC3S2': 7.64, 'rot1': 16, 'rot0': 16, 'rot3': 8, 'rot2': 8, 'state': 'normal', 'yaw': 27.17, 'datetime': '2018-10-09 20:21:19.473688', 'mgs': 0, 'volt': 0.8984, 'depth': 1.538, 'time': 9, 'pitch': 0.99, 'roll': -1.41, 'pres': 184}
{'lipoC2': 7.28, 'lipoC3S1': 3.82, 'temp': 26.94, 'lipoC3S3': 11.54, 'lipoC3S2': 7.64, 'rot1': 16, 'rot0': 16, 'rot3': 8, 'rot2': 8, 'state': 'normal', 'yaw': 27.81, 'datetime': '2018-10-09 20:21:19.577147', 'mgs': 0, 'volt': 0.9033, 'depth': 1.614, 'time': 9, 'pitch': 1.0, 'roll': -1.38, 'pres': 185}
{'lipoC2': 7.28, 'lipoC3S1': 3.79, 'temp': 27.0, 'lipoC3S3': 11.51, 'lipoC3S2': 7.62, 'rot1': 16, 'rot0': 16, 'rot3': 8, 'rot2': 8, 'state': 'normal', 'yaw': 28.43, 'datetime': '2018-10-09 20:21:19.680773', 'mgs': 0, 'volt': 0.9277, 'depth': 1.996, 'time': 9, 'pitch': 1.02, 'roll': -1.31, 'pres': 190}
{'lipoC2': 7.28, 'lipoC3S1': 3.79, 'temp': 27.0, 'lipoC3S3': 11.52, 'lipoC3S2': 7.63, 'rot1': 16, 'rot0': 16, 'rot3': 9, 'rot2': 8, 'state': 'normal', 'yaw': 29.08, 'datetime': '2018-10-09 20:21:19.784379', 'mgs': 0, 'volt': 0.9033, 'depth': 1.614, 'time': 10, 'pitch': 1.16, 'roll': -1.16, 'pres': 185}
{'lipoC2': 7.28, 'lipoC3S1': 3.81, 'temp': 27.0, 'lipoC3S3': 11.44, 'lipoC3S2': 7.62, 'rot1': 16, 'rot0': 16, 'rot3': 9, 'rot2': 9, 'state': 'normal', 'yaw': 29.66, 'datetime': '2018-10-09 20:21:19.889257', 'mgs': 0, 'volt': 0.9033, 'depth': 1.614, 'time': 10, 'pitch': 1.43, 'roll': -1.01, 'pres': 185}
{'lipoC2': 7.28, 'lipoC3S1': 3.78, 'temp': 27.0, 'lipoC3S3': 11.52, 'lipoC3S2': 7.63, 'rot1': 16, 'rot0': 16, 'rot3': 10, 'rot2': 9, 'state': 'normal', 'yaw': 30.26, 'datetime': '2018-10-09 20:21:19.993104', 'mgs': 0, 'volt': 0.9131, 'depth': 1.767, 'time': 10, 'pitch': 1.86, 'roll': -0.85, 'pres': 187}
{'lipoC2': 7.28, 'lipoC3S1': 3.81, 'temp': 27.0, 'lipoC3S3': 11.46, 'lipoC3S2': 7.61, 'rot1': 16, 'rot0': 16, 'rot3': 10, 'rot2': 10, 'state': 'normal', 'yaw': 30.76, 'datetime': '2018-10-09 20:21:20.098300', 'mgs': 0, 'volt': 0.8984, 'depth': 1.538, 'time': 10, 'pitch': 2.31, 'roll': -0.72, 'pres': 184}
{'lipoC2': 7.28, 'lipoC3S1': 3.77, 'temp': 26.94, 'lipoC3S3': 11.52, 'lipoC3S2': 7.59, 'rot1': 16, 'rot0': 16, 'rot3': 11, 'rot2': 10, 'state': 'normal', 'yaw': 31.29, 'datetime': '2018-10-09 20:21:20.202641', 'mgs': 0, 'volt': 0.8984, 'depth': 1.538, 'time': 10, 'pitch': 2.83, 'roll': -0.56, 'pres': 184}
{'lipoC2': 7.28, 'lipoC3S1': 3.83, 'temp': 26.94, 'lipoC3S3': 11.54, 'lipoC3S2': 7.64, 'rot1': 16, 'rot0': 16, 'rot3': 11, 'rot2': 11, 'state': 'normal', 'yaw': 31.75, 'datetime': '2018-10-09 20:21:20.306498', 'mgs': 0, 'volt': 0.8984, 'depth': 1.538, 'time': 10, 'pitch': 3.27, 'roll': -0.45, 'pres': 184}
{'lipoC2': 7.28, 'lipoC3S1': 3.78, 'temp': 26.94, 'lipoC3S3': 11.54, 'lipoC3S2': 7.64, 'rot1': 16, 'rot0': 16, 'rot3': 11, 'rot2': 11, 'state': 'normal', 'yaw': 32.22, 'datetime': '2018-10-09 20:21:20.411783', 'mgs': 0, 'volt': 0.8936, 'depth': 1.462, 'time': 10, 'pitch': 3.52, 'roll': -0.4, 'pres': 183}
{'lipoC2': 7.28, 'lipoC3S1': 3.82, 'temp': 26.94, 'lipoC3S3': 11.54, 'lipoC3S2': 7.64, 'rot1': 16, 'rot0': 16, 'rot3': 11, 'rot2': 11, 'state': 'normal', 'yaw': 32.74, 'datetime': '2018-10-09 20:21:20.515779', 'mgs': 0, 'volt': 0.8936, 'depth': 1.462, 'time': 10, 'pitch': 3.59, 'roll': -0.37, 'pres': 183}
{'lipoC2': 7.28, 'lipoC3S1': 3.82, 'temp': 26.94, 'lipoC3S3': 11.54, 'lipoC3S2': 7.64, 'rot1': 16, 'rot0': 16, 'rot3': 11, 'rot2': 11, 'state': 'normal', 'yaw': 33.23, 'datetime': '2018-10-09 20:21:20.619726', 'mgs': 0, 'volt': 0.8936, 'depth': 1.462, 'time': 10, 'pitch': 3.5, 'roll': -0.34, 'pres': 183}
{'lipoC2': 7.28, 'lipoC3S1': 3.82, 'temp': 26.94, 'lipoC3S3': 11.54, 'lipoC3S2': 7.64, 'rot1': 16, 'rot0': 16, 'rot3': 11, 'rot2': 11, 'state': 'normal', 'yaw': 33.78, 'datetime': '2018-10-09 20:21:20.723983', 'mgs': 0, 'volt': 0.8887, 'depth': 1.385, 'time': 10, 'pitch': 3.27, 'roll': -0.35, 'pres': 182}
{'lipoC2': 7.28, 'lipoC3S1': 3.82, 'temp': 26.94, 'lipoC3S3': 11.54, 'lipoC3S2': 7.64, 'rot1': 16, 'rot0': 16, 'rot3': 11, 'rot2': 11, 'state': 'normal', 'yaw': 34.27, 'datetime': '2018-10-09 20:21:20.828181', 'mgs': 0, 'volt': 0.8887, 'depth': 1.385, 'time': 11, 'pitch': 2.98, 'roll': -0.37, 'pres': 182}
{'lipoC2': 7.28, 'lipoC3S1': 3.82, 'temp': 27.0, 'lipoC3S3': 11.54, 'lipoC3S2': 7.64, 'rot1': 16, 'rot0': 16, 'rot3': 11, 'rot2': 11, 'state': 'normal', 'yaw': 34.77, 'datetime': '2018-10-09 20:21:20.932217', 'mgs': 0, 'volt': 0.8838, 'depth': 1.309, 'time': 11, 'pitch': 2.66, 'roll': -0.42, 'pres': 181}
{'lipoC2': 7.28, 'lipoC3S1': 3.82, 'temp': 27.0, 'lipoC3S3': 11.54, 'lipoC3S2': 7.64, 'rot1': 16, 'rot0': 16, 'rot3': 11, 'rot2': 11, 'state': 'normal', 'yaw': 35.31, 'datetime': '2018-10-09 20:21:21.036023', 'mgs': 0, 'volt': 0.9033, 'depth': 1.614, 'time': 11, 'pitch': 2.3, 'roll': -0.48, 'pres': 185}
{'lipoC2': 7.28, 'lipoC3S1': 3.77, 'temp': 26.94, 'lipoC3S3': 11.51, 'lipoC3S2': 7.59, 'rot1': 16, 'rot0': 16, 'rot3': 12, 'rot2': 11, 'state': 'normal', 'yaw': 35.79, 'datetime': '2018-10-09 20:21:21.140096', 'mgs': 0, 'volt': 0.8838, 'depth': 1.309, 'time': 11, 'pitch': 2.0, 'roll': -0.56, 'pres': 181}
{'lipoC2': 7.28, 'lipoC3S1': 3.81, 'temp': 26.94, 'lipoC3S3': 11.51, 'lipoC3S2': 7.62, 'rot1': 16, 'rot0': 16, 'rot3': 12, 'rot2': 12, 'state': 'normal', 'yaw': 36.26, 'datetime': '2018-10-09 20:21:21.244933', 'mgs': 0, 'volt': 0.8887, 'depth': 1.385, 'time': 11, 'pitch': 1.82, 'roll': -0.61, 'pres': 182}
{'lipoC2': 7.28, 'lipoC3S1': 3.82, 'temp': 27.0, 'lipoC3S3': 11.54, 'lipoC3S2': 7.64, 'rot1': 16, 'rot0': 16, 'rot3': 13, 'rot2': 12, 'state': 'normal', 'yaw': 36.76, 'datetime': '2018-10-09 20:21:21.348960', 'mgs': 0, 'volt': 0.8789, 'depth': 1.233, 'time': 11, 'pitch': 1.82, 'roll': -0.69, 'pres': 180}
{'lipoC2': 7.28, 'lipoC3S1': 3.82, 'temp': 27.0, 'lipoC3S3': 11.51, 'lipoC3S2': 7.64, 'rot1': 16, 'rot0': 16, 'rot3': 13, 'rot2': 12, 'state': 'normal', 'yaw': 37.2, 'datetime': '2018-10-09 20:21:21.454739', 'mgs': 0, 'volt': 0.8789, 'depth': 1.233, 'time': 11, 'pitch': 1.82, 'roll': -0.77, 'pres': 180}
{'lipoC2': 7.28, 'lipoC3S1': 3.77, 'temp': 27.0, 'lipoC3S3': 11.54, 'lipoC3S2': 7.64, 'rot1': 16, 'rot0': 16, 'rot3': 13, 'rot2': 12, 'state': 'normal', 'yaw': 37.66, 'datetime': '2018-10-09 20:21:21.558243', 'mgs': 0, 'volt': 0.8789, 'depth': 1.233, 'time': 11, 'pitch': 1.84, 'roll': -0.81, 'pres': 180}
{'lipoC2': 7.28, 'lipoC3S1': 3.77, 'temp': 27.0, 'lipoC3S3': 11.54, 'lipoC3S2': 7.64, 'rot1': 16, 'rot0': 16, 'rot3': 13, 'rot2': 12, 'state': 'normal', 'yaw': 38.09, 'datetime': '2018-10-09 20:21:21.663547', 'mgs': 0, 'volt': 0.8789, 'depth': 1.233, 'time': 11, 'pitch': 1.96, 'roll': -0.79, 'pres': 180}
{'lipoC2': 7.29, 'lipoC3S1': 3.82, 'temp': 27.0, 'lipoC3S3': 11.54, 'lipoC3S2': 7.64, 'rot1': 16, 'rot0': 16, 'rot3': 13, 'rot2': 12, 'state': 'normal', 'yaw': 38.55, 'datetime': '2018-10-09 20:21:21.767579', 'mgs': 0, 'volt': 0.874, 'depth': 1.157, 'time': 12, 'pitch': 2.17, 'roll': -0.78, 'pres': 179}
{'lipoC2': 7.28, 'lipoC3S1': 3.82, 'temp': 27.0, 'lipoC3S3': 11.54, 'lipoC3S2': 7.67, 'rot1': 16, 'rot0': 16, 'rot3': 13, 'rot2': 12, 'state': 'normal', 'yaw': 38.97, 'datetime': '2018-10-09 20:21:21.871592', 'mgs': 0, 'volt': 0.874, 'depth': 1.157, 'time': 12, 'pitch': 2.43, 'roll': -0.76, 'pres': 179}
{'lipoC2': 7.28, 'lipoC3S1': 3.81, 'temp': 27.0, 'lipoC3S3': 11.5, 'lipoC3S2': 7.62, 'rot1': 16, 'rot0': 16, 'rot3': 14, 'rot2': 12, 'state': 'normal', 'yaw': 39.37, 'datetime': '2018-10-09 20:21:21.975619', 'mgs': 0, 'volt': 0.8838, 'depth': 1.309, 'time': 12, 'pitch': 2.72, 'roll': -0.74, 'pres': 181}
{'lipoC2': 7.28, 'lipoC3S1': 3.81, 'temp': 27.0, 'lipoC3S3': 11.54, 'lipoC3S2': 7.58, 'rot1': 16, 'rot0': 16, 'rot3': 14, 'rot2': 13, 'state': 'normal', 'yaw': 39.8, 'datetime': '2018-10-09 20:21:22.079676', 'mgs': 0, 'volt': 0.8789, 'depth': 1.233, 'time': 12, 'pitch': 2.89, 'roll': -0.72, 'pres': 180}
{'lipoC2': 7.28, 'lipoC3S1': 3.78, 'temp': 27.0, 'lipoC3S3': 11.54, 'lipoC3S2': 7.64, 'rot1': 17, 'rot0': 16, 'rot3': 14, 'rot2': 13, 'state': 'normal', 'yaw': 40.15, 'datetime': '2018-10-09 20:21:22.183844', 'mgs': 0, 'volt': 0.8789, 'depth': 1.233, 'time': 12, 'pitch': 2.88, 'roll': -0.7, 'pres': 180}
{'lipoC2': 7.28, 'lipoC3S1': 3.82, 'temp': 27.0, 'lipoC3S3': 11.54, 'lipoC3S2': 7.64, 'rot1': 17, 'rot0': 17, 'rot3': 14, 'rot2': 13, 'state': 'normal', 'yaw': 40.43, 'datetime': '2018-10-09 20:21:22.287807', 'mgs': 0, 'volt': 0.8789, 'depth': 1.233, 'time': 12, 'pitch': 2.89, 'roll': -0.64, 'pres': 180}
{'lipoC2': 7.28, 'lipoC3S1': 3.82, 'temp': 26.94, 'lipoC3S3': 11.54, 'lipoC3S2': 7.64, 'rot1': 17, 'rot0': 17, 'rot3': 14, 'rot2': 13, 'state': 'normal', 'yaw': 40.68, 'datetime': '2018-10-09 20:21:22.391865', 'mgs': 0, 'volt': 0.8789, 'depth': 1.233, 'time': 12, 'pitch': 2.92, 'roll': -0.53, 'pres': 180}
{'lipoC2': 7.28, 'lipoC3S1': 3.82, 'temp': 26.94, 'lipoC3S3': 11.48, 'lipoC3S2': 7.64, 'rot1': 17, 'rot0': 17, 'rot3': 14, 'rot2': 13, 'state': 'normal', 'yaw': 40.86, 'datetime': '2018-10-09 20:21:22.497172', 'mgs': 0, 'volt': 0.8789, 'depth': 1.233, 'time': 12, 'pitch': 3.06, 'roll': -0.42, 'pres': 180}
{'lipoC2': 7.28, 'lipoC3S1': 3.79, 'temp': 27.0, 'lipoC3S3': 11.54, 'lipoC3S2': 7.64, 'rot1': 18, 'rot0': 17, 'rot3': 14, 'rot2': 13, 'state': 'normal', 'yaw': 40.99, 'datetime': '2018-10-09 20:21:22.601189', 'mgs': 0, 'volt': 0.8789, 'depth': 1.233, 'time': 12, 'pitch': 3.28, 'roll': -0.33, 'pres': 180}
{'lipoC2': 7.28, 'lipoC3S1': 3.82, 'temp': 27.0, 'lipoC3S3': 11.54, 'lipoC3S2': 7.64, 'rot1': 18, 'rot0': 18, 'rot3': 14, 'rot2': 13, 'state': 'normal', 'yaw': 41.02, 'datetime': '2018-10-09 20:21:22.706509', 'mgs': 0, 'volt': 0.8789, 'depth': 1.233, 'time': 12, 'pitch': 3.48, 'roll': -0.25, 'pres': 180}
{'lipoC2': 7.28, 'lipoC3S1': 3.82, 'temp': 26.94, 'lipoC3S3': 11.54, 'lipoC3S2': 7.64, 'rot1': 18, 'rot0': 18, 'rot3': 14, 'rot2': 13, 'state': 'normal', 'yaw': 41.02, 'datetime': '2018-10-09 20:21:22.810544', 'mgs': 0, 'volt': 0.8838, 'depth': 1.309, 'time': 13, 'pitch': 3.66, 'roll': -0.2, 'pres': 181}
{'lipoC2': 7.28, 'lipoC3S1': 3.82, 'temp': 26.94, 'lipoC3S3': 11.54, 'lipoC3S2': 7.64, 'rot1': 19, 'rot0': 18, 'rot3': 14, 'rot2': 13, 'state': 'normal', 'yaw': 40.98, 'datetime': '2018-10-09 20:21:22.915335', 'mgs': 0, 'volt': 0.8838, 'depth': 1.309, 'time': 13, 'pitch': 3.79, 'roll': -0.19, 'pres': 181}
{'lipoC2': 7.28, 'lipoC3S1': 3.82, 'temp': 26.94, 'lipoC3S3': 11.54, 'lipoC3S2': 7.64, 'rot1': 19, 'rot0': 18, 'rot3': 14, 'rot2': 13, 'state': 'normal', 'yaw': 40.87, 'datetime': '2018-10-09 20:21:23.020146', 'mgs': 0, 'volt': 0.8838, 'depth': 1.309, 'time': 13, 'pitch': 3.85, 'roll': -0.19, 'pres': 181}
{'lipoC2': 7.28, 'lipoC3S1': 3.82, 'temp': 27.0, 'lipoC3S3': 11.54, 'lipoC3S2': 7.64, 'rot1': 19, 'rot0': 19, 'rot3': 14, 'rot2': 13, 'state': 'normal', 'yaw': 40.68, 'datetime': '2018-10-09 20:21:23.124148', 'mgs': 0, 'volt': 0.8838, 'depth': 1.309, 'time': 13, 'pitch': 3.85, 'roll': -0.2, 'pres': 181}
{'lipoC2': 7.28, 'lipoC3S1': 3.82, 'temp': 27.0, 'lipoC3S3': 11.54, 'lipoC3S2': 7.64, 'rot1': 20, 'rot0': 19, 'rot3': 14, 'rot2': 13, 'state': 'normal', 'yaw': 40.46, 'datetime': '2018-10-09 20:21:23.228195', 'mgs': 0, 'volt': 0.9082, 'depth': 1.691, 'time': 13, 'pitch': 3.85, 'roll': -0.22, 'pres': 186}
{'lipoC2': 7.28, 'lipoC3S1': 3.82, 'temp': 26.94, 'lipoC3S3': 11.51, 'lipoC3S2': 7.64, 'rot1': 20, 'rot0': 19, 'rot3': 14, 'rot2': 13, 'state': 'normal', 'yaw': 40.16, 'datetime': '2018-10-09 20:21:23.332157', 'mgs': 0, 'volt': 0.8838, 'depth': 1.309, 'time': 13, 'pitch': 3.85, 'roll': -0.25, 'pres': 181}
{'lipoC2': 7.28, 'lipoC3S1': 3.79, 'temp': 26.94, 'lipoC3S3': 11.54, 'lipoC3S2': 7.64, 'rot1': 20, 'rot0': 20, 'rot3': 14, 'rot2': 13, 'state': 'normal', 'yaw': 39.84, 'datetime': '2018-10-09 20:21:23.436183', 'mgs': 0, 'volt': 0.8838, 'depth': 1.309, 'time': 13, 'pitch': 3.8, 'roll': -0.35, 'pres': 181}
{'lipoC2': 7.28, 'lipoC3S1': 3.82, 'temp': 27.0, 'lipoC3S3': 11.54, 'lipoC3S2': 7.64, 'rot1': 21, 'rot0': 20, 'rot3': 14, 'rot2': 13, 'state': 'normal', 'yaw': 39.47, 'datetime': '2018-10-09 20:21:23.540123', 'mgs': 0, 'volt': 0.8838, 'depth': 1.309, 'time': 13, 'pitch': 3.69, 'roll': -0.47, 'pres': 181}
{'lipoC2': 7.28, 'lipoC3S1': 3.82, 'temp': 27.0, 'lipoC3S3': 11.54, 'lipoC3S2': 7.64, 'rot1': 21, 'rot0': 20, 'rot3': 14, 'rot2': 13, 'state': 'normal', 'yaw': 39.04, 'datetime': '2018-10-09 20:21:23.644117', 'mgs': 0, 'volt': 0.8838, 'depth': 1.309, 'time': 13, 'pitch': 3.55, 'roll': -0.64, 'pres': 181}
{'lipoC2': 7.28, 'lipoC3S1': 3.82, 'temp': 27.0, 'lipoC3S3': 11.54, 'lipoC3S2': 7.63, 'rot1': 21, 'rot0': 20, 'rot3': 14, 'rot2': 13, 'state': 'normal', 'yaw': 38.62, 'datetime': '2018-10-09 20:21:23.749591', 'mgs': 0, 'volt': 0.8887, 'depth': 1.385, 'time': 14, 'pitch': 3.41, 'roll': -0.81, 'pres': 182}
{'lipoC2': 7.28, 'lipoC3S1': 3.82, 'temp': 26.94, 'lipoC3S3': 11.54, 'lipoC3S2': 7.64, 'rot1': 21, 'rot0': 21, 'rot3': 14, 'rot2': 13, 'state': 'normal', 'yaw': 38.13, 'datetime': '2018-10-09 20:21:23.853391', 'mgs': 0, 'volt': 0.9033, 'depth': 1.614, 'time': 14, 'pitch': 3.26, 'roll': -1.01, 'pres': 185}
{'lipoC2': 7.28, 'lipoC3S1': 3.82, 'temp': 26.94, 'lipoC3S3': 11.54, 'lipoC3S2': 7.64, 'rot1': 22, 'rot0': 21, 'rot3': 14, 'rot2': 13, 'state': 'normal', 'yaw': 37.67, 'datetime': '2018-10-09 20:21:23.957958', 'mgs': 0, 'volt': 0.8887, 'depth': 1.385, 'time': 14, 'pitch': 3.15, 'roll': -1.19, 'pres': 182}
{'lipoC2': 7.28, 'lipoC3S1': 3.82, 'temp': 27.0, 'lipoC3S3': 11.54, 'lipoC3S2': 7.64, 'rot1': 22, 'rot0': 21, 'rot3': 14, 'rot2': 13, 'state': 'normal', 'yaw': 37.2, 'datetime': '2018-10-09 20:21:24.062818', 'mgs': 0, 'volt': 0.8887, 'depth': 1.385, 'time': 14, 'pitch': 3.05, 'roll': -1.35, 'pres': 182}
{'lipoC2': 7.28, 'lipoC3S1': 3.82, 'temp': 27.0, 'lipoC3S3': 11.54, 'lipoC3S2': 7.64, 'rot1': 22, 'rot0': 21, 'rot3': 14, 'rot2': 13, 'state': 'normal', 'yaw': 36.64, 'datetime': '2018-10-09 20:21:24.166730', 'mgs': 0, 'volt': 0.8887, 'depth': 1.385, 'time': 14, 'pitch': 2.98, 'roll': -1.51, 'pres': 182}
{'lipoC2': 7.28, 'lipoC3S1': 3.82, 'temp': 27.0, 'lipoC3S3': 11.54, 'lipoC3S2': 7.64, 'rot1': 22, 'rot0': 21, 'rot3': 14, 'rot2': 13, 'state': 'normal', 'yaw': 36.11, 'datetime': '2018-10-09 20:21:24.272073', 'mgs': 0, 'volt': 0.8936, 'depth': 1.462, 'time': 14, 'pitch': 2.89, 'roll': -1.66, 'pres': 183}
{'lipoC2': 7.28, 'lipoC3S1': 3.82, 'temp': 27.0, 'lipoC3S3': 11.54, 'lipoC3S2': 7.64, 'rot1': 23, 'rot0': 22, 'rot3': 14, 'rot2': 13, 'state': 'normal', 'yaw': 35.51, 'datetime': '2018-10-09 20:21:24.376081', 'mgs': 0, 'volt': 0.8887, 'depth': 1.385, 'time': 14, 'pitch': 2.79, 'roll': -1.79, 'pres': 182}
{'lipoC2': 7.28, 'lipoC3S1': 3.82, 'temp': 27.0, 'lipoC3S3': 11.54, 'lipoC3S2': 7.64, 'rot1': 23, 'rot0': 22, 'rot3': 14, 'rot2': 13, 'state': 'normal', 'yaw': 34.96, 'datetime': '2018-10-09 20:21:24.480120', 'mgs': 0, 'volt': 0.8936, 'depth': 1.462, 'time': 14, 'pitch': 2.74, 'roll': -1.9, 'pres': 183}
{'lipoC2': 7.28, 'lipoC3S1': 3.83, 'temp': 27.0, 'lipoC3S3': 11.54, 'lipoC3S2': 7.64, 'rot1': 23, 'rot0': 22, 'rot3': 14, 'rot2': 13, 'state': 'normal', 'yaw': 34.42, 'datetime': '2018-10-09 20:21:24.584300', 'mgs': 0, 'volt': 0.8936, 'depth': 1.462, 'time': 14, 'pitch': 2.73, 'roll': -2.0, 'pres': 183}
{'lipoC2': 7.28, 'lipoC3S1': 3.82, 'temp': 27.0, 'lipoC3S3': 11.54, 'lipoC3S2': 7.64, 'rot1': 23, 'rot0': 22, 'rot3': 14, 'rot2': 13, 'state': 'normal', 'yaw': 33.83, 'datetime': '2018-10-09 20:21:24.688305', 'mgs': 0, 'volt': 0.8936, 'depth': 1.462, 'time': 14, 'pitch': 2.72, 'roll': -2.05, 'pres': 183}
{'lipoC2': 7.28, 'lipoC3S1': 3.82, 'temp': 27.0, 'lipoC3S3': 11.54, 'lipoC3S2': 7.64, 'rot1': 24, 'rot0': 22, 'rot3': 14, 'rot2': 13, 'state': 'normal', 'yaw': 33.29, 'datetime': '2018-10-09 20:21:24.792327', 'mgs': 0, 'volt': 0.8936, 'depth': 1.462, 'time': 15, 'pitch': 2.78, 'roll': -2.08, 'pres': 183}
{'lipoC2': 7.28, 'lipoC3S1': 3.82, 'temp': 27.0, 'lipoC3S3': 11.54, 'lipoC3S2': 7.64, 'rot1': 24, 'rot0': 22, 'rot3': 14, 'rot2': 13, 'state': 'normal', 'yaw': 32.68, 'datetime': '2018-10-09 20:21:24.896365', 'mgs': 0, 'volt': 0.8984, 'depth': 1.538, 'time': 15, 'pitch': 2.86, 'roll': -2.12, 'pres': 184}
{'lipoC2': 7.28, 'lipoC3S1': 3.82, 'temp': 27.0, 'lipoC3S3': 11.54, 'lipoC3S2': 7.64, 'rot1': 24, 'rot0': 23, 'rot3': 14, 'rot2': 13, 'state': 'normal', 'yaw': 32.13, 'datetime': '2018-10-09 20:21:25.000348', 'mgs': 0, 'volt': 0.8984, 'depth': 1.538, 'time': 15, 'pitch': 2.94, 'roll': -2.14, 'pres': 184}
{'lipoC2': 7.28, 'lipoC3S1': 3.82, 'temp': 27.0, 'lipoC3S3': 11.54, 'lipoC3S2': 7.64, 'rot1': 24, 'rot0': 23, 'rot3': 14, 'rot2': 13, 'state': 'normal', 'yaw': 31.61, 'datetime': '2018-10-09 20:21:25.105361', 'mgs': 0, 'volt': 0.8984, 'depth': 1.538, 'time': 15, 'pitch': 3.01, 'roll': -2.17, 'pres': 184}
{'lipoC2': 7.28, 'lipoC3S1': 3.82, 'temp': 27.0, 'lipoC3S3': 11.54, 'lipoC3S2': 7.64, 'rot1': 24, 'rot0': 23, 'rot3': 14, 'rot2': 13, 'state': 'normal', 'yaw': 31.03, 'datetime': '2018-10-09 20:21:25.209448', 'mgs': 0, 'volt': 0.9131, 'depth': 1.767, 'time': 15, 'pitch': 3.12, 'roll': -2.2, 'pres': 187}
{'lipoC2': 7.28, 'lipoC3S1': 3.81, 'temp': 27.0, 'lipoC3S3': 11.43, 'lipoC3S2': 7.61, 'rot1': 24, 'rot0': 23, 'rot3': 14, 'rot2': 13, 'state': 'normal', 'yaw': 30.53, 'datetime': '2018-10-09 20:21:25.314615', 'mgs': 0, 'volt': 0.8984, 'depth': 1.538, 'time': 15, 'pitch': 3.22, 'roll': -2.23, 'pres': 184}
{'lipoC2': 7.28, 'lipoC3S1': 3.77, 'temp': 27.0, 'lipoC3S3': 11.52, 'lipoC3S2': 7.6, 'rot1': 24, 'rot0': 23, 'rot3': 14, 'rot2': 14, 'state': 'normal', 'yaw': 29.96, 'datetime': '2018-10-09 20:21:25.418516', 'mgs': 0, 'volt': 0.8984, 'depth': 1.538, 'time': 15, 'pitch': 3.45, 'roll': -2.26, 'pres': 184}
{'lipoC2': 7.28, 'lipoC3S1': 3.82, 'temp': 26.94, 'lipoC3S3': 11.54, 'lipoC3S2': 7.64, 'rot1': 25, 'rot0': 23, 'rot3': 15, 'rot2': 14, 'state': 'normal', 'yaw': 29.45, 'datetime': '2018-10-09 20:21:25.523888', 'mgs': 0, 'volt': 0.8984, 'depth': 1.538, 'time': 15, 'pitch': 3.76, 'roll': -2.29, 'pres': 184}
{'lipoC2': 7.28, 'lipoC3S1': 3.82, 'temp': 26.94, 'lipoC3S3': 11.54, 'lipoC3S2': 7.64, 'rot1': 25, 'rot0': 23, 'rot3': 15, 'rot2': 14, 'state': 'normal', 'yaw': 28.92, 'datetime': '2018-10-09 20:21:25.627800', 'mgs': 0, 'volt': 0.8984, 'depth': 1.538, 'time': 15, 'pitch': 4.02, 'roll': -2.35, 'pres': 184}
{'lipoC2': 7.28, 'lipoC3S1': 3.82, 'temp': 27.0, 'lipoC3S3': 11.54, 'lipoC3S2': 7.64, 'rot1': 25, 'rot0': 23, 'rot3': 15, 'rot2': 14, 'state': 'normal', 'yaw': 28.47, 'datetime': '2018-10-09 20:21:25.731922', 'mgs': 0, 'volt': 0.8984, 'depth': 1.538, 'time': 15, 'pitch': 4.13, 'roll': -2.45, 'pres': 184}
{'lipoC2': 7.28, 'lipoC3S1': 3.82, 'temp': 27.0, 'lipoC3S3': 11.54, 'lipoC3S2': 7.61, 'rot1': 25, 'rot0': 23, 'rot3': 15, 'rot2': 14, 'state': 'normal', 'yaw': 28.06, 'datetime': '2018-10-09 20:21:25.835921', 'mgs': 0, 'volt': 0.8984, 'depth': 1.538, 'time': 16, 'pitch': 4.14, 'roll': -2.56, 'pres': 184}
{'lipoC2': 7.28, 'lipoC3S1': 3.82, 'temp': 26.94, 'lipoC3S3': 11.54, 'lipoC3S2': 7.64, 'rot1': 25, 'rot0': 23, 'rot3': 15, 'rot2': 14, 'state': 'normal', 'yaw': 27.64, 'datetime': '2018-10-09 20:21:25.939919', 'mgs': 0, 'volt': 0.8984, 'depth': 1.538, 'time': 16, 'pitch': 4.12, 'roll': -2.71, 'pres': 184}
{'lipoC2': 7.28, 'lipoC3S1': 3.82, 'temp': 26.94, 'lipoC3S3': 11.54, 'lipoC3S2': 7.64, 'rot1': 25, 'rot0': 23, 'rot3': 15, 'rot2': 14, 'state': 'normal', 'yaw': 27.29, 'datetime': '2018-10-09 20:21:26.043936', 'mgs': 0, 'volt': 0.8984, 'depth': 1.538, 'time': 16, 'pitch': 4.07, 'roll': -2.84, 'pres': 184}
{'lipoC2': 7.28, 'lipoC3S1': 3.82, 'temp': 26.94, 'lipoC3S3': 11.54, 'lipoC3S2': 7.64, 'rot1': 25, 'rot0': 23, 'rot3': 15, 'rot2': 14, 'state': 'normal', 'yaw': 26.94, 'datetime': '2018-10-09 20:21:26.148159', 'mgs': 0, 'volt': 0.8984, 'depth': 1.538, 'time': 16, 'pitch': 3.97, 'roll': -2.99, 'pres': 184}
{'lipoC2': 7.28, 'lipoC3S1': 3.82, 'temp': 26.94, 'lipoC3S3': 11.54, 'lipoC3S2': 7.64, 'rot1': 25, 'rot0': 23, 'rot3': 15, 'rot2': 14, 'state': 'normal', 'yaw': 26.58, 'datetime': '2018-10-09 20:21:26.252185', 'mgs': 0, 'volt': 0.8984, 'depth': 1.538, 'time': 16, 'pitch': 3.8, 'roll': -3.16, 'pres': 184}
{'lipoC2': 7.28, 'lipoC3S1': 3.82, 'temp': 26.94, 'lipoC3S3': 11.54, 'lipoC3S2': 7.64, 'rot1': 25, 'rot0': 23, 'rot3': 15, 'rot2': 14, 'state': 'normal', 'yaw': 26.27, 'datetime': '2018-10-09 20:21:26.357422', 'mgs': 0, 'volt': 0.8984, 'depth': 1.538, 'time': 16, 'pitch': 3.6, 'roll': -3.3, 'pres': 184}
{'lipoC2': 7.28, 'lipoC3S1': 3.82, 'temp': 26.94, 'lipoC3S3': 11.56, 'lipoC3S2': 7.64, 'rot1': 25, 'rot0': 23, 'rot3': 15, 'rot2': 14, 'state': 'normal', 'yaw': 25.93, 'datetime': '2018-10-09 20:21:26.460619', 'mgs': 0, 'volt': 0.8984, 'depth': 1.538, 'time': 16, 'pitch': 3.35, 'roll': -3.45, 'pres': 184}
{'lipoC2': 7.28, 'lipoC3S1': 3.82, 'temp': 26.94, 'lipoC3S3': 11.54, 'lipoC3S2': 7.64, 'rot1': 25, 'rot0': 23, 'rot3': 15, 'rot2': 14, 'state': 'normal', 'yaw': 25.63, 'datetime': '2018-10-09 20:21:26.566826', 'mgs': 0, 'volt': 0.8936, 'depth': 1.462, 'time': 16, 'pitch': 3.13, 'roll': -3.55, 'pres': 183}
{'lipoC2': 7.28, 'lipoC3S1': 3.82, 'temp': 26.94, 'lipoC3S3': 11.55, 'lipoC3S2': 7.64, 'rot1': 25, 'rot0': 23, 'rot3': 15, 'rot2': 14, 'state': 'normal', 'yaw': 25.3, 'datetime': '2018-10-09 20:21:26.670813', 'mgs': 0, 'volt': 0.8936, 'depth': 1.462, 'time': 16, 'pitch': 2.94, 'roll': -3.66, 'pres': 183}
{'lipoC2': 7.28, 'lipoC3S1': 3.82, 'temp': 26.94, 'lipoC3S3': 11.55, 'lipoC3S2': 7.64, 'rot1': 25, 'rot0': 23, 'rot3': 15, 'rot2': 14, 'state': 'normal', 'yaw': 25.03, 'datetime': '2018-10-09 20:21:26.774873', 'mgs': 0, 'volt': 0.8936, 'depth': 1.462, 'time': 17, 'pitch': 2.82, 'roll': -3.72, 'pres': 183}
{'lipoC2': 7.28, 'lipoC3S1': 3.82, 'temp': 26.94, 'lipoC3S3': 11.55, 'lipoC3S2': 7.64, 'rot1': 25, 'rot0': 23, 'rot3': 15, 'rot2': 14, 'state': 'normal', 'yaw': 24.74, 'datetime': '2018-10-09 20:21:26.880172', 'mgs': 0, 'volt': 0.8936, 'depth': 1.462, 'time': 17, 'pitch': 2.75, 'roll': -3.73, 'pres': 183}
{'lipoC2': 7.28, 'lipoC3S1': 3.82, 'temp': 27.0, 'lipoC3S3': 11.55, 'lipoC3S2': 7.64, 'rot1': 25, 'rot0': 23, 'rot3': 15, 'rot2': 14, 'state': 'normal', 'yaw': 24.44, 'datetime': '2018-10-09 20:21:26.984207', 'mgs': 0, 'volt': 0.8936, 'depth': 1.462, 'time': 17, 'pitch': 2.73, 'roll': -3.75, 'pres': 183}
{'lipoC2': 7.28, 'lipoC3S1': 3.82, 'temp': 27.0, 'lipoC3S3': 11.55, 'lipoC3S2': 7.64, 'rot1': 25, 'rot0': 23, 'rot3': 15, 'rot2': 14, 'state': 'normal', 'yaw': 24.17, 'datetime': '2018-10-09 20:21:27.088134', 'mgs': 0, 'volt': 0.8936, 'depth': 1.462, 'time': 17, 'pitch': 2.73, 'roll': -3.76, 'pres': 183}
{'lipoC2': 7.28, 'lipoC3S1': 3.82, 'temp': 27.0, 'lipoC3S3': 11.55, 'lipoC3S2': 7.64, 'rot1': 25, 'rot0': 23, 'rot3': 15, 'rot2': 14, 'state': 'normal', 'yaw': 23.88, 'datetime': '2018-10-09 20:21:27.192221', 'mgs': 0, 'volt': 0.8936, 'depth': 1.462, 'time': 17, 'pitch': 2.83, 'roll': -3.78, 'pres': 183}
{'lipoC2': 7.28, 'lipoC3S1': 3.82, 'temp': 27.0, 'lipoC3S3': 11.55, 'lipoC3S2': 7.64, 'rot1': 25, 'rot0': 23, 'rot3': 15, 'rot2': 14, 'state': 'normal', 'yaw': 23.61, 'datetime': '2018-10-09 20:21:27.296291', 'mgs': 0, 'volt': 0.8984, 'depth': 1.538, 'time': 17, 'pitch': 2.98, 'roll': -3.79, 'pres': 184}
{'lipoC2': 7.28, 'lipoC3S1': 3.82, 'temp': 26.94, 'lipoC3S3': 11.55, 'lipoC3S2': 7.64, 'rot1': 25, 'rot0': 23, 'rot3': 15, 'rot2': 14, 'state': 'normal', 'yaw': 23.36, 'datetime': '2018-10-09 20:21:27.400310', 'mgs': 0, 'volt': 0.8936, 'depth': 1.462, 'time': 17, 'pitch': 3.18, 'roll': -3.8, 'pres': 183}
{'lipoC2': 7.28, 'lipoC3S1': 3.82, 'temp': 26.94, 'lipoC3S3': 11.55, 'lipoC3S2': 7.64, 'rot1': 25, 'rot0': 23, 'rot3': 15, 'rot2': 14, 'state': 'normal', 'yaw': 23.08, 'datetime': '2018-10-09 20:21:27.504315', 'mgs': 0, 'volt': 0.8936, 'depth': 1.462, 'time': 17, 'pitch': 3.43, 'roll': -3.82, 'pres': 183}
{'lipoC2': 7.28, 'lipoC3S1': 3.82, 'temp': 26.94, 'lipoC3S3': 11.55, 'lipoC3S2': 7.64, 'rot1': 25, 'rot0': 23, 'rot3': 15, 'rot2': 14, 'state': 'normal', 'yaw': 22.84, 'datetime': '2018-10-09 20:21:27.609593', 'mgs': 0, 'volt': 0.8936, 'depth': 1.462, 'time': 17, 'pitch': 3.64, 'roll': -3.84, 'pres': 183}
{'lipoC2': 7.28, 'lipoC3S1': 3.82, 'temp': 27.06, 'lipoC3S3': 11.54, 'lipoC3S2': 7.64, 'rot1': 25, 'rot0': 23, 'rot3': 15, 'rot2': 14, 'state': 'normal', 'yaw': 22.59, 'datetime': '2018-10-09 20:21:27.713633', 'mgs': 0, 'volt': 0.8984, 'depth': 1.538, 'time': 17, 'pitch': 3.85, 'roll': -3.85, 'pres': 184}
{'lipoC2': 7.28, 'lipoC3S1': 3.82, 'temp': 27.06, 'lipoC3S3': 11.55, 'lipoC3S2': 7.64, 'rot1': 25, 'rot0': 23, 'rot3': 15, 'rot2': 14, 'state': 'normal', 'yaw': 22.37, 'datetime': '2018-10-09 20:21:27.818059', 'mgs': 0, 'volt': 0.8984, 'depth': 1.538, 'time': 18, 'pitch': 4.04, 'roll': -3.86, 'pres': 184}
{'lipoC2': 7.28, 'lipoC3S1': 3.82, 'temp': 27.0, 'lipoC3S3': 11.55, 'lipoC3S2': 7.64, 'rot1': 25, 'rot0': 23, 'rot3': 15, 'rot2': 14, 'state': 'normal', 'yaw': 22.16, 'datetime': '2018-10-09 20:21:27.922993', 'mgs': 0, 'volt': 0.8984, 'depth': 1.538, 'time': 18, 'pitch': 4.2, 'roll': -3.88, 'pres': 184}
{'lipoC2': 7.28, 'lipoC3S1': 3.82, 'temp': 27.0, 'lipoC3S3': 11.55, 'lipoC3S2': 7.64, 'rot1': 25, 'rot0': 23, 'rot3': 15, 'rot2': 14, 'state': 'normal', 'yaw': 21.93, 'datetime': '2018-10-09 20:21:28.026989', 'mgs': 0, 'volt': 0.8936, 'depth': 1.462, 'time': 18, 'pitch': 4.37, 'roll': -3.91, 'pres': 183}
{'lipoC2': 7.28, 'lipoC3S1': 3.82, 'temp': 26.94, 'lipoC3S3': 11.54, 'lipoC3S2': 7.64, 'rot1': 25, 'rot0': 23, 'rot3': 15, 'rot2': 14, 'state': 'normal', 'yaw': 21.75, 'datetime': '2018-10-09 20:21:28.132338', 'mgs': 0, 'volt': 0.8984, 'depth': 1.538, 'time': 18, 'pitch': 4.48, 'roll': -3.96, 'pres': 184}
{'lipoC2': 7.28, 'lipoC3S1': 3.82, 'temp': 26.94, 'lipoC3S3': 11.55, 'lipoC3S2': 7.64, 'rot1': 25, 'rot0': 23, 'rot3': 15, 'rot2': 14, 'state': 'normal', 'yaw': 21.54, 'datetime': '2018-10-09 20:21:28.236380', 'mgs': 0, 'volt': 0.8936, 'depth': 1.462, 'time': 18, 'pitch': 4.49, 'roll': -4.05, 'pres': 183}
{'lipoC2': 7.28, 'lipoC3S1': 3.82, 'temp': 26.94, 'lipoC3S3': 11.55, 'lipoC3S2': 7.64, 'rot1': 25, 'rot0': 23, 'rot3': 15, 'rot2': 14, 'state': 'normal', 'yaw': 21.36, 'datetime': '2018-10-09 20:21:28.340299', 'mgs': 0, 'volt': 0.8936, 'depth': 1.462, 'time': 18, 'pitch': 4.47, 'roll': -4.14, 'pres': 183}
{'lipoC2': 7.28, 'lipoC3S1': 3.82, 'temp': 27.0, 'lipoC3S3': 11.55, 'lipoC3S2': 7.64, 'rot1': 25, 'rot0': 23, 'rot3': 15, 'rot2': 14, 'state': 'normal', 'yaw': 21.2, 'datetime': '2018-10-09 20:21:28.444517', 'mgs': 0, 'volt': 0.8936, 'depth': 1.462, 'time': 18, 'pitch': 4.37, 'roll': -4.23, 'pres': 183}
{'lipoC2': 7.28, 'lipoC3S1': 3.82, 'temp': 27.0, 'lipoC3S3': 11.55, 'lipoC3S2': 7.64, 'rot1': 25, 'rot0': 23, 'rot3': 15, 'rot2': 14, 'state': 'normal', 'yaw': 21.03, 'datetime': '2018-10-09 20:21:28.542515', 'mgs': 0, 'volt': 0.8936, 'depth': 1.462, 'time': 18, 'pitch': 4.23, 'roll': -4.34, 'pres': 183}
{'lipoC2': 7.28, 'lipoC3S1': 3.82, 'temp': 27.0, 'lipoC3S3': 11.55, 'lipoC3S2': 7.64, 'rot1': 25, 'rot0': 23, 'rot3': 15, 'rot2': 14, 'state': 'normal', 'yaw': 20.88, 'datetime': '2018-10-09 20:21:28.652480', 'mgs': 0, 'volt': 0.8936, 'depth': 1.462, 'time': 18, 'pitch': 4.1, 'roll': -4.44, 'pres': 183}
{'lipoC2': 7.28, 'lipoC3S1': 3.82, 'temp': 27.0, 'lipoC3S3': 11.55, 'lipoC3S2': 7.64, 'rot1': 25, 'rot0': 23, 'rot3': 15, 'rot2': 14, 'state': 'normal', 'yaw': 20.71, 'datetime': '2018-10-09 20:21:28.756430', 'mgs': 0, 'volt': 0.8984, 'depth': 1.538, 'time': 19, 'pitch': 3.96, 'roll': -4.52, 'pres': 184}
{'lipoC2': 7.28, 'lipoC3S1': 3.82, 'temp': 26.94, 'lipoC3S3': 11.55, 'lipoC3S2': 7.64, 'rot1': 25, 'rot0': 23, 'rot3': 15, 'rot2': 14, 'state': 'normal', 'yaw': 20.56, 'datetime': '2018-10-09 20:21:28.860402', 'mgs': 0, 'volt': 0.8936, 'depth': 1.462, 'time': 19, 'pitch': 3.82, 'roll': -4.55, 'pres': 183}
{'lipoC2': 7.28, 'lipoC3S1': 3.82, 'temp': 26.94, 'lipoC3S3': 11.55, 'lipoC3S2': 7.64, 'rot1': 25, 'rot0': 23, 'rot3': 15, 'rot2': 14, 'state': 'normal', 'yaw': 20.41, 'datetime': '2018-10-09 20:21:28.965579', 'mgs': 0, 'volt': 0.8936, 'depth': 1.462, 'time': 19, 'pitch': 3.68, 'roll': -4.57, 'pres': 183}
{'lipoC2': 7.28, 'lipoC3S1': 3.82, 'temp': 26.94, 'lipoC3S3': 11.55, 'lipoC3S2': 7.64, 'rot1': 25, 'rot0': 23, 'rot3': 15, 'rot2': 14, 'state': 'normal', 'yaw': 20.25, 'datetime': '2018-10-09 20:21:29.068009', 'mgs': 0, 'volt': 0.8936, 'depth': 1.462, 'time': 19, 'pitch': 3.55, 'roll': -4.58, 'pres': 183}
