{'lipoC2': 7.34, 'lipoC3S1': 3.89, 'temp': 26.56, 'lipoC3S3': 11.77, 'lipoC3S2': 7.78, 'rot1': 45, 'rot0': 50, 'rot3': 40, 'rot2': 33, 'state': 'normal', 'yaw': -27.62, 'datetime': '2018-10-09 19:53:46.248893', 'mgs': 0, 'volt': 1.0449, 'depth': 3.827, 'time': 93, 'pitch': 0.39, 'roll': -1.63, 'pres': 214}
{'lipoC2': 7.34, 'lipoC3S1': 3.9, 'temp': 26.56, 'lipoC3S3': 11.77, 'lipoC3S2': 7.78, 'rot1': 45, 'rot0': 50, 'rot3': 40, 'rot2': 33, 'state': 'normal', 'yaw': -27.34, 'datetime': '2018-10-09 19:53:49.276674', 'mgs': 0, 'volt': 1.0449, 'depth': 3.827, 'time': 93, 'pitch': 0.61, 'roll': -1.49, 'pres': 214}
{'lipoC2': 7.34, 'lipoC3S1': 3.9, 'temp': 26.56, 'lipoC3S3': 11.77, 'lipoC3S2': 7.78, 'rot1': 45, 'rot0': 50, 'rot3': 40, 'rot2': 33, 'state': 'normal', 'yaw': -27.32, 'datetime': '2018-10-09 19:53:49.309319', 'mgs': 0, 'volt': 1.0449, 'depth': 3.827, 'time': 93, 'pitch': 0.79, 'roll': -1.52, 'pres': 214}
{'lipoC2': 7.34, 'lipoC3S1': 3.89, 'temp': 26.63, 'lipoC3S3': 11.77, 'lipoC3S2': 7.78, 'rot1': 45, 'rot0': 50, 'rot3': 40, 'rot2': 33, 'state': 'normal', 'yaw': -27.25, 'datetime': '2018-10-09 19:53:49.334169', 'mgs': 0, 'volt': 1.0449, 'depth': 3.827, 'time': 93, 'pitch': 0.77, 'roll': -1.58, 'pres': 214}
{'lipoC2': 7.35, 'lipoC3S1': 3.89, 'temp': 26.63, 'lipoC3S3': 11.77, 'lipoC3S2': 7.78, 'rot1': 45, 'rot0': 50, 'rot3': 40, 'rot2': 33, 'state': 'normal', 'yaw': -27.07, 'datetime': '2018-10-09 19:53:49.350148', 'mgs': 0, 'volt': 1.0449, 'depth': 3.827, 'time': 93, 'pitch': 0.57, 'roll': -1.51, 'pres': 214}
{'lipoC2': 7.34, 'lipoC3S1': 3.9, 'temp': 26.56, 'lipoC3S3': 11.77, 'lipoC3S2': 7.79, 'rot1': 45, 'rot0': 50, 'rot3': 40, 'rot2': 33, 'state': 'normal', 'yaw': -27.06, 'datetime': '2018-10-09 19:53:49.366130', 'mgs': 0, 'volt': 1.0449, 'depth': 3.827, 'time': 93, 'pitch': 0.21, 'roll': -1.54, 'pres': 214}
{'lipoC2': 7.35, 'lipoC3S1': 3.89, 'temp': 26.56, 'lipoC3S3': 11.77, 'lipoC3S2': 7.79, 'rot1': 45, 'rot0': 50, 'rot3': 40, 'rot2': 33, 'state': 'normal', 'yaw': -27.03, 'datetime': '2018-10-09 19:53:49.382125', 'mgs': 0, 'volt': 1.0449, 'depth': 3.827, 'time': 93, 'pitch': 0.04, 'roll': -1.65, 'pres': 214}
{'lipoC2': 7.35, 'lipoC3S1': 3.9, 'temp': 26.56, 'lipoC3S3': 11.77, 'lipoC3S2': 7.78, 'rot1': 45, 'rot0': 50, 'rot3': 40, 'rot2': 33, 'state': 'normal', 'yaw': -27.02, 'datetime': '2018-10-09 19:53:49.398093', 'mgs': 0, 'volt': 1.0449, 'depth': 3.827, 'time': 94, 'pitch': -0.18, 'roll': -1.61, 'pres': 214}
{'lipoC2': 7.34, 'lipoC3S1': 3.9, 'temp': 26.56, 'lipoC3S3': 11.77, 'lipoC3S2': 7.79, 'rot1': 45, 'rot0': 50, 'rot3': 40, 'rot2': 33, 'state': 'normal', 'yaw': -26.93, 'datetime': '2018-10-09 19:53:49.414056', 'mgs': 0, 'volt': 1.0449, 'depth': 3.827, 'time': 94, 'pitch': -0.28, 'roll': -1.67, 'pres': 214}
{'lipoC2': 7.35, 'lipoC3S1': 3.89, 'temp': 26.56, 'lipoC3S3': 11.76, 'lipoC3S2': 7.78, 'rot1': 45, 'rot0': 50, 'rot3': 40, 'rot2': 33, 'state': 'normal', 'yaw': -26.81, 'datetime': '2018-10-09 19:53:49.430024', 'mgs': 0, 'volt': 1.0449, 'depth': 3.827, 'time': 94, 'pitch': -0.33, 'roll': -1.7, 'pres': 214}
{'lipoC2': 7.34, 'lipoC3S1': 3.89, 'temp': 26.63, 'lipoC3S3': 11.77, 'lipoC3S2': 7.78, 'rot1': 45, 'rot0': 50, 'rot3': 40, 'rot2': 33, 'state': 'normal', 'yaw': -26.71, 'datetime': '2018-10-09 19:53:49.446036', 'mgs': 0, 'volt': 1.04, 'depth': 3.751, 'time': 94, 'pitch': -0.37, 'roll': -1.68, 'pres': 213}
{'lipoC2': 7.35, 'lipoC3S1': 3.89, 'temp': 26.63, 'lipoC3S3': 11.77, 'lipoC3S2': 7.78, 'rot1': 45, 'rot0': 50, 'rot3': 40, 'rot2': 33, 'state': 'normal', 'yaw': -26.59, 'datetime': '2018-10-09 19:53:49.462005', 'mgs': 0, 'volt': 1.0449, 'depth': 3.827, 'time': 94, 'pitch': -0.4, 'roll': -1.7, 'pres': 214}
{'lipoC2': 7.35, 'lipoC3S1': 3.89, 'temp': 26.63, 'lipoC3S3': 11.77, 'lipoC3S2': 7.78, 'rot1': 45, 'rot0': 50, 'rot3': 40, 'rot2': 33, 'state': 'normal', 'yaw': -26.55, 'datetime': '2018-10-09 19:53:49.477991', 'mgs': 0, 'volt': 1.04, 'depth': 3.751, 'time': 94, 'pitch': -0.41, 'roll': -1.69, 'pres': 213}
{'lipoC2': 7.34, 'lipoC3S1': 3.89, 'temp': 26.63, 'lipoC3S3': 11.77, 'lipoC3S2': 7.78, 'rot1': 45, 'rot0': 50, 'rot3': 40, 'rot2': 33, 'state': 'normal', 'yaw': -26.44, 'datetime': '2018-10-09 19:53:49.494004', 'mgs': 0, 'volt': 1.0449, 'depth': 3.827, 'time': 94, 'pitch': -0.37, 'roll': -1.66, 'pres': 214}
{'lipoC2': 7.34, 'lipoC3S1': 3.89, 'temp': 26.63, 'lipoC3S3': 11.77, 'lipoC3S2': 7.78, 'rot1': 45, 'rot0': 50, 'rot3': 40, 'rot2': 33, 'state': 'normal', 'yaw': -26.33, 'datetime': '2018-10-09 19:53:49.510142', 'mgs': 0, 'volt': 1.04, 'depth': 3.751, 'time': 94, 'pitch': -0.35, 'roll': -1.68, 'pres': 213}
{'lipoC2': 7.34, 'lipoC3S1': 3.89, 'temp': 26.63, 'lipoC3S3': 11.77, 'lipoC3S2': 7.78, 'rot1': 45, 'rot0': 50, 'rot3': 40, 'rot2': 33, 'state': 'normal', 'yaw': -26.23, 'datetime': '2018-10-09 19:53:49.526162', 'mgs': 0, 'volt': 1.0449, 'depth': 3.827, 'time': 94, 'pitch': -0.38, 'roll': -1.65, 'pres': 214}
{'lipoC2': 7.34, 'lipoC3S1': 3.89, 'temp': 26.63, 'lipoC3S3': 11.77, 'lipoC3S2': 7.78, 'rot1': 45, 'rot0': 50, 'rot3': 40, 'rot2': 33, 'state': 'normal', 'yaw': -26.1, 'datetime': '2018-10-09 19:53:49.542171', 'mgs': 0, 'volt': 1.0449, 'depth': 3.827, 'time': 95, 'pitch': -0.41, 'roll': -1.64, 'pres': 214}
{'lipoC2': 7.34, 'lipoC3S1': 3.89, 'temp': 26.63, 'lipoC3S3': 11.77, 'lipoC3S2': 7.78, 'rot1': 45, 'rot0': 50, 'rot3': 40, 'rot2': 33, 'state': 'normal', 'yaw': -26.0, 'datetime': '2018-10-09 19:53:49.558125', 'mgs': 0, 'volt': 1.0449, 'depth': 3.827, 'time': 95, 'pitch': -0.41, 'roll': -1.64, 'pres': 214}
{'lipoC2': 7.34, 'lipoC3S1': 3.89, 'temp': 26.63, 'lipoC3S3': 11.77, 'lipoC3S2': 7.78, 'rot1': 45, 'rot0': 50, 'rot3': 40, 'rot2': 33, 'state': 'normal', 'yaw': -25.9, 'datetime': '2018-10-09 19:53:49.574145', 'mgs': 0, 'volt': 1.0449, 'depth': 3.827, 'time': 95, 'pitch': -0.39, 'roll': -1.62, 'pres': 214}
{'lipoC2': 7.34, 'lipoC3S1': 3.89, 'temp': 26.56, 'lipoC3S3': 11.77, 'lipoC3S2': 7.78, 'rot1': 45, 'rot0': 50, 'rot3': 40, 'rot2': 33, 'state': 'normal', 'yaw': -25.78, 'datetime': '2018-10-09 19:53:49.590140', 'mgs': 0, 'volt': 1.0449, 'depth': 3.827, 'time': 95, 'pitch': -0.4, 'roll': -1.62, 'pres': 214}
{'lipoC2': 7.34, 'lipoC3S1': 3.89, 'temp': 26.56, 'lipoC3S3': 11.77, 'lipoC3S2': 7.78, 'rot1': 45, 'rot0': 50, 'rot3': 40, 'rot2': 33, 'state': 'normal', 'yaw': -25.74, 'datetime': '2018-10-09 19:53:49.606134', 'mgs': 0, 'volt': 1.0449, 'depth': 3.827, 'time': 95, 'pitch': -0.47, 'roll': -1.62, 'pres': 214}
{'lipoC2': 7.34, 'lipoC3S1': 3.89, 'temp': 26.56, 'lipoC3S3': 11.77, 'lipoC3S2': 7.78, 'rot1': 45, 'rot0': 50, 'rot3': 40, 'rot2': 33, 'state': 'normal', 'yaw': -25.74, 'datetime': '2018-10-09 19:53:49.622134', 'mgs': 0, 'volt': 1.0449, 'depth': 3.827, 'time': 95, 'pitch': -0.68, 'roll': -1.65, 'pres': 214}
{'lipoC2': 7.34, 'lipoC3S1': 3.89, 'temp': 26.63, 'lipoC3S3': 11.77, 'lipoC3S2': 7.78, 'rot1': 45, 'rot0': 50, 'rot3': 40, 'rot2': 33, 'state': 'normal', 'yaw': -25.73, 'datetime': '2018-10-09 19:53:49.638145', 'mgs': 0, 'volt': 1.0449, 'depth': 3.827, 'time': 95, 'pitch': -0.9, 'roll': -1.69, 'pres': 214}
{'lipoC2': 7.34, 'lipoC3S1': 3.89, 'temp': 26.63, 'lipoC3S3': 11.77, 'lipoC3S2': 7.78, 'rot1': 45, 'rot0': 50, 'rot3': 40, 'rot2': 33, 'state': 'normal', 'yaw': -25.72, 'datetime': '2018-10-09 19:53:49.654147', 'mgs': 0, 'volt': 1.04, 'depth': 3.751, 'time': 95, 'pitch': -1.14, 'roll': -1.69, 'pres': 213}
{'lipoC2': 7.35, 'lipoC3S1': 3.89, 'temp': 26.63, 'lipoC3S3': 11.77, 'lipoC3S2': 7.78, 'rot1': 45, 'rot0': 50, 'rot3': 40, 'rot2': 33, 'state': 'normal', 'yaw': -25.71, 'datetime': '2018-10-09 19:53:49.670078', 'mgs': 0, 'volt': 1.04, 'depth': 3.751, 'time': 95, 'pitch': -1.41, 'roll': -1.69, 'pres': 213}
{'lipoC2': 7.35, 'lipoC3S1': 3.89, 'temp': 26.63, 'lipoC3S3': 11.77, 'lipoC3S2': 7.78, 'rot1': 45, 'rot0': 50, 'rot3': 40, 'rot2': 33, 'state': 'normal', 'yaw': -25.71, 'datetime': '2018-10-09 19:53:49.686145', 'mgs': 0, 'volt': 1.04, 'depth': 3.751, 'time': 95, 'pitch': -1.67, 'roll': -1.69, 'pres': 213}
{'lipoC2': 7.34, 'lipoC3S1': 3.89, 'temp': 26.63, 'lipoC3S3': 11.77, 'lipoC3S2': 7.78, 'rot1': 45, 'rot0': 50, 'rot3': 40, 'rot2': 33, 'state': 'normal', 'yaw': -25.7, 'datetime': '2018-10-09 19:53:49.702148', 'mgs': 0, 'volt': 1.04, 'depth': 3.751, 'time': 96, 'pitch': -1.95, 'roll': -1.69, 'pres': 213}
{'lipoC2': 7.34, 'lipoC3S1': 3.89, 'temp': 26.63, 'lipoC3S3': 11.77, 'lipoC3S2': 7.78, 'rot1': 45, 'rot0': 50, 'rot3': 40, 'rot2': 33, 'state': 'normal', 'yaw': -25.69, 'datetime': '2018-10-09 19:53:49.718196', 'mgs': 0, 'volt': 1.04, 'depth': 3.751, 'time': 96, 'pitch': -2.28, 'roll': -1.69, 'pres': 213}
{'lipoC2': 7.34, 'lipoC3S1': 3.89, 'temp': 26.63, 'lipoC3S3': 11.77, 'lipoC3S2': 7.78, 'rot1': 0, 'rot0': 0, 'rot3': 0, 'rot2': 0, 'state': 'normal', 'yaw': 0.0, 'datetime': '2018-10-09 19:53:49.734215', 'mgs': 0, 'volt': 1.0303, 'depth': 3.598, 'time': 1, 'pitch': -3.63, 'roll': -1.11, 'pres': 211}
{'lipoC2': 7.35, 'lipoC3S1': 3.89, 'temp': 26.63, 'lipoC3S3': 11.77, 'lipoC3S2': 7.78, 'rot1': 0, 'rot0': 0, 'rot3': 0, 'rot2': 0, 'state': 'normal', 'yaw': -0.0, 'datetime': '2018-10-09 19:53:49.750071', 'mgs': 0, 'volt': 1.0303, 'depth': 3.598, 'time': 1, 'pitch': -3.43, 'roll': -1.06, 'pres': 211}
{'lipoC2': 7.34, 'lipoC3S1': 3.89, 'temp': 26.63, 'lipoC3S3': 11.77, 'lipoC3S2': 7.78, 'rot1': 0, 'rot0': 0, 'rot3': 0, 'rot2': 0, 'state': 'normal', 'yaw': -0.01, 'datetime': '2018-10-09 19:53:49.765902', 'mgs': 0, 'volt': 1.0303, 'depth': 3.598, 'time': 1, 'pitch': -3.22, 'roll': -1.08, 'pres': 211}
{'lipoC2': 7.35, 'lipoC3S1': 3.9, 'temp': 26.63, 'lipoC3S3': 11.77, 'lipoC3S2': 7.78, 'rot1': 0, 'rot0': 0, 'rot3': 0, 'rot2': 0, 'state': 'normal', 'yaw': -0.02, 'datetime': '2018-10-09 19:53:49.781801', 'mgs': 0, 'volt': 1.0303, 'depth': 3.598, 'time': 1, 'pitch': -3.0, 'roll': -1.11, 'pres': 211}
{'lipoC2': 7.35, 'lipoC3S1': 3.9, 'temp': 26.63, 'lipoC3S3': 11.77, 'lipoC3S2': 7.78, 'rot1': 0, 'rot0': 0, 'rot3': 0, 'rot2': 0, 'state': 'normal', 'yaw': -0.03, 'datetime': '2018-10-09 19:53:49.797610', 'mgs': 0, 'volt': 1.0303, 'depth': 3.598, 'time': 1, 'pitch': -2.8, 'roll': -1.18, 'pres': 211}
{'lipoC2': 7.34, 'lipoC3S1': 3.9, 'temp': 26.63, 'lipoC3S3': 11.77, 'lipoC3S2': 7.78, 'rot1': 0, 'rot0': 0, 'rot3': 0, 'rot2': 0, 'state': 'normal', 'yaw': -0.04, 'datetime': '2018-10-09 19:53:49.813414', 'mgs': 0, 'volt': 1.0303, 'depth': 3.598, 'time': 1, 'pitch': -2.62, 'roll': -1.24, 'pres': 211}
{'lipoC2': 7.34, 'lipoC3S1': 3.9, 'temp': 26.63, 'lipoC3S3': 11.77, 'lipoC3S2': 7.78, 'rot1': 0, 'rot0': 0, 'rot3': 0, 'rot2': 0, 'state': 'normal', 'yaw': -0.04, 'datetime': '2018-10-09 19:53:49.828666', 'mgs': 0, 'volt': 1.0303, 'depth': 3.598, 'time': 1, 'pitch': -2.51, 'roll': -1.3, 'pres': 211}
{'lipoC2': 7.34, 'lipoC3S1': 3.89, 'temp': 26.63, 'lipoC3S3': 11.77, 'lipoC3S2': 7.78, 'rot1': 0, 'rot0': 0, 'rot3': 0, 'rot2': 0, 'state': 'normal', 'yaw': -0.05, 'datetime': '2018-10-09 19:53:49.843966', 'mgs': 0, 'volt': 1.0254, 'depth': 3.522, 'time': 1, 'pitch': -2.45, 'roll': -1.35, 'pres': 210}
{'lipoC2': 7.35, 'lipoC3S1': 3.89, 'temp': 26.63, 'lipoC3S3': 11.76, 'lipoC3S2': 7.78, 'rot1': 0, 'rot0': 0, 'rot3': 0, 'rot2': 0, 'state': 'normal', 'yaw': -0.05, 'datetime': '2018-10-09 19:53:49.859241', 'mgs': 0, 'volt': 1.0303, 'depth': 3.598, 'time': 2, 'pitch': -2.46, 'roll': -1.39, 'pres': 211}
{'lipoC2': 7.35, 'lipoC3S1': 3.89, 'temp': 26.63, 'lipoC3S3': 11.77, 'lipoC3S2': 7.78, 'rot1': 0, 'rot0': 0, 'rot3': 0, 'rot2': 0, 'state': 'normal', 'yaw': -0.05, 'datetime': '2018-10-09 19:53:49.874520', 'mgs': 0, 'volt': 1.0303, 'depth': 3.598, 'time': 2, 'pitch': -2.53, 'roll': -1.39, 'pres': 211}
{'lipoC2': 7.34, 'lipoC3S1': 3.89, 'temp': 26.63, 'lipoC3S3': 11.77, 'lipoC3S2': 7.78, 'rot1': 0, 'rot0': 0, 'rot3': 0, 'rot2': 0, 'state': 'normal', 'yaw': -0.05, 'datetime': '2018-10-09 19:53:49.889719', 'mgs': 0, 'volt': 1.0303, 'depth': 3.598, 'time': 2, 'pitch': -2.6, 'roll': -1.39, 'pres': 211}
{'lipoC2': 7.35, 'lipoC3S1': 3.89, 'temp': 26.63, 'lipoC3S3': 11.77, 'lipoC3S2': 7.78, 'rot1': 0, 'rot0': 0, 'rot3': 0, 'rot2': 0, 'state': 'normal', 'yaw': -0.05, 'datetime': '2018-10-09 19:53:49.904975', 'mgs': 0, 'volt': 1.0254, 'depth': 3.522, 'time': 2, 'pitch': -2.7, 'roll': -1.39, 'pres': 210}
{'lipoC2': 7.35, 'lipoC3S1': 3.9, 'temp': 26.56, 'lipoC3S3': 11.77, 'lipoC3S2': 7.79, 'rot1': 0, 'rot0': 0, 'rot3': 0, 'rot2': 0, 'state': 'normal', 'yaw': -0.04, 'datetime': '2018-10-09 19:53:49.920197', 'mgs': 0, 'volt': 1.0254, 'depth': 3.522, 'time': 2, 'pitch': -2.83, 'roll': -1.37, 'pres': 210}
{'lipoC2': 7.35, 'lipoC3S1': 3.89, 'temp': 26.56, 'lipoC3S3': 11.77, 'lipoC3S2': 7.78, 'rot1': 0, 'rot0': 0, 'rot3': 0, 'rot2': 0, 'state': 'normal', 'yaw': -0.04, 'datetime': '2018-10-09 19:53:49.935730', 'mgs': 0, 'volt': 1.0254, 'depth': 3.522, 'time': 2, 'pitch': -2.97, 'roll': -1.3, 'pres': 210}
{'lipoC2': 7.35, 'lipoC3S1': 3.9, 'temp': 26.56, 'lipoC3S3': 11.77, 'lipoC3S2': 7.78, 'rot1': 0, 'rot0': 0, 'rot3': 0, 'rot2': 0, 'state': 'normal', 'yaw': -0.03, 'datetime': '2018-10-09 19:53:49.951037', 'mgs': 0, 'volt': 1.0205, 'depth': 3.445, 'time': 2, 'pitch': -3.12, 'roll': -1.19, 'pres': 209}
{'lipoC2': 7.35, 'lipoC3S1': 3.89, 'temp': 26.56, 'lipoC3S3': 11.77, 'lipoC3S2': 7.78, 'rot1': 0, 'rot0': 0, 'rot3': 0, 'rot2': 0, 'state': 'normal', 'yaw': -0.03, 'datetime': '2018-10-09 19:53:49.966289', 'mgs': 0, 'volt': 1.0205, 'depth': 3.445, 'time': 2, 'pitch': -3.31, 'roll': -1.08, 'pres': 209}
{'lipoC2': 7.35, 'lipoC3S1': 3.89, 'temp': 26.63, 'lipoC3S3': 11.77, 'lipoC3S2': 7.78, 'rot1': 0, 'rot0': 0, 'rot3': 0, 'rot2': 0, 'state': 'normal', 'yaw': -0.03, 'datetime': '2018-10-09 19:53:49.981564', 'mgs': 0, 'volt': 1.0205, 'depth': 3.445, 'time': 2, 'pitch': -3.49, 'roll': -0.97, 'pres': 209}
{'lipoC2': 7.34, 'lipoC3S1': 3.8, 'temp': 26.63, 'lipoC3S3': 11.59, 'lipoC3S2': 7.64, 'rot1': 0, 'rot0': 0, 'rot3': 0, 'rot2': 0, 'state': 'normal', 'yaw': -0.03, 'datetime': '2018-10-09 19:53:49.996809', 'mgs': 0, 'volt': 1.0596, 'depth': 4.056, 'time': 3, 'pitch': -3.63, 'roll': -0.86, 'pres': 217}
{'lipoC2': 7.34, 'lipoC3S1': 3.85, 'temp': 26.63, 'lipoC3S3': 11.69, 'lipoC3S2': 7.72, 'rot1': 0, 'rot0': 0, 'rot3': 0, 'rot2': 1, 'state': 'normal', 'yaw': -0.03, 'datetime': '2018-10-09 19:53:50.012039', 'mgs': 0, 'volt': 1.0352, 'depth': 3.674, 'time': 3, 'pitch': -3.58, 'roll': -0.7, 'pres': 212}
{'lipoC2': 7.33, 'lipoC3S1': 3.87, 'temp': 26.63, 'lipoC3S3': 11.64, 'lipoC3S2': 7.73, 'rot1': 0, 'rot0': 0, 'rot3': 1, 'rot2': 2, 'state': 'normal', 'yaw': -0.13, 'datetime': '2018-10-09 19:53:50.027271', 'mgs': 0, 'volt': 1.0303, 'depth': 3.598, 'time': 3, 'pitch': -3.29, 'roll': -0.4, 'pres': 211}
{'lipoC2': 7.34, 'lipoC3S1': 3.87, 'temp': 26.63, 'lipoC3S3': 11.65, 'lipoC3S2': 7.69, 'rot1': 0, 'rot0': 0, 'rot3': 2, 'rot2': 3, 'state': 'normal', 'yaw': -0.3, 'datetime': '2018-10-09 19:53:50.042625', 'mgs': 0, 'volt': 1.0205, 'depth': 3.445, 'time': 3, 'pitch': -2.72, 'roll': -0.01, 'pres': 209}
{'lipoC2': 7.34, 'lipoC3S1': 3.84, 'temp': 26.5, 'lipoC3S3': 11.68, 'lipoC3S2': 7.71, 'rot1': 0, 'rot0': 0, 'rot3': 3, 'rot2': 4, 'state': 'normal', 'yaw': -0.5, 'datetime': '2018-10-09 19:53:50.057858', 'mgs': 0, 'volt': 1.0107, 'depth': 3.293, 'time': 3, 'pitch': -2.07, 'roll': 0.38, 'pres': 207}
{'lipoC2': 7.34, 'lipoC3S1': 3.84, 'temp': 26.5, 'lipoC3S3': 11.71, 'lipoC3S2': 7.72, 'rot1': 0, 'rot0': 0, 'rot3': 4, 'rot2': 4, 'state': 'normal', 'yaw': -0.69, 'datetime': '2018-10-09 19:53:50.073110', 'mgs': 0, 'volt': 1.0303, 'depth': 3.598, 'time': 3, 'pitch': -1.39, 'roll': 0.76, 'pres': 211}
{'lipoC2': 7.34, 'lipoC3S1': 3.86, 'temp': 26.56, 'lipoC3S3': 11.68, 'lipoC3S2': 7.73, 'rot1': 0, 'rot0': 0, 'rot3': 5, 'rot2': 5, 'state': 'normal', 'yaw': -0.93, 'datetime': '2018-10-09 19:53:50.088393', 'mgs': 0, 'volt': 1.0205, 'depth': 3.445, 'time': 3, 'pitch': -0.68, 'roll': 1.14, 'pres': 209}
{'lipoC2': 7.33, 'lipoC3S1': 3.87, 'temp': 26.56, 'lipoC3S3': 11.65, 'lipoC3S2': 7.75, 'rot1': 0, 'rot0': 0, 'rot3': 6, 'rot2': 6, 'state': 'normal', 'yaw': -1.14, 'datetime': '2018-10-09 19:53:50.103709', 'mgs': 0, 'volt': 1.0107, 'depth': 3.293, 'time': 3, 'pitch': -0.11, 'roll': 1.37, 'pres': 207}
{'lipoC2': 7.34, 'lipoC3S1': 3.83, 'temp': 26.56, 'lipoC3S3': 11.67, 'lipoC3S2': 7.7, 'rot1': 0, 'rot0': 0, 'rot3': 7, 'rot2': 7, 'state': 'normal', 'yaw': -1.35, 'datetime': '2018-10-09 19:53:50.185291', 'mgs': 0, 'volt': 0.9961, 'depth': 3.064, 'time': 3, 'pitch': 0.34, 'roll': 1.5, 'pres': 204}
{'lipoC2': 7.33, 'lipoC3S1': 3.86, 'temp': 26.5, 'lipoC3S3': 11.71, 'lipoC3S2': 7.74, 'rot1': 0, 'rot0': 0, 'rot3': 8, 'rot2': 8, 'state': 'normal', 'yaw': -1.58, 'datetime': '2018-10-09 19:53:50.289226', 'mgs': 0, 'volt': 1.0059, 'depth': 3.217, 'time': 3, 'pitch': 0.67, 'roll': 1.57, 'pres': 206}
{'lipoC2': 7.34, 'lipoC3S1': 3.87, 'temp': 26.5, 'lipoC3S3': 11.63, 'lipoC3S2': 7.73, 'rot1': 0, 'rot0': 0, 'rot3': 9, 'rot2': 8, 'state': 'normal', 'yaw': -1.84, 'datetime': '2018-10-09 19:53:50.392416', 'mgs': 0, 'volt': 0.9961, 'depth': 3.064, 'time': 4, 'pitch': 0.87, 'roll': 1.53, 'pres': 204}
{'lipoC2': 7.34, 'lipoC3S1': 3.87, 'temp': 26.56, 'lipoC3S3': 11.64, 'lipoC3S2': 7.73, 'rot1': 0, 'rot0': 0, 'rot3': 10, 'rot2': 9, 'state': 'normal', 'yaw': -2.08, 'datetime': '2018-10-09 19:53:50.496932', 'mgs': 0, 'volt': 0.9863, 'depth': 2.911, 'time': 4, 'pitch': 0.96, 'roll': 1.4, 'pres': 202}
{'lipoC2': 7.34, 'lipoC3S1': 3.86, 'temp': 26.56, 'lipoC3S3': 11.71, 'lipoC3S2': 7.74, 'rot1': 0, 'rot0': 0, 'rot3': 10, 'rot2': 10, 'state': 'normal', 'yaw': -2.35, 'datetime': '2018-10-09 19:53:50.600798', 'mgs': 0, 'volt': 0.9912, 'depth': 2.988, 'time': 4, 'pitch': 0.93, 'roll': 1.17, 'pres': 203}
{'lipoC2': 7.34, 'lipoC3S1': 3.84, 'temp': 26.63, 'lipoC3S3': 11.71, 'lipoC3S2': 7.72, 'rot1': 0, 'rot0': 0, 'rot3': 11, 'rot2': 11, 'state': 'normal', 'yaw': -2.58, 'datetime': '2018-10-09 19:53:50.704363', 'mgs': 0, 'volt': 0.9814, 'depth': 2.835, 'time': 4, 'pitch': 0.84, 'roll': 0.93, 'pres': 201}
{'lipoC2': 7.34, 'lipoC3S1': 3.87, 'temp': 26.63, 'lipoC3S3': 11.65, 'lipoC3S2': 7.77, 'rot1': 0, 'rot0': 0, 'rot3': 12, 'rot2': 11, 'state': 'normal', 'yaw': -2.81, 'datetime': '2018-10-09 19:53:50.809905', 'mgs': 0, 'volt': 0.9619, 'depth': 2.53, 'time': 4, 'pitch': 0.67, 'roll': 0.66, 'pres': 197}
{'lipoC2': 7.34, 'lipoC3S1': 3.89, 'temp': 26.63, 'lipoC3S3': 11.72, 'lipoC3S2': 7.74, 'rot1': 0, 'rot0': 0, 'rot3': 13, 'rot2': 12, 'state': 'normal', 'yaw': -3.06, 'datetime': '2018-10-09 19:53:50.913503', 'mgs': 0, 'volt': 0.9619, 'depth': 2.53, 'time': 4, 'pitch': 0.43, 'roll': 0.34, 'pres': 197}
{'lipoC2': 7.34, 'lipoC3S1': 3.86, 'temp': 26.63, 'lipoC3S3': 11.71, 'lipoC3S2': 7.74, 'rot1': 0, 'rot0': 0, 'rot3': 14, 'rot2': 13, 'state': 'normal', 'yaw': -3.32, 'datetime': '2018-10-09 19:53:51.017055', 'mgs': 0, 'volt': 0.9619, 'depth': 2.53, 'time': 4, 'pitch': 0.19, 'roll': 0.06, 'pres': 197}
{'lipoC2': 7.34, 'lipoC3S1': 3.86, 'temp': 26.63, 'lipoC3S3': 11.72, 'lipoC3S2': 7.74, 'rot1': 0, 'rot0': 0, 'rot3': 15, 'rot2': 14, 'state': 'normal', 'yaw': -3.56, 'datetime': '2018-10-09 19:53:51.120685', 'mgs': 0, 'volt': 0.9521, 'depth': 2.377, 'time': 4, 'pitch': -0.07, 'roll': -0.18, 'pres': 195}
{'lipoC2': 7.34, 'lipoC3S1': 3.85, 'temp': 26.63, 'lipoC3S3': 11.71, 'lipoC3S2': 7.72, 'rot1': 0, 'rot0': 0, 'rot3': 15, 'rot2': 14, 'state': 'normal', 'yaw': -3.84, 'datetime': '2018-10-09 19:53:51.228351', 'mgs': 0, 'volt': 0.9277, 'depth': 1.996, 'time': 4, 'pitch': -0.36, 'roll': -0.39, 'pres': 190}
{'lipoC2': 7.34, 'lipoC3S1': 3.87, 'temp': 26.63, 'lipoC3S3': 11.68, 'lipoC3S2': 7.7, 'rot1': 0, 'rot0': 0, 'rot3': 16, 'rot2': 15, 'state': 'normal', 'yaw': -4.05, 'datetime': '2018-10-09 19:53:51.327775', 'mgs': 0, 'volt': 0.918, 'depth': 1.843, 'time': 4, 'pitch': -0.63, 'roll': -0.56, 'pres': 188}
{'lipoC2': 7.34, 'lipoC3S1': 3.88, 'temp': 26.63, 'lipoC3S3': 11.65, 'lipoC3S2': 7.74, 'rot1': 0, 'rot0': 0, 'rot3': 17, 'rot2': 16, 'state': 'normal', 'yaw': -4.23, 'datetime': '2018-10-09 19:53:51.431390', 'mgs': 0, 'volt': 0.9131, 'depth': 1.767, 'time': 5, 'pitch': -0.92, 'roll': -0.72, 'pres': 187}
{'lipoC2': 7.34, 'lipoC3S1': 3.88, 'temp': 26.63, 'lipoC3S3': 11.71, 'lipoC3S2': 7.74, 'rot1': 0, 'rot0': 0, 'rot3': 18, 'rot2': 16, 'state': 'normal', 'yaw': -4.41, 'datetime': '2018-10-09 19:53:51.539552', 'mgs': 0, 'volt': 0.9131, 'depth': 1.767, 'time': 5, 'pitch': -1.23, 'roll': -0.88, 'pres': 187}
{'lipoC2': 7.34, 'lipoC3S1': 3.87, 'temp': 26.63, 'lipoC3S3': 11.72, 'lipoC3S2': 7.74, 'rot1': 0, 'rot0': 0, 'rot3': 18, 'rot2': 17, 'state': 'normal', 'yaw': -4.58, 'datetime': '2018-10-09 19:53:51.644303', 'mgs': 0, 'volt': 0.9082, 'depth': 1.691, 'time': 5, 'pitch': -1.45, 'roll': -0.97, 'pres': 186}
{'lipoC2': 7.34, 'lipoC3S1': 3.88, 'temp': 26.63, 'lipoC3S3': 11.67, 'lipoC3S2': 7.74, 'rot1': 0, 'rot0': 0, 'rot3': 19, 'rot2': 18, 'state': 'normal', 'yaw': -4.74, 'datetime': '2018-10-09 19:53:51.747362', 'mgs': 0, 'volt': 0.8887, 'depth': 1.385, 'time': 5, 'pitch': -1.57, 'roll': -1.01, 'pres': 182}
{'lipoC2': 7.34, 'lipoC3S1': 3.88, 'temp': 26.63, 'lipoC3S3': 11.71, 'lipoC3S2': 7.75, 'rot1': 0, 'rot0': 0, 'rot3': 20, 'rot2': 18, 'state': 'normal', 'yaw': -4.9, 'datetime': '2018-10-09 19:53:51.852156', 'mgs': 0, 'volt': 0.8887, 'depth': 1.385, 'time': 5, 'pitch': -1.6, 'roll': -1.01, 'pres': 182}
{'lipoC2': 7.35, 'lipoC3S1': 3.88, 'temp': 26.63, 'lipoC3S3': 11.72, 'lipoC3S2': 7.75, 'rot1': 0, 'rot0': 0, 'rot3': 20, 'rot2': 19, 'state': 'normal', 'yaw': -5.06, 'datetime': '2018-10-09 19:53:51.955600', 'mgs': 0, 'volt': 0.8936, 'depth': 1.462, 'time': 5, 'pitch': -1.48, 'roll': -1.04, 'pres': 183}
{'lipoC2': 7.34, 'lipoC3S1': 3.88, 'temp': 26.63, 'lipoC3S3': 11.71, 'lipoC3S2': 7.71, 'rot1': 0, 'rot0': 0, 'rot3': 21, 'rot2': 19, 'state': 'normal', 'yaw': -5.21, 'datetime': '2018-10-09 19:53:52.060484', 'mgs': 0, 'volt': 0.8691, 'depth': 1.08, 'time': 5, 'pitch': -1.26, 'roll': -1.12, 'pres': 178}
{'lipoC2': 7.34, 'lipoC3S1': 3.89, 'temp': 26.56, 'lipoC3S3': 11.75, 'lipoC3S2': 7.77, 'rot1': 0, 'rot0': 0, 'rot3': 21, 'rot2': 20, 'state': 'normal', 'yaw': -5.39, 'datetime': '2018-10-09 19:53:52.164036', 'mgs': 0, 'volt': 0.8643, 'depth': 1.004, 'time': 5, 'pitch': -1.0, 'roll': -1.15, 'pres': 177}
{'lipoC2': 7.34, 'lipoC3S1': 3.88, 'temp': 26.56, 'lipoC3S3': 11.75, 'lipoC3S2': 7.77, 'rot1': 0, 'rot0': 0, 'rot3': 21, 'rot2': 20, 'state': 'normal', 'yaw': -5.52, 'datetime': '2018-10-09 19:53:52.268693', 'mgs': 0, 'volt': 0.8594, 'depth': 0.928, 'time': 5, 'pitch': -0.84, 'roll': -1.2, 'pres': 176}
{'lipoC2': 7.34, 'lipoC3S1': 3.88, 'temp': 26.56, 'lipoC3S3': 11.75, 'lipoC3S2': 7.76, 'rot1': 0, 'rot0': 0, 'rot3': 21, 'rot2': 20, 'state': 'normal', 'yaw': -5.64, 'datetime': '2018-10-09 19:53:52.372747', 'mgs': 0, 'volt': 0.8545, 'depth': 0.851, 'time': 6, 'pitch': -0.79, 'roll': -1.2, 'pres': 175}
{'lipoC2': 7.34, 'lipoC3S1': 3.88, 'temp': 26.56, 'lipoC3S3': 11.75, 'lipoC3S2': 7.76, 'rot1': 0, 'rot0': 0, 'rot3': 21, 'rot2': 20, 'state': 'normal', 'yaw': -5.66, 'datetime': '2018-10-09 19:53:52.476282', 'mgs': 0, 'volt': 0.8545, 'depth': 0.851, 'time': 6, 'pitch': -0.74, 'roll': -1.2, 'pres': 175}
{'lipoC2': 7.34, 'lipoC3S1': 3.88, 'temp': 26.56, 'lipoC3S3': 11.75, 'lipoC3S2': 7.77, 'rot1': 0, 'rot0': 0, 'rot3': 21, 'rot2': 20, 'state': 'normal', 'yaw': -5.61, 'datetime': '2018-10-09 19:53:52.579775', 'mgs': 0, 'volt': 0.8643, 'depth': 1.004, 'time': 6, 'pitch': -0.61, 'roll': -1.22, 'pres': 177}
{'lipoC2': 7.34, 'lipoC3S1': 3.89, 'temp': 26.56, 'lipoC3S3': 11.75, 'lipoC3S2': 7.76, 'rot1': 1, 'rot0': 1, 'rot3': 21, 'rot2': 20, 'state': 'normal', 'yaw': -5.44, 'datetime': '2018-10-09 19:53:52.683369', 'mgs': 0, 'volt': 0.8447, 'depth': 0.699, 'time': 6, 'pitch': -0.37, 'roll': -1.22, 'pres': 173}
{'lipoC2': 7.34, 'lipoC3S1': 3.89, 'temp': 26.56, 'lipoC3S3': 11.75, 'lipoC3S2': 7.76, 'rot1': 1, 'rot0': 1, 'rot3': 21, 'rot2': 20, 'state': 'normal', 'yaw': -5.23, 'datetime': '2018-10-09 19:53:52.786998', 'mgs': 0, 'volt': 0.8447, 'depth': 0.699, 'time': 6, 'pitch': -0.12, 'roll': -1.23, 'pres': 173}
{'lipoC2': 7.34, 'lipoC3S1': 3.84, 'temp': 26.63, 'lipoC3S3': 11.72, 'lipoC3S2': 7.7, 'rot1': 1, 'rot0': 1, 'rot3': 21, 'rot2': 20, 'state': 'normal', 'yaw': -4.95, 'datetime': '2018-10-09 19:53:52.890650', 'mgs': 0, 'volt': 0.8447, 'depth': 0.699, 'time': 6, 'pitch': 0.09, 'roll': -1.29, 'pres': 173}
{'lipoC2': 7.34, 'lipoC3S1': 3.88, 'temp': 26.63, 'lipoC3S3': 11.68, 'lipoC3S2': 7.7, 'rot1': 2, 'rot0': 2, 'rot3': 21, 'rot2': 21, 'state': 'normal', 'yaw': -4.55, 'datetime': '2018-10-09 19:53:52.994278', 'mgs': 0, 'volt': 0.8398, 'depth': 0.623, 'time': 6, 'pitch': 0.1, 'roll': -1.4, 'pres': 172}
{'lipoC2': 7.34, 'lipoC3S1': 3.88, 'temp': 26.63, 'lipoC3S3': 11.64, 'lipoC3S2': 7.74, 'rot1': 2, 'rot0': 2, 'rot3': 22, 'rot2': 21, 'state': 'normal', 'yaw': -4.12, 'datetime': '2018-10-09 19:53:53.097811', 'mgs': 0, 'volt': 0.8203, 'depth': 0.317, 'time': 6, 'pitch': -0.07, 'roll': -1.5, 'pres': 168}
{'lipoC2': 7.34, 'lipoC3S1': 3.88, 'temp': 26.63, 'lipoC3S3': 11.71, 'lipoC3S2': 7.74, 'rot1': 2, 'rot0': 2, 'rot3': 23, 'rot2': 22, 'state': 'normal', 'yaw': -3.66, 'datetime': '2018-10-09 19:53:53.201443', 'mgs': 0, 'volt': 0.8545, 'depth': 0.851, 'time': 6, 'pitch': -0.27, 'roll': -1.58, 'pres': 175}
{'lipoC2': 7.34, 'lipoC3S1': 3.88, 'temp': 26.63, 'lipoC3S3': 11.75, 'lipoC3S2': 7.71, 'rot1': 2, 'rot0': 2, 'rot3': 23, 'rot2': 22, 'state': 'normal', 'yaw': -3.13, 'datetime': '2018-10-09 19:53:53.305816', 'mgs': 0, 'volt': 0.8447, 'depth': 0.699, 'time': 6, 'pitch': -0.49, 'roll': -1.66, 'pres': 173}
{'lipoC2': 7.34, 'lipoC3S1': 3.89, 'temp': 26.56, 'lipoC3S3': 11.75, 'lipoC3S2': 7.76, 'rot1': 3, 'rot0': 3, 'rot3': 23, 'rot2': 22, 'state': 'normal', 'yaw': -2.66, 'datetime': '2018-10-09 19:53:53.408790', 'mgs': 0, 'volt': 0.8447, 'depth': 0.699, 'time': 7, 'pitch': -0.61, 'roll': -1.74, 'pres': 173}
{'lipoC2': 7.34, 'lipoC3S1': 3.88, 'temp': 26.56, 'lipoC3S3': 11.71, 'lipoC3S2': 7.74, 'rot1': 3, 'rot0': 3, 'rot3': 23, 'rot2': 22, 'state': 'normal', 'yaw': -2.15, 'datetime': '2018-10-09 19:53:53.513580', 'mgs': 0, 'volt': 0.8545, 'depth': 0.851, 'time': 7, 'pitch': -0.69, 'roll': -1.85, 'pres': 175}
{'lipoC2': 7.35, 'lipoC3S1': 3.89, 'temp': 26.63, 'lipoC3S3': 11.72, 'lipoC3S2': 7.75, 'rot1': 3, 'rot0': 3, 'rot3': 24, 'rot2': 23, 'state': 'normal', 'yaw': -1.56, 'datetime': '2018-10-09 19:53:53.617141', 'mgs': 0, 'volt': 0.8643, 'depth': 1.004, 'time': 7, 'pitch': -0.83, 'roll': -2.0, 'pres': 177}
{'lipoC2': 7.34, 'lipoC3S1': 3.88, 'temp': 26.63, 'lipoC3S3': 11.75, 'lipoC3S2': 7.76, 'rot1': 3, 'rot0': 3, 'rot3': 24, 'rot2': 23, 'state': 'normal', 'yaw': -0.99, 'datetime': '2018-10-09 19:53:53.720675', 'mgs': 0, 'volt': 0.8545, 'depth': 0.851, 'time': 7, 'pitch': -1.0, 'roll': -2.11, 'pres': 175}
{'lipoC2': 7.34, 'lipoC3S1': 3.88, 'temp': 26.63, 'lipoC3S3': 11.75, 'lipoC3S2': 7.76, 'rot1': 4, 'rot0': 4, 'rot3': 24, 'rot2': 23, 'state': 'normal', 'yaw': -0.46, 'datetime': '2018-10-09 19:53:53.825512', 'mgs': 0, 'volt': 0.8545, 'depth': 0.851, 'time': 7, 'pitch': -1.09, 'roll': -2.13, 'pres': 175}
{'lipoC2': 7.34, 'lipoC3S1': 3.88, 'temp': 26.63, 'lipoC3S3': 11.75, 'lipoC3S2': 7.77, 'rot1': 4, 'rot0': 4, 'rot3': 24, 'rot2': 23, 'state': 'normal', 'yaw': 0.13, 'datetime': '2018-10-09 19:53:53.929077', 'mgs': 0, 'volt': 0.8545, 'depth': 0.851, 'time': 7, 'pitch': -1.15, 'roll': -2.01, 'pres': 175}
{'lipoC2': 7.34, 'lipoC3S1': 3.88, 'temp': 26.63, 'lipoC3S3': 11.75, 'lipoC3S2': 7.77, 'rot1': 4, 'rot0': 4, 'rot3': 24, 'rot2': 23, 'state': 'normal', 'yaw': 0.67, 'datetime': '2018-10-09 19:53:54.032660', 'mgs': 0, 'volt': 0.8594, 'depth': 0.928, 'time': 7, 'pitch': -1.23, 'roll': -1.86, 'pres': 176}
{'lipoC2': 7.34, 'lipoC3S1': 3.86, 'temp': 26.56, 'lipoC3S3': 11.75, 'lipoC3S2': 7.76, 'rot1': 4, 'rot0': 5, 'rot3': 24, 'rot2': 23, 'state': 'normal', 'yaw': 1.24, 'datetime': '2018-10-09 19:53:54.136145', 'mgs': 0, 'volt': 0.8594, 'depth': 0.928, 'time': 7, 'pitch': -1.28, 'roll': -1.68, 'pres': 176}
{'lipoC2': 7.34, 'lipoC3S1': 3.88, 'temp': 26.56, 'lipoC3S3': 11.75, 'lipoC3S2': 7.77, 'rot1': 5, 'rot0': 5, 'rot3': 24, 'rot2': 23, 'state': 'normal', 'yaw': 1.87, 'datetime': '2018-10-09 19:53:54.239805', 'mgs': 0, 'volt': 0.8594, 'depth': 0.928, 'time': 7, 'pitch': -1.19, 'roll': -1.48, 'pres': 176}
{'lipoC2': 7.34, 'lipoC3S1': 3.88, 'temp': 26.63, 'lipoC3S3': 11.75, 'lipoC3S2': 7.76, 'rot1': 5, 'rot0': 5, 'rot3': 24, 'rot2': 23, 'state': 'normal', 'yaw': 2.45, 'datetime': '2018-10-09 19:53:54.345903', 'mgs': 0, 'volt': 0.8643, 'depth': 1.004, 'time': 7, 'pitch': -1.02, 'roll': -1.32, 'pres': 177}
{'lipoC2': 7.34, 'lipoC3S1': 3.88, 'temp': 26.63, 'lipoC3S3': 11.75, 'lipoC3S2': 7.77, 'rot1': 5, 'rot0': 5, 'rot3': 24, 'rot2': 23, 'state': 'normal', 'yaw': 3.03, 'datetime': '2018-10-09 19:53:54.446868', 'mgs': 0, 'volt': 0.8691, 'depth': 1.08, 'time': 8, 'pitch': -0.88, 'roll': -1.17, 'pres': 178}
{'lipoC2': 7.34, 'lipoC3S1': 3.88, 'temp': 26.63, 'lipoC3S3': 11.75, 'lipoC3S2': 7.76, 'rot1': 5, 'rot0': 5, 'rot3': 24, 'rot2': 23, 'state': 'normal', 'yaw': 3.67, 'datetime': '2018-10-09 19:53:54.543832', 'mgs': 0, 'volt': 0.8691, 'depth': 1.08, 'time': 8, 'pitch': -0.77, 'roll': -0.97, 'pres': 178}
{'lipoC2': 7.34, 'lipoC3S1': 3.89, 'temp': 26.56, 'lipoC3S3': 11.75, 'lipoC3S2': 7.77, 'rot1': 5, 'rot0': 6, 'rot3': 24, 'rot2': 23, 'state': 'normal', 'yaw': 4.25, 'datetime': '2018-10-09 19:53:54.647385', 'mgs': 0, 'volt': 0.8691, 'depth': 1.08, 'time': 8, 'pitch': -0.83, 'roll': -0.8, 'pres': 178}
{'lipoC2': 7.34, 'lipoC3S1': 3.88, 'temp': 26.56, 'lipoC3S3': 11.75, 'lipoC3S2': 7.77, 'rot1': 6, 'rot0': 6, 'rot3': 24, 'rot2': 23, 'state': 'normal', 'yaw': 4.84, 'datetime': '2018-10-09 19:53:54.751761', 'mgs': 0, 'volt': 0.874, 'depth': 1.157, 'time': 8, 'pitch': -0.9, 'roll': -0.66, 'pres': 179}
{'lipoC2': 7.34, 'lipoC3S1': 3.88, 'temp': 26.56, 'lipoC3S3': 11.75, 'lipoC3S2': 7.76, 'rot1': 6, 'rot0': 6, 'rot3': 24, 'rot2': 23, 'state': 'normal', 'yaw': 5.47, 'datetime': '2018-10-09 19:53:54.855328', 'mgs': 0, 'volt': 0.874, 'depth': 1.157, 'time': 8, 'pitch': -1.09, 'roll': -0.52, 'pres': 179}
{'lipoC2': 7.34, 'lipoC3S1': 3.89, 'temp': 26.56, 'lipoC3S3': 11.75, 'lipoC3S2': 7.77, 'rot1': 6, 'rot0': 6, 'rot3': 24, 'rot2': 23, 'state': 'normal', 'yaw': 6.03, 'datetime': '2018-10-09 19:53:54.958854', 'mgs': 0, 'volt': 0.874, 'depth': 1.157, 'time': 8, 'pitch': -1.3, 'roll': -0.43, 'pres': 179}
{'lipoC2': 7.34, 'lipoC3S1': 3.88, 'temp': 26.56, 'lipoC3S3': 11.75, 'lipoC3S2': 7.77, 'rot1': 6, 'rot0': 6, 'rot3': 24, 'rot2': 23, 'state': 'normal', 'yaw': 6.58, 'datetime': '2018-10-09 19:53:55.063163', 'mgs': 0, 'volt': 0.8789, 'depth': 1.233, 'time': 8, 'pitch': -1.49, 'roll': -0.4, 'pres': 180}
{'lipoC2': 7.34, 'lipoC3S1': 3.85, 'temp': 26.56, 'lipoC3S3': 11.72, 'lipoC3S2': 7.75, 'rot1': 6, 'rot0': 6, 'rot3': 24, 'rot2': 23, 'state': 'normal', 'yaw': 7.19, 'datetime': '2018-10-09 19:53:55.166702', 'mgs': 0, 'volt': 0.9033, 'depth': 1.614, 'time': 8, 'pitch': -1.71, 'roll': -0.41, 'pres': 185}
{'lipoC2': 7.34, 'lipoC3S1': 3.87, 'temp': 26.56, 'lipoC3S3': 11.71, 'lipoC3S2': 7.71, 'rot1': 6, 'rot0': 7, 'rot3': 25, 'rot2': 24, 'state': 'normal', 'yaw': 7.72, 'datetime': '2018-10-09 19:53:55.278584', 'mgs': 0, 'volt': 0.8838, 'depth': 1.309, 'time': 8, 'pitch': -1.78, 'roll': -0.43, 'pres': 181}
{'lipoC2': 7.34, 'lipoC3S1': 3.88, 'temp': 26.5, 'lipoC3S3': 11.68, 'lipoC3S2': 7.75, 'rot1': 6, 'rot0': 7, 'rot3': 25, 'rot2': 24, 'state': 'normal', 'yaw': 8.27, 'datetime': '2018-10-09 19:53:55.382110', 'mgs': 0, 'volt': 0.8838, 'depth': 1.309, 'time': 9, 'pitch': -1.72, 'roll': -0.44, 'pres': 181}
{'lipoC2': 7.34, 'lipoC3S1': 3.88, 'temp': 26.5, 'lipoC3S3': 11.65, 'lipoC3S2': 7.75, 'rot1': 7, 'rot0': 7, 'rot3': 26, 'rot2': 25, 'state': 'normal', 'yaw': 8.77, 'datetime': '2018-10-09 19:53:55.486060', 'mgs': 0, 'volt': 0.8887, 'depth': 1.385, 'time': 9, 'pitch': -1.56, 'roll': -0.45, 'pres': 182}
{'lipoC2': 7.34, 'lipoC3S1': 3.88, 'temp': 26.56, 'lipoC3S3': 11.71, 'lipoC3S2': 7.74, 'rot1': 7, 'rot0': 7, 'rot3': 26, 'rot2': 25, 'state': 'normal', 'yaw': 9.23, 'datetime': '2018-10-09 19:53:55.589200', 'mgs': 0, 'volt': 0.8984, 'depth': 1.538, 'time': 9, 'pitch': -1.3, 'roll': -0.45, 'pres': 184}
{'lipoC2': 7.34, 'lipoC3S1': 3.87, 'temp': 26.56, 'lipoC3S3': 11.72, 'lipoC3S2': 7.75, 'rot1': 7, 'rot0': 7, 'rot3': 27, 'rot2': 26, 'state': 'normal', 'yaw': 9.69, 'datetime': '2018-10-09 19:53:55.692862', 'mgs': 0, 'volt': 0.9033, 'depth': 1.614, 'time': 9, 'pitch': -0.97, 'roll': -0.46, 'pres': 185}
{'lipoC2': 7.34, 'lipoC3S1': 3.86, 'temp': 26.63, 'lipoC3S3': 11.72, 'lipoC3S2': 7.77, 'rot1': 7, 'rot0': 7, 'rot3': 28, 'rot2': 26, 'state': 'normal', 'yaw': 10.08, 'datetime': '2018-10-09 19:53:55.796481', 'mgs': 0, 'volt': 0.9082, 'depth': 1.691, 'time': 9, 'pitch': -0.68, 'roll': -0.47, 'pres': 186}
{'lipoC2': 7.34, 'lipoC3S1': 3.84, 'temp': 26.63, 'lipoC3S3': 11.72, 'lipoC3S2': 7.72, 'rot1': 7, 'rot0': 7, 'rot3': 28, 'rot2': 27, 'state': 'normal', 'yaw': 10.45, 'datetime': '2018-10-09 19:53:55.899958', 'mgs': 0, 'volt': 0.8838, 'depth': 1.309, 'time': 9, 'pitch': -0.46, 'roll': -0.47, 'pres': 181}
{'lipoC2': 7.34, 'lipoC3S1': 3.87, 'temp': 26.63, 'lipoC3S3': 11.71, 'lipoC3S2': 7.71, 'rot1': 7, 'rot0': 7, 'rot3': 29, 'rot2': 28, 'state': 'normal', 'yaw': 10.79, 'datetime': '2018-10-09 19:53:56.003428', 'mgs': 0, 'volt': 0.8838, 'depth': 1.309, 'time': 9, 'pitch': -0.29, 'roll': -0.47, 'pres': 181}
{'lipoC2': 7.34, 'lipoC3S1': 3.88, 'temp': 26.63, 'lipoC3S3': 11.68, 'lipoC3S2': 7.75, 'rot1': 7, 'rot0': 7, 'rot3': 30, 'rot2': 28, 'state': 'normal', 'yaw': 11.14, 'datetime': '2018-10-09 19:53:56.107137', 'mgs': 0, 'volt': 0.8838, 'depth': 1.309, 'time': 9, 'pitch': -0.18, 'roll': -0.47, 'pres': 181}
{'lipoC2': 7.34, 'lipoC3S1': 3.88, 'temp': 26.63, 'lipoC3S3': 11.65, 'lipoC3S2': 7.74, 'rot1': 7, 'rot0': 7, 'rot3': 30, 'rot2': 29, 'state': 'normal', 'yaw': 11.45, 'datetime': '2018-10-09 19:53:56.210583', 'mgs': 0, 'volt': 0.874, 'depth': 1.157, 'time': 9, 'pitch': -0.14, 'roll': -0.47, 'pres': 179}
{'lipoC2': 7.34, 'lipoC3S1': 3.88, 'temp': 26.63, 'lipoC3S3': 11.72, 'lipoC3S2': 7.75, 'rot1': 7, 'rot0': 7, 'rot3': 31, 'rot2': 29, 'state': 'normal', 'yaw': 11.77, 'datetime': '2018-10-09 19:53:56.314275', 'mgs': 0, 'volt': 0.8936, 'depth': 1.462, 'time': 9, 'pitch': -0.18, 'roll': -0.47, 'pres': 183}
{'lipoC2': 7.34, 'lipoC3S1': 3.86, 'temp': 26.63, 'lipoC3S3': 11.72, 'lipoC3S2': 7.75, 'rot1': 7, 'rot0': 8, 'rot3': 31, 'rot2': 30, 'state': 'normal', 'yaw': 12.05, 'datetime': '2018-10-09 19:53:56.417868', 'mgs': 0, 'volt': 0.8984, 'depth': 1.538, 'time': 10, 'pitch': -0.21, 'roll': -0.41, 'pres': 184}
{'lipoC2': 7.34, 'lipoC3S1': 3.88, 'temp': 26.63, 'lipoC3S3': 11.67, 'lipoC3S2': 7.74, 'rot1': 7, 'rot0': 8, 'rot3': 32, 'rot2': 31, 'state': 'normal', 'yaw': 12.31, 'datetime': '2018-10-09 19:53:56.523498', 'mgs': 0, 'volt': 0.874, 'depth': 1.157, 'time': 10, 'pitch': -0.29, 'roll': -0.35, 'pres': 179}
{'lipoC2': 7.34, 'lipoC3S1': 3.88, 'temp': 26.63, 'lipoC3S3': 11.72, 'lipoC3S2': 7.75, 'rot1': 7, 'rot0': 8, 'rot3': 33, 'rot2': 31, 'state': 'normal', 'yaw': 12.57, 'datetime': '2018-10-09 19:53:56.626591', 'mgs': 0, 'volt': 0.8936, 'depth': 1.462, 'time': 10, 'pitch': -0.43, 'roll': -0.26, 'pres': 183}
{'lipoC2': 7.34, 'lipoC3S1': 3.81, 'temp': 26.63, 'lipoC3S3': 11.64, 'lipoC3S2': 7.67, 'rot1': 7, 'rot0': 8, 'rot3': 33, 'rot2': 33, 'state': 'normal', 'yaw': 12.77, 'datetime': '2018-10-09 19:53:56.731926', 'mgs': 0, 'volt': 0.8789, 'depth': 1.233, 'time': 10, 'pitch': -0.58, 'roll': -0.22, 'pres': 180}
{'lipoC2': 7.34, 'lipoC3S1': 3.82, 'temp': 26.56, 'lipoC3S3': 11.54, 'lipoC3S2': 7.65, 'rot1': 7, 'rot0': 8, 'rot3': 34, 'rot2': 33, 'state': 'normal', 'yaw': 13.0, 'datetime': '2018-10-09 19:53:56.836263', 'mgs': 0, 'volt': 0.8789, 'depth': 1.233, 'time': 10, 'pitch': -1.02, 'roll': -0.34, 'pres': 180}
{'lipoC2': 7.34, 'lipoC3S1': 3.86, 'temp': 26.56, 'lipoC3S3': 11.59, 'lipoC3S2': 7.71, 'rot1': 8, 'rot0': 9, 'rot3': 35, 'rot2': 34, 'state': 'normal', 'yaw': 13.04, 'datetime': '2018-10-09 19:53:56.939807', 'mgs': 0, 'volt': 0.9277, 'depth': 1.996, 'time': 10, 'pitch': -1.36, 'roll': -0.55, 'pres': 190}
{'lipoC2': 7.34, 'lipoC3S1': 3.76, 'temp': 26.63, 'lipoC3S3': 11.67, 'lipoC3S2': 7.73, 'rot1': 9, 'rot0': 10, 'rot3': 36, 'rot2': 35, 'state': 'normal', 'yaw': 12.77, 'datetime': '2018-10-09 19:53:57.043808', 'mgs': 0, 'volt': 0.8936, 'depth': 1.462, 'time': 10, 'pitch': -1.23, 'roll': -0.76, 'pres': 183}
{'lipoC2': 7.34, 'lipoC3S1': 3.86, 'temp': 26.63, 'lipoC3S3': 11.54, 'lipoC3S2': 7.68, 'rot1': 10, 'rot0': 11, 'rot3': 36, 'rot2': 35, 'state': 'normal', 'yaw': 12.18, 'datetime': '2018-10-09 19:53:57.147815', 'mgs': 0, 'volt': 0.8838, 'depth': 1.309, 'time': 10, 'pitch': -0.69, 'roll': -0.99, 'pres': 181}
{'lipoC2': 7.34, 'lipoC3S1': 3.78, 'temp': 26.56, 'lipoC3S3': 11.67, 'lipoC3S2': 7.67, 'rot1': 10, 'rot0': 13, 'rot3': 37, 'rot2': 36, 'state': 'normal', 'yaw': 11.37, 'datetime': '2018-10-09 19:53:57.252585', 'mgs': 0, 'volt': 0.9033, 'depth': 1.614, 'time': 10, 'pitch': 0.07, 'roll': -1.21, 'pres': 185}
{'lipoC2': 7.33, 'lipoC3S1': 3.86, 'temp': 26.56, 'lipoC3S3': 11.59, 'lipoC3S2': 7.71, 'rot1': 11, 'rot0': 14, 'rot3': 38, 'rot2': 37, 'state': 'normal', 'yaw': 10.38, 'datetime': '2018-10-09 19:53:57.355766', 'mgs': 0, 'volt': 0.918, 'depth': 1.843, 'time': 10, 'pitch': 1.03, 'roll': -1.5, 'pres': 188}
{'lipoC2': 7.34, 'lipoC3S1': 3.83, 'temp': 26.56, 'lipoC3S3': 11.6, 'lipoC3S2': 7.62, 'rot1': 12, 'rot0': 15, 'rot3': 39, 'rot2': 37, 'state': 'normal', 'yaw': 9.12, 'datetime': '2018-10-09 19:53:57.459525', 'mgs': 0, 'volt': 0.8984, 'depth': 1.538, 'time': 11, 'pitch': 2.25, 'roll': -1.91, 'pres': 184}
{'lipoC2': 7.34, 'lipoC3S1': 3.84, 'temp': 26.56, 'lipoC3S3': 11.67, 'lipoC3S2': 7.71, 'rot1': 13, 'rot0': 16, 'rot3': 40, 'rot2': 38, 'state': 'normal', 'yaw': 7.9, 'datetime': '2018-10-09 19:53:57.563517', 'mgs': 0, 'volt': 0.9424, 'depth': 2.225, 'time': 11, 'pitch': 3.49, 'roll': -2.3, 'pres': 193}
{'lipoC2': 7.34, 'lipoC3S1': 3.83, 'temp': 26.56, 'lipoC3S3': 11.67, 'lipoC3S2': 7.63, 'rot1': 14, 'rot0': 17, 'rot3': 41, 'rot2': 39, 'state': 'normal', 'yaw': 6.67, 'datetime': '2018-10-09 19:53:57.668117', 'mgs': 0, 'volt': 0.8984, 'depth': 1.538, 'time': 11, 'pitch': 4.72, 'roll': -2.65, 'pres': 184}
{'lipoC2': 7.34, 'lipoC3S1': 3.87, 'temp': 26.63, 'lipoC3S3': 11.65, 'lipoC3S2': 7.71, 'rot1': 15, 'rot0': 18, 'rot3': 41, 'rot2': 39, 'state': 'normal', 'yaw': 5.33, 'datetime': '2018-10-09 19:53:57.772149', 'mgs': 0, 'volt': 0.9717, 'depth': 2.682, 'time': 11, 'pitch': 5.95, 'roll': -2.93, 'pres': 199}
{'lipoC2': 7.34, 'lipoC3S1': 3.86, 'temp': 26.63, 'lipoC3S3': 11.64, 'lipoC3S2': 7.71, 'rot1': 16, 'rot0': 20, 'rot3': 42, 'rot2': 40, 'state': 'normal', 'yaw': 4.12, 'datetime': '2018-10-09 19:53:57.877496', 'mgs': 0, 'volt': 0.9863, 'depth': 2.911, 'time': 11, 'pitch': 6.82, 'roll': -3.07, 'pres': 202}
{'lipoC2': 7.34, 'lipoC3S1': 3.86, 'temp': 26.63, 'lipoC3S3': 11.5, 'lipoC3S2': 7.66, 'rot1': 17, 'rot0': 21, 'rot3': 43, 'rot2': 41, 'state': 'normal', 'yaw': 2.84, 'datetime': '2018-10-09 19:53:57.981502', 'mgs': 0, 'volt': 0.918, 'depth': 1.843, 'time': 11, 'pitch': 7.49, 'roll': -3.16, 'pres': 188}
{'lipoC2': 7.34, 'lipoC3S1': 3.82, 'temp': 26.63, 'lipoC3S3': 11.67, 'lipoC3S2': 7.59, 'rot1': 18, 'rot0': 22, 'rot3': 44, 'rot2': 41, 'state': 'normal', 'yaw': 1.76, 'datetime': '2018-10-09 19:53:58.086651', 'mgs': 0, 'volt': 0.918, 'depth': 1.843, 'time': 11, 'pitch': 7.81, 'roll': -3.1, 'pres': 188}
{'lipoC2': 7.34, 'lipoC3S1': 3.86, 'temp': 26.63, 'lipoC3S3': 11.65, 'lipoC3S2': 7.71, 'rot1': 19, 'rot0': 23, 'rot3': 44, 'rot2': 42, 'state': 'normal', 'yaw': 0.74, 'datetime': '2018-10-09 19:53:58.190680', 'mgs': 0, 'volt': 1.001, 'depth': 3.14, 'time': 11, 'pitch': 8.02, 'roll': -2.93, 'pres': 205}
{'lipoC2': 7.34, 'lipoC3S1': 3.86, 'temp': 26.63, 'lipoC3S3': 11.47, 'lipoC3S2': 7.73, 'rot1': 20, 'rot0': 24, 'rot3': 45, 'rot2': 42, 'state': 'normal', 'yaw': -0.01, 'datetime': '2018-10-09 19:53:58.294709', 'mgs': 0, 'volt': 0.9277, 'depth': 1.996, 'time': 11, 'pitch': 8.13, 'roll': -2.69, 'pres': 190}
{'lipoC2': 7.34, 'lipoC3S1': 3.81, 'temp': 26.63, 'lipoC3S3': 11.67, 'lipoC3S2': 7.68, 'rot1': 21, 'rot0': 25, 'rot3': 45, 'rot2': 43, 'state': 'normal', 'yaw': -0.58, 'datetime': '2018-10-09 19:53:58.398663', 'mgs': 0, 'volt': 0.9326, 'depth': 2.072, 'time': 12, 'pitch': 8.21, 'roll': -2.34, 'pres': 191}
{'lipoC2': 7.35, 'lipoC3S1': 3.86, 'temp': 26.63, 'lipoC3S3': 11.64, 'lipoC3S2': 7.71, 'rot1': 22, 'rot0': 26, 'rot3': 46, 'rot2': 43, 'state': 'normal', 'yaw': -1.06, 'datetime': '2018-10-09 19:53:58.502700', 'mgs': 0, 'volt': 0.9766, 'depth': 2.759, 'time': 12, 'pitch': 8.24, 'roll': -1.92, 'pres': 200}
{'lipoC2': 7.34, 'lipoC3S1': 3.86, 'temp': 26.63, 'lipoC3S3': 11.56, 'lipoC3S2': 7.67, 'rot1': 24, 'rot0': 28, 'rot3': 47, 'rot2': 44, 'state': 'normal', 'yaw': -1.41, 'datetime': '2018-10-09 19:53:58.606767', 'mgs': 0, 'volt': 0.9375, 'depth': 2.148, 'time': 12, 'pitch': 8.23, 'roll': -1.55, 'pres': 192}
{'lipoC2': 7.34, 'lipoC3S1': 3.82, 'temp': 26.63, 'lipoC3S3': 11.67, 'lipoC3S2': 7.58, 'rot1': 25, 'rot0': 29, 'rot3': 47, 'rot2': 45, 'state': 'normal', 'yaw': -1.72, 'datetime': '2018-10-09 19:53:58.711032', 'mgs': 0, 'volt': 0.9375, 'depth': 2.148, 'time': 12, 'pitch': 8.14, 'roll': -1.23, 'pres': 192}
{'lipoC2': 7.34, 'lipoC3S1': 3.86, 'temp': 26.63, 'lipoC3S3': 11.64, 'lipoC3S2': 7.71, 'rot1': 26, 'rot0': 30, 'rot3': 48, 'rot2': 45, 'state': 'normal', 'yaw': -2.0, 'datetime': '2018-10-09 19:53:58.815153', 'mgs': 0, 'volt': 1.0449, 'depth': 3.827, 'time': 12, 'pitch': 8.0, 'roll': -0.97, 'pres': 214}
{'lipoC2': 7.34, 'lipoC3S1': 3.86, 'temp': 26.63, 'lipoC3S3': 11.64, 'lipoC3S2': 7.71, 'rot1': 27, 'rot0': 31, 'rot3': 48, 'rot2': 47, 'state': 'normal', 'yaw': -2.19, 'datetime': '2018-10-09 19:53:58.920318', 'mgs': 0, 'volt': 1.0205, 'depth': 3.445, 'time': 12, 'pitch': 7.77, 'roll': -0.83, 'pres': 209}
{'lipoC2': 7.34, 'lipoC3S1': 3.86, 'temp': 26.63, 'lipoC3S3': 11.44, 'lipoC3S2': 7.72, 'rot1': 28, 'rot0': 32, 'rot3': 48, 'rot2': 47, 'state': 'normal', 'yaw': -2.34, 'datetime': '2018-10-09 19:53:59.024307', 'mgs': 0, 'volt': 0.9424, 'depth': 2.225, 'time': 12, 'pitch': 7.62, 'roll': -0.63, 'pres': 193}
{'lipoC2': 7.34, 'lipoC3S1': 3.86, 'temp': 26.63, 'lipoC3S3': 11.47, 'lipoC3S2': 7.65, 'rot1': 29, 'rot0': 33, 'rot3': 49, 'rot2': 47, 'state': 'normal', 'yaw': -2.44, 'datetime': '2018-10-09 19:53:59.129914', 'mgs': 0, 'volt': 0.9424, 'depth': 2.225, 'time': 12, 'pitch': 7.61, 'roll': -0.46, 'pres': 193}
{'lipoC2': 7.34, 'lipoC3S1': 3.8, 'temp': 26.63, 'lipoC3S3': 11.63, 'lipoC3S2': 7.64, 'rot1': 30, 'rot0': 34, 'rot3': 49, 'rot2': 48, 'state': 'normal', 'yaw': -2.54, 'datetime': '2018-10-09 19:53:59.233878', 'mgs': 0, 'volt': 0.9766, 'depth': 2.759, 'time': 12, 'pitch': 7.75, 'roll': -0.37, 'pres': 200}
{'lipoC2': 7.34, 'lipoC3S1': 3.86, 'temp': 26.63, 'lipoC3S3': 11.55, 'lipoC3S2': 7.7, 'rot1': 31, 'rot0': 36, 'rot3': 50, 'rot2': 49, 'state': 'normal', 'yaw': -2.65, 'datetime': '2018-10-09 19:53:59.337909', 'mgs': 0, 'volt': 0.9961, 'depth': 3.064, 'time': 12, 'pitch': 7.74, 'roll': -0.5, 'pres': 204}
{'lipoC2': 7.34, 'lipoC3S1': 3.86, 'temp': 26.63, 'lipoC3S3': 11.63, 'lipoC3S2': 7.7, 'rot1': 33, 'rot0': 37, 'rot3': 50, 'rot2': 50, 'state': 'normal', 'yaw': -2.79, 'datetime': '2018-10-09 19:53:59.443260', 'mgs': 0, 'volt': 1.0205, 'depth': 3.445, 'time': 13, 'pitch': 7.5, 'roll': -0.72, 'pres': 209}
{'lipoC2': 7.34, 'lipoC3S1': 3.86, 'temp': 26.63, 'lipoC3S3': 11.48, 'lipoC3S2': 7.71, 'rot1': 34, 'rot0': 38, 'rot3': 51, 'rot2': 50, 'state': 'normal', 'yaw': -2.96, 'datetime': '2018-10-09 19:53:59.547371', 'mgs': 0, 'volt': 0.9424, 'depth': 2.225, 'time': 13, 'pitch': 7.26, 'roll': -1.03, 'pres': 193}
{'lipoC2': 7.34, 'lipoC3S1': 3.77, 'temp': 26.63, 'lipoC3S3': 11.68, 'lipoC3S2': 7.68, 'rot1': 35, 'rot0': 39, 'rot3': 51, 'rot2': 50, 'state': 'normal', 'yaw': -3.11, 'datetime': '2018-10-09 19:53:59.651308', 'mgs': 0, 'volt': 0.9473, 'depth': 2.301, 'time': 13, 'pitch': 7.16, 'roll': -1.26, 'pres': 194}
{'lipoC2': 7.34, 'lipoC3S1': 3.87, 'temp': 26.63, 'lipoC3S3': 11.68, 'lipoC3S2': 7.72, 'rot1': 36, 'rot0': 40, 'rot3': 51, 'rot2': 50, 'state': 'normal', 'yaw': -3.22, 'datetime': '2018-10-09 19:53:59.755355', 'mgs': 0, 'volt': 0.9863, 'depth': 2.911, 'time': 13, 'pitch': 7.1, 'roll': -1.49, 'pres': 202}
{'lipoC2': 7.34, 'lipoC3S1': 3.85, 'temp': 26.63, 'lipoC3S3': 11.48, 'lipoC3S2': 7.63, 'rot1': 37, 'rot0': 41, 'rot3': 51, 'rot2': 50, 'state': 'normal', 'yaw': -3.28, 'datetime': '2018-10-09 19:53:59.859110', 'mgs': 0, 'volt': 0.9473, 'depth': 2.301, 'time': 13, 'pitch': 7.03, 'roll': -1.63, 'pres': 194}
{'lipoC2': 7.34, 'lipoC3S1': 3.77, 'temp': 26.63, 'lipoC3S3': 11.65, 'lipoC3S2': 7.71, 'rot1': 38, 'rot0': 43, 'rot3': 52, 'rot2': 51, 'state': 'normal', 'yaw': -3.29, 'datetime': '2018-10-09 19:53:59.963179', 'mgs': 0, 'volt': 0.9668, 'depth': 2.606, 'time': 13, 'pitch': 6.84, 'roll': -1.73, 'pres': 198}
{'lipoC2': 7.32, 'lipoC3S1': 3.86, 'temp': 26.63, 'lipoC3S3': 11.58, 'lipoC3S2': 7.71, 'rot1': 39, 'rot0': 44, 'rot3': 52, 'rot2': 51, 'state': 'normal', 'yaw': -3.28, 'datetime': '2018-10-09 19:54:00.067282', 'mgs': 0, 'volt': 0.9766, 'depth': 2.759, 'time': 13, 'pitch': 6.49, 'roll': -1.79, 'pres': 200}
{'lipoC2': 7.35, 'lipoC3S1': 3.82, 'temp': 26.56, 'lipoC3S3': 11.56, 'lipoC3S2': 7.64, 'rot1': 40, 'rot0': 45, 'rot3': 53, 'rot2': 52, 'state': 'normal', 'yaw': -3.28, 'datetime': '2018-10-09 19:54:00.171306', 'mgs': 0, 'volt': 0.9473, 'depth': 2.301, 'time': 13, 'pitch': 6.19, 'roll': -1.78, 'pres': 194}
{'lipoC2': 7.33, 'lipoC3S1': 3.86, 'temp': 26.56, 'lipoC3S3': 11.56, 'lipoC3S2': 7.7, 'rot1': 42, 'rot0': 46, 'rot3': 54, 'rot2': 53, 'state': 'normal', 'yaw': -3.27, 'datetime': '2018-10-09 19:54:00.276057', 'mgs': 0, 'volt': 0.9473, 'depth': 2.301, 'time': 13, 'pitch': 5.9, 'roll': -1.75, 'pres': 194}
{'lipoC2': 7.34, 'lipoC3S1': 3.82, 'temp': 26.56, 'lipoC3S3': 11.67, 'lipoC3S2': 7.56, 'rot1': 43, 'rot0': 47, 'rot3': 54, 'rot2': 53, 'state': 'normal', 'yaw': -3.29, 'datetime': '2018-10-09 19:54:00.379871', 'mgs': 0, 'volt': 0.9521, 'depth': 2.377, 'time': 14, 'pitch': 5.6, 'roll': -1.63, 'pres': 195}
{'lipoC2': 7.34, 'lipoC3S1': 3.81, 'temp': 26.56, 'lipoC3S3': 11.65, 'lipoC3S2': 7.56, 'rot1': 44, 'rot0': 48, 'rot3': 55, 'rot2': 54, 'state': 'normal', 'yaw': -3.35, 'datetime': '2018-10-09 19:54:00.485190', 'mgs': 0, 'volt': 0.957, 'depth': 2.454, 'time': 14, 'pitch': 5.35, 'roll': -1.44, 'pres': 196}
{'lipoC2': 7.34, 'lipoC3S1': 3.87, 'temp': 26.56, 'lipoC3S3': 11.63, 'lipoC3S2': 7.71, 'rot1': 45, 'rot0': 49, 'rot3': 56, 'rot2': 54, 'state': 'normal', 'yaw': -3.48, 'datetime': '2018-10-09 19:54:00.589170', 'mgs': 0, 'volt': 1.0352, 'depth': 3.674, 'time': 14, 'pitch': 5.07, 'roll': -1.25, 'pres': 212}
{'lipoC2': 7.34, 'lipoC3S1': 3.86, 'temp': 26.63, 'lipoC3S3': 11.63, 'lipoC3S2': 7.7, 'rot1': 46, 'rot0': 51, 'rot3': 57, 'rot2': 55, 'state': 'normal', 'yaw': -3.64, 'datetime': '2018-10-09 19:54:00.694472', 'mgs': 0, 'volt': 1.0205, 'depth': 3.445, 'time': 14, 'pitch': 4.84, 'roll': -1.13, 'pres': 209}
{'lipoC2': 7.34, 'lipoC3S1': 3.86, 'temp': 26.63, 'lipoC3S3': 11.52, 'lipoC3S2': 7.71, 'rot1': 47, 'rot0': 52, 'rot3': 57, 'rot2': 56, 'state': 'normal', 'yaw': -3.8, 'datetime': '2018-10-09 19:54:00.798568', 'mgs': 0, 'volt': 0.9619, 'depth': 2.53, 'time': 14, 'pitch': 4.62, 'roll': -1.08, 'pres': 197}
{'lipoC2': 7.34, 'lipoC3S1': 3.78, 'temp': 26.63, 'lipoC3S3': 11.68, 'lipoC3S2': 7.7, 'rot1': 49, 'rot0': 53, 'rot3': 57, 'rot2': 56, 'state': 'normal', 'yaw': -3.9, 'datetime': '2018-10-09 19:54:00.897144', 'mgs': 0, 'volt': 0.9619, 'depth': 2.53, 'time': 14, 'pitch': 4.54, 'roll': -0.98, 'pres': 197}
{'lipoC2': 7.35, 'lipoC3S1': 3.87, 'temp': 26.63, 'lipoC3S3': 11.67, 'lipoC3S2': 7.72, 'rot1': 50, 'rot0': 54, 'rot3': 57, 'rot2': 56, 'state': 'normal', 'yaw': -3.91, 'datetime': '2018-10-09 19:54:01.000398', 'mgs': 0, 'volt': 0.9961, 'depth': 3.064, 'time': 14, 'pitch': 4.61, 'roll': -0.86, 'pres': 204}
{'lipoC2': 7.34, 'lipoC3S1': 3.85, 'temp': 26.63, 'lipoC3S3': 11.51, 'lipoC3S2': 7.63, 'rot1': 51, 'rot0': 55, 'rot3': 57, 'rot2': 56, 'state': 'normal', 'yaw': -3.91, 'datetime': '2018-10-09 19:54:01.109160', 'mgs': 0, 'volt': 0.9668, 'depth': 2.606, 'time': 14, 'pitch': 4.72, 'roll': -0.72, 'pres': 198}
{'lipoC2': 7.34, 'lipoC3S1': 3.85, 'temp': 26.69, 'lipoC3S3': 11.51, 'lipoC3S2': 7.65, 'rot1': 52, 'rot0': 57, 'rot3': 58, 'rot2': 56, 'state': 'normal', 'yaw': -3.91, 'datetime': '2018-10-09 19:54:01.215902', 'mgs': 0, 'volt': 0.9668, 'depth': 2.606, 'time': 14, 'pitch': 4.75, 'roll': -0.68, 'pres': 198}
{'lipoC2': 7.34, 'lipoC3S1': 3.78, 'temp': 26.69, 'lipoC3S3': 11.65, 'lipoC3S2': 7.71, 'rot1': 54, 'rot0': 58, 'rot3': 58, 'rot2': 57, 'state': 'normal', 'yaw': -3.9, 'datetime': '2018-10-09 19:54:01.320144', 'mgs': 0, 'volt': 0.9912, 'depth': 2.988, 'time': 14, 'pitch': 4.67, 'roll': -0.66, 'pres': 203}
{'lipoC2': 7.32, 'lipoC3S1': 3.86, 'temp': 26.56, 'lipoC3S3': 11.56, 'lipoC3S2': 7.7, 'rot1': 55, 'rot0': 59, 'rot3': 60, 'rot2': 57, 'state': 'normal', 'yaw': -3.9, 'datetime': '2018-10-09 19:54:01.423901', 'mgs': 0, 'volt': 0.9961, 'depth': 3.064, 'time': 15, 'pitch': 4.6, 'roll': -0.65, 'pres': 204}
{'lipoC2': 7.34, 'lipoC3S1': 3.85, 'temp': 26.56, 'lipoC3S3': 11.46, 'lipoC3S2': 7.64, 'rot1': 56, 'rot0': 60, 'rot3': 61, 'rot2': 58, 'state': 'normal', 'yaw': -3.91, 'datetime': '2018-10-09 19:54:01.529299', 'mgs': 0, 'volt': 0.9717, 'depth': 2.682, 'time': 15, 'pitch': 4.53, 'roll': -0.72, 'pres': 199}
{'lipoC2': 7.34, 'lipoC3S1': 3.74, 'temp': 26.56, 'lipoC3S3': 11.65, 'lipoC3S2': 7.67, 'rot1': 57, 'rot0': 61, 'rot3': 61, 'rot2': 59, 'state': 'normal', 'yaw': -3.91, 'datetime': '2018-10-09 19:54:01.633631', 'mgs': 0, 'volt': 0.9766, 'depth': 2.759, 'time': 15, 'pitch': 4.48, 'roll': -0.85, 'pres': 200}
{'lipoC2': 7.34, 'lipoC3S1': 3.76, 'temp': 26.56, 'lipoC3S3': 11.64, 'lipoC3S2': 7.71, 'rot1': 58, 'rot0': 63, 'rot3': 62, 'rot2': 59, 'state': 'normal', 'yaw': -4.0, 'datetime': '2018-10-09 19:54:01.738420', 'mgs': 0, 'volt': 1.001, 'depth': 3.14, 'time': 15, 'pitch': 4.47, 'roll': -0.99, 'pres': 205}
{'lipoC2': 7.32, 'lipoC3S1': 3.86, 'temp': 26.56, 'lipoC3S3': 11.55, 'lipoC3S2': 7.7, 'rot1': 59, 'rot0': 64, 'rot3': 63, 'rot2': 60, 'state': 'normal', 'yaw': -4.15, 'datetime': '2018-10-09 19:54:01.841378', 'mgs': 0, 'volt': 0.9961, 'depth': 3.064, 'time': 15, 'pitch': 4.48, 'roll': -1.14, 'pres': 204}
{'lipoC2': 7.34, 'lipoC3S1': 3.82, 'temp': 26.63, 'lipoC3S3': 11.65, 'lipoC3S2': 7.59, 'rot1': 60, 'rot0': 65, 'rot3': 63, 'rot2': 60, 'state': 'normal', 'yaw': -4.29, 'datetime': '2018-10-09 19:54:01.947466', 'mgs': 0, 'volt': 0.9814, 'depth': 2.835, 'time': 15, 'pitch': 4.51, 'roll': -1.28, 'pres': 201}
{'lipoC2': 7.34, 'lipoC3S1': 3.74, 'temp': 26.63, 'lipoC3S3': 11.64, 'lipoC3S2': 7.68, 'rot1': 61, 'rot0': 66, 'rot3': 65, 'rot2': 61, 'state': 'normal', 'yaw': -4.43, 'datetime': '2018-10-09 19:54:02.051910', 'mgs': 0, 'volt': 0.9668, 'depth': 2.606, 'time': 15, 'pitch': 4.58, 'roll': -1.39, 'pres': 198}
{'lipoC2': 7.35, 'lipoC3S1': 3.86, 'temp': 26.63, 'lipoC3S3': 11.63, 'lipoC3S2': 7.7, 'rot1': 63, 'rot0': 68, 'rot3': 66, 'rot2': 62, 'state': 'normal', 'yaw': -4.57, 'datetime': '2018-10-09 19:54:02.155769', 'mgs': 0, 'volt': 1.0254, 'depth': 3.522, 'time': 15, 'pitch': 4.64, 'roll': -1.43, 'pres': 210}
{'lipoC2': 7.34, 'lipoC3S1': 3.86, 'temp': 26.63, 'lipoC3S3': 11.56, 'lipoC3S2': 7.72, 'rot1': 64, 'rot0': 69, 'rot3': 66, 'rot2': 62, 'state': 'normal', 'yaw': -4.72, 'datetime': '2018-10-09 19:54:02.259683', 'mgs': 0, 'volt': 0.9912, 'depth': 2.988, 'time': 15, 'pitch': 4.7, 'roll': -1.44, 'pres': 203}
{'lipoC2': 7.34, 'lipoC3S1': 3.79, 'temp': 26.63, 'lipoC3S3': 11.64, 'lipoC3S2': 7.71, 'rot1': 65, 'rot0': 70, 'rot3': 67, 'rot2': 63, 'state': 'normal', 'yaw': -4.92, 'datetime': '2018-10-09 19:54:02.363631', 'mgs': 0, 'volt': 1.0156, 'depth': 3.369, 'time': 15, 'pitch': 4.74, 'roll': -1.47, 'pres': 208}
{'lipoC2': 7.33, 'lipoC3S1': 3.86, 'temp': 26.63, 'lipoC3S3': 11.56, 'lipoC3S2': 7.7, 'rot1': 66, 'rot0': 71, 'rot3': 68, 'rot2': 63, 'state': 'normal', 'yaw': -5.12, 'datetime': '2018-10-09 19:54:02.470753', 'mgs': 0, 'volt': 0.9961, 'depth': 3.064, 'time': 16, 'pitch': 4.77, 'roll': -1.49, 'pres': 204}
{'lipoC2': 7.34, 'lipoC3S1': 3.84, 'temp': 26.63, 'lipoC3S3': 11.64, 'lipoC3S2': 7.71, 'rot1': 67, 'rot0': 72, 'rot3': 68, 'rot2': 64, 'state': 'normal', 'yaw': -5.18, 'datetime': '2018-10-09 19:54:02.573548', 'mgs': 0, 'volt': 1.0449, 'depth': 3.827, 'time': 16, 'pitch': 4.69, 'roll': -1.5, 'pres': 214}
{'lipoC2': 7.33, 'lipoC3S1': 3.85, 'temp': 26.63, 'lipoC3S3': 11.47, 'lipoC3S2': 7.69, 'rot1': 68, 'rot0': 73, 'rot3': 70, 'rot2': 64, 'state': 'normal', 'yaw': -5.02, 'datetime': '2018-10-09 19:54:02.670632', 'mgs': 0, 'volt': 1.0059, 'depth': 3.217, 'time': 16, 'pitch': 4.6, 'roll': -1.46, 'pres': 206}
