{'lipoC2': 7.48, 'lipoC3S1': 4.11, 'temp': 30.5, 'lipoC3S3': 12.42, 'lipoC3S2': 8.21, 'rot1': 326, 'rot0': 341, 'rot3': 298, 'rot2': 253, 'state': 'normal', 'yaw': -29.01, 'datetime': '2018-10-09 12:36:26.352511', 'mgs': 0, 'volt': 0.9033, 'depth': 1.614, 'time': 87, 'pitch': 16.65, 'roll': -6.96, 'pres': 185}
{'lipoC2': 7.48, 'lipoC3S1': 4.11, 'temp': 30.5, 'lipoC3S3': 12.42, 'lipoC3S2': 8.21, 'rot1': 326, 'rot0': 341, 'rot3': 298, 'rot2': 253, 'state': 'normal', 'yaw': -29.23, 'datetime': '2018-10-09 12:36:26.384190', 'mgs': 0, 'volt': 0.9082, 'depth': 1.691, 'time': 88, 'pitch': 16.63, 'roll': -6.48, 'pres': 186}
{'lipoC2': 7.48, 'lipoC3S1': 4.11, 'temp': 30.5, 'lipoC3S3': 12.42, 'lipoC3S2': 8.21, 'rot1': 326, 'rot0': 341, 'rot3': 298, 'rot2': 253, 'state': 'normal', 'yaw': -29.53, 'datetime': '2018-10-09 12:36:26.413933', 'mgs': 0, 'volt': 0.9082, 'depth': 1.691, 'time': 88, 'pitch': 17.37, 'roll': -6.2, 'pres': 186}
{'lipoC2': 7.48, 'lipoC3S1': 4.11, 'temp': 30.56, 'lipoC3S3': 12.42, 'lipoC3S2': 8.21, 'rot1': 326, 'rot0': 341, 'rot3': 298, 'rot2': 253, 'state': 'normal', 'yaw': -29.83, 'datetime': '2018-10-09 12:36:26.427327', 'mgs': 0, 'volt': 0.9082, 'depth': 1.691, 'time': 88, 'pitch': 18.5, 'roll': -6.24, 'pres': 186}
{'lipoC2': 7.48, 'lipoC3S1': 4.11, 'temp': 30.56, 'lipoC3S3': 12.42, 'lipoC3S2': 8.21, 'rot1': 326, 'rot0': 341, 'rot3': 298, 'rot2': 253, 'state': 'normal', 'yaw': -30.1, 'datetime': '2018-10-09 12:36:26.440288', 'mgs': 0, 'volt': 0.9082, 'depth': 1.691, 'time': 88, 'pitch': 19.65, 'roll': -6.46, 'pres': 186}
{'lipoC2': 7.48, 'lipoC3S1': 4.11, 'temp': 30.56, 'lipoC3S3': 12.42, 'lipoC3S2': 8.21, 'rot1': 326, 'rot0': 341, 'rot3': 298, 'rot2': 253, 'state': 'normal', 'yaw': -30.35, 'datetime': '2018-10-09 12:36:26.453991', 'mgs': 0, 'volt': 0.9131, 'depth': 1.767, 'time': 88, 'pitch': 20.39, 'roll': -6.74, 'pres': 187}
{'lipoC2': 7.48, 'lipoC3S1': 4.11, 'temp': 30.56, 'lipoC3S3': 12.42, 'lipoC3S2': 8.21, 'rot1': 326, 'rot0': 341, 'rot3': 298, 'rot2': 253, 'state': 'normal', 'yaw': -30.48, 'datetime': '2018-10-09 12:36:26.467706', 'mgs': 0, 'volt': 0.9131, 'depth': 1.767, 'time': 88, 'pitch': 20.35, 'roll': -6.83, 'pres': 187}
{'lipoC2': 7.49, 'lipoC3S1': 4.11, 'temp': 30.56, 'lipoC3S3': 12.42, 'lipoC3S2': 8.21, 'rot1': 326, 'rot0': 341, 'rot3': 298, 'rot2': 253, 'state': 'normal', 'yaw': -30.56, 'datetime': '2018-10-09 12:36:26.481393', 'mgs': 0, 'volt': 0.918, 'depth': 1.843, 'time': 88, 'pitch': 19.56, 'roll': -6.8, 'pres': 188}
{'lipoC2': 7.48, 'lipoC3S1': 4.11, 'temp': 30.63, 'lipoC3S3': 12.42, 'lipoC3S2': 8.21, 'rot1': 326, 'rot0': 341, 'rot3': 298, 'rot2': 253, 'state': 'normal', 'yaw': -30.6, 'datetime': '2018-10-09 12:36:26.493168', 'mgs': 0, 'volt': 0.9131, 'depth': 1.767, 'time': 88, 'pitch': 18.55, 'roll': -6.75, 'pres': 187}
{'lipoC2': 7.48, 'lipoC3S1': 4.11, 'temp': 30.63, 'lipoC3S3': 12.42, 'lipoC3S2': 8.21, 'rot1': 326, 'rot0': 341, 'rot3': 298, 'rot2': 253, 'state': 'normal', 'yaw': -30.66, 'datetime': '2018-10-09 12:36:26.503057', 'mgs': 0, 'volt': 0.9131, 'depth': 1.767, 'time': 88, 'pitch': 17.65, 'roll': -6.77, 'pres': 187}
{'lipoC2': 7.48, 'lipoC3S1': 4.11, 'temp': 30.63, 'lipoC3S3': 12.42, 'lipoC3S2': 8.21, 'rot1': 326, 'rot0': 341, 'rot3': 298, 'rot2': 253, 'state': 'normal', 'yaw': -30.79, 'datetime': '2018-10-09 12:36:26.512959', 'mgs': 0, 'volt': 0.9131, 'depth': 1.767, 'time': 89, 'pitch': 17.26, 'roll': -6.9, 'pres': 187}
{'lipoC2': 7.48, 'lipoC3S1': 4.11, 'temp': 30.63, 'lipoC3S3': 12.42, 'lipoC3S2': 8.21, 'rot1': 326, 'rot0': 341, 'rot3': 298, 'rot2': 253, 'state': 'normal', 'yaw': -30.93, 'datetime': '2018-10-09 12:36:26.523813', 'mgs': 0, 'volt': 0.918, 'depth': 1.843, 'time': 89, 'pitch': 17.23, 'roll': -7.14, 'pres': 188}
{'lipoC2': 7.48, 'lipoC3S1': 4.11, 'temp': 30.63, 'lipoC3S3': 12.42, 'lipoC3S2': 8.21, 'rot1': 326, 'rot0': 341, 'rot3': 298, 'rot2': 253, 'state': 'normal', 'yaw': -31.09, 'datetime': '2018-10-09 12:36:26.535692', 'mgs': 0, 'volt': 0.9131, 'depth': 1.767, 'time': 89, 'pitch': 17.37, 'roll': -7.47, 'pres': 187}
{'lipoC2': 7.48, 'lipoC3S1': 4.11, 'temp': 30.56, 'lipoC3S3': 12.42, 'lipoC3S2': 8.21, 'rot1': 326, 'rot0': 341, 'rot3': 298, 'rot2': 253, 'state': 'normal', 'yaw': -31.21, 'datetime': '2018-10-09 12:36:26.545657', 'mgs': 0, 'volt': 0.918, 'depth': 1.843, 'time': 89, 'pitch': 17.4, 'roll': -7.8, 'pres': 188}
{'lipoC2': 7.48, 'lipoC3S1': 4.11, 'temp': 30.56, 'lipoC3S3': 12.42, 'lipoC3S2': 8.21, 'rot1': 326, 'rot0': 341, 'rot3': 298, 'rot2': 253, 'state': 'normal', 'yaw': -31.32, 'datetime': '2018-10-09 12:36:26.556057', 'mgs': 0, 'volt': 0.918, 'depth': 1.843, 'time': 89, 'pitch': 17.3, 'roll': -8.18, 'pres': 188}
{'lipoC2': 7.48, 'lipoC3S1': 4.11, 'temp': 30.63, 'lipoC3S3': 12.42, 'lipoC3S2': 8.21, 'rot1': 326, 'rot0': 341, 'rot3': 298, 'rot2': 253, 'state': 'normal', 'yaw': -31.4, 'datetime': '2018-10-09 12:36:26.566019', 'mgs': 0, 'volt': 0.918, 'depth': 1.843, 'time': 89, 'pitch': 17.17, 'roll': -8.5, 'pres': 188}
{'lipoC2': 7.48, 'lipoC3S1': 4.11, 'temp': 30.63, 'lipoC3S3': 12.42, 'lipoC3S2': 8.21, 'rot1': 326, 'rot0': 341, 'rot3': 298, 'rot2': 253, 'state': 'normal', 'yaw': -31.5, 'datetime': '2018-10-09 12:36:26.575937', 'mgs': 0, 'volt': 0.918, 'depth': 1.843, 'time': 89, 'pitch': 17.12, 'roll': -8.82, 'pres': 188}
{'lipoC2': 7.48, 'lipoC3S1': 4.11, 'temp': 30.56, 'lipoC3S3': 12.42, 'lipoC3S2': 8.21, 'rot1': 326, 'rot0': 341, 'rot3': 298, 'rot2': 253, 'state': 'normal', 'yaw': -31.59, 'datetime': '2018-10-09 12:36:26.585874', 'mgs': 0, 'volt': 0.918, 'depth': 1.843, 'time': 89, 'pitch': 17.06, 'roll': -9.06, 'pres': 188}
{'lipoC2': 7.48, 'lipoC3S1': 4.11, 'temp': 30.56, 'lipoC3S3': 12.42, 'lipoC3S2': 8.21, 'rot1': 326, 'rot0': 341, 'rot3': 298, 'rot2': 253, 'state': 'normal', 'yaw': -31.67, 'datetime': '2018-10-09 12:36:26.595798', 'mgs': 0, 'volt': 0.9229, 'depth': 1.92, 'time': 89, 'pitch': 16.85, 'roll': -9.24, 'pres': 189}
{'lipoC2': 7.48, 'lipoC3S1': 4.11, 'temp': 30.56, 'lipoC3S3': 12.42, 'lipoC3S2': 8.21, 'rot1': 326, 'rot0': 341, 'rot3': 298, 'rot2': 253, 'state': 'normal', 'yaw': -31.74, 'datetime': '2018-10-09 12:36:26.605749', 'mgs': 0, 'volt': 0.9229, 'depth': 1.92, 'time': 89, 'pitch': 16.34, 'roll': -9.24, 'pres': 189}
{'lipoC2': 7.48, 'lipoC3S1': 4.11, 'temp': 30.56, 'lipoC3S3': 12.42, 'lipoC3S2': 8.21, 'rot1': 326, 'rot0': 341, 'rot3': 298, 'rot2': 253, 'state': 'normal', 'yaw': -31.79, 'datetime': '2018-10-09 12:36:26.615686', 'mgs': 0, 'volt': 0.9229, 'depth': 1.92, 'time': 90, 'pitch': 15.77, 'roll': -9.05, 'pres': 189}
{'lipoC2': 7.48, 'lipoC3S1': 4.11, 'temp': 30.56, 'lipoC3S3': 12.42, 'lipoC3S2': 8.21, 'rot1': 326, 'rot0': 341, 'rot3': 298, 'rot2': 253, 'state': 'normal', 'yaw': -31.85, 'datetime': '2018-10-09 12:36:26.626468', 'mgs': 0, 'volt': 0.9277, 'depth': 1.996, 'time': 90, 'pitch': 15.28, 'roll': -8.74, 'pres': 190}
{'lipoC2': 7.48, 'lipoC3S1': 4.11, 'temp': 30.56, 'lipoC3S3': 12.42, 'lipoC3S2': 8.21, 'rot1': 326, 'rot0': 341, 'rot3': 298, 'rot2': 253, 'state': 'normal', 'yaw': -31.92, 'datetime': '2018-10-09 12:36:26.638357', 'mgs': 0, 'volt': 0.9277, 'depth': 1.996, 'time': 90, 'pitch': 15.16, 'roll': -8.45, 'pres': 190}
{'lipoC2': 7.48, 'lipoC3S1': 4.11, 'temp': 30.56, 'lipoC3S3': 12.42, 'lipoC3S2': 8.21, 'rot1': 326, 'rot0': 341, 'rot3': 298, 'rot2': 253, 'state': 'normal', 'yaw': -32.06, 'datetime': '2018-10-09 12:36:26.649367', 'mgs': 0, 'volt': 0.9277, 'depth': 1.996, 'time': 90, 'pitch': 15.44, 'roll': -8.23, 'pres': 190}
{'lipoC2': 7.48, 'lipoC3S1': 4.11, 'temp': 30.56, 'lipoC3S3': 12.42, 'lipoC3S2': 8.21, 'rot1': 326, 'rot0': 341, 'rot3': 298, 'rot2': 253, 'state': 'normal', 'yaw': -32.22, 'datetime': '2018-10-09 12:36:26.659220', 'mgs': 0, 'volt': 0.9277, 'depth': 1.996, 'time': 90, 'pitch': 15.9, 'roll': -8.13, 'pres': 190}
{'lipoC2': 7.48, 'lipoC3S1': 4.11, 'temp': 30.56, 'lipoC3S3': 12.42, 'lipoC3S2': 8.21, 'rot1': 326, 'rot0': 341, 'rot3': 298, 'rot2': 253, 'state': 'normal', 'yaw': -32.38, 'datetime': '2018-10-09 12:36:26.669168', 'mgs': 0, 'volt': 0.9326, 'depth': 2.072, 'time': 90, 'pitch': 16.31, 'roll': -8.06, 'pres': 191}
{'lipoC2': 7.48, 'lipoC3S1': 4.11, 'temp': 30.56, 'lipoC3S3': 12.42, 'lipoC3S2': 8.21, 'rot1': 326, 'rot0': 341, 'rot3': 298, 'rot2': 253, 'state': 'normal', 'yaw': -32.54, 'datetime': '2018-10-09 12:36:26.749891', 'mgs': 0, 'volt': 0.9326, 'depth': 2.072, 'time': 90, 'pitch': 16.56, 'roll': -7.93, 'pres': 191}
{'lipoC2': 7.48, 'lipoC3S1': 4.11, 'temp': 30.5, 'lipoC3S3': 12.42, 'lipoC3S2': 8.21, 'rot1': 326, 'rot0': 341, 'rot3': 298, 'rot2': 253, 'state': 'normal', 'yaw': -32.67, 'datetime': '2018-10-09 12:36:26.855395', 'mgs': 0, 'volt': 0.9326, 'depth': 2.072, 'time': 90, 'pitch': 16.58, 'roll': -7.76, 'pres': 191}
{'lipoC2': 7.48, 'lipoC3S1': 4.11, 'temp': 30.5, 'lipoC3S3': 12.42, 'lipoC3S2': 8.21, 'rot1': 326, 'rot0': 341, 'rot3': 298, 'rot2': 253, 'state': 'normal', 'yaw': -32.78, 'datetime': '2018-10-09 12:36:26.959557', 'mgs': 0, 'volt': 0.9375, 'depth': 2.148, 'time': 90, 'pitch': 16.57, 'roll': -7.58, 'pres': 192}
{'lipoC2': 7.48, 'lipoC3S1': 4.11, 'temp': 30.56, 'lipoC3S3': 12.42, 'lipoC3S2': 8.21, 'rot1': 326, 'rot0': 341, 'rot3': 298, 'rot2': 253, 'state': 'normal', 'yaw': -32.86, 'datetime': '2018-10-09 12:36:27.065134', 'mgs': 0, 'volt': 0.9375, 'depth': 2.148, 'time': 91, 'pitch': 16.61, 'roll': -7.47, 'pres': 192}
{'lipoC2': 7.48, 'lipoC3S1': 4.11, 'temp': 30.56, 'lipoC3S3': 12.42, 'lipoC3S2': 8.21, 'rot1': 326, 'rot0': 341, 'rot3': 298, 'rot2': 253, 'state': 'normal', 'yaw': -32.97, 'datetime': '2018-10-09 12:36:27.176338', 'mgs': 0, 'volt': 0.9375, 'depth': 2.148, 'time': 91, 'pitch': 16.78, 'roll': -7.47, 'pres': 192}
{'lipoC2': 7.48, 'lipoC3S1': 4.11, 'temp': 30.56, 'lipoC3S3': 12.42, 'lipoC3S2': 8.21, 'rot1': 326, 'rot0': 341, 'rot3': 298, 'rot2': 253, 'state': 'normal', 'yaw': -33.07, 'datetime': '2018-10-09 12:36:27.281446', 'mgs': 0, 'volt': 0.9375, 'depth': 2.148, 'time': 91, 'pitch': 17.07, 'roll': -7.54, 'pres': 192}
{'lipoC2': 7.48, 'lipoC3S1': 4.11, 'temp': 30.56, 'lipoC3S3': 12.42, 'lipoC3S2': 8.21, 'rot1': 326, 'rot0': 341, 'rot3': 298, 'rot2': 253, 'state': 'normal', 'yaw': -33.22, 'datetime': '2018-10-09 12:36:27.386041', 'mgs': 0, 'volt': 0.9424, 'depth': 2.225, 'time': 91, 'pitch': 17.45, 'roll': -7.75, 'pres': 193}
{'lipoC2': 7.48, 'lipoC3S1': 4.11, 'temp': 30.56, 'lipoC3S3': 12.42, 'lipoC3S2': 8.21, 'rot1': 326, 'rot0': 341, 'rot3': 298, 'rot2': 253, 'state': 'normal', 'yaw': -33.35, 'datetime': '2018-10-09 12:36:27.490485', 'mgs': 0, 'volt': 0.9424, 'depth': 2.225, 'time': 91, 'pitch': 17.73, 'roll': -8.01, 'pres': 193}
{'lipoC2': 7.48, 'lipoC3S1': 4.11, 'temp': 30.63, 'lipoC3S3': 12.42, 'lipoC3S2': 8.21, 'rot1': 326, 'rot0': 341, 'rot3': 298, 'rot2': 253, 'state': 'normal', 'yaw': -33.47, 'datetime': '2018-10-09 12:36:27.594516', 'mgs': 0, 'volt': 0.9424, 'depth': 2.225, 'time': 91, 'pitch': 17.79, 'roll': -8.25, 'pres': 193}
{'lipoC2': 7.48, 'lipoC3S1': 4.11, 'temp': 30.63, 'lipoC3S3': 12.42, 'lipoC3S2': 8.21, 'rot1': 326, 'rot0': 341, 'rot3': 298, 'rot2': 253, 'state': 'normal', 'yaw': -33.55, 'datetime': '2018-10-09 12:36:27.698661', 'mgs': 0, 'volt': 0.9424, 'depth': 2.225, 'time': 91, 'pitch': 17.49, 'roll': -8.45, 'pres': 193}
{'lipoC2': 7.48, 'lipoC3S1': 4.11, 'temp': 30.63, 'lipoC3S3': 12.42, 'lipoC3S2': 8.21, 'rot1': 326, 'rot0': 341, 'rot3': 298, 'rot2': 253, 'state': 'normal', 'yaw': -33.58, 'datetime': '2018-10-09 12:36:27.802933', 'mgs': 0, 'volt': 0.9424, 'depth': 2.225, 'time': 91, 'pitch': 16.94, 'roll': -8.56, 'pres': 193}
{'lipoC2': 7.48, 'lipoC3S1': 4.11, 'temp': 30.63, 'lipoC3S3': 12.42, 'lipoC3S2': 8.21, 'rot1': 326, 'rot0': 341, 'rot3': 298, 'rot2': 253, 'state': 'normal', 'yaw': -33.56, 'datetime': '2018-10-09 12:36:27.907130', 'mgs': 0, 'volt': 0.9424, 'depth': 2.225, 'time': 91, 'pitch': 16.22, 'roll': -8.67, 'pres': 193}
{'lipoC2': 7.48, 'lipoC3S1': 4.11, 'temp': 30.63, 'lipoC3S3': 12.42, 'lipoC3S2': 8.21, 'rot1': 326, 'rot0': 341, 'rot3': 298, 'rot2': 253, 'state': 'normal', 'yaw': -33.53, 'datetime': '2018-10-09 12:36:28.011285', 'mgs': 0, 'volt': 0.9424, 'depth': 2.225, 'time': 91, 'pitch': 15.68, 'roll': -8.79, 'pres': 193}
{'lipoC2': 7.48, 'lipoC3S1': 4.11, 'temp': 30.63, 'lipoC3S3': 12.42, 'lipoC3S2': 8.21, 'rot1': 326, 'rot0': 341, 'rot3': 298, 'rot2': 253, 'state': 'normal', 'yaw': -33.5, 'datetime': '2018-10-09 12:36:28.116660', 'mgs': 0, 'volt': 0.9424, 'depth': 2.225, 'time': 92, 'pitch': 15.39, 'roll': -8.95, 'pres': 193}
{'lipoC2': 7.48, 'lipoC3S1': 4.11, 'temp': 30.56, 'lipoC3S3': 12.42, 'lipoC3S2': 8.21, 'rot1': 326, 'rot0': 341, 'rot3': 298, 'rot2': 253, 'state': 'normal', 'yaw': -33.57, 'datetime': '2018-10-09 12:36:28.220905', 'mgs': 0, 'volt': 0.9424, 'depth': 2.225, 'time': 92, 'pitch': 15.39, 'roll': -9.14, 'pres': 193}
{'lipoC2': 7.48, 'lipoC3S1': 4.11, 'temp': 30.56, 'lipoC3S3': 12.42, 'lipoC3S2': 8.21, 'rot1': 326, 'rot0': 341, 'rot3': 298, 'rot2': 253, 'state': 'normal', 'yaw': -33.69, 'datetime': '2018-10-09 12:36:28.326431', 'mgs': 0, 'volt': 0.9424, 'depth': 2.225, 'time': 92, 'pitch': 15.62, 'roll': -9.29, 'pres': 193}
{'lipoC2': 7.48, 'lipoC3S1': 4.11, 'temp': 30.56, 'lipoC3S3': 12.42, 'lipoC3S2': 8.21, 'rot1': 326, 'rot0': 341, 'rot3': 298, 'rot2': 253, 'state': 'normal', 'yaw': -33.87, 'datetime': '2018-10-09 12:36:28.429750', 'mgs': 0, 'volt': 0.9473, 'depth': 2.301, 'time': 92, 'pitch': 16.04, 'roll': -9.36, 'pres': 194}
{'lipoC2': 7.48, 'lipoC3S1': 4.11, 'temp': 30.56, 'lipoC3S3': 12.42, 'lipoC3S2': 8.21, 'rot1': 326, 'rot0': 341, 'rot3': 298, 'rot2': 253, 'state': 'normal', 'yaw': -34.05, 'datetime': '2018-10-09 12:36:28.535964', 'mgs': 0, 'volt': 0.9473, 'depth': 2.301, 'time': 92, 'pitch': 16.47, 'roll': -9.39, 'pres': 194}
{'lipoC2': 7.48, 'lipoC3S1': 4.11, 'temp': 30.56, 'lipoC3S3': 12.42, 'lipoC3S2': 8.21, 'rot1': 326, 'rot0': 341, 'rot3': 298, 'rot2': 253, 'state': 'normal', 'yaw': -34.26, 'datetime': '2018-10-09 12:36:28.640180', 'mgs': 0, 'volt': 0.9473, 'depth': 2.301, 'time': 92, 'pitch': 16.83, 'roll': -9.32, 'pres': 194}
{'lipoC2': 7.48, 'lipoC3S1': 4.11, 'temp': 30.56, 'lipoC3S3': 12.42, 'lipoC3S2': 8.21, 'rot1': 326, 'rot0': 341, 'rot3': 298, 'rot2': 253, 'state': 'normal', 'yaw': -34.4, 'datetime': '2018-10-09 12:36:28.744330', 'mgs': 0, 'volt': 0.9473, 'depth': 2.301, 'time': 92, 'pitch': 16.99, 'roll': -9.2, 'pres': 194}
{'lipoC2': 7.48, 'lipoC3S1': 4.11, 'temp': 30.56, 'lipoC3S3': 12.42, 'lipoC3S2': 8.21, 'rot1': 326, 'rot0': 341, 'rot3': 298, 'rot2': 253, 'state': 'normal', 'yaw': -34.48, 'datetime': '2018-10-09 12:36:28.848845', 'mgs': 0, 'volt': 0.9473, 'depth': 2.301, 'time': 92, 'pitch': 16.88, 'roll': -9.01, 'pres': 194}
{'lipoC2': 7.48, 'lipoC3S1': 4.11, 'temp': 30.63, 'lipoC3S3': 12.42, 'lipoC3S2': 8.21, 'rot1': 326, 'rot0': 341, 'rot3': 298, 'rot2': 253, 'state': 'normal', 'yaw': -34.52, 'datetime': '2018-10-09 12:36:28.953277', 'mgs': 0, 'volt': 0.9473, 'depth': 2.301, 'time': 92, 'pitch': 16.61, 'roll': -8.83, 'pres': 194}
{'lipoC2': 7.48, 'lipoC3S1': 4.11, 'temp': 30.63, 'lipoC3S3': 12.42, 'lipoC3S2': 8.21, 'rot1': 326, 'rot0': 341, 'rot3': 298, 'rot2': 253, 'state': 'normal', 'yaw': -34.55, 'datetime': '2018-10-09 12:36:29.057317', 'mgs': 0, 'volt': 0.9473, 'depth': 2.301, 'time': 92, 'pitch': 16.31, 'roll': -8.68, 'pres': 194}
{'lipoC2': 7.48, 'lipoC3S1': 4.11, 'temp': 30.63, 'lipoC3S3': 12.42, 'lipoC3S2': 8.21, 'rot1': 326, 'rot0': 341, 'rot3': 298, 'rot2': 253, 'state': 'normal', 'yaw': -34.61, 'datetime': '2018-10-09 12:36:29.161371', 'mgs': 0, 'volt': 0.9473, 'depth': 2.301, 'time': 93, 'pitch': 16.1, 'roll': -8.54, 'pres': 194}
{'lipoC2': 7.48, 'lipoC3S1': 4.11, 'temp': 30.56, 'lipoC3S3': 12.42, 'lipoC3S2': 8.21, 'rot1': 326, 'rot0': 341, 'rot3': 298, 'rot2': 253, 'state': 'normal', 'yaw': -34.7, 'datetime': '2018-10-09 12:36:29.266933', 'mgs': 0, 'volt': 0.9473, 'depth': 2.301, 'time': 93, 'pitch': 16.1, 'roll': -8.43, 'pres': 194}
{'lipoC2': 7.48, 'lipoC3S1': 4.11, 'temp': 30.56, 'lipoC3S3': 12.42, 'lipoC3S2': 8.21, 'rot1': 326, 'rot0': 341, 'rot3': 298, 'rot2': 253, 'state': 'normal', 'yaw': -34.84, 'datetime': '2018-10-09 12:36:29.371166', 'mgs': 0, 'volt': 0.9473, 'depth': 2.301, 'time': 93, 'pitch': 16.33, 'roll': -8.33, 'pres': 194}
{'lipoC2': 7.48, 'lipoC3S1': 4.11, 'temp': 30.63, 'lipoC3S3': 12.42, 'lipoC3S2': 8.21, 'rot1': 326, 'rot0': 341, 'rot3': 298, 'rot2': 253, 'state': 'normal', 'yaw': -34.99, 'datetime': '2018-10-09 12:36:29.476560', 'mgs': 0, 'volt': 0.9473, 'depth': 2.301, 'time': 93, 'pitch': 16.68, 'roll': -8.29, 'pres': 194}
{'lipoC2': 7.48, 'lipoC3S1': 4.11, 'temp': 30.63, 'lipoC3S3': 12.42, 'lipoC3S2': 8.21, 'rot1': 326, 'rot0': 341, 'rot3': 298, 'rot2': 253, 'state': 'normal', 'yaw': -35.12, 'datetime': '2018-10-09 12:36:29.578145', 'mgs': 0, 'volt': 0.9473, 'depth': 2.301, 'time': 93, 'pitch': 17.04, 'roll': -8.31, 'pres': 194}
{'lipoC2': 7.48, 'lipoC3S1': 4.11, 'temp': 30.56, 'lipoC3S3': 12.42, 'lipoC3S2': 8.21, 'rot1': 326, 'rot0': 341, 'rot3': 298, 'rot2': 253, 'state': 'normal', 'yaw': -35.23, 'datetime': '2018-10-09 12:36:29.679735', 'mgs': 0, 'volt': 0.9473, 'depth': 2.301, 'time': 93, 'pitch': 17.23, 'roll': -8.35, 'pres': 194}
{'lipoC2': 7.48, 'lipoC3S1': 4.11, 'temp': 30.56, 'lipoC3S3': 12.42, 'lipoC3S2': 8.21, 'rot1': 326, 'rot0': 341, 'rot3': 298, 'rot2': 253, 'state': 'normal', 'yaw': -35.32, 'datetime': '2018-10-09 12:36:29.784472', 'mgs': 0, 'volt': 0.9473, 'depth': 2.301, 'time': 93, 'pitch': 17.26, 'roll': -8.38, 'pres': 194}
{'lipoC2': 7.48, 'lipoC3S1': 4.11, 'temp': 30.56, 'lipoC3S3': 12.42, 'lipoC3S2': 8.21, 'rot1': 326, 'rot0': 341, 'rot3': 298, 'rot2': 253, 'state': 'normal', 'yaw': -35.41, 'datetime': '2018-10-09 12:36:29.888707', 'mgs': 0, 'volt': 0.9473, 'depth': 2.301, 'time': 93, 'pitch': 17.15, 'roll': -8.52, 'pres': 194}
{'lipoC2': 7.48, 'lipoC3S1': 4.11, 'temp': 30.56, 'lipoC3S3': 12.42, 'lipoC3S2': 8.21, 'rot1': 326, 'rot0': 341, 'rot3': 298, 'rot2': 253, 'state': 'normal', 'yaw': -35.48, 'datetime': '2018-10-09 12:36:29.992861', 'mgs': 0, 'volt': 0.9473, 'depth': 2.301, 'time': 93, 'pitch': 17.0, 'roll': -8.69, 'pres': 194}
{'lipoC2': 7.48, 'lipoC3S1': 4.11, 'temp': 30.56, 'lipoC3S3': 12.42, 'lipoC3S2': 8.21, 'rot1': 326, 'rot0': 341, 'rot3': 298, 'rot2': 253, 'state': 'normal', 'yaw': -35.57, 'datetime': '2018-10-09 12:36:30.097142', 'mgs': 0, 'volt': 0.9424, 'depth': 2.225, 'time': 94, 'pitch': 16.89, 'roll': -8.88, 'pres': 193}
{'lipoC2': 7.48, 'lipoC3S1': 4.11, 'temp': 30.63, 'lipoC3S3': 12.42, 'lipoC3S2': 8.21, 'rot1': 326, 'rot0': 341, 'rot3': 298, 'rot2': 253, 'state': 'normal', 'yaw': -35.61, 'datetime': '2018-10-09 12:36:30.201301', 'mgs': 0, 'volt': 0.9424, 'depth': 2.225, 'time': 94, 'pitch': 16.95, 'roll': -9.0, 'pres': 193}
{'lipoC2': 7.48, 'lipoC3S1': 4.11, 'temp': 30.63, 'lipoC3S3': 12.42, 'lipoC3S2': 8.21, 'rot1': 326, 'rot0': 341, 'rot3': 298, 'rot2': 253, 'state': 'normal', 'yaw': -35.56, 'datetime': '2018-10-09 12:36:30.304890', 'mgs': 0, 'volt': 0.9424, 'depth': 2.225, 'time': 94, 'pitch': 17.27, 'roll': -9.01, 'pres': 193}
{'lipoC2': 7.48, 'lipoC3S1': 4.11, 'temp': 30.63, 'lipoC3S3': 12.42, 'lipoC3S2': 8.21, 'rot1': 326, 'rot0': 341, 'rot3': 298, 'rot2': 253, 'state': 'normal', 'yaw': -35.43, 'datetime': '2018-10-09 12:36:30.409047', 'mgs': 0, 'volt': 0.9424, 'depth': 2.225, 'time': 94, 'pitch': 17.72, 'roll': -8.97, 'pres': 193}
{'lipoC2': 7.48, 'lipoC3S1': 4.11, 'temp': 30.63, 'lipoC3S3': 12.42, 'lipoC3S2': 8.21, 'rot1': 326, 'rot0': 341, 'rot3': 298, 'rot2': 253, 'state': 'normal', 'yaw': -35.31, 'datetime': '2018-10-09 12:36:30.514460', 'mgs': 0, 'volt': 0.9424, 'depth': 2.225, 'time': 94, 'pitch': 18.18, 'roll': -8.96, 'pres': 193}
{'lipoC2': 7.48, 'lipoC3S1': 4.11, 'temp': 30.63, 'lipoC3S3': 12.42, 'lipoC3S2': 8.21, 'rot1': 326, 'rot0': 341, 'rot3': 298, 'rot2': 253, 'state': 'normal', 'yaw': -35.17, 'datetime': '2018-10-09 12:36:30.618650', 'mgs': 0, 'volt': 0.9424, 'depth': 2.225, 'time': 94, 'pitch': 18.61, 'roll': -9.14, 'pres': 193}
{'lipoC2': 7.48, 'lipoC3S1': 4.11, 'temp': 30.56, 'lipoC3S3': 12.42, 'lipoC3S2': 8.21, 'rot1': 326, 'rot0': 341, 'rot3': 298, 'rot2': 253, 'state': 'normal', 'yaw': -35.01, 'datetime': '2018-10-09 12:36:30.724157', 'mgs': 0, 'volt': 0.9424, 'depth': 2.225, 'time': 94, 'pitch': 18.9, 'roll': -9.44, 'pres': 193}
{'lipoC2': 7.48, 'lipoC3S1': 4.11, 'temp': 30.56, 'lipoC3S3': 12.42, 'lipoC3S2': 8.21, 'rot1': 326, 'rot0': 341, 'rot3': 298, 'rot2': 253, 'state': 'normal', 'yaw': -34.74, 'datetime': '2018-10-09 12:36:30.828373', 'mgs': 0, 'volt': 0.9424, 'depth': 2.225, 'time': 94, 'pitch': 19.18, 'roll': -9.82, 'pres': 193}
{'lipoC2': 7.48, 'lipoC3S1': 4.11, 'temp': 30.56, 'lipoC3S3': 12.42, 'lipoC3S2': 8.21, 'rot1': 326, 'rot0': 341, 'rot3': 298, 'rot2': 253, 'state': 'normal', 'yaw': -34.34, 'datetime': '2018-10-09 12:36:30.933853', 'mgs': 0, 'volt': 0.9424, 'depth': 2.225, 'time': 94, 'pitch': 19.45, 'roll': -10.22, 'pres': 193}
{'lipoC2': 7.48, 'lipoC3S1': 4.11, 'temp': 30.56, 'lipoC3S3': 12.42, 'lipoC3S2': 8.21, 'rot1': 326, 'rot0': 341, 'rot3': 298, 'rot2': 253, 'state': 'normal', 'yaw': -33.65, 'datetime': '2018-10-09 12:36:31.038804', 'mgs': 0, 'volt': 0.9424, 'depth': 2.225, 'time': 94, 'pitch': 19.9, 'roll': -10.88, 'pres': 193}
{'lipoC2': 7.48, 'lipoC3S1': 4.11, 'temp': 30.56, 'lipoC3S3': 12.42, 'lipoC3S2': 8.21, 'rot1': 326, 'rot0': 341, 'rot3': 298, 'rot2': 253, 'state': 'normal', 'yaw': -32.81, 'datetime': '2018-10-09 12:36:31.142906', 'mgs': 0, 'volt': 0.9424, 'depth': 2.225, 'time': 95, 'pitch': 20.55, 'roll': -11.58, 'pres': 193}
{'lipoC2': 7.48, 'lipoC3S1': 4.11, 'temp': 30.56, 'lipoC3S3': 12.42, 'lipoC3S2': 8.21, 'rot1': 326, 'rot0': 341, 'rot3': 298, 'rot2': 253, 'state': 'normal', 'yaw': -31.84, 'datetime': '2018-10-09 12:36:31.252215', 'mgs': 0, 'volt': 0.9424, 'depth': 2.225, 'time': 95, 'pitch': 21.28, 'roll': -12.07, 'pres': 193}
{'lipoC2': 7.48, 'lipoC3S1': 4.11, 'temp': 30.56, 'lipoC3S3': 12.42, 'lipoC3S2': 8.21, 'rot1': 326, 'rot0': 341, 'rot3': 298, 'rot2': 253, 'state': 'normal', 'yaw': -31.22, 'datetime': '2018-10-09 12:36:31.358011', 'mgs': 0, 'volt': 0.9424, 'depth': 2.225, 'time': 95, 'pitch': 22.04, 'roll': -12.19, 'pres': 193}
{'lipoC2': 7.48, 'lipoC3S1': 4.11, 'temp': 30.63, 'lipoC3S3': 12.42, 'lipoC3S2': 8.21, 'rot1': 326, 'rot0': 341, 'rot3': 298, 'rot2': 253, 'state': 'normal', 'yaw': -30.87, 'datetime': '2018-10-09 12:36:31.462136', 'mgs': 0, 'volt': 0.9424, 'depth': 2.225, 'time': 95, 'pitch': 22.84, 'roll': -12.0, 'pres': 193}
{'lipoC2': 7.48, 'lipoC3S1': 4.11, 'temp': 30.63, 'lipoC3S3': 12.42, 'lipoC3S2': 8.21, 'rot1': 326, 'rot0': 341, 'rot3': 298, 'rot2': 253, 'state': 'normal', 'yaw': -30.55, 'datetime': '2018-10-09 12:36:31.566699', 'mgs': 0, 'volt': 0.9375, 'depth': 2.148, 'time': 95, 'pitch': 23.45, 'roll': -11.5, 'pres': 192}
{'lipoC2': 7.48, 'lipoC3S1': 4.11, 'temp': 30.56, 'lipoC3S3': 12.42, 'lipoC3S2': 8.21, 'rot1': 326, 'rot0': 341, 'rot3': 298, 'rot2': 253, 'state': 'normal', 'yaw': -30.32, 'datetime': '2018-10-09 12:36:31.670821', 'mgs': 0, 'volt': 0.9375, 'depth': 2.148, 'time': 95, 'pitch': 23.26, 'roll': -10.73, 'pres': 192}
{'lipoC2': 7.48, 'lipoC3S1': 4.11, 'temp': 30.56, 'lipoC3S3': 12.42, 'lipoC3S2': 8.21, 'rot1': 326, 'rot0': 341, 'rot3': 298, 'rot2': 253, 'state': 'normal', 'yaw': -30.07, 'datetime': '2018-10-09 12:36:31.775098', 'mgs': 0, 'volt': 0.9375, 'depth': 2.148, 'time': 95, 'pitch': 22.2, 'roll': -9.56, 'pres': 192}
{'lipoC2': 7.48, 'lipoC3S1': 4.11, 'temp': 30.56, 'lipoC3S3': 12.42, 'lipoC3S2': 8.21, 'rot1': 326, 'rot0': 341, 'rot3': 298, 'rot2': 253, 'state': 'normal', 'yaw': -29.75, 'datetime': '2018-10-09 12:36:31.879317', 'mgs': 0, 'volt': 0.9326, 'depth': 2.072, 'time': 95, 'pitch': 20.33, 'roll': -8.27, 'pres': 191}
{'lipoC2': 7.48, 'lipoC3S1': 4.11, 'temp': 30.56, 'lipoC3S3': 12.42, 'lipoC3S2': 8.21, 'rot1': 326, 'rot0': 341, 'rot3': 298, 'rot2': 253, 'state': 'normal', 'yaw': -29.4, 'datetime': '2018-10-09 12:36:31.984821', 'mgs': 0, 'volt': 0.9326, 'depth': 2.072, 'time': 95, 'pitch': 17.94, 'roll': -6.95, 'pres': 191}
{'lipoC2': 7.48, 'lipoC3S1': 4.11, 'temp': 30.56, 'lipoC3S3': 12.42, 'lipoC3S2': 8.21, 'rot1': 326, 'rot0': 341, 'rot3': 298, 'rot2': 253, 'state': 'normal', 'yaw': -29.03, 'datetime': '2018-10-09 12:36:32.088907', 'mgs': 1, 'volt': 0.9326, 'depth': 2.072, 'time': 96, 'pitch': 15.32, 'roll': -5.61, 'pres': 191}
{'lipoC2': 7.48, 'lipoC3S1': 4.11, 'temp': 30.56, 'lipoC3S3': 12.42, 'lipoC3S2': 8.21, 'rot1': 0, 'rot0': 0, 'rot3': 0, 'rot2': 0, 'state': 'normal', 'yaw': 0.01, 'datetime': '2018-10-09 12:36:35.117914', 'mgs': 0, 'volt': 0.918, 'depth': 1.843, 'time': 1, 'pitch': 16.4, 'roll': -8.92, 'pres': 188}
{'lipoC2': 7.48, 'lipoC3S1': 4.11, 'temp': 30.56, 'lipoC3S3': 12.42, 'lipoC3S2': 8.21, 'rot1': 0, 'rot0': 0, 'rot3': 0, 'rot2': 0, 'state': 'normal', 'yaw': 0.16, 'datetime': '2018-10-09 12:36:38.160891', 'mgs': 0, 'volt': 0.9131, 'depth': 1.767, 'time': 1, 'pitch': 15.51, 'roll': -9.77, 'pres': 187}
{'lipoC2': 7.48, 'lipoC3S1': 4.11, 'temp': 30.63, 'lipoC3S3': 12.42, 'lipoC3S2': 8.21, 'rot1': 0, 'rot0': 0, 'rot3': 0, 'rot2': 0, 'state': 'normal', 'yaw': 0.39, 'datetime': '2018-10-09 12:36:38.197331', 'mgs': 0, 'volt': 0.9131, 'depth': 1.767, 'time': 1, 'pitch': 14.31, 'roll': -10.31, 'pres': 187}
{'lipoC2': 7.48, 'lipoC3S1': 4.11, 'temp': 30.63, 'lipoC3S3': 12.42, 'lipoC3S2': 8.21, 'rot1': 0, 'rot0': 0, 'rot3': 0, 'rot2': 0, 'state': 'normal', 'yaw': 0.76, 'datetime': '2018-10-09 12:36:38.208748', 'mgs': 0, 'volt': 0.9131, 'depth': 1.767, 'time': 1, 'pitch': 13.22, 'roll': -10.62, 'pres': 187}
{'lipoC2': 7.48, 'lipoC3S1': 4.11, 'temp': 30.63, 'lipoC3S3': 12.42, 'lipoC3S2': 8.21, 'rot1': 0, 'rot0': 0, 'rot3': 0, 'rot2': 0, 'state': 'normal', 'yaw': 1.2, 'datetime': '2018-10-09 12:36:38.224673', 'mgs': 0, 'volt': 0.9082, 'depth': 1.691, 'time': 1, 'pitch': 12.64, 'roll': -10.7, 'pres': 186}
{'lipoC2': 7.48, 'lipoC3S1': 4.11, 'temp': 30.63, 'lipoC3S3': 12.42, 'lipoC3S2': 8.21, 'rot1': 0, 'rot0': 0, 'rot3': 0, 'rot2': 0, 'state': 'normal', 'yaw': 1.7, 'datetime': '2018-10-09 12:36:38.241863', 'mgs': 0, 'volt': 0.9082, 'depth': 1.691, 'time': 1, 'pitch': 12.51, 'roll': -10.61, 'pres': 186}
{'lipoC2': 7.48, 'lipoC3S1': 4.11, 'temp': 30.63, 'lipoC3S3': 12.42, 'lipoC3S2': 8.21, 'rot1': 0, 'rot0': 0, 'rot3': 0, 'rot2': 0, 'state': 'normal', 'yaw': 2.21, 'datetime': '2018-10-09 12:36:38.251843', 'mgs': 0, 'volt': 0.9033, 'depth': 1.614, 'time': 1, 'pitch': 12.69, 'roll': -10.35, 'pres': 185}
{'lipoC2': 7.48, 'lipoC3S1': 4.11, 'temp': 30.56, 'lipoC3S3': 12.42, 'lipoC3S2': 8.21, 'rot1': 0, 'rot0': 0, 'rot3': 0, 'rot2': 0, 'state': 'normal', 'yaw': 2.58, 'datetime': '2018-10-09 12:36:38.267710', 'mgs': 0, 'volt': 0.9033, 'depth': 1.614, 'time': 1, 'pitch': 12.95, 'roll': -9.89, 'pres': 185}
{'lipoC2': 7.48, 'lipoC3S1': 4.11, 'temp': 30.56, 'lipoC3S3': 12.42, 'lipoC3S2': 8.21, 'rot1': 0, 'rot0': 0, 'rot3': 0, 'rot2': 0, 'state': 'normal', 'yaw': 2.84, 'datetime': '2018-10-09 12:36:38.283576', 'mgs': 0, 'volt': 0.9033, 'depth': 1.614, 'time': 2, 'pitch': 13.4, 'roll': -9.25, 'pres': 185}
{'lipoC2': 7.48, 'lipoC3S1': 4.11, 'temp': 30.56, 'lipoC3S3': 12.42, 'lipoC3S2': 8.21, 'rot1': 0, 'rot0': 0, 'rot3': 0, 'rot2': 0, 'state': 'normal', 'yaw': 3.07, 'datetime': '2018-10-09 12:36:38.293503', 'mgs': 0, 'volt': 0.9033, 'depth': 1.614, 'time': 2, 'pitch': 14.2, 'roll': -8.39, 'pres': 185}
{'lipoC2': 7.48, 'lipoC3S1': 4.11, 'temp': 30.56, 'lipoC3S3': 12.42, 'lipoC3S2': 8.21, 'rot1': 0, 'rot0': 0, 'rot3': 0, 'rot2': 0, 'state': 'normal', 'yaw': 3.2, 'datetime': '2018-10-09 12:36:38.309309', 'mgs': 0, 'volt': 0.9033, 'depth': 1.614, 'time': 2, 'pitch': 15.17, 'roll': -7.54, 'pres': 185}
{'lipoC2': 7.48, 'lipoC3S1': 4.11, 'temp': 30.56, 'lipoC3S3': 12.42, 'lipoC3S2': 8.21, 'rot1': 0, 'rot0': 0, 'rot3': 0, 'rot2': 0, 'state': 'normal', 'yaw': 3.31, 'datetime': '2018-10-09 12:36:38.325146', 'mgs': 0, 'volt': 0.9082, 'depth': 1.691, 'time': 2, 'pitch': 16.42, 'roll': -6.55, 'pres': 186}
{'lipoC2': 7.48, 'lipoC3S1': 4.11, 'temp': 30.56, 'lipoC3S3': 12.42, 'lipoC3S2': 8.21, 'rot1': 0, 'rot0': 0, 'rot3': 0, 'rot2': 0, 'state': 'normal', 'yaw': 3.4, 'datetime': '2018-10-09 12:36:38.335040', 'mgs': 0, 'volt': 0.9131, 'depth': 1.767, 'time': 2, 'pitch': 17.54, 'roll': -5.6, 'pres': 187}
{'lipoC2': 7.48, 'lipoC3S1': 4.11, 'temp': 30.56, 'lipoC3S3': 12.42, 'lipoC3S2': 8.21, 'rot1': 0, 'rot0': 0, 'rot3': 0, 'rot2': 0, 'state': 'normal', 'yaw': 3.54, 'datetime': '2018-10-09 12:36:38.351030', 'mgs': 0, 'volt': 0.9082, 'depth': 1.691, 'time': 2, 'pitch': 18.46, 'roll': -4.63, 'pres': 186}
{'lipoC2': 7.48, 'lipoC3S1': 4.11, 'temp': 30.56, 'lipoC3S3': 12.42, 'lipoC3S2': 8.21, 'rot1': 0, 'rot0': 0, 'rot3': 0, 'rot2': 0, 'state': 'normal', 'yaw': 3.72, 'datetime': '2018-10-09 12:36:38.367045', 'mgs': 0, 'volt': 0.9131, 'depth': 1.767, 'time': 2, 'pitch': 19.08, 'roll': -3.69, 'pres': 187}
{'lipoC2': 7.48, 'lipoC3S1': 4.11, 'temp': 30.56, 'lipoC3S3': 12.42, 'lipoC3S2': 8.21, 'rot1': 0, 'rot0': 0, 'rot3': 0, 'rot2': 0, 'state': 'normal', 'yaw': 3.94, 'datetime': '2018-10-09 12:36:38.377306', 'mgs': 0, 'volt': 0.9131, 'depth': 1.767, 'time': 2, 'pitch': 19.57, 'roll': -2.79, 'pres': 187}
{'lipoC2': 7.48, 'lipoC3S1': 4.11, 'temp': 30.63, 'lipoC3S3': 12.42, 'lipoC3S2': 8.21, 'rot1': 0, 'rot0': 0, 'rot3': 0, 'rot2': 0, 'state': 'normal', 'yaw': 4.13, 'datetime': '2018-10-09 12:36:38.393334', 'mgs': 0, 'volt': 0.9131, 'depth': 1.767, 'time': 2, 'pitch': 19.98, 'roll': -2.2, 'pres': 187}
{'lipoC2': 7.47, 'lipoC3S1': 4.07, 'temp': 30.63, 'lipoC3S3': 12.26, 'lipoC3S2': 8.14, 'rot1': 0, 'rot0': 0, 'rot3': 0, 'rot2': 0, 'state': 'normal', 'yaw': 4.3, 'datetime': '2018-10-09 12:36:38.409323', 'mgs': 0, 'volt': 0.9277, 'depth': 1.996, 'time': 3, 'pitch': 20.5, 'roll': -1.86, 'pres': 190}
{'lipoC2': 7.47, 'lipoC3S1': 4.08, 'temp': 30.63, 'lipoC3S3': 12.3, 'lipoC3S2': 8.16, 'rot1': 0, 'rot0': 0, 'rot3': 1, 'rot2': 1, 'state': 'normal', 'yaw': 4.43, 'datetime': '2018-10-09 12:36:38.419275', 'mgs': 0, 'volt': 0.9326, 'depth': 2.072, 'time': 3, 'pitch': 21.58, 'roll': -1.64, 'pres': 191}
{'lipoC2': 7.47, 'lipoC3S1': 4.08, 'temp': 30.56, 'lipoC3S3': 12.3, 'lipoC3S2': 8.16, 'rot1': 0, 'rot0': 0, 'rot3': 2, 'rot2': 2, 'state': 'normal', 'yaw': 4.42, 'datetime': '2018-10-09 12:36:38.435264', 'mgs': 0, 'volt': 0.9326, 'depth': 2.072, 'time': 3, 'pitch': 23.0, 'roll': -1.59, 'pres': 191}
{'lipoC2': 7.47, 'lipoC3S1': 4.09, 'temp': 30.56, 'lipoC3S3': 12.31, 'lipoC3S2': 8.12, 'rot1': 0, 'rot0': 0, 'rot3': 3, 'rot2': 3, 'state': 'normal', 'yaw': 4.33, 'datetime': '2018-10-09 12:36:38.451320', 'mgs': 0, 'volt': 0.918, 'depth': 1.843, 'time': 3, 'pitch': 24.44, 'roll': -1.48, 'pres': 188}
{'lipoC2': 7.48, 'lipoC3S1': 4.09, 'temp': 30.63, 'lipoC3S3': 12.31, 'lipoC3S2': 8.13, 'rot1': 0, 'rot0': 0, 'rot3': 4, 'rot2': 4, 'state': 'normal', 'yaw': 4.21, 'datetime': '2018-10-09 12:36:38.461322', 'mgs': 0, 'volt': 0.918, 'depth': 1.843, 'time': 3, 'pitch': 25.49, 'roll': -1.34, 'pres': 188}
{'lipoC2': 7.47, 'lipoC3S1': 4.07, 'temp': 30.63, 'lipoC3S3': 12.37, 'lipoC3S2': 8.16, 'rot1': 0, 'rot0': 0, 'rot3': 6, 'rot2': 4, 'state': 'normal', 'yaw': 4.2, 'datetime': '2018-10-09 12:36:38.477281', 'mgs': 0, 'volt': 0.9229, 'depth': 1.92, 'time': 3, 'pitch': 25.61, 'roll': -1.4, 'pres': 189}
{'lipoC2': 7.48, 'lipoC3S1': 4.06, 'temp': 30.56, 'lipoC3S3': 12.35, 'lipoC3S2': 8.14, 'rot1': 0, 'rot0': 0, 'rot3': 7, 'rot2': 5, 'state': 'normal', 'yaw': 4.35, 'datetime': '2018-10-09 12:36:38.493259', 'mgs': 0, 'volt': 0.9229, 'depth': 1.92, 'time': 3, 'pitch': 24.74, 'roll': -1.59, 'pres': 189}
{'lipoC2': 7.48, 'lipoC3S1': 4.06, 'temp': 30.56, 'lipoC3S3': 12.35, 'lipoC3S2': 8.13, 'rot1': 0, 'rot0': 0, 'rot3': 8, 'rot2': 6, 'state': 'normal', 'yaw': 4.71, 'datetime': '2018-10-09 12:36:38.503203', 'mgs': 0, 'volt': 0.918, 'depth': 1.843, 'time': 3, 'pitch': 23.27, 'roll': -1.79, 'pres': 188}
{'lipoC2': 7.48, 'lipoC3S1': 4.09, 'temp': 30.56, 'lipoC3S3': 12.33, 'lipoC3S2': 8.13, 'rot1': 0, 'rot0': 0, 'rot3': 9, 'rot2': 7, 'state': 'normal', 'yaw': 5.19, 'datetime': '2018-10-09 12:36:38.519092', 'mgs': 0, 'volt': 0.8936, 'depth': 1.462, 'time': 3, 'pitch': 21.5, 'roll': -2.01, 'pres': 183}
{'lipoC2': 7.48, 'lipoC3S1': 4.09, 'temp': 30.63, 'lipoC3S3': 12.33, 'lipoC3S2': 8.13, 'rot1': 0, 'rot0': 0, 'rot3': 11, 'rot2': 8, 'state': 'normal', 'yaw': 5.81, 'datetime': '2018-10-09 12:36:38.534998', 'mgs': 0, 'volt': 0.8936, 'depth': 1.462, 'time': 3, 'pitch': 19.83, 'roll': -2.2, 'pres': 183}
{'lipoC2': 7.48, 'lipoC3S1': 4.08, 'temp': 30.63, 'lipoC3S3': 12.33, 'lipoC3S2': 8.17, 'rot1': 0, 'rot0': 0, 'rot3': 12, 'rot2': 9, 'state': 'normal', 'yaw': 6.32, 'datetime': '2018-10-09 12:36:38.544955', 'mgs': 0, 'volt': 0.8936, 'depth': 1.462, 'time': 4, 'pitch': 19.21, 'roll': -2.55, 'pres': 183}
{'lipoC2': 7.48, 'lipoC3S1': 4.08, 'temp': 30.56, 'lipoC3S3': 12.38, 'lipoC3S2': 8.17, 'rot1': 0, 'rot0': 0, 'rot3': 13, 'rot2': 10, 'state': 'normal', 'yaw': 6.68, 'datetime': '2018-10-09 12:36:38.561115', 'mgs': 0, 'volt': 0.8887, 'depth': 1.385, 'time': 4, 'pitch': 19.68, 'roll': -3.25, 'pres': 182}
{'lipoC2': 7.48, 'lipoC3S1': 4.06, 'temp': 30.56, 'lipoC3S3': 12.34, 'lipoC3S2': 8.13, 'rot1': 0, 'rot0': 0, 'rot3': 15, 'rot2': 11, 'state': 'normal', 'yaw': 6.89, 'datetime': '2018-10-09 12:36:38.577127', 'mgs': 0, 'volt': 0.8789, 'depth': 1.233, 'time': 4, 'pitch': 21.11, 'roll': -4.25, 'pres': 180}
{'lipoC2': 7.48, 'lipoC3S1': 4.09, 'temp': 30.63, 'lipoC3S3': 12.34, 'lipoC3S2': 8.18, 'rot1': 0, 'rot0': 0, 'rot3': 16, 'rot2': 12, 'state': 'normal', 'yaw': 6.97, 'datetime': '2018-10-09 12:36:38.587171', 'mgs': 0, 'volt': 0.8887, 'depth': 1.385, 'time': 4, 'pitch': 22.27, 'roll': -4.9, 'pres': 182}
{'lipoC2': 7.48, 'lipoC3S1': 4.06, 'temp': 30.63, 'lipoC3S3': 12.37, 'lipoC3S2': 8.15, 'rot1': 0, 'rot0': 0, 'rot3': 17, 'rot2': 13, 'state': 'normal', 'yaw': 7.07, 'datetime': '2018-10-09 12:36:38.603183', 'mgs': 0, 'volt': 0.8887, 'depth': 1.385, 'time': 4, 'pitch': 22.62, 'roll': -5.07, 'pres': 182}
{'lipoC2': 7.48, 'lipoC3S1': 4.09, 'temp': 30.63, 'lipoC3S3': 12.34, 'lipoC3S2': 8.15, 'rot1': 0, 'rot0': 0, 'rot3': 18, 'rot2': 14, 'state': 'normal', 'yaw': 7.29, 'datetime': '2018-10-09 12:36:38.619281', 'mgs': 0, 'volt': 0.874, 'depth': 1.157, 'time': 4, 'pitch': 21.95, 'roll': -4.72, 'pres': 179}
{'lipoC2': 7.48, 'lipoC3S1': 4.08, 'temp': 30.56, 'lipoC3S3': 12.37, 'lipoC3S2': 8.18, 'rot1': 0, 'rot0': 0, 'rot3': 20, 'rot2': 15, 'state': 'normal', 'yaw': 7.57, 'datetime': '2018-10-09 12:36:38.629322', 'mgs': 0, 'volt': 0.8838, 'depth': 1.309, 'time': 4, 'pitch': 20.73, 'roll': -4.2, 'pres': 181}
{'lipoC2': 7.48, 'lipoC3S1': 4.09, 'temp': 30.56, 'lipoC3S3': 12.34, 'lipoC3S2': 8.14, 'rot1': 0, 'rot0': 0, 'rot3': 21, 'rot2': 16, 'state': 'normal', 'yaw': 7.85, 'datetime': '2018-10-09 12:36:38.645438', 'mgs': 0, 'volt': 0.874, 'depth': 1.157, 'time': 4, 'pitch': 19.36, 'roll': -3.68, 'pres': 179}
{'lipoC2': 7.47, 'lipoC3S1': 4.08, 'temp': 30.56, 'lipoC3S3': 12.38, 'lipoC3S2': 8.17, 'rot1': 0, 'rot0': 0, 'rot3': 22, 'rot2': 17, 'state': 'normal', 'yaw': 8.12, 'datetime': '2018-10-09 12:36:38.661041', 'mgs': 0, 'volt': 0.8838, 'depth': 1.309, 'time': 4, 'pitch': 18.08, 'roll': -3.23, 'pres': 181}
{'lipoC2': 7.48, 'lipoC3S1': 4.1, 'temp': 30.56, 'lipoC3S3': 12.33, 'lipoC3S2': 8.17, 'rot1': 0, 'rot0': 0, 'rot3': 24, 'rot2': 18, 'state': 'normal', 'yaw': 8.31, 'datetime': '2018-10-09 12:36:38.670505', 'mgs': 0, 'volt': 0.874, 'depth': 1.157, 'time': 4, 'pitch': 17.42, 'roll': -3.08, 'pres': 179}
{'lipoC2': 7.48, 'lipoC3S1': 4.07, 'temp': 30.56, 'lipoC3S3': 12.38, 'lipoC3S2': 8.16, 'rot1': 0, 'rot0': 0, 'rot3': 25, 'rot2': 19, 'state': 'normal', 'yaw': 8.49, 'datetime': '2018-10-09 12:36:38.685994', 'mgs': 0, 'volt': 0.8887, 'depth': 1.385, 'time': 5, 'pitch': 17.49, 'roll': -3.13, 'pres': 182}
{'lipoC2': 7.48, 'lipoC3S1': 4.09, 'temp': 30.56, 'lipoC3S3': 12.34, 'lipoC3S2': 8.13, 'rot1': 0, 'rot0': 0, 'rot3': 26, 'rot2': 20, 'state': 'normal', 'yaw': 8.6, 'datetime': '2018-10-09 12:36:38.701509', 'mgs': 0, 'volt': 0.874, 'depth': 1.157, 'time': 5, 'pitch': 18.27, 'roll': -3.37, 'pres': 179}
{'lipoC2': 7.48, 'lipoC3S1': 4.06, 'temp': 30.56, 'lipoC3S3': 12.33, 'lipoC3S2': 8.14, 'rot1': 0, 'rot0': 0, 'rot3': 28, 'rot2': 22, 'state': 'normal', 'yaw': 8.61, 'datetime': '2018-10-09 12:36:38.710949', 'mgs': 0, 'volt': 0.8643, 'depth': 1.004, 'time': 5, 'pitch': 19.6, 'roll': -3.69, 'pres': 177}
{'lipoC2': 7.47, 'lipoC3S1': 4.08, 'temp': 30.56, 'lipoC3S3': 12.33, 'lipoC3S2': 8.17, 'rot1': 0, 'rot0': 0, 'rot3': 29, 'rot2': 23, 'state': 'normal', 'yaw': 8.56, 'datetime': '2018-10-09 12:36:38.726447', 'mgs': 0, 'volt': 0.8838, 'depth': 1.309, 'time': 5, 'pitch': 21.24, 'roll': -4.0, 'pres': 181}
{'lipoC2': 7.48, 'lipoC3S1': 4.06, 'temp': 30.56, 'lipoC3S3': 12.37, 'lipoC3S2': 8.15, 'rot1': 0, 'rot0': 0, 'rot3': 30, 'rot2': 24, 'state': 'normal', 'yaw': 8.58, 'datetime': '2018-10-09 12:36:38.742015', 'mgs': 0, 'volt': 0.8643, 'depth': 1.004, 'time': 5, 'pitch': 22.51, 'roll': -4.15, 'pres': 177}
{'lipoC2': 7.48, 'lipoC3S1': 4.08, 'temp': 30.56, 'lipoC3S3': 12.31, 'lipoC3S2': 8.17, 'rot1': 0, 'rot0': 0, 'rot3': 31, 'rot2': 25, 'state': 'normal', 'yaw': 8.64, 'datetime': '2018-10-09 12:36:38.751678', 'mgs': 0, 'volt': 0.8789, 'depth': 1.233, 'time': 5, 'pitch': 23.29, 'roll': -4.17, 'pres': 180}
{'lipoC2': 7.48, 'lipoC3S1': 4.07, 'temp': 30.56, 'lipoC3S3': 12.37, 'lipoC3S2': 8.14, 'rot1': 0, 'rot0': 0, 'rot3': 33, 'rot2': 26, 'state': 'normal', 'yaw': 8.75, 'datetime': '2018-10-09 12:36:38.767232', 'mgs': 0, 'volt': 0.8887, 'depth': 1.385, 'time': 5, 'pitch': 23.42, 'roll': -4.1, 'pres': 182}
{'lipoC2': 7.48, 'lipoC3S1': 4.09, 'temp': 30.56, 'lipoC3S3': 12.33, 'lipoC3S2': 8.13, 'rot1': 0, 'rot0': 0, 'rot3': 34, 'rot2': 27, 'state': 'normal', 'yaw': 8.91, 'datetime': '2018-10-09 12:36:38.782781', 'mgs': 0, 'volt': 0.8789, 'depth': 1.233, 'time': 5, 'pitch': 22.9, 'roll': -3.9, 'pres': 180}
{'lipoC2': 7.48, 'lipoC3S1': 4.07, 'temp': 30.56, 'lipoC3S3': 12.37, 'lipoC3S2': 8.17, 'rot1': 0, 'rot0': 0, 'rot3': 35, 'rot2': 28, 'state': 'normal', 'yaw': 9.05, 'datetime': '2018-10-09 12:36:38.792230', 'mgs': 0, 'volt': 0.8887, 'depth': 1.385, 'time': 5, 'pitch': 21.77, 'roll': -3.68, 'pres': 182}
{'lipoC2': 7.48, 'lipoC3S1': 4.06, 'temp': 30.56, 'lipoC3S3': 12.34, 'lipoC3S2': 8.14, 'rot1': 0, 'rot0': 0, 'rot3': 37, 'rot2': 29, 'state': 'normal', 'yaw': 9.18, 'datetime': '2018-10-09 12:36:38.807652', 'mgs': 0, 'volt': 0.874, 'depth': 1.157, 'time': 6, 'pitch': 20.62, 'roll': -3.53, 'pres': 179}
{'lipoC2': 7.48, 'lipoC3S1': 4.04, 'temp': 30.56, 'lipoC3S3': 12.33, 'lipoC3S2': 8.0, 'rot1': 0, 'rot0': 0, 'rot3': 37, 'rot2': 29, 'state': 'normal', 'yaw': 9.29, 'datetime': '2018-10-09 12:36:38.823134', 'mgs': 0, 'volt': 0.9082, 'depth': 1.691, 'time': 6, 'pitch': 19.7, 'roll': -3.49, 'pres': 186}
{'lipoC2': 7.44, 'lipoC3S1': 4.08, 'temp': 30.56, 'lipoC3S3': 12.27, 'lipoC3S2': 8.1, 'rot1': 1, 'rot0': 1, 'rot3': 38, 'rot2': 30, 'state': 'normal', 'yaw': 9.31, 'datetime': '2018-10-09 12:36:38.832663', 'mgs': 0, 'volt': 0.8887, 'depth': 1.385, 'time': 6, 'pitch': 19.72, 'roll': -3.63, 'pres': 182}
{'lipoC2': 7.48, 'lipoC3S1': 4.05, 'temp': 30.56, 'lipoC3S3': 12.23, 'lipoC3S2': 8.12, 'rot1': 2, 'rot0': 3, 'rot3': 39, 'rot2': 31, 'state': 'normal', 'yaw': 9.23, 'datetime': '2018-10-09 12:36:38.848268', 'mgs': 0, 'volt': 0.8838, 'depth': 1.309, 'time': 6, 'pitch': 20.89, 'roll': -3.81, 'pres': 181}
{'lipoC2': 7.47, 'lipoC3S1': 4.08, 'temp': 30.56, 'lipoC3S3': 12.26, 'lipoC3S2': 8.09, 'rot1': 3, 'rot0': 4, 'rot3': 40, 'rot2': 33, 'state': 'normal', 'yaw': 9.02, 'datetime': '2018-10-09 12:36:38.863863', 'mgs': 0, 'volt': 0.9424, 'depth': 2.225, 'time': 6, 'pitch': 22.73, 'roll': -3.99, 'pres': 193}
{'lipoC2': 7.47, 'lipoC3S1': 4.01, 'temp': 30.56, 'lipoC3S3': 12.33, 'lipoC3S2': 8.09, 'rot1': 4, 'rot0': 5, 'rot3': 41, 'rot2': 33, 'state': 'normal', 'yaw': 8.61, 'datetime': '2018-10-09 12:36:38.873455', 'mgs': 0, 'volt': 0.9082, 'depth': 1.691, 'time': 6, 'pitch': 24.14, 'roll': -4.14, 'pres': 186}
{'lipoC2': 7.47, 'lipoC3S1': 4.08, 'temp': 30.56, 'lipoC3S3': 12.25, 'lipoC3S2': 8.13, 'rot1': 5, 'rot0': 6, 'rot3': 42, 'rot2': 34, 'state': 'normal', 'yaw': 8.07, 'datetime': '2018-10-09 12:36:38.889265', 'mgs': 0, 'volt': 0.9717, 'depth': 2.682, 'time': 6, 'pitch': 25.15, 'roll': -4.2, 'pres': 199}
{'lipoC2': 7.48, 'lipoC3S1': 4.05, 'temp': 30.56, 'lipoC3S3': 12.33, 'lipoC3S2': 7.99, 'rot1': 6, 'rot0': 7, 'rot3': 44, 'rot2': 35, 'state': 'normal', 'yaw': 7.36, 'datetime': '2018-10-09 12:36:38.953766', 'mgs': 0, 'volt': 0.9229, 'depth': 1.92, 'time': 6, 'pitch': 26.01, 'roll': -4.18, 'pres': 189}
{'lipoC2': 7.44, 'lipoC3S1': 4.08, 'temp': 30.5, 'lipoC3S3': 12.25, 'lipoC3S2': 8.08, 'rot1': 7, 'rot0': 8, 'rot3': 45, 'rot2': 36, 'state': 'normal', 'yaw': 6.66, 'datetime': '2018-10-09 12:36:39.057366', 'mgs': 0, 'volt': 0.9229, 'depth': 1.92, 'time': 6, 'pitch': 26.59, 'roll': -4.16, 'pres': 189}
{'lipoC2': 7.48, 'lipoC3S1': 4.04, 'temp': 30.5, 'lipoC3S3': 12.29, 'lipoC3S2': 7.98, 'rot1': 8, 'rot0': 10, 'rot3': 45, 'rot2': 37, 'state': 'normal', 'yaw': 5.88, 'datetime': '2018-10-09 12:36:39.161485', 'mgs': 0, 'volt': 0.9033, 'depth': 1.614, 'time': 6, 'pitch': 26.94, 'roll': -4.29, 'pres': 185}
{'lipoC2': 7.47, 'lipoC3S1': 4.08, 'temp': 30.5, 'lipoC3S3': 12.25, 'lipoC3S2': 8.13, 'rot1': 9, 'rot0': 11, 'rot3': 46, 'rot2': 37, 'state': 'normal', 'yaw': 4.96, 'datetime': '2018-10-09 12:36:39.265313', 'mgs': 0, 'volt': 0.9863, 'depth': 2.911, 'time': 7, 'pitch': 27.2, 'roll': -4.66, 'pres': 202}
{'lipoC2': 7.48, 'lipoC3S1': 4.04, 'temp': 30.5, 'lipoC3S3': 12.19, 'lipoC3S2': 8.1, 'rot1': 10, 'rot0': 12, 'rot3': 47, 'rot2': 38, 'state': 'normal', 'yaw': 4.09, 'datetime': '2018-10-09 12:36:39.369179', 'mgs': 0, 'volt': 0.918, 'depth': 1.843, 'time': 7, 'pitch': 27.5, 'roll': -5.22, 'pres': 188}
{'lipoC2': 7.47, 'lipoC3S1': 3.96, 'temp': 30.56, 'lipoC3S3': 12.33, 'lipoC3S2': 8.13, 'rot1': 11, 'rot0': 13, 'rot3': 49, 'rot2': 39, 'state': 'normal', 'yaw': 3.02, 'datetime': '2018-10-09 12:36:39.473291', 'mgs': 0, 'volt': 0.9424, 'depth': 2.225, 'time': 7, 'pitch': 28.01, 'roll': -6.04, 'pres': 193}
{'lipoC2': 7.47, 'lipoC3S1': 4.08, 'temp': 30.56, 'lipoC3S3': 12.25, 'lipoC3S2': 8.13, 'rot1': 12, 'rot0': 15, 'rot3': 50, 'rot2': 40, 'state': 'normal', 'yaw': 2.0, 'datetime': '2018-10-09 12:36:39.577235', 'mgs': 0, 'volt': 0.9912, 'depth': 2.988, 'time': 7, 'pitch': 28.55, 'roll': -6.88, 'pres': 203}
{'lipoC2': 7.47, 'lipoC3S1': 4.1, 'temp': 30.56, 'lipoC3S3': 12.25, 'lipoC3S2': 8.13, 'rot1': 14, 'rot0': 16, 'rot3': 51, 'rot2': 41, 'state': 'normal', 'yaw': 1.09, 'datetime': '2018-10-09 12:36:39.683208', 'mgs': 0, 'volt': 0.9766, 'depth': 2.759, 'time': 7, 'pitch': 28.99, 'roll': -7.52, 'pres': 200}
{'lipoC2': 7.46, 'lipoC3S1': 4.08, 'temp': 30.56, 'lipoC3S3': 12.25, 'lipoC3S2': 8.07, 'rot1': 15, 'rot0': 17, 'rot3': 52, 'rot2': 41, 'state': 'normal', 'yaw': 0.19, 'datetime': '2018-10-09 12:36:39.787247', 'mgs': 0, 'volt': 0.9326, 'depth': 2.072, 'time': 7, 'pitch': 29.09, 'roll': -7.84, 'pres': 191}
{'lipoC2': 7.46, 'lipoC3S1': 4.08, 'temp': 30.56, 'lipoC3S3': 12.25, 'lipoC3S2': 8.1, 'rot1': 16, 'rot0': 18, 'rot3': 53, 'rot2': 42, 'state': 'normal', 'yaw': -0.52, 'datetime': '2018-10-09 12:36:39.892482', 'mgs': 0, 'volt': 0.9326, 'depth': 2.072, 'time': 7, 'pitch': 28.74, 'roll': -7.83, 'pres': 191}
{'lipoC2': 7.48, 'lipoC3S1': 4.03, 'temp': 30.5, 'lipoC3S3': 12.23, 'lipoC3S2': 8.13, 'rot1': 17, 'rot0': 19, 'rot3': 54, 'rot2': 43, 'state': 'normal', 'yaw': -1.26, 'datetime': '2018-10-09 12:36:39.996367', 'mgs': 0, 'volt': 0.9375, 'depth': 2.148, 'time': 7, 'pitch': 28.15, 'roll': -7.81, 'pres': 192}
{'lipoC2': 7.48, 'lipoC3S1': 4.03, 'temp': 30.5, 'lipoC3S3': 12.19, 'lipoC3S2': 8.08, 'rot1': 18, 'rot0': 21, 'rot3': 55, 'rot2': 44, 'state': 'normal', 'yaw': -1.92, 'datetime': '2018-10-09 12:36:40.101677', 'mgs': 0, 'volt': 0.9424, 'depth': 2.225, 'time': 7, 'pitch': 27.72, 'roll': -7.99, 'pres': 193}
{'lipoC2': 7.47, 'lipoC3S1': 3.96, 'temp': 30.56, 'lipoC3S3': 12.31, 'lipoC3S2': 8.13, 'rot1': 19, 'rot0': 22, 'rot3': 57, 'rot2': 44, 'state': 'normal', 'yaw': -2.63, 'datetime': '2018-10-09 12:36:40.205706', 'mgs': 0, 'volt': 0.9619, 'depth': 2.53, 'time': 8, 'pitch': 27.54, 'roll': -8.51, 'pres': 197}
{'lipoC2': 7.48, 'lipoC3S1': 4.08, 'temp': 30.56, 'lipoC3S3': 12.25, 'lipoC3S2': 8.13, 'rot1': 20, 'rot0': 23, 'rot3': 58, 'rot2': 45, 'state': 'normal', 'yaw': -3.24, 'datetime': '2018-10-09 12:36:40.309547', 'mgs': 0, 'volt': 1.0059, 'depth': 3.217, 'time': 8, 'pitch': 27.58, 'roll': -9.2, 'pres': 206}
{'lipoC2': 7.47, 'lipoC3S1': 4.08, 'temp': 30.56, 'lipoC3S3': 12.09, 'lipoC3S2': 8.1, 'rot1': 22, 'rot0': 24, 'rot3': 59, 'rot2': 46, 'state': 'normal', 'yaw': -3.75, 'datetime': '2018-10-09 12:36:40.413677', 'mgs': 0, 'volt': 0.9473, 'depth': 2.301, 'time': 8, 'pitch': 27.62, 'roll': -9.89, 'pres': 194}
{'lipoC2': 7.48, 'lipoC3S1': 4.03, 'temp': 30.56, 'lipoC3S3': 12.33, 'lipoC3S2': 8.02, 'rot1': 23, 'rot0': 25, 'rot3': 59, 'rot2': 46, 'state': 'normal', 'yaw': -4.17, 'datetime': '2018-10-09 12:36:40.517631', 'mgs': 0, 'volt': 0.9521, 'depth': 2.377, 'time': 8, 'pitch': 27.49, 'roll': -10.37, 'pres': 195}
{'lipoC2': 7.47, 'lipoC3S1': 4.03, 'temp': 30.56, 'lipoC3S3': 12.31, 'lipoC3S2': 8.14, 'rot1': 24, 'rot0': 27, 'rot3': 60, 'rot2': 47, 'state': 'normal', 'yaw': -4.46, 'datetime': '2018-10-09 12:36:40.621577', 'mgs': 0, 'volt': 0.9814, 'depth': 2.835, 'time': 8, 'pitch': 27.11, 'roll': -10.54, 'pres': 201}
{'lipoC2': 7.47, 'lipoC3S1': 4.08, 'temp': 30.56, 'lipoC3S3': 12.31, 'lipoC3S2': 8.13, 'rot1': 25, 'rot0': 28, 'rot3': 61, 'rot2': 48, 'state': 'normal', 'yaw': -4.69, 'datetime': '2018-10-09 12:36:40.725775', 'mgs': 0, 'volt': 1.04, 'depth': 3.751, 'time': 8, 'pitch': 26.59, 'roll': -10.58, 'pres': 213}
{'lipoC2': 7.47, 'lipoC3S1': 4.08, 'temp': 30.56, 'lipoC3S3': 12.29, 'lipoC3S2': 8.11, 'rot1': 26, 'rot0': 29, 'rot3': 62, 'rot2': 49, 'state': 'normal', 'yaw': -4.85, 'datetime': '2018-10-09 12:36:40.829779', 'mgs': 0, 'volt': 0.9619, 'depth': 2.53, 'time': 8, 'pitch': 26.03, 'roll': -10.56, 'pres': 197}
{'lipoC2': 7.44, 'lipoC3S1': 4.08, 'temp': 30.56, 'lipoC3S3': 12.25, 'lipoC3S2': 8.15, 'rot1': 27, 'rot0': 30, 'rot3': 63, 'rot2': 49, 'state': 'normal', 'yaw': -4.88, 'datetime': '2018-10-09 12:36:40.935161', 'mgs': 0, 'volt': 0.9766, 'depth': 2.759, 'time': 8, 'pitch': 25.59, 'roll': -10.49, 'pres': 200}
{'lipoC2': 7.48, 'lipoC3S1': 4.03, 'temp': 30.56, 'lipoC3S3': 12.19, 'lipoC3S2': 8.08, 'rot1': 29, 'rot0': 31, 'rot3': 64, 'rot2': 50, 'state': 'normal', 'yaw': -4.75, 'datetime': '2018-10-09 12:36:41.039092', 'mgs': 0, 'volt': 0.9668, 'depth': 2.606, 'time': 8, 'pitch': 25.2, 'roll': -10.4, 'pres': 198}
{'lipoC2': 7.48, 'lipoC3S1': 4.09, 'temp': 30.56, 'lipoC3S3': 12.1, 'lipoC3S2': 8.09, 'rot1': 30, 'rot0': 32, 'rot3': 65, 'rot2': 51, 'state': 'normal', 'yaw': -4.56, 'datetime': '2018-10-09 12:36:41.144359', 'mgs': 0, 'volt': 0.9668, 'depth': 2.606, 'time': 8, 'pitch': 24.95, 'roll': -10.32, 'pres': 198}
{'lipoC2': 7.48, 'lipoC3S1': 4.04, 'temp': 30.56, 'lipoC3S3': 12.33, 'lipoC3S2': 8.01, 'rot1': 31, 'rot0': 33, 'rot3': 65, 'rot2': 51, 'state': 'normal', 'yaw': -4.17, 'datetime': '2018-10-09 12:36:41.248301', 'mgs': 0, 'volt': 1.001, 'depth': 3.14, 'time': 9, 'pitch': 24.75, 'roll': -10.19, 'pres': 205}
{'lipoC2': 7.44, 'lipoC3S1': 4.08, 'temp': 30.56, 'lipoC3S3': 12.25, 'lipoC3S2': 8.13, 'rot1': 32, 'rot0': 34, 'rot3': 66, 'rot2': 52, 'state': 'normal', 'yaw': -3.74, 'datetime': '2018-10-09 12:36:41.353050', 'mgs': 0, 'volt': 1.001, 'depth': 3.14, 'time': 9, 'pitch': 24.63, 'roll': -10.11, 'pres': 205}
{'lipoC2': 7.48, 'lipoC3S1': 4.03, 'temp': 30.56, 'lipoC3S3': 12.33, 'lipoC3S2': 8.01, 'rot1': 33, 'rot0': 35, 'rot3': 67, 'rot2': 53, 'state': 'normal', 'yaw': -3.25, 'datetime': '2018-10-09 12:36:41.457811', 'mgs': 0, 'volt': 0.9766, 'depth': 2.759, 'time': 9, 'pitch': 24.62, 'roll': -10.06, 'pres': 200}
{'lipoC2': 7.48, 'lipoC3S1': 4.04, 'temp': 30.56, 'lipoC3S3': 12.31, 'lipoC3S2': 8.14, 'rot1': 34, 'rot0': 37, 'rot3': 68, 'rot2': 53, 'state': 'normal', 'yaw': -2.79, 'datetime': '2018-10-09 12:36:41.561835', 'mgs': 0, 'volt': 1.001, 'depth': 3.14, 'time': 9, 'pitch': 24.88, 'roll': -10.01, 'pres': 205}
{'lipoC2': 7.46, 'lipoC3S1': 4.07, 'temp': 30.56, 'lipoC3S3': 12.23, 'lipoC3S2': 8.13, 'rot1': 35, 'rot0': 38, 'rot3': 69, 'rot2': 54, 'state': 'normal', 'yaw': -2.43, 'datetime': '2018-10-09 12:36:41.665825', 'mgs': 0, 'volt': 0.9863, 'depth': 2.911, 'time': 9, 'pitch': 25.31, 'roll': -9.99, 'pres': 202}
{'lipoC2': 7.48, 'lipoC3S1': 4.02, 'temp': 30.56, 'lipoC3S3': 12.23, 'lipoC3S2': 7.93, 'rot1': 37, 'rot0': 39, 'rot3': 70, 'rot2': 55, 'state': 'normal', 'yaw': -2.07, 'datetime': '2018-10-09 12:36:41.769765', 'mgs': 0, 'volt': 0.9863, 'depth': 2.911, 'time': 9, 'pitch': 25.84, 'roll': -9.95, 'pres': 202}
{'lipoC2': 7.48, 'lipoC3S1': 3.97, 'temp': 30.56, 'lipoC3S3': 12.33, 'lipoC3S2': 8.14, 'rot1': 38, 'rot0': 40, 'rot3': 70, 'rot2': 55, 'state': 'normal', 'yaw': -1.79, 'datetime': '2018-10-09 12:36:41.873733', 'mgs': 0, 'volt': 1.0156, 'depth': 3.369, 'time': 9, 'pitch': 26.26, 'roll': -9.92, 'pres': 208}
{'lipoC2': 7.47, 'lipoC3S1': 4.04, 'temp': 30.63, 'lipoC3S3': 12.31, 'lipoC3S2': 8.14, 'rot1': 39, 'rot0': 41, 'rot3': 71, 'rot2': 56, 'state': 'normal', 'yaw': -1.56, 'datetime': '2018-10-09 12:36:41.978069', 'mgs': 0, 'volt': 1.0107, 'depth': 3.293, 'time': 9, 'pitch': 26.62, 'roll': -9.91, 'pres': 207}
{'lipoC2': 7.46, 'lipoC3S1': 4.07, 'temp': 30.63, 'lipoC3S3': 12.22, 'lipoC3S2': 8.07, 'rot1': 40, 'rot0': 43, 'rot3': 72, 'rot2': 57, 'state': 'normal', 'yaw': -1.4, 'datetime': '2018-10-09 12:36:42.081854', 'mgs': 0, 'volt': 1.001, 'depth': 3.14, 'time': 9, 'pitch': 27.02, 'roll': -9.94, 'pres': 205}
{'lipoC2': 7.47, 'lipoC3S1': 4.07, 'temp': 30.56, 'lipoC3S3': 12.23, 'lipoC3S2': 8.06, 'rot1': 41, 'rot0': 44, 'rot3': 73, 'rot2': 57, 'state': 'normal', 'yaw': -1.29, 'datetime': '2018-10-09 12:36:42.186983', 'mgs': 0, 'volt': 1.001, 'depth': 3.14, 'time': 9, 'pitch': 27.37, 'roll': -9.97, 'pres': 205}
{'lipoC2': 7.48, 'lipoC3S1': 4.04, 'temp': 30.56, 'lipoC3S3': 12.33, 'lipoC3S2': 8.01, 'rot1': 42, 'rot0': 45, 'rot3': 75, 'rot2': 58, 'state': 'normal', 'yaw': -1.16, 'datetime': '2018-10-09 12:36:42.291123', 'mgs': 0, 'volt': 1.0107, 'depth': 3.293, 'time': 10, 'pitch': 27.63, 'roll': -9.91, 'pres': 207}
{'lipoC2': 7.48, 'lipoC3S1': 4.08, 'temp': 30.56, 'lipoC3S3': 12.12, 'lipoC3S2': 8.07, 'rot1': 43, 'rot0': 46, 'rot3': 75, 'rot2': 59, 'state': 'normal', 'yaw': -1.03, 'datetime': '2018-10-09 12:36:42.396522', 'mgs': 0, 'volt': 1.0107, 'depth': 3.293, 'time': 10, 'pitch': 27.7, 'roll': -9.82, 'pres': 207}
{'lipoC2': 7.48, 'lipoC3S1': 4.02, 'temp': 30.56, 'lipoC3S3': 12.3, 'lipoC3S2': 7.96, 'rot1': 45, 'rot0': 47, 'rot3': 76, 'rot2': 60, 'state': 'normal', 'yaw': -0.88, 'datetime': '2018-10-09 12:36:42.500654', 'mgs': 0, 'volt': 1.0156, 'depth': 3.369, 'time': 10, 'pitch': 27.72, 'roll': -9.63, 'pres': 208}
{'lipoC2': 7.47, 'lipoC3S1': 4.08, 'temp': 30.56, 'lipoC3S3': 12.23, 'lipoC3S2': 8.13, 'rot1': 46, 'rot0': 49, 'rot3': 77, 'rot2': 60, 'state': 'normal', 'yaw': -0.74, 'datetime': '2018-10-09 12:36:42.605369', 'mgs': 0, 'volt': 1.0645, 'depth': 4.132, 'time': 10, 'pitch': 27.82, 'roll': -9.42, 'pres': 218}
{'lipoC2': 7.48, 'lipoC3S1': 4.03, 'temp': 30.63, 'lipoC3S3': 12.19, 'lipoC3S2': 8.08, 'rot1': 47, 'rot0': 50, 'rot3': 78, 'rot2': 61, 'state': 'normal', 'yaw': -0.55, 'datetime': '2018-10-09 12:36:42.710182', 'mgs': 0, 'volt': 1.0205, 'depth': 3.445, 'time': 10, 'pitch': 28.01, 'roll': -9.17, 'pres': 209}
{'lipoC2': 7.48, 'lipoC3S1': 4.04, 'temp': 30.63, 'lipoC3S3': 12.33, 'lipoC3S2': 8.04, 'rot1': 48, 'rot0': 51, 'rot3': 79, 'rot2': 62, 'state': 'normal', 'yaw': -0.33, 'datetime': '2018-10-09 12:36:42.814170', 'mgs': 0, 'volt': 1.0254, 'depth': 3.522, 'time': 10, 'pitch': 28.22, 'roll': -8.86, 'pres': 210}
{'lipoC2': 7.48, 'lipoC3S1': 3.97, 'temp': 30.63, 'lipoC3S3': 12.31, 'lipoC3S2': 8.14, 'rot1': 49, 'rot0': 52, 'rot3': 79, 'rot2': 62, 'state': 'normal', 'yaw': -0.12, 'datetime': '2018-10-09 12:36:42.918389', 'mgs': 0, 'volt': 1.0498, 'depth': 3.903, 'time': 10, 'pitch': 28.45, 'roll': -8.56, 'pres': 215}
{'lipoC2': 7.47, 'lipoC3S1': 4.1, 'temp': 30.63, 'lipoC3S3': 12.31, 'lipoC3S2': 8.13, 'rot1': 50, 'rot0': 53, 'rot3': 80, 'rot2': 63, 'state': 'normal', 'yaw': 0.09, 'datetime': '2018-10-09 12:36:43.022472', 'mgs': 0, 'volt': 1.0742, 'depth': 4.285, 'time': 10, 'pitch': 28.73, 'roll': -8.29, 'pres': 220}
{'lipoC2': 7.46, 'lipoC3S1': 4.07, 'temp': 30.56, 'lipoC3S3': 12.23, 'lipoC3S2': 8.13, 'rot1': 52, 'rot0': 55, 'rot3': 81, 'rot2': 64, 'state': 'normal', 'yaw': 0.25, 'datetime': '2018-10-09 12:36:43.126467', 'mgs': 0, 'volt': 1.0742, 'depth': 4.285, 'time': 10, 'pitch': 28.99, 'roll': -8.16, 'pres': 220}
{'lipoC2': 7.47, 'lipoC3S1': 4.08, 'temp': 30.56, 'lipoC3S3': 12.3, 'lipoC3S2': 8.13, 'rot1': 53, 'rot0': 56, 'rot3': 82, 'rot2': 64, 'state': 'normal', 'yaw': 0.43, 'datetime': '2018-10-09 12:36:43.230876', 'mgs': 0, 'volt': 1.0889, 'depth': 4.514, 'time': 11, 'pitch': 29.2, 'roll': -8.12, 'pres': 223}
{'lipoC2': 7.46, 'lipoC3S1': 4.07, 'temp': 30.56, 'lipoC3S3': 12.23, 'lipoC3S2': 8.13, 'rot1': 54, 'rot0': 57, 'rot3': 82, 'rot2': 66, 'state': 'normal', 'yaw': 0.66, 'datetime': '2018-10-09 12:36:43.335025', 'mgs': 0, 'volt': 1.0352, 'depth': 3.674, 'time': 11, 'pitch': 29.31, 'roll': -8.15, 'pres': 212}
{'lipoC2': 7.47, 'lipoC3S1': 4.08, 'temp': 30.63, 'lipoC3S3': 12.3, 'lipoC3S2': 8.13, 'rot1': 55, 'rot0': 58, 'rot3': 83, 'rot2': 66, 'state': 'normal', 'yaw': 0.9, 'datetime': '2018-10-09 12:36:43.440354', 'mgs': 0, 'volt': 1.0986, 'depth': 4.666, 'time': 11, 'pitch': 29.34, 'roll': -8.21, 'pres': 225}
{'lipoC2': 7.46, 'lipoC3S1': 4.08, 'temp': 30.63, 'lipoC3S3': 12.22, 'lipoC3S2': 8.13, 'rot1': 56, 'rot0': 59, 'rot3': 85, 'rot2': 67, 'state': 'normal', 'yaw': 1.22, 'datetime': '2018-10-09 12:36:43.544537', 'mgs': 0, 'volt': 1.04, 'depth': 3.751, 'time': 11, 'pitch': 29.44, 'roll': -8.21, 'pres': 213}
{'lipoC2': 7.47, 'lipoC3S1': 4.08, 'temp': 30.56, 'lipoC3S3': 12.31, 'lipoC3S2': 8.14, 'rot1': 57, 'rot0': 61, 'rot3': 85, 'rot2': 68, 'state': 'normal', 'yaw': 1.52, 'datetime': '2018-10-09 12:36:43.649841', 'mgs': 0, 'volt': 1.1133, 'depth': 4.895, 'time': 11, 'pitch': 29.61, 'roll': -8.1, 'pres': 228}
{'lipoC2': 7.44, 'lipoC3S1': 4.08, 'temp': 30.56, 'lipoC3S3': 12.23, 'lipoC3S2': 8.13, 'rot1': 59, 'rot0': 62, 'rot3': 86, 'rot2': 68, 'state': 'normal', 'yaw': 1.85, 'datetime': '2018-10-09 12:36:43.753819', 'mgs': 0, 'volt': 1.0645, 'depth': 4.132, 'time': 11, 'pitch': 29.8, 'roll': -7.88, 'pres': 218}
{'lipoC2': 7.47, 'lipoC3S1': 4.08, 'temp': 30.63, 'lipoC3S3': 12.3, 'lipoC3S2': 8.13, 'rot1': 60, 'rot0': 63, 'rot3': 87, 'rot2': 69, 'state': 'normal', 'yaw': 2.19, 'datetime': '2018-10-09 12:36:43.859306', 'mgs': 0, 'volt': 1.1182, 'depth': 4.971, 'time': 11, 'pitch': 29.9, 'roll': -7.62, 'pres': 229}
{'lipoC2': 7.44, 'lipoC3S1': 4.07, 'temp': 30.63, 'lipoC3S3': 12.23, 'lipoC3S2': 8.13, 'rot1': 61, 'rot0': 64, 'rot3': 87, 'rot2': 70, 'state': 'normal', 'yaw': 2.61, 'datetime': '2018-10-09 12:36:43.963483', 'mgs': 0, 'volt': 1.0742, 'depth': 4.285, 'time': 11, 'pitch': 29.89, 'roll': -7.36, 'pres': 220}
{'lipoC2': 7.46, 'lipoC3S1': 4.07, 'temp': 30.63, 'lipoC3S3': 12.23, 'lipoC3S2': 8.13, 'rot1': 62, 'rot0': 66, 'rot3': 88, 'rot2': 70, 'state': 'normal', 'yaw': 3.04, 'datetime': '2018-10-09 12:36:44.067493', 'mgs': 0, 'volt': 1.0449, 'depth': 3.827, 'time': 11, 'pitch': 29.79, 'roll': -7.14, 'pres': 214}
{'lipoC2': 7.48, 'lipoC3S1': 4.07, 'temp': 30.63, 'lipoC3S3': 12.14, 'lipoC3S2': 8.08, 'rot1': 63, 'rot0': 67, 'rot3': 89, 'rot2': 71, 'state': 'normal', 'yaw': 3.49, 'datetime': '2018-10-09 12:36:44.171646', 'mgs': 0, 'volt': 1.0449, 'depth': 3.827, 'time': 11, 'pitch': 29.6, 'roll': -6.92, 'pres': 214}
{'lipoC2': 7.48, 'lipoC3S1': 4.03, 'temp': 30.63, 'lipoC3S3': 12.31, 'lipoC3S2': 7.97, 'rot1': 64, 'rot0': 68, 'rot3': 91, 'rot2': 71, 'state': 'normal', 'yaw': 3.96, 'datetime': '2018-10-09 12:36:44.275758', 'mgs': 0, 'volt': 1.0498, 'depth': 3.903, 'time': 12, 'pitch': 29.29, 'roll': -6.69, 'pres': 215}
{'lipoC2': 7.48, 'lipoC3S1': 4.0, 'temp': 30.63, 'lipoC3S3': 12.31, 'lipoC3S2': 8.09, 'rot1': 65, 'rot0': 69, 'rot3': 91, 'rot2': 72, 'state': 'normal', 'yaw': 4.34, 'datetime': '2018-10-09 12:36:44.379772', 'mgs': 0, 'volt': 1.0791, 'depth': 4.361, 'time': 12, 'pitch': 29.0, 'roll': -6.5, 'pres': 221}
{'lipoC2': 7.48, 'lipoC3S1': 4.01, 'temp': 30.63, 'lipoC3S3': 12.31, 'lipoC3S2': 8.13, 'rot1': 67, 'rot0': 70, 'rot3': 93, 'rot2': 73, 'state': 'normal', 'yaw': 4.77, 'datetime': '2018-10-09 12:36:44.483972', 'mgs': 0, 'volt': 1.084, 'depth': 4.437, 'time': 12, 'pitch': 28.8, 'roll': -6.32, 'pres': 222}
{'lipoC2': 7.47, 'lipoC3S1': 4.08, 'temp': 30.63, 'lipoC3S3': 12.31, 'lipoC3S2': 8.13, 'rot1': 68, 'rot0': 72, 'rot3': 94, 'rot2': 73, 'state': 'normal', 'yaw': 5.17, 'datetime': '2018-10-09 12:36:44.588102', 'mgs': 0, 'volt': 1.123, 'depth': 5.048, 'time': 12, 'pitch': 28.81, 'roll': -6.14, 'pres': 230}
{'lipoC2': 7.48, 'lipoC3S1': 3.96, 'temp': 30.63, 'lipoC3S3': 12.33, 'lipoC3S2': 8.14, 'rot1': 69, 'rot0': 73, 'rot3': 95, 'rot2': 74, 'state': 'normal', 'yaw': 5.48, 'datetime': '2018-10-09 12:36:44.693443', 'mgs': 0, 'volt': 1.0889, 'depth': 4.514, 'time': 12, 'pitch': 28.84, 'roll': -6.04, 'pres': 223}
{'lipoC2': 7.48, 'lipoC3S1': 4.03, 'temp': 30.63, 'lipoC3S3': 12.31, 'lipoC3S2': 8.14, 'rot1': 70, 'rot0': 74, 'rot3': 95, 'rot2': 75, 'state': 'normal', 'yaw': 5.74, 'datetime': '2018-10-09 12:36:44.797677', 'mgs': 0, 'volt': 1.0791, 'depth': 4.361, 'time': 12, 'pitch': 28.88, 'roll': -6.01, 'pres': 221}
{'lipoC2': 7.48, 'lipoC3S1': 4.06, 'temp': 30.63, 'lipoC3S3': 12.33, 'lipoC3S2': 8.07, 'rot1': 71, 'rot0': 75, 'rot3': 96, 'rot2': 75, 'state': 'normal', 'yaw': 5.91, 'datetime': '2018-10-09 12:36:44.903049', 'mgs': 0, 'volt': 1.0596, 'depth': 4.056, 'time': 12, 'pitch': 28.9, 'roll': -6.02, 'pres': 217}
{'lipoC2': 7.48, 'lipoC3S1': 3.98, 'temp': 30.63, 'lipoC3S3': 12.33, 'lipoC3S2': 8.14, 'rot1': 72, 'rot0': 77, 'rot3': 97, 'rot2': 76, 'state': 'normal', 'yaw': 6.05, 'datetime': '2018-10-09 12:36:45.007080', 'mgs': 0, 'volt': 1.084, 'depth': 4.437, 'time': 12, 'pitch': 28.91, 'roll': -6.04, 'pres': 222}
{'lipoC2': 7.48, 'lipoC3S1': 4.04, 'temp': 30.63, 'lipoC3S3': 12.33, 'lipoC3S2': 7.99, 'rot1': 73, 'rot0': 78, 'rot3': 97, 'rot2': 76, 'state': 'normal', 'yaw': 6.07, 'datetime': '2018-10-09 12:36:45.112595', 'mgs': 0, 'volt': 1.0596, 'depth': 4.056, 'time': 12, 'pitch': 28.88, 'roll': -6.09, 'pres': 217}
{'lipoC2': 7.48, 'lipoC3S1': 3.96, 'temp': 30.63, 'lipoC3S3': 12.33, 'lipoC3S2': 8.13, 'rot1': 74, 'rot0': 79, 'rot3': 98, 'rot2': 78, 'state': 'normal', 'yaw': 6.09, 'datetime': '2018-10-09 12:36:45.216709', 'mgs': 0, 'volt': 1.0596, 'depth': 4.056, 'time': 13, 'pitch': 28.77, 'roll': -6.1, 'pres': 217}
{'lipoC2': 7.48, 'lipoC3S1': 4.03, 'temp': 30.63, 'lipoC3S3': 12.31, 'lipoC3S2': 8.14, 'rot1': 75, 'rot0': 80, 'rot3': 99, 'rot2': 79, 'state': 'normal', 'yaw': 6.03, 'datetime': '2018-10-09 12:36:45.320768', 'mgs': 0, 'volt': 1.0889, 'depth': 4.514, 'time': 13, 'pitch': 28.64, 'roll': -6.13, 'pres': 223}
{'lipoC2': 7.48, 'lipoC3S1': 4.01, 'temp': 30.63, 'lipoC3S3': 12.31, 'lipoC3S2': 8.14, 'rot1': 76, 'rot0': 82, 'rot3': 99, 'rot2': 79, 'state': 'normal', 'yaw': 5.91, 'datetime': '2018-10-09 12:36:45.425202', 'mgs': 0, 'volt': 1.0889, 'depth': 4.514, 'time': 13, 'pitch': 28.53, 'roll': -6.18, 'pres': 223}
{'lipoC2': 7.47, 'lipoC3S1': 4.08, 'temp': 30.63, 'lipoC3S3': 12.31, 'lipoC3S2': 8.13, 'rot1': 77, 'rot0': 83, 'rot3': 100, 'rot2': 80, 'state': 'normal', 'yaw': 5.69, 'datetime': '2018-10-09 12:36:45.529320', 'mgs': 0, 'volt': 1.1523, 'depth': 5.505, 'time': 13, 'pitch': 28.47, 'roll': -6.29, 'pres': 236}
