{'lipoC2': 7.34, 'lipoC3S1': 3.85, 'temp': 31.0, 'lipoC3S3': 11.64, 'lipoC3S2': 7.71, 'rot1': 1886, 'rot0': 1857, 'rot3': 833, 'rot2': 762, 'state': 'normal', 'yaw': 90.33, 'datetime': '2018-10-09 13:44:01.741762', 'mgs': 0, 'volt': 0.7813, 'depth': -0.293, 'time': 282, 'pitch': 23.74, 'roll': -31.3, 'pres': 160}
{'lipoC2': 7.34, 'lipoC3S1': 3.85, 'temp': 31.0, 'lipoC3S3': 11.64, 'lipoC3S2': 7.71, 'rot1': 1886, 'rot0': 1857, 'rot3': 833, 'rot2': 762, 'state': 'normal', 'yaw': 90.31, 'datetime': '2018-10-09 13:44:01.765804', 'mgs': 0, 'volt': 0.7813, 'depth': -0.293, 'time': 282, 'pitch': 23.77, 'roll': -31.34, 'pres': 160}
{'lipoC2': 7.34, 'lipoC3S1': 3.85, 'temp': 31.0, 'lipoC3S3': 11.64, 'lipoC3S2': 7.71, 'rot1': 1886, 'rot0': 1857, 'rot3': 833, 'rot2': 762, 'state': 'normal', 'yaw': 90.34, 'datetime': '2018-10-09 13:44:01.789951', 'mgs': 0, 'volt': 0.7813, 'depth': -0.293, 'time': 282, 'pitch': 23.73, 'roll': -31.35, 'pres': 160}
{'lipoC2': 7.34, 'lipoC3S1': 3.85, 'temp': 31.0, 'lipoC3S3': 11.64, 'lipoC3S2': 7.71, 'rot1': 1886, 'rot0': 1857, 'rot3': 833, 'rot2': 762, 'state': 'normal', 'yaw': 90.33, 'datetime': '2018-10-09 13:44:01.814002', 'mgs': 0, 'volt': 0.7813, 'depth': -0.293, 'time': 282, 'pitch': 23.73, 'roll': -31.39, 'pres': 160}
{'lipoC2': 7.34, 'lipoC3S1': 3.85, 'temp': 31.0, 'lipoC3S3': 11.64, 'lipoC3S2': 7.71, 'rot1': 1886, 'rot0': 1857, 'rot3': 833, 'rot2': 762, 'state': 'normal', 'yaw': 90.33, 'datetime': '2018-10-09 13:44:01.835995', 'mgs': 0, 'volt': 0.7813, 'depth': -0.293, 'time': 282, 'pitch': 23.74, 'roll': -31.41, 'pres': 160}
{'lipoC2': 7.34, 'lipoC3S1': 3.85, 'temp': 31.0, 'lipoC3S3': 11.64, 'lipoC3S2': 7.71, 'rot1': 1886, 'rot0': 1857, 'rot3': 833, 'rot2': 762, 'state': 'normal', 'yaw': 90.34, 'datetime': '2018-10-09 13:44:01.846438', 'mgs': 0, 'volt': 0.7813, 'depth': -0.293, 'time': 283, 'pitch': 23.73, 'roll': -31.44, 'pres': 160}
{'lipoC2': 7.34, 'lipoC3S1': 3.85, 'temp': 31.0, 'lipoC3S3': 11.64, 'lipoC3S2': 7.71, 'rot1': 1886, 'rot0': 1857, 'rot3': 833, 'rot2': 762, 'state': 'normal', 'yaw': 90.34, 'datetime': '2018-10-09 13:44:01.856837', 'mgs': 0, 'volt': 0.7813, 'depth': -0.293, 'time': 283, 'pitch': 23.73, 'roll': -31.44, 'pres': 160}
{'lipoC2': 7.35, 'lipoC3S1': 3.85, 'temp': 30.94, 'lipoC3S3': 11.64, 'lipoC3S2': 7.71, 'rot1': 1886, 'rot0': 1857, 'rot3': 833, 'rot2': 762, 'state': 'normal', 'yaw': 90.34, 'datetime': '2018-10-09 13:44:01.867309', 'mgs': 0, 'volt': 0.7813, 'depth': -0.293, 'time': 283, 'pitch': 23.73, 'roll': -31.46, 'pres': 160}
{'lipoC2': 7.35, 'lipoC3S1': 3.85, 'temp': 30.94, 'lipoC3S3': 11.64, 'lipoC3S2': 7.71, 'rot1': 1886, 'rot0': 1857, 'rot3': 833, 'rot2': 762, 'state': 'normal', 'yaw': 90.34, 'datetime': '2018-10-09 13:44:01.877840', 'mgs': 0, 'volt': 0.7813, 'depth': -0.293, 'time': 283, 'pitch': 23.72, 'roll': -31.47, 'pres': 160}
{'lipoC2': 7.35, 'lipoC3S1': 3.85, 'temp': 30.94, 'lipoC3S3': 11.64, 'lipoC3S2': 7.71, 'rot1': 1886, 'rot0': 1857, 'rot3': 833, 'rot2': 762, 'state': 'normal', 'yaw': 90.35, 'datetime': '2018-10-09 13:44:01.888321', 'mgs': 0, 'volt': 0.7813, 'depth': -0.293, 'time': 283, 'pitch': 23.72, 'roll': -31.52, 'pres': 160}
{'lipoC2': 7.34, 'lipoC3S1': 3.85, 'temp': 31.0, 'lipoC3S3': 11.64, 'lipoC3S2': 7.7, 'rot1': 1886, 'rot0': 1857, 'rot3': 833, 'rot2': 762, 'state': 'normal', 'yaw': 90.35, 'datetime': '2018-10-09 13:44:01.898749', 'mgs': 0, 'volt': 0.7813, 'depth': -0.293, 'time': 283, 'pitch': 23.72, 'roll': -31.52, 'pres': 160}
{'lipoC2': 7.34, 'lipoC3S1': 3.85, 'temp': 31.0, 'lipoC3S3': 11.64, 'lipoC3S2': 7.71, 'rot1': 1886, 'rot0': 1857, 'rot3': 833, 'rot2': 762, 'state': 'normal', 'yaw': 90.34, 'datetime': '2018-10-09 13:44:01.909147', 'mgs': 0, 'volt': 0.7813, 'depth': -0.293, 'time': 283, 'pitch': 23.73, 'roll': -31.55, 'pres': 160}
{'lipoC2': 7.34, 'lipoC3S1': 3.85, 'temp': 31.0, 'lipoC3S3': 11.64, 'lipoC3S2': 7.7, 'rot1': 1886, 'rot0': 1857, 'rot3': 833, 'rot2': 762, 'state': 'normal', 'yaw': 90.34, 'datetime': '2018-10-09 13:44:01.919564', 'mgs': 0, 'volt': 0.7813, 'depth': -0.293, 'time': 283, 'pitch': 23.73, 'roll': -31.57, 'pres': 160}
{'lipoC2': 7.34, 'lipoC3S1': 3.85, 'temp': 31.0, 'lipoC3S3': 11.64, 'lipoC3S2': 7.7, 'rot1': 1886, 'rot0': 1857, 'rot3': 833, 'rot2': 762, 'state': 'normal', 'yaw': 90.34, 'datetime': '2018-10-09 13:44:01.930330', 'mgs': 0, 'volt': 0.7813, 'depth': -0.293, 'time': 283, 'pitch': 23.73, 'roll': -31.59, 'pres': 160}
{'lipoC2': 7.34, 'lipoC3S1': 3.85, 'temp': 31.0, 'lipoC3S3': 11.64, 'lipoC3S2': 7.7, 'rot1': 1886, 'rot0': 1857, 'rot3': 833, 'rot2': 762, 'state': 'normal', 'yaw': 90.34, 'datetime': '2018-10-09 13:44:01.940821', 'mgs': 0, 'volt': 0.7813, 'depth': -0.293, 'time': 283, 'pitch': 23.72, 'roll': -31.59, 'pres': 160}
{'lipoC2': 7.34, 'lipoC3S1': 3.85, 'temp': 31.0, 'lipoC3S3': 11.64, 'lipoC3S2': 7.7, 'rot1': 1886, 'rot0': 1857, 'rot3': 833, 'rot2': 762, 'state': 'normal', 'yaw': 90.34, 'datetime': '2018-10-09 13:44:01.951333', 'mgs': 0, 'volt': 0.7813, 'depth': -0.293, 'time': 284, 'pitch': 23.72, 'roll': -31.62, 'pres': 160}
{'lipoC2': 7.34, 'lipoC3S1': 3.85, 'temp': 31.0, 'lipoC3S3': 11.64, 'lipoC3S2': 7.7, 'rot1': 1886, 'rot0': 1857, 'rot3': 833, 'rot2': 762, 'state': 'normal', 'yaw': 90.35, 'datetime': '2018-10-09 13:44:01.961748', 'mgs': 0, 'volt': 0.7813, 'depth': -0.293, 'time': 284, 'pitch': 23.73, 'roll': -31.65, 'pres': 160}
{'lipoC2': 7.34, 'lipoC3S1': 3.85, 'temp': 31.0, 'lipoC3S3': 11.64, 'lipoC3S2': 7.7, 'rot1': 1886, 'rot0': 1857, 'rot3': 833, 'rot2': 762, 'state': 'normal', 'yaw': 90.35, 'datetime': '2018-10-09 13:44:01.972200', 'mgs': 0, 'volt': 0.7813, 'depth': -0.293, 'time': 284, 'pitch': 23.73, 'roll': -31.66, 'pres': 160}
{'lipoC2': 7.34, 'lipoC3S1': 3.85, 'temp': 31.0, 'lipoC3S3': 11.64, 'lipoC3S2': 7.7, 'rot1': 1886, 'rot0': 1857, 'rot3': 833, 'rot2': 762, 'state': 'normal', 'yaw': 90.34, 'datetime': '2018-10-09 13:44:01.982615', 'mgs': 0, 'volt': 0.7813, 'depth': -0.293, 'time': 284, 'pitch': 23.72, 'roll': -31.7, 'pres': 160}
{'lipoC2': 7.34, 'lipoC3S1': 3.85, 'temp': 30.94, 'lipoC3S3': 11.64, 'lipoC3S2': 7.7, 'rot1': 1886, 'rot0': 1857, 'rot3': 833, 'rot2': 762, 'state': 'normal', 'yaw': 90.35, 'datetime': '2018-10-09 13:44:01.993012', 'mgs': 0, 'volt': 0.7813, 'depth': -0.293, 'time': 284, 'pitch': 23.72, 'roll': -31.71, 'pres': 160}
{'lipoC2': 7.34, 'lipoC3S1': 3.85, 'temp': 30.94, 'lipoC3S3': 11.64, 'lipoC3S2': 7.7, 'rot1': 1886, 'rot0': 1857, 'rot3': 833, 'rot2': 762, 'state': 'normal', 'yaw': 90.34, 'datetime': '2018-10-09 13:44:02.003426', 'mgs': 0, 'volt': 0.7813, 'depth': -0.293, 'time': 284, 'pitch': 23.72, 'roll': -31.73, 'pres': 160}
{'lipoC2': 7.34, 'lipoC3S1': 3.85, 'temp': 30.94, 'lipoC3S3': 11.64, 'lipoC3S2': 7.7, 'rot1': 1886, 'rot0': 1857, 'rot3': 833, 'rot2': 762, 'state': 'normal', 'yaw': 90.34, 'datetime': '2018-10-09 13:44:02.013829', 'mgs': 0, 'volt': 0.7813, 'depth': -0.293, 'time': 284, 'pitch': 23.73, 'roll': -31.75, 'pres': 160}
{'lipoC2': 7.34, 'lipoC3S1': 3.85, 'temp': 30.94, 'lipoC3S3': 11.64, 'lipoC3S2': 7.7, 'rot1': 1886, 'rot0': 1857, 'rot3': 833, 'rot2': 762, 'state': 'normal', 'yaw': 90.34, 'datetime': '2018-10-09 13:44:02.024243', 'mgs': 0, 'volt': 0.7813, 'depth': -0.293, 'time': 284, 'pitch': 23.72, 'roll': -31.76, 'pres': 160}
{'lipoC2': 7.34, 'lipoC3S1': 3.85, 'temp': 31.0, 'lipoC3S3': 11.64, 'lipoC3S2': 7.71, 'rot1': 1886, 'rot0': 1857, 'rot3': 833, 'rot2': 762, 'state': 'normal', 'yaw': 90.34, 'datetime': '2018-10-09 13:44:02.034676', 'mgs': 0, 'volt': 0.7813, 'depth': -0.293, 'time': 284, 'pitch': 23.73, 'roll': -31.78, 'pres': 160}
{'lipoC2': 7.34, 'lipoC3S1': 3.85, 'temp': 31.0, 'lipoC3S3': 11.64, 'lipoC3S2': 7.7, 'rot1': 1886, 'rot0': 1857, 'rot3': 833, 'rot2': 762, 'state': 'normal', 'yaw': 90.34, 'datetime': '2018-10-09 13:44:02.045128', 'mgs': 0, 'volt': 0.7813, 'depth': -0.293, 'time': 285, 'pitch': 23.72, 'roll': -31.78, 'pres': 160}
{'lipoC2': 7.34, 'lipoC3S1': 3.85, 'temp': 31.0, 'lipoC3S3': 11.64, 'lipoC3S2': 7.7, 'rot1': 1886, 'rot0': 1857, 'rot3': 833, 'rot2': 762, 'state': 'normal', 'yaw': 90.34, 'datetime': '2018-10-09 13:44:02.055374', 'mgs': 0, 'volt': 0.7813, 'depth': -0.293, 'time': 285, 'pitch': 23.72, 'roll': -31.78, 'pres': 160}
{'lipoC2': 7.34, 'lipoC3S1': 3.85, 'temp': 31.0, 'lipoC3S3': 11.64, 'lipoC3S2': 7.7, 'rot1': 1886, 'rot0': 1857, 'rot3': 833, 'rot2': 762, 'state': 'normal', 'yaw': 90.34, 'datetime': '2018-10-09 13:44:02.065453', 'mgs': 0, 'volt': 0.7813, 'depth': -0.293, 'time': 285, 'pitch': 23.72, 'roll': -31.79, 'pres': 160}
{'lipoC2': 7.34, 'lipoC3S1': 3.85, 'temp': 31.0, 'lipoC3S3': 11.64, 'lipoC3S2': 7.7, 'rot1': 1886, 'rot0': 1857, 'rot3': 833, 'rot2': 762, 'state': 'normal', 'yaw': 90.35, 'datetime': '2018-10-09 13:44:02.075345', 'mgs': 0, 'volt': 0.7813, 'depth': -0.293, 'time': 285, 'pitch': 23.72, 'roll': -31.8, 'pres': 160}
{'lipoC2': 7.34, 'lipoC3S1': 3.85, 'temp': 31.0, 'lipoC3S3': 11.64, 'lipoC3S2': 7.7, 'rot1': 1886, 'rot0': 1857, 'rot3': 833, 'rot2': 762, 'state': 'normal', 'yaw': 90.35, 'datetime': '2018-10-09 13:44:02.085178', 'mgs': 0, 'volt': 0.7813, 'depth': -0.293, 'time': 285, 'pitch': 23.73, 'roll': -31.83, 'pres': 160}
{'lipoC2': 7.34, 'lipoC3S1': 3.85, 'temp': 31.0, 'lipoC3S3': 11.64, 'lipoC3S2': 7.7, 'rot1': 1886, 'rot0': 1857, 'rot3': 833, 'rot2': 762, 'state': 'normal', 'yaw': 90.35, 'datetime': '2018-10-09 13:44:02.095010', 'mgs': 0, 'volt': 0.7813, 'depth': -0.293, 'time': 285, 'pitch': 23.73, 'roll': -31.83, 'pres': 160}
{'lipoC2': 7.34, 'lipoC3S1': 3.85, 'temp': 30.94, 'lipoC3S3': 11.64, 'lipoC3S2': 7.7, 'rot1': 1886, 'rot0': 1857, 'rot3': 833, 'rot2': 762, 'state': 'normal', 'yaw': 90.34, 'datetime': '2018-10-09 13:44:02.104869', 'mgs': 0, 'volt': 0.7813, 'depth': -0.293, 'time': 285, 'pitch': 23.73, 'roll': -31.87, 'pres': 160}
{'lipoC2': 7.34, 'lipoC3S1': 3.85, 'temp': 30.94, 'lipoC3S3': 11.64, 'lipoC3S2': 7.7, 'rot1': 1886, 'rot0': 1857, 'rot3': 833, 'rot2': 762, 'state': 'normal', 'yaw': 90.34, 'datetime': '2018-10-09 13:44:02.114657', 'mgs': 0, 'volt': 0.7813, 'depth': -0.293, 'time': 285, 'pitch': 23.73, 'roll': -31.87, 'pres': 160}
{'lipoC2': 7.34, 'lipoC3S1': 3.85, 'temp': 30.94, 'lipoC3S3': 11.64, 'lipoC3S2': 7.7, 'rot1': 1886, 'rot0': 1857, 'rot3': 833, 'rot2': 762, 'state': 'normal', 'yaw': 90.34, 'datetime': '2018-10-09 13:44:02.124494', 'mgs': 0, 'volt': 0.7813, 'depth': -0.293, 'time': 285, 'pitch': 23.72, 'roll': -31.91, 'pres': 160}
{'lipoC2': 7.34, 'lipoC3S1': 3.85, 'temp': 30.94, 'lipoC3S3': 11.64, 'lipoC3S2': 7.7, 'rot1': 1886, 'rot0': 1857, 'rot3': 833, 'rot2': 762, 'state': 'normal', 'yaw': 90.34, 'datetime': '2018-10-09 13:44:02.134318', 'mgs': 0, 'volt': 0.7813, 'depth': -0.293, 'time': 285, 'pitch': 23.72, 'roll': -31.94, 'pres': 160}
{'lipoC2': 7.34, 'lipoC3S1': 3.85, 'temp': 30.94, 'lipoC3S3': 11.64, 'lipoC3S2': 7.7, 'rot1': 1886, 'rot0': 1857, 'rot3': 833, 'rot2': 762, 'state': 'normal', 'yaw': 90.35, 'datetime': '2018-10-09 13:44:02.144135', 'mgs': 0, 'volt': 0.7813, 'depth': -0.293, 'time': 286, 'pitch': 23.73, 'roll': -31.96, 'pres': 160}
{'lipoC2': 7.34, 'lipoC3S1': 3.85, 'temp': 31.0, 'lipoC3S3': 11.64, 'lipoC3S2': 7.7, 'rot1': 1886, 'rot0': 1857, 'rot3': 833, 'rot2': 762, 'state': 'normal', 'yaw': 90.35, 'datetime': '2018-10-09 13:44:02.153960', 'mgs': 0, 'volt': 0.7813, 'depth': -0.293, 'time': 286, 'pitch': 23.72, 'roll': -31.96, 'pres': 160}
{'lipoC2': 7.34, 'lipoC3S1': 3.85, 'temp': 31.0, 'lipoC3S3': 11.64, 'lipoC3S2': 7.7, 'rot1': 1886, 'rot0': 1857, 'rot3': 833, 'rot2': 762, 'state': 'normal', 'yaw': 90.35, 'datetime': '2018-10-09 13:44:02.163811', 'mgs': 0, 'volt': 0.7813, 'depth': -0.293, 'time': 286, 'pitch': 23.72, 'roll': -31.99, 'pres': 160}
{'lipoC2': 7.34, 'lipoC3S1': 3.85, 'temp': 30.94, 'lipoC3S3': 11.64, 'lipoC3S2': 7.7, 'rot1': 1886, 'rot0': 1857, 'rot3': 833, 'rot2': 762, 'state': 'normal', 'yaw': 90.35, 'datetime': '2018-10-09 13:44:02.173647', 'mgs': 0, 'volt': 0.7813, 'depth': -0.293, 'time': 286, 'pitch': 23.72, 'roll': -31.99, 'pres': 160}
{'lipoC2': 7.34, 'lipoC3S1': 3.85, 'temp': 30.94, 'lipoC3S3': 11.64, 'lipoC3S2': 7.7, 'rot1': 1886, 'rot0': 1857, 'rot3': 833, 'rot2': 762, 'state': 'normal', 'yaw': 90.35, 'datetime': '2018-10-09 13:44:02.183504', 'mgs': 0, 'volt': 0.7813, 'depth': -0.293, 'time': 286, 'pitch': 23.73, 'roll': -32.0, 'pres': 160}
{'lipoC2': 7.34, 'lipoC3S1': 3.85, 'temp': 30.94, 'lipoC3S3': 11.64, 'lipoC3S2': 7.7, 'rot1': 1886, 'rot0': 1857, 'rot3': 833, 'rot2': 762, 'state': 'normal', 'yaw': 90.34, 'datetime': '2018-10-09 13:44:02.193507', 'mgs': 0, 'volt': 0.7813, 'depth': -0.293, 'time': 286, 'pitch': 23.72, 'roll': -32.02, 'pres': 160}
{'lipoC2': 7.33, 'lipoC3S1': 3.85, 'temp': 30.94, 'lipoC3S3': 11.64, 'lipoC3S2': 7.7, 'rot1': 1886, 'rot0': 1857, 'rot3': 833, 'rot2': 762, 'state': 'normal', 'yaw': 90.34, 'datetime': '2018-10-09 13:44:02.203380', 'mgs': 0, 'volt': 0.7813, 'depth': -0.293, 'time': 286, 'pitch': 23.72, 'roll': -32.03, 'pres': 160}
{'lipoC2': 7.33, 'lipoC3S1': 3.85, 'temp': 30.94, 'lipoC3S3': 11.64, 'lipoC3S2': 7.7, 'rot1': 1886, 'rot0': 1857, 'rot3': 833, 'rot2': 762, 'state': 'normal', 'yaw': 90.34, 'datetime': '2018-10-09 13:44:02.213241', 'mgs': 0, 'volt': 0.7813, 'depth': -0.293, 'time': 286, 'pitch': 23.72, 'roll': -32.04, 'pres': 160}
{'lipoC2': 7.34, 'lipoC3S1': 3.85, 'temp': 30.88, 'lipoC3S3': 11.64, 'lipoC3S2': 7.7, 'rot1': 1886, 'rot0': 1857, 'rot3': 833, 'rot2': 762, 'state': 'normal', 'yaw': 90.34, 'datetime': '2018-10-09 13:44:02.223134', 'mgs': 0, 'volt': 0.7813, 'depth': -0.293, 'time': 286, 'pitch': 23.72, 'roll': -32.04, 'pres': 160}
{'lipoC2': 7.34, 'lipoC3S1': 3.85, 'temp': 30.88, 'lipoC3S3': 11.64, 'lipoC3S2': 7.7, 'rot1': 1886, 'rot0': 1857, 'rot3': 833, 'rot2': 762, 'state': 'normal', 'yaw': 90.34, 'datetime': '2018-10-09 13:44:02.286626', 'mgs': 0, 'volt': 0.7813, 'depth': -0.293, 'time': 287, 'pitch': 23.72, 'roll': -32.05, 'pres': 160}
{'lipoC2': 7.34, 'lipoC3S1': 3.85, 'temp': 30.94, 'lipoC3S3': 11.64, 'lipoC3S2': 7.7, 'rot1': 1886, 'rot0': 1857, 'rot3': 833, 'rot2': 762, 'state': 'normal', 'yaw': 90.34, 'datetime': '2018-10-09 13:44:02.391258', 'mgs': 0, 'volt': 0.7813, 'depth': -0.293, 'time': 287, 'pitch': 23.72, 'roll': -32.05, 'pres': 160}
{'lipoC2': 7.34, 'lipoC3S1': 3.85, 'temp': 30.94, 'lipoC3S3': 11.64, 'lipoC3S2': 7.7, 'rot1': 1886, 'rot0': 1857, 'rot3': 833, 'rot2': 762, 'state': 'normal', 'yaw': 90.34, 'datetime': '2018-10-09 13:44:02.497092', 'mgs': 0, 'volt': 0.7813, 'depth': -0.293, 'time': 287, 'pitch': 23.72, 'roll': -32.07, 'pres': 160}
{'lipoC2': 7.34, 'lipoC3S1': 3.85, 'temp': 30.94, 'lipoC3S3': 11.64, 'lipoC3S2': 7.71, 'rot1': 1886, 'rot0': 1857, 'rot3': 833, 'rot2': 762, 'state': 'normal', 'yaw': 90.34, 'datetime': '2018-10-09 13:44:02.601683', 'mgs': 0, 'volt': 0.7764, 'depth': -0.369, 'time': 287, 'pitch': 23.72, 'roll': -32.07, 'pres': 159}
{'lipoC2': 7.34, 'lipoC3S1': 3.85, 'temp': 30.94, 'lipoC3S3': 11.64, 'lipoC3S2': 7.7, 'rot1': 1886, 'rot0': 1857, 'rot3': 833, 'rot2': 762, 'state': 'normal', 'yaw': 90.34, 'datetime': '2018-10-09 13:44:02.707546', 'mgs': 0, 'volt': 0.7813, 'depth': -0.293, 'time': 287, 'pitch': 23.72, 'roll': -32.07, 'pres': 160}
{'lipoC2': 7.34, 'lipoC3S1': 3.85, 'temp': 30.94, 'lipoC3S3': 11.64, 'lipoC3S2': 7.7, 'rot1': 1886, 'rot0': 1857, 'rot3': 833, 'rot2': 762, 'state': 'normal', 'yaw': 90.34, 'datetime': '2018-10-09 13:44:02.812137', 'mgs': 0, 'volt': 0.7813, 'depth': -0.293, 'time': 287, 'pitch': 23.72, 'roll': -32.07, 'pres': 160}
{'lipoC2': 7.34, 'lipoC3S1': 3.85, 'temp': 31.0, 'lipoC3S3': 11.64, 'lipoC3S2': 7.7, 'rot1': 1886, 'rot0': 1857, 'rot3': 833, 'rot2': 762, 'state': 'normal', 'yaw': 90.34, 'datetime': '2018-10-09 13:44:02.917947', 'mgs': 0, 'volt': 0.7813, 'depth': -0.293, 'time': 287, 'pitch': 23.72, 'roll': -32.07, 'pres': 160}
{'lipoC2': 7.34, 'lipoC3S1': 3.85, 'temp': 31.0, 'lipoC3S3': 11.64, 'lipoC3S2': 7.71, 'rot1': 1886, 'rot0': 1857, 'rot3': 833, 'rot2': 762, 'state': 'normal', 'yaw': 90.34, 'datetime': '2018-10-09 13:44:03.022570', 'mgs': 0, 'volt': 0.7813, 'depth': -0.293, 'time': 287, 'pitch': 23.72, 'roll': -32.08, 'pres': 160}
{'lipoC2': 7.34, 'lipoC3S1': 3.85, 'temp': 30.94, 'lipoC3S3': 11.64, 'lipoC3S2': 7.71, 'rot1': 1886, 'rot0': 1857, 'rot3': 833, 'rot2': 762, 'state': 'normal', 'yaw': 90.34, 'datetime': '2018-10-09 13:44:03.128493', 'mgs': 0, 'volt': 0.7813, 'depth': -0.293, 'time': 287, 'pitch': 23.72, 'roll': -32.08, 'pres': 160}
{'lipoC2': 7.34, 'lipoC3S1': 3.85, 'temp': 30.94, 'lipoC3S3': 11.64, 'lipoC3S2': 7.7, 'rot1': 1886, 'rot0': 1857, 'rot3': 833, 'rot2': 762, 'state': 'normal', 'yaw': 90.34, 'datetime': '2018-10-09 13:44:03.233120', 'mgs': 0, 'volt': 0.7813, 'depth': -0.293, 'time': 287, 'pitch': 23.72, 'roll': -32.08, 'pres': 160}
{'lipoC2': 7.34, 'lipoC3S1': 3.85, 'temp': 30.88, 'lipoC3S3': 11.64, 'lipoC3S2': 7.71, 'rot1': 1886, 'rot0': 1857, 'rot3': 833, 'rot2': 762, 'state': 'normal', 'yaw': 90.34, 'datetime': '2018-10-09 13:44:03.339858', 'mgs': 0, 'volt': 0.7813, 'depth': -0.293, 'time': 288, 'pitch': 23.72, 'roll': -32.08, 'pres': 160}
{'lipoC2': 7.34, 'lipoC3S1': 3.85, 'temp': 30.88, 'lipoC3S3': 11.64, 'lipoC3S2': 7.7, 'rot1': 1886, 'rot0': 1857, 'rot3': 833, 'rot2': 762, 'state': 'normal', 'yaw': 90.34, 'datetime': '2018-10-09 13:44:03.444476', 'mgs': 0, 'volt': 0.7813, 'depth': -0.293, 'time': 288, 'pitch': 23.72, 'roll': -32.09, 'pres': 160}
{'lipoC2': 7.34, 'lipoC3S1': 3.85, 'temp': 30.88, 'lipoC3S3': 11.64, 'lipoC3S2': 7.7, 'rot1': 1886, 'rot0': 1857, 'rot3': 833, 'rot2': 762, 'state': 'normal', 'yaw': 90.34, 'datetime': '2018-10-09 13:44:03.555850', 'mgs': 0, 'volt': 0.7813, 'depth': -0.293, 'time': 288, 'pitch': 23.73, 'roll': -32.1, 'pres': 160}
{'lipoC2': 7.34, 'lipoC3S1': 3.85, 'temp': 31.0, 'lipoC3S3': 11.64, 'lipoC3S2': 7.7, 'rot1': 1886, 'rot0': 1857, 'rot3': 833, 'rot2': 762, 'state': 'normal', 'yaw': 90.35, 'datetime': '2018-10-09 13:44:03.660983', 'mgs': 0, 'volt': 0.7813, 'depth': -0.293, 'time': 288, 'pitch': 23.72, 'roll': -32.1, 'pres': 160}
{'lipoC2': 7.34, 'lipoC3S1': 3.85, 'temp': 31.0, 'lipoC3S3': 11.64, 'lipoC3S2': 7.7, 'rot1': 1886, 'rot0': 1857, 'rot3': 833, 'rot2': 762, 'state': 'normal', 'yaw': 90.35, 'datetime': '2018-10-09 13:44:03.766757', 'mgs': 0, 'volt': 0.7813, 'depth': -0.293, 'time': 288, 'pitch': 23.72, 'roll': -32.1, 'pres': 160}
{'lipoC2': 7.34, 'lipoC3S1': 3.85, 'temp': 30.94, 'lipoC3S3': 11.64, 'lipoC3S2': 7.7, 'rot1': 1886, 'rot0': 1857, 'rot3': 833, 'rot2': 762, 'state': 'normal', 'yaw': 90.35, 'datetime': '2018-10-09 13:44:03.871359', 'mgs': 0, 'volt': 0.7813, 'depth': -0.293, 'time': 288, 'pitch': 23.73, 'roll': -32.13, 'pres': 160}
{'lipoC2': 7.34, 'lipoC3S1': 3.85, 'temp': 30.94, 'lipoC3S3': 11.64, 'lipoC3S2': 7.7, 'rot1': 1886, 'rot0': 1857, 'rot3': 833, 'rot2': 762, 'state': 'normal', 'yaw': 90.35, 'datetime': '2018-10-09 13:44:03.977260', 'mgs': 0, 'volt': 0.7813, 'depth': -0.293, 'time': 288, 'pitch': 23.72, 'roll': -32.13, 'pres': 160}
{'lipoC2': 7.34, 'lipoC3S1': 3.85, 'temp': 31.0, 'lipoC3S3': 11.64, 'lipoC3S2': 7.7, 'rot1': 1886, 'rot0': 1857, 'rot3': 833, 'rot2': 762, 'state': 'normal', 'yaw': 90.35, 'datetime': '2018-10-09 13:44:04.081906', 'mgs': 0, 'volt': 0.7813, 'depth': -0.293, 'time': 288, 'pitch': 23.72, 'roll': -32.17, 'pres': 160}
{'lipoC2': 7.34, 'lipoC3S1': 3.85, 'temp': 31.0, 'lipoC3S3': 11.64, 'lipoC3S2': 7.7, 'rot1': 1886, 'rot0': 1857, 'rot3': 833, 'rot2': 762, 'state': 'normal', 'yaw': 90.35, 'datetime': '2018-10-09 13:44:04.187981', 'mgs': 0, 'volt': 0.7813, 'depth': -0.293, 'time': 288, 'pitch': 23.73, 'roll': -32.18, 'pres': 160}
{'lipoC2': 7.34, 'lipoC3S1': 3.85, 'temp': 31.0, 'lipoC3S3': 11.64, 'lipoC3S2': 7.7, 'rot1': 1886, 'rot0': 1857, 'rot3': 833, 'rot2': 762, 'state': 'normal', 'yaw': 90.35, 'datetime': '2018-10-09 13:44:04.292351', 'mgs': 0, 'volt': 0.7813, 'depth': -0.293, 'time': 289, 'pitch': 23.73, 'roll': -32.18, 'pres': 160}
{'lipoC2': 7.34, 'lipoC3S1': 3.85, 'temp': 30.94, 'lipoC3S3': 11.64, 'lipoC3S2': 7.7, 'rot1': 1886, 'rot0': 1857, 'rot3': 833, 'rot2': 762, 'state': 'normal', 'yaw': 90.34, 'datetime': '2018-10-09 13:44:04.398473', 'mgs': 0, 'volt': 0.7813, 'depth': -0.293, 'time': 289, 'pitch': 23.72, 'roll': -32.18, 'pres': 160}
{'lipoC2': 7.34, 'lipoC3S1': 3.85, 'temp': 30.94, 'lipoC3S3': 11.64, 'lipoC3S2': 7.7, 'rot1': 1886, 'rot0': 1857, 'rot3': 833, 'rot2': 762, 'state': 'normal', 'yaw': 90.34, 'datetime': '2018-10-09 13:44:04.502860', 'mgs': 0, 'volt': 0.7813, 'depth': -0.293, 'time': 289, 'pitch': 23.72, 'roll': -32.19, 'pres': 160}
{'lipoC2': 7.34, 'lipoC3S1': 3.85, 'temp': 30.94, 'lipoC3S3': 11.64, 'lipoC3S2': 7.7, 'rot1': 1886, 'rot0': 1857, 'rot3': 833, 'rot2': 762, 'state': 'normal', 'yaw': 90.34, 'datetime': '2018-10-09 13:44:04.608803', 'mgs': 0, 'volt': 0.7813, 'depth': -0.293, 'time': 289, 'pitch': 23.72, 'roll': -32.2, 'pres': 160}
{'lipoC2': 7.34, 'lipoC3S1': 3.85, 'temp': 30.94, 'lipoC3S3': 11.64, 'lipoC3S2': 7.7, 'rot1': 1886, 'rot0': 1857, 'rot3': 833, 'rot2': 762, 'state': 'normal', 'yaw': 90.34, 'datetime': '2018-10-09 13:44:04.707307', 'mgs': 0, 'volt': 0.7813, 'depth': -0.293, 'time': 289, 'pitch': 23.73, 'roll': -32.22, 'pres': 160}
{'lipoC2': 7.34, 'lipoC3S1': 3.85, 'temp': 30.94, 'lipoC3S3': 11.64, 'lipoC3S2': 7.71, 'rot1': 1886, 'rot0': 1857, 'rot3': 833, 'rot2': 762, 'state': 'normal', 'yaw': 90.34, 'datetime': '2018-10-09 13:44:04.813162', 'mgs': 0, 'volt': 0.7813, 'depth': -0.293, 'time': 289, 'pitch': 23.72, 'roll': -32.23, 'pres': 160}
{'lipoC2': 7.34, 'lipoC3S1': 3.85, 'temp': 30.94, 'lipoC3S3': 11.64, 'lipoC3S2': 7.7, 'rot1': 1886, 'rot0': 1857, 'rot3': 833, 'rot2': 762, 'state': 'normal', 'yaw': 90.34, 'datetime': '2018-10-09 13:44:04.917762', 'mgs': 0, 'volt': 0.7813, 'depth': -0.293, 'time': 289, 'pitch': 23.72, 'roll': -32.23, 'pres': 160}
{'lipoC2': 7.34, 'lipoC3S1': 3.85, 'temp': 30.94, 'lipoC3S3': 11.64, 'lipoC3S2': 7.7, 'rot1': 1886, 'rot0': 1857, 'rot3': 833, 'rot2': 762, 'state': 'normal', 'yaw': 90.34, 'datetime': '2018-10-09 13:44:05.023575', 'mgs': 0, 'volt': 0.7813, 'depth': -0.293, 'time': 289, 'pitch': 23.72, 'roll': -32.25, 'pres': 160}
{'lipoC2': 7.34, 'lipoC3S1': 3.85, 'temp': 30.94, 'lipoC3S3': 11.64, 'lipoC3S2': 7.7, 'rot1': 1886, 'rot0': 1857, 'rot3': 833, 'rot2': 762, 'state': 'normal', 'yaw': 90.34, 'datetime': '2018-10-09 13:44:05.128208', 'mgs': 0, 'volt': 0.7813, 'depth': -0.293, 'time': 289, 'pitch': 23.72, 'roll': -32.25, 'pres': 160}
{'lipoC2': 7.34, 'lipoC3S1': 3.85, 'temp': 30.94, 'lipoC3S3': 11.64, 'lipoC3S2': 7.7, 'rot1': 1886, 'rot0': 1857, 'rot3': 833, 'rot2': 762, 'state': 'normal', 'yaw': 90.34, 'datetime': '2018-10-09 13:44:05.234134', 'mgs': 0, 'volt': 0.7813, 'depth': -0.293, 'time': 289, 'pitch': 23.72, 'roll': -32.25, 'pres': 160}
{'lipoC2': 7.34, 'lipoC3S1': 3.85, 'temp': 30.94, 'lipoC3S3': 11.64, 'lipoC3S2': 7.7, 'rot1': 1886, 'rot0': 1857, 'rot3': 833, 'rot2': 762, 'state': 'normal', 'yaw': 90.34, 'datetime': '2018-10-09 13:44:05.338790', 'mgs': 0, 'volt': 0.7813, 'depth': -0.293, 'time': 290, 'pitch': 23.72, 'roll': -32.26, 'pres': 160}
{'lipoC2': 7.34, 'lipoC3S1': 3.85, 'temp': 30.94, 'lipoC3S3': 11.64, 'lipoC3S2': 7.7, 'rot1': 1886, 'rot0': 1857, 'rot3': 833, 'rot2': 762, 'state': 'normal', 'yaw': 90.35, 'datetime': '2018-10-09 13:44:05.444823', 'mgs': 0, 'volt': 0.7813, 'depth': -0.293, 'time': 290, 'pitch': 23.73, 'roll': -32.27, 'pres': 160}
{'lipoC2': 7.34, 'lipoC3S1': 3.85, 'temp': 30.94, 'lipoC3S3': 11.64, 'lipoC3S2': 7.7, 'rot1': 1886, 'rot0': 1857, 'rot3': 833, 'rot2': 762, 'state': 'normal', 'yaw': 90.35, 'datetime': '2018-10-09 13:44:05.549338', 'mgs': 0, 'volt': 0.7813, 'depth': -0.293, 'time': 290, 'pitch': 23.73, 'roll': -32.28, 'pres': 160}
{'lipoC2': 7.34, 'lipoC3S1': 3.85, 'temp': 30.94, 'lipoC3S3': 11.64, 'lipoC3S2': 7.7, 'rot1': 1886, 'rot0': 1857, 'rot3': 833, 'rot2': 762, 'state': 'normal', 'yaw': 90.35, 'datetime': '2018-10-09 13:44:05.655299', 'mgs': 0, 'volt': 0.7813, 'depth': -0.293, 'time': 290, 'pitch': 23.73, 'roll': -32.28, 'pres': 160}
{'lipoC2': 7.34, 'lipoC3S1': 3.85, 'temp': 31.0, 'lipoC3S3': 11.64, 'lipoC3S2': 7.71, 'rot1': 1886, 'rot0': 1857, 'rot3': 833, 'rot2': 762, 'state': 'normal', 'yaw': 90.35, 'datetime': '2018-10-09 13:44:05.759874', 'mgs': 0, 'volt': 0.7813, 'depth': -0.293, 'time': 290, 'pitch': 23.72, 'roll': -32.29, 'pres': 160}
{'lipoC2': 7.34, 'lipoC3S1': 3.85, 'temp': 31.0, 'lipoC3S3': 11.64, 'lipoC3S2': 7.7, 'rot1': 1886, 'rot0': 1857, 'rot3': 833, 'rot2': 762, 'state': 'normal', 'yaw': 90.35, 'datetime': '2018-10-09 13:44:05.865710', 'mgs': 0, 'volt': 0.7813, 'depth': -0.293, 'time': 290, 'pitch': 23.73, 'roll': -32.29, 'pres': 160}
{'lipoC2': 7.34, 'lipoC3S1': 3.85, 'temp': 31.0, 'lipoC3S3': 11.64, 'lipoC3S2': 7.7, 'rot1': 1886, 'rot0': 1857, 'rot3': 833, 'rot2': 762, 'state': 'normal', 'yaw': 90.35, 'datetime': '2018-10-09 13:44:05.970287', 'mgs': 0, 'volt': 0.7813, 'depth': -0.293, 'time': 290, 'pitch': 23.72, 'roll': -32.3, 'pres': 160}
{'lipoC2': 7.34, 'lipoC3S1': 3.85, 'temp': 30.94, 'lipoC3S3': 11.64, 'lipoC3S2': 7.7, 'rot1': 1886, 'rot0': 1857, 'rot3': 833, 'rot2': 762, 'state': 'normal', 'yaw': 90.35, 'datetime': '2018-10-09 13:44:06.076110', 'mgs': 0, 'volt': 0.7813, 'depth': -0.293, 'time': 290, 'pitch': 23.72, 'roll': -32.31, 'pres': 160}
{'lipoC2': 7.34, 'lipoC3S1': 3.85, 'temp': 30.94, 'lipoC3S3': 11.64, 'lipoC3S2': 7.7, 'rot1': 1886, 'rot0': 1857, 'rot3': 833, 'rot2': 762, 'state': 'normal', 'yaw': 90.35, 'datetime': '2018-10-09 13:44:06.180721', 'mgs': 0, 'volt': 0.7813, 'depth': -0.293, 'time': 290, 'pitch': 23.73, 'roll': -32.32, 'pres': 160}
{'lipoC2': 7.34, 'lipoC3S1': 3.85, 'temp': 30.94, 'lipoC3S3': 11.64, 'lipoC3S2': 7.7, 'rot1': 1886, 'rot0': 1857, 'rot3': 833, 'rot2': 762, 'state': 'normal', 'yaw': 90.34, 'datetime': '2018-10-09 13:44:06.286592', 'mgs': 0, 'volt': 0.7813, 'depth': -0.293, 'time': 291, 'pitch': 23.72, 'roll': -32.33, 'pres': 160}
{'lipoC2': 7.34, 'lipoC3S1': 3.85, 'temp': 30.94, 'lipoC3S3': 11.64, 'lipoC3S2': 7.7, 'rot1': 1886, 'rot0': 1857, 'rot3': 833, 'rot2': 762, 'state': 'normal', 'yaw': 90.35, 'datetime': '2018-10-09 13:44:06.391221', 'mgs': 0, 'volt': 0.7813, 'depth': -0.293, 'time': 291, 'pitch': 23.72, 'roll': -32.34, 'pres': 160}
{'lipoC2': 7.34, 'lipoC3S1': 3.85, 'temp': 30.94, 'lipoC3S3': 11.64, 'lipoC3S2': 7.7, 'rot1': 1886, 'rot0': 1857, 'rot3': 833, 'rot2': 762, 'state': 'normal', 'yaw': 90.34, 'datetime': '2018-10-09 13:44:06.497606', 'mgs': 0, 'volt': 0.7813, 'depth': -0.293, 'time': 291, 'pitch': 23.73, 'roll': -32.35, 'pres': 160}
{'lipoC2': 7.34, 'lipoC3S1': 3.85, 'temp': 30.94, 'lipoC3S3': 11.64, 'lipoC3S2': 7.7, 'rot1': 1886, 'rot0': 1857, 'rot3': 833, 'rot2': 762, 'state': 'normal', 'yaw': 90.34, 'datetime': '2018-10-09 13:44:06.601905', 'mgs': 0, 'volt': 0.7813, 'depth': -0.293, 'time': 291, 'pitch': 23.72, 'roll': -32.37, 'pres': 160}
{'lipoC2': 7.34, 'lipoC3S1': 3.85, 'temp': 30.94, 'lipoC3S3': 11.64, 'lipoC3S2': 7.7, 'rot1': 1886, 'rot0': 1857, 'rot3': 833, 'rot2': 762, 'state': 'normal', 'yaw': 90.34, 'datetime': '2018-10-09 13:44:06.707710', 'mgs': 0, 'volt': 0.7813, 'depth': -0.293, 'time': 291, 'pitch': 23.72, 'roll': -32.38, 'pres': 160}
{'lipoC2': 7.34, 'lipoC3S1': 3.85, 'temp': 30.94, 'lipoC3S3': 11.64, 'lipoC3S2': 7.7, 'rot1': 1886, 'rot0': 1857, 'rot3': 833, 'rot2': 762, 'state': 'normal', 'yaw': 90.34, 'datetime': '2018-10-09 13:44:06.812315', 'mgs': 0, 'volt': 0.7813, 'depth': -0.293, 'time': 291, 'pitch': 23.72, 'roll': -32.43, 'pres': 160}
{'lipoC2': 7.34, 'lipoC3S1': 3.85, 'temp': 30.94, 'lipoC3S3': 11.64, 'lipoC3S2': 7.7, 'rot1': 1886, 'rot0': 1857, 'rot3': 833, 'rot2': 762, 'state': 'normal', 'yaw': 90.37, 'datetime': '2018-10-09 13:44:06.918121', 'mgs': 1, 'volt': 0.7813, 'depth': -0.293, 'time': 291, 'pitch': 23.68, 'roll': -32.41, 'pres': 160}
{'lipoC2': 7.34, 'lipoC3S1': 3.85, 'temp': 30.94, 'lipoC3S3': 11.64, 'lipoC3S2': 7.71, 'rot1': 0, 'rot0': 0, 'rot3': 0, 'rot2': 0, 'state': 'normal', 'yaw': 0.0, 'datetime': '2018-10-09 13:44:09.944288', 'mgs': 0, 'volt': 0.7813, 'depth': -0.293, 'time': 1, 'pitch': 23.63, 'roll': -32.63, 'pres': 160}
{'lipoC2': 7.34, 'lipoC3S1': 3.85, 'temp': 30.94, 'lipoC3S3': 11.64, 'lipoC3S2': 7.7, 'rot1': 0, 'rot0': 0, 'rot3': 0, 'rot2': 0, 'state': 'normal', 'yaw': 0.01, 'datetime': '2018-10-09 13:44:09.980469', 'mgs': 0, 'volt': 0.7813, 'depth': -0.293, 'time': 1, 'pitch': 23.62, 'roll': -32.62, 'pres': 160}
{'lipoC2': 7.34, 'lipoC3S1': 3.85, 'temp': 31.0, 'lipoC3S3': 11.64, 'lipoC3S2': 7.71, 'rot1': 0, 'rot0': 0, 'rot3': 0, 'rot2': 0, 'state': 'normal', 'yaw': 0.01, 'datetime': '2018-10-09 13:44:10.015882', 'mgs': 0, 'volt': 0.7813, 'depth': -0.293, 'time': 1, 'pitch': 23.62, 'roll': -32.64, 'pres': 160}
{'lipoC2': 7.34, 'lipoC3S1': 3.85, 'temp': 31.0, 'lipoC3S3': 11.64, 'lipoC3S2': 7.71, 'rot1': 0, 'rot0': 0, 'rot3': 0, 'rot2': 0, 'state': 'normal', 'yaw': 0.01, 'datetime': '2018-10-09 13:44:10.039011', 'mgs': 0, 'volt': 0.7813, 'depth': -0.293, 'time': 1, 'pitch': 23.62, 'roll': -32.67, 'pres': 160}
{'lipoC2': 7.34, 'lipoC3S1': 3.85, 'temp': 31.0, 'lipoC3S3': 11.64, 'lipoC3S2': 7.71, 'rot1': 0, 'rot0': 0, 'rot3': 0, 'rot2': 0, 'state': 'normal', 'yaw': 0.01, 'datetime': '2018-10-09 13:44:10.059778', 'mgs': 0, 'volt': 0.7813, 'depth': -0.293, 'time': 1, 'pitch': 23.61, 'roll': -32.68, 'pres': 160}
{'lipoC2': 7.34, 'lipoC3S1': 3.85, 'temp': 30.94, 'lipoC3S3': 11.64, 'lipoC3S2': 7.71, 'rot1': 0, 'rot0': 0, 'rot3': 0, 'rot2': 0, 'state': 'normal', 'yaw': 0.01, 'datetime': '2018-10-09 13:44:10.080470', 'mgs': 0, 'volt': 0.7813, 'depth': -0.293, 'time': 1, 'pitch': 23.61, 'roll': -32.68, 'pres': 160}
{'lipoC2': 7.34, 'lipoC3S1': 3.85, 'temp': 30.94, 'lipoC3S3': 11.64, 'lipoC3S2': 7.71, 'rot1': 0, 'rot0': 0, 'rot3': 0, 'rot2': 0, 'state': 'normal', 'yaw': 0.02, 'datetime': '2018-10-09 13:44:10.101149', 'mgs': 0, 'volt': 0.7813, 'depth': -0.293, 'time': 1, 'pitch': 23.6, 'roll': -32.68, 'pres': 160}
{'lipoC2': 7.34, 'lipoC3S1': 3.85, 'temp': 30.94, 'lipoC3S3': 11.64, 'lipoC3S2': 7.7, 'rot1': 0, 'rot0': 0, 'rot3': 0, 'rot2': 0, 'state': 'normal', 'yaw': 0.02, 'datetime': '2018-10-09 13:44:10.121860', 'mgs': 0, 'volt': 0.7813, 'depth': -0.293, 'time': 1, 'pitch': 23.6, 'roll': -32.69, 'pres': 160}
{'lipoC2': 7.34, 'lipoC3S1': 3.85, 'temp': 30.94, 'lipoC3S3': 11.64, 'lipoC3S2': 7.7, 'rot1': 0, 'rot0': 0, 'rot3': 0, 'rot2': 0, 'state': 'normal', 'yaw': 0.02, 'datetime': '2018-10-09 13:44:10.142513', 'mgs': 0, 'volt': 0.7813, 'depth': -0.293, 'time': 2, 'pitch': 23.6, 'roll': -32.69, 'pres': 160}
{'lipoC2': 7.34, 'lipoC3S1': 3.85, 'temp': 30.94, 'lipoC3S3': 11.64, 'lipoC3S2': 7.7, 'rot1': 0, 'rot0': 0, 'rot3': 0, 'rot2': 0, 'state': 'normal', 'yaw': 0.02, 'datetime': '2018-10-09 13:44:10.163334', 'mgs': 0, 'volt': 0.7813, 'depth': -0.293, 'time': 2, 'pitch': 23.6, 'roll': -32.73, 'pres': 160}
{'lipoC2': 7.34, 'lipoC3S1': 3.85, 'temp': 30.94, 'lipoC3S3': 11.64, 'lipoC3S2': 7.71, 'rot1': 0, 'rot0': 0, 'rot3': 0, 'rot2': 0, 'state': 'normal', 'yaw': 0.02, 'datetime': '2018-10-09 13:44:10.184204', 'mgs': 0, 'volt': 0.7813, 'depth': -0.293, 'time': 2, 'pitch': 23.6, 'roll': -32.73, 'pres': 160}
{'lipoC2': 7.34, 'lipoC3S1': 3.85, 'temp': 30.94, 'lipoC3S3': 11.64, 'lipoC3S2': 7.7, 'rot1': 0, 'rot0': 0, 'rot3': 0, 'rot2': 0, 'state': 'normal', 'yaw': 0.02, 'datetime': '2018-10-09 13:44:10.204953', 'mgs': 0, 'volt': 0.7813, 'depth': -0.293, 'time': 2, 'pitch': 23.61, 'roll': -32.76, 'pres': 160}
{'lipoC2': 7.34, 'lipoC3S1': 3.85, 'temp': 30.94, 'lipoC3S3': 11.64, 'lipoC3S2': 7.71, 'rot1': 0, 'rot0': 0, 'rot3': 0, 'rot2': 0, 'state': 'normal', 'yaw': 0.02, 'datetime': '2018-10-09 13:44:10.225685', 'mgs': 0, 'volt': 0.7813, 'depth': -0.293, 'time': 2, 'pitch': 23.6, 'roll': -32.77, 'pres': 160}
{'lipoC2': 7.34, 'lipoC3S1': 3.85, 'temp': 30.94, 'lipoC3S3': 11.64, 'lipoC3S2': 7.71, 'rot1': 0, 'rot0': 0, 'rot3': 0, 'rot2': 0, 'state': 'normal', 'yaw': 0.03, 'datetime': '2018-10-09 13:44:10.246450', 'mgs': 0, 'volt': 0.7813, 'depth': -0.293, 'time': 2, 'pitch': 23.6, 'roll': -32.78, 'pres': 160}
{'lipoC2': 7.34, 'lipoC3S1': 3.85, 'temp': 30.94, 'lipoC3S3': 11.64, 'lipoC3S2': 7.71, 'rot1': 0, 'rot0': 0, 'rot3': 0, 'rot2': 0, 'state': 'normal', 'yaw': 0.03, 'datetime': '2018-10-09 13:44:10.267131', 'mgs': 0, 'volt': 0.7861, 'depth': -0.217, 'time': 2, 'pitch': 23.6, 'roll': -32.79, 'pres': 161}
{'lipoC2': 7.34, 'lipoC3S1': 3.85, 'temp': 30.94, 'lipoC3S3': 11.64, 'lipoC3S2': 7.71, 'rot1': 0, 'rot0': 0, 'rot3': 0, 'rot2': 0, 'state': 'normal', 'yaw': 0.02, 'datetime': '2018-10-09 13:44:10.287777', 'mgs': 0, 'volt': 0.7813, 'depth': -0.293, 'time': 2, 'pitch': 23.61, 'roll': -32.8, 'pres': 160}
{'lipoC2': 7.34, 'lipoC3S1': 3.84, 'temp': 31.0, 'lipoC3S3': 11.64, 'lipoC3S2': 7.7, 'rot1': 0, 'rot0': 0, 'rot3': 0, 'rot2': 0, 'state': 'normal', 'yaw': 0.02, 'datetime': '2018-10-09 13:44:10.308417', 'mgs': 0, 'volt': 0.7813, 'depth': -0.293, 'time': 2, 'pitch': 23.61, 'roll': -32.81, 'pres': 160}
{'lipoC2': 7.34, 'lipoC3S1': 3.84, 'temp': 31.0, 'lipoC3S3': 11.43, 'lipoC3S2': 7.68, 'rot1': 0, 'rot0': 0, 'rot3': 1, 'rot2': 1, 'state': 'normal', 'yaw': 0.02, 'datetime': '2018-10-09 13:44:10.329352', 'mgs': 0, 'volt': 0.7813, 'depth': -0.293, 'time': 3, 'pitch': 23.6, 'roll': -32.83, 'pres': 160}
{'lipoC2': 7.32, 'lipoC3S1': 3.84, 'temp': 31.0, 'lipoC3S3': 11.61, 'lipoC3S2': 7.69, 'rot1': 1, 'rot0': 1, 'rot3': 1, 'rot2': 1, 'state': 'normal', 'yaw': 0.02, 'datetime': '2018-10-09 13:44:10.350082', 'mgs': 0, 'volt': 0.7813, 'depth': -0.293, 'time': 3, 'pitch': 23.6, 'roll': -32.82, 'pres': 160}
{'lipoC2': 7.34, 'lipoC3S1': 3.84, 'temp': 30.94, 'lipoC3S3': 11.61, 'lipoC3S2': 7.69, 'rot1': 2, 'rot0': 2, 'rot3': 1, 'rot2': 1, 'state': 'normal', 'yaw': 0.02, 'datetime': '2018-10-09 13:44:10.370712', 'mgs': 0, 'volt': 0.8057, 'depth': 0.089, 'time': 3, 'pitch': 23.6, 'roll': -32.84, 'pres': 165}
{'lipoC2': 7.34, 'lipoC3S1': 3.87, 'temp': 30.94, 'lipoC3S3': 11.63, 'lipoC3S2': 7.72, 'rot1': 3, 'rot0': 3, 'rot3': 1, 'rot2': 1, 'state': 'normal', 'yaw': 0.02, 'datetime': '2018-10-09 13:44:10.391377', 'mgs': 0, 'volt': 0.7813, 'depth': -0.293, 'time': 3, 'pitch': 23.6, 'roll': -32.86, 'pres': 160}
{'lipoC2': 7.34, 'lipoC3S1': 3.84, 'temp': 30.81, 'lipoC3S3': 11.63, 'lipoC3S2': 7.59, 'rot1': 5, 'rot0': 5, 'rot3': 2, 'rot2': 2, 'state': 'normal', 'yaw': 0.02, 'datetime': '2018-10-09 13:44:10.468611', 'mgs': 0, 'volt': 0.7813, 'depth': -0.293, 'time': 3, 'pitch': 23.6, 'roll': -32.85, 'pres': 160}
{'lipoC2': 7.34, 'lipoC3S1': 3.84, 'temp': 30.81, 'lipoC3S3': 11.61, 'lipoC3S2': 7.69, 'rot1': 6, 'rot0': 6, 'rot3': 2, 'rot2': 2, 'state': 'normal', 'yaw': 0.02, 'datetime': '2018-10-09 13:44:10.573249', 'mgs': 0, 'volt': 0.8105, 'depth': 0.165, 'time': 3, 'pitch': 23.6, 'roll': -32.85, 'pres': 166}
{'lipoC2': 7.34, 'lipoC3S1': 3.84, 'temp': 30.88, 'lipoC3S3': 11.61, 'lipoC3S2': 7.69, 'rot1': 7, 'rot0': 7, 'rot3': 2, 'rot2': 2, 'state': 'normal', 'yaw': 0.02, 'datetime': '2018-10-09 13:44:10.676536', 'mgs': 0, 'volt': 0.835, 'depth': 0.546, 'time': 3, 'pitch': 23.6, 'roll': -32.88, 'pres': 171}
{'lipoC2': 7.34, 'lipoC3S1': 3.84, 'temp': 30.88, 'lipoC3S3': 11.61, 'lipoC3S2': 7.69, 'rot1': 8, 'rot0': 8, 'rot3': 3, 'rot2': 3, 'state': 'normal', 'yaw': 0.02, 'datetime': '2018-10-09 13:44:10.780623', 'mgs': 0, 'volt': 0.7813, 'depth': -0.293, 'time': 3, 'pitch': 23.6, 'roll': -32.88, 'pres': 160}
{'lipoC2': 7.34, 'lipoC3S1': 3.84, 'temp': 30.88, 'lipoC3S3': 11.56, 'lipoC3S2': 7.68, 'rot1': 9, 'rot0': 9, 'rot3': 3, 'rot2': 3, 'state': 'normal', 'yaw': 0.03, 'datetime': '2018-10-09 13:44:10.885409', 'mgs': 0, 'volt': 0.7813, 'depth': -0.293, 'time': 3, 'pitch': 23.6, 'roll': -32.9, 'pres': 160}
{'lipoC2': 7.34, 'lipoC3S1': 3.84, 'temp': 30.88, 'lipoC3S3': 11.6, 'lipoC3S2': 7.69, 'rot1': 10, 'rot0': 10, 'rot3': 3, 'rot2': 3, 'state': 'normal', 'yaw': 0.03, 'datetime': '2018-10-09 13:44:10.989040', 'mgs': 0, 'volt': 0.7813, 'depth': -0.293, 'time': 3, 'pitch': 23.6, 'roll': -32.91, 'pres': 160}
{'lipoC2': 7.34, 'lipoC3S1': 3.84, 'temp': 30.88, 'lipoC3S3': 11.63, 'lipoC3S2': 7.65, 'rot1': 11, 'rot0': 11, 'rot3': 4, 'rot2': 4, 'state': 'normal', 'yaw': 0.03, 'datetime': '2018-10-09 13:44:11.093918', 'mgs': 0, 'volt': 0.7813, 'depth': -0.293, 'time': 4, 'pitch': 23.6, 'roll': -32.91, 'pres': 160}
{'lipoC2': 7.34, 'lipoC3S1': 3.78, 'temp': 30.94, 'lipoC3S3': 11.63, 'lipoC3S2': 7.69, 'rot1': 12, 'rot0': 13, 'rot3': 4, 'rot2': 4, 'state': 'normal', 'yaw': 0.03, 'datetime': '2018-10-09 13:44:11.202178', 'mgs': 0, 'volt': 0.7813, 'depth': -0.293, 'time': 4, 'pitch': 23.6, 'roll': -32.92, 'pres': 160}
{'lipoC2': 7.34, 'lipoC3S1': 3.84, 'temp': 30.94, 'lipoC3S3': 11.6, 'lipoC3S2': 7.68, 'rot1': 14, 'rot0': 14, 'rot3': 4, 'rot2': 4, 'state': 'normal', 'yaw': 0.03, 'datetime': '2018-10-09 13:44:11.307464', 'mgs': 0, 'volt': 0.7813, 'depth': -0.293, 'time': 4, 'pitch': 23.6, 'roll': -32.92, 'pres': 160}
{'lipoC2': 7.34, 'lipoC3S1': 3.84, 'temp': 30.94, 'lipoC3S3': 11.59, 'lipoC3S2': 7.68, 'rot1': 15, 'rot0': 15, 'rot3': 4, 'rot2': 5, 'state': 'normal', 'yaw': 0.03, 'datetime': '2018-10-09 13:44:11.412701', 'mgs': 0, 'volt': 0.7813, 'depth': -0.293, 'time': 4, 'pitch': 23.6, 'roll': -32.94, 'pres': 160}
{'lipoC2': 7.34, 'lipoC3S1': 3.84, 'temp': 30.94, 'lipoC3S3': 11.61, 'lipoC3S2': 7.69, 'rot1': 16, 'rot0': 16, 'rot3': 5, 'rot2': 5, 'state': 'normal', 'yaw': 0.03, 'datetime': '2018-10-09 13:44:11.516267', 'mgs': 0, 'volt': 0.8301, 'depth': 0.47, 'time': 4, 'pitch': 23.6, 'roll': -32.95, 'pres': 170}
{'lipoC2': 7.34, 'lipoC3S1': 3.84, 'temp': 30.94, 'lipoC3S3': 11.61, 'lipoC3S2': 7.63, 'rot1': 17, 'rot0': 17, 'rot3': 5, 'rot2': 5, 'state': 'normal', 'yaw': 0.03, 'datetime': '2018-10-09 13:44:11.618968', 'mgs': 0, 'volt': 0.7813, 'depth': -0.293, 'time': 4, 'pitch': 23.6, 'roll': -32.98, 'pres': 160}
{'lipoC2': 7.34, 'lipoC3S1': 3.84, 'temp': 30.94, 'lipoC3S3': 11.61, 'lipoC3S2': 7.69, 'rot1': 18, 'rot0': 18, 'rot3': 5, 'rot2': 6, 'state': 'normal', 'yaw': 0.02, 'datetime': '2018-10-09 13:44:11.724628', 'mgs': 0, 'volt': 0.7813, 'depth': -0.293, 'time': 4, 'pitch': 23.6, 'roll': -32.98, 'pres': 160}
{'lipoC2': 7.34, 'lipoC3S1': 3.83, 'temp': 30.94, 'lipoC3S3': 11.61, 'lipoC3S2': 7.67, 'rot1': 19, 'rot0': 19, 'rot3': 6, 'rot2': 6, 'state': 'normal', 'yaw': 0.02, 'datetime': '2018-10-09 13:44:11.828193', 'mgs': 0, 'volt': 0.7813, 'depth': -0.293, 'time': 4, 'pitch': 23.6, 'roll': -33.0, 'pres': 160}
{'lipoC2': 7.34, 'lipoC3S1': 3.78, 'temp': 30.94, 'lipoC3S3': 11.63, 'lipoC3S2': 7.69, 'rot1': 20, 'rot0': 21, 'rot3': 6, 'rot2': 6, 'state': 'normal', 'yaw': 0.02, 'datetime': '2018-10-09 13:44:11.933200', 'mgs': 0, 'volt': 0.7813, 'depth': -0.293, 'time': 4, 'pitch': 23.6, 'roll': -33.0, 'pres': 160}
{'lipoC2': 7.35, 'lipoC3S1': 3.84, 'temp': 30.94, 'lipoC3S3': 11.63, 'lipoC3S2': 7.68, 'rot1': 22, 'rot0': 22, 'rot3': 6, 'rot2': 7, 'state': 'normal', 'yaw': 0.02, 'datetime': '2018-10-09 13:44:12.036896', 'mgs': 0, 'volt': 0.7813, 'depth': -0.293, 'time': 4, 'pitch': 23.6, 'roll': -33.0, 'pres': 160}
{'lipoC2': 7.34, 'lipoC3S1': 3.83, 'temp': 30.94, 'lipoC3S3': 11.63, 'lipoC3S2': 7.66, 'rot1': 23, 'rot0': 23, 'rot3': 7, 'rot2': 7, 'state': 'normal', 'yaw': 0.02, 'datetime': '2018-10-09 13:44:12.141721', 'mgs': 0, 'volt': 0.7813, 'depth': -0.293, 'time': 5, 'pitch': 23.6, 'roll': -33.0, 'pres': 160}
{'lipoC2': 7.34, 'lipoC3S1': 3.84, 'temp': 30.94, 'lipoC3S3': 11.61, 'lipoC3S2': 7.62, 'rot1': 24, 'rot0': 24, 'rot3': 7, 'rot2': 7, 'state': 'normal', 'yaw': 0.02, 'datetime': '2018-10-09 13:44:12.245964', 'mgs': 0, 'volt': 0.7813, 'depth': -0.293, 'time': 5, 'pitch': 23.6, 'roll': -33.0, 'pres': 160}
{'lipoC2': 7.32, 'lipoC3S1': 3.84, 'temp': 30.94, 'lipoC3S3': 11.61, 'lipoC3S2': 7.69, 'rot1': 25, 'rot0': 26, 'rot3': 7, 'rot2': 8, 'state': 'normal', 'yaw': 0.02, 'datetime': '2018-10-09 13:44:12.349733', 'mgs': 0, 'volt': 0.7617, 'depth': -0.598, 'time': 5, 'pitch': 23.6, 'roll': -33.0, 'pres': 156}
{'lipoC2': 7.34, 'lipoC3S1': 3.84, 'temp': 30.88, 'lipoC3S3': 11.61, 'lipoC3S2': 7.68, 'rot1': 26, 'rot0': 27, 'rot3': 7, 'rot2': 8, 'state': 'normal', 'yaw': 0.02, 'datetime': '2018-10-09 13:44:12.454714', 'mgs': 0, 'volt': 0.7813, 'depth': -0.293, 'time': 5, 'pitch': 23.6, 'roll': -33.01, 'pres': 160}
{'lipoC2': 7.34, 'lipoC3S1': 3.81, 'temp': 30.88, 'lipoC3S3': 11.61, 'lipoC3S2': 7.69, 'rot1': 27, 'rot0': 28, 'rot3': 8, 'rot2': 8, 'state': 'normal', 'yaw': 0.02, 'datetime': '2018-10-09 13:44:12.558457', 'mgs': 0, 'volt': 0.7813, 'depth': -0.293, 'time': 5, 'pitch': 23.6, 'roll': -33.02, 'pres': 160}
{'lipoC2': 7.34, 'lipoC3S1': 3.75, 'temp': 30.94, 'lipoC3S3': 11.61, 'lipoC3S2': 7.69, 'rot1': 28, 'rot0': 29, 'rot3': 8, 'rot2': 9, 'state': 'normal', 'yaw': 0.02, 'datetime': '2018-10-09 13:44:12.662841', 'mgs': 0, 'volt': 0.7813, 'depth': -0.293, 'time': 5, 'pitch': 23.6, 'roll': -33.02, 'pres': 160}
{'lipoC2': 7.34, 'lipoC3S1': 3.84, 'temp': 30.94, 'lipoC3S3': 11.55, 'lipoC3S2': 7.68, 'rot1': 30, 'rot0': 30, 'rot3': 8, 'rot2': 9, 'state': 'normal', 'yaw': 0.02, 'datetime': '2018-10-09 13:44:12.767260', 'mgs': 0, 'volt': 0.7813, 'depth': -0.293, 'time': 5, 'pitch': 23.6, 'roll': -33.02, 'pres': 160}
{'lipoC2': 7.34, 'lipoC3S1': 3.84, 'temp': 30.94, 'lipoC3S3': 11.61, 'lipoC3S2': 7.69, 'rot1': 31, 'rot0': 31, 'rot3': 9, 'rot2': 9, 'state': 'normal', 'yaw': 0.02, 'datetime': '2018-10-09 13:44:12.870997', 'mgs': 0, 'volt': 0.7861, 'depth': -0.217, 'time': 5, 'pitch': 23.59, 'roll': -33.03, 'pres': 161}
{'lipoC2': 7.35, 'lipoC3S1': 3.84, 'temp': 30.94, 'lipoC3S3': 11.61, 'lipoC3S2': 7.69, 'rot1': 32, 'rot0': 33, 'rot3': 9, 'rot2': 10, 'state': 'normal', 'yaw': 0.02, 'datetime': '2018-10-09 13:44:12.975203', 'mgs': 0, 'volt': 0.7813, 'depth': -0.293, 'time': 5, 'pitch': 23.6, 'roll': -33.04, 'pres': 160}
{'lipoC2': 7.34, 'lipoC3S1': 3.84, 'temp': 30.94, 'lipoC3S3': 11.56, 'lipoC3S2': 7.68, 'rot1': 33, 'rot0': 34, 'rot3': 9, 'rot2': 10, 'state': 'normal', 'yaw': 0.02, 'datetime': '2018-10-09 13:44:13.079019', 'mgs': 0, 'volt': 0.7813, 'depth': -0.293, 'time': 6, 'pitch': 23.6, 'roll': -33.05, 'pres': 160}
{'lipoC2': 7.34, 'lipoC3S1': 3.84, 'temp': 30.94, 'lipoC3S3': 11.52, 'lipoC3S2': 7.68, 'rot1': 34, 'rot0': 35, 'rot3': 10, 'rot2': 10, 'state': 'normal', 'yaw': 0.02, 'datetime': '2018-10-09 13:44:13.183761', 'mgs': 0, 'volt': 0.7813, 'depth': -0.293, 'time': 6, 'pitch': 23.6, 'roll': -33.05, 'pres': 160}
{'lipoC2': 7.34, 'lipoC3S1': 3.83, 'temp': 30.94, 'lipoC3S3': 11.61, 'lipoC3S2': 7.65, 'rot1': 35, 'rot0': 36, 'rot3': 10, 'rot2': 10, 'state': 'normal', 'yaw': 0.02, 'datetime': '2018-10-09 13:44:13.288475', 'mgs': 0, 'volt': 0.7813, 'depth': -0.293, 'time': 6, 'pitch': 23.59, 'roll': -33.06, 'pres': 160}
{'lipoC2': 7.34, 'lipoC3S1': 3.79, 'temp': 30.94, 'lipoC3S3': 11.61, 'lipoC3S2': 7.69, 'rot1': 36, 'rot0': 37, 'rot3': 10, 'rot2': 11, 'state': 'normal', 'yaw': 0.02, 'datetime': '2018-10-09 13:44:13.392419', 'mgs': 0, 'volt': 0.7813, 'depth': -0.293, 'time': 6, 'pitch': 23.6, 'roll': -33.07, 'pres': 160}
{'lipoC2': 7.34, 'lipoC3S1': 3.83, 'temp': 30.94, 'lipoC3S3': 11.63, 'lipoC3S2': 7.63, 'rot1': 38, 'rot0': 39, 'rot3': 10, 'rot2': 11, 'state': 'normal', 'yaw': 0.02, 'datetime': '2018-10-09 13:44:13.497825', 'mgs': 0, 'volt': 0.7813, 'depth': -0.293, 'time': 6, 'pitch': 23.6, 'roll': -33.07, 'pres': 160}
{'lipoC2': 7.34, 'lipoC3S1': 3.78, 'temp': 30.94, 'lipoC3S3': 11.61, 'lipoC3S2': 7.69, 'rot1': 39, 'rot0': 40, 'rot3': 11, 'rot2': 11, 'state': 'normal', 'yaw': 0.03, 'datetime': '2018-10-09 13:44:13.601865', 'mgs': 0, 'volt': 0.7813, 'depth': -0.293, 'time': 6, 'pitch': 23.6, 'roll': -33.08, 'pres': 160}
{'lipoC2': 7.34, 'lipoC3S1': 3.84, 'temp': 30.94, 'lipoC3S3': 11.61, 'lipoC3S2': 7.61, 'rot1': 40, 'rot0': 41, 'rot3': 11, 'rot2': 12, 'state': 'normal', 'yaw': 0.03, 'datetime': '2018-10-09 13:44:13.707291', 'mgs': 0, 'volt': 0.7813, 'depth': -0.293, 'time': 6, 'pitch': 23.6, 'roll': -33.08, 'pres': 160}
{'lipoC2': 7.34, 'lipoC3S1': 3.75, 'temp': 30.94, 'lipoC3S3': 11.61, 'lipoC3S2': 7.69, 'rot1': 41, 'rot0': 42, 'rot3': 11, 'rot2': 12, 'state': 'normal', 'yaw': 0.03, 'datetime': '2018-10-09 13:44:13.811282', 'mgs': 0, 'volt': 0.7813, 'depth': -0.293, 'time': 6, 'pitch': 23.6, 'roll': -33.09, 'pres': 160}
{'lipoC2': 7.34, 'lipoC3S1': 3.84, 'temp': 30.94, 'lipoC3S3': 11.67, 'lipoC3S2': 7.71, 'rot1': 42, 'rot0': 43, 'rot3': 12, 'rot2': 12, 'state': 'normal', 'yaw': 0.03, 'datetime': '2018-10-09 13:44:13.916670', 'mgs': 0, 'volt': 0.7813, 'depth': -0.293, 'time': 6, 'pitch': 23.6, 'roll': -33.09, 'pres': 160}
{'lipoC2': 7.34, 'lipoC3S1': 3.84, 'temp': 30.94, 'lipoC3S3': 11.61, 'lipoC3S2': 7.58, 'rot1': 44, 'rot0': 44, 'rot3': 12, 'rot2': 13, 'state': 'normal', 'yaw': 0.03, 'datetime': '2018-10-09 13:44:14.020903', 'mgs': 0, 'volt': 0.7813, 'depth': -0.293, 'time': 6, 'pitch': 23.6, 'roll': -33.09, 'pres': 160}
{'lipoC2': 7.34, 'lipoC3S1': 3.86, 'temp': 30.94, 'lipoC3S3': 11.61, 'lipoC3S2': 7.72, 'rot1': 45, 'rot0': 45, 'rot3': 12, 'rot2': 13, 'state': 'normal', 'yaw': 0.03, 'datetime': '2018-10-09 13:44:14.124929', 'mgs': 0, 'volt': 0.7813, 'depth': -0.293, 'time': 7, 'pitch': 23.6, 'roll': -33.1, 'pres': 160}
{'lipoC2': 7.34, 'lipoC3S1': 3.83, 'temp': 30.94, 'lipoC3S3': 11.61, 'lipoC3S2': 7.63, 'rot1': 46, 'rot0': 47, 'rot3': 13, 'rot2': 13, 'state': 'normal', 'yaw': 0.03, 'datetime': '2018-10-09 13:44:14.230192', 'mgs': 0, 'volt': 0.7813, 'depth': -0.293, 'time': 7, 'pitch': 23.6, 'roll': -33.11, 'pres': 160}
{'lipoC2': 7.34, 'lipoC3S1': 3.8, 'temp': 30.94, 'lipoC3S3': 11.61, 'lipoC3S2': 7.69, 'rot1': 47, 'rot0': 48, 'rot3': 13, 'rot2': 14, 'state': 'normal', 'yaw': 0.03, 'datetime': '2018-10-09 13:44:14.334138', 'mgs': 0, 'volt': 0.7813, 'depth': -0.293, 'time': 7, 'pitch': 23.6, 'roll': -33.12, 'pres': 160}
{'lipoC2': 7.34, 'lipoC3S1': 3.84, 'temp': 30.94, 'lipoC3S3': 11.61, 'lipoC3S2': 7.61, 'rot1': 48, 'rot0': 49, 'rot3': 13, 'rot2': 14, 'state': 'normal', 'yaw': 0.03, 'datetime': '2018-10-09 13:44:14.439620', 'mgs': 0, 'volt': 0.7813, 'depth': -0.293, 'time': 7, 'pitch': 23.6, 'roll': -33.12, 'pres': 160}
{'lipoC2': 7.34, 'lipoC3S1': 3.75, 'temp': 30.94, 'lipoC3S3': 11.61, 'lipoC3S2': 7.69, 'rot1': 49, 'rot0': 50, 'rot3': 13, 'rot2': 14, 'state': 'normal', 'yaw': 0.03, 'datetime': '2018-10-09 13:44:14.543647', 'mgs': 0, 'volt': 0.7813, 'depth': -0.293, 'time': 7, 'pitch': 23.6, 'roll': -33.14, 'pres': 160}
{'lipoC2': 7.34, 'lipoC3S1': 3.84, 'temp': 30.94, 'lipoC3S3': 11.61, 'lipoC3S2': 7.58, 'rot1': 50, 'rot0': 51, 'rot3': 14, 'rot2': 15, 'state': 'normal', 'yaw': 0.02, 'datetime': '2018-10-09 13:44:14.649096', 'mgs': 0, 'volt': 0.7813, 'depth': -0.293, 'time': 7, 'pitch': 23.6, 'roll': -33.14, 'pres': 160}
{'lipoC2': 7.34, 'lipoC3S1': 3.84, 'temp': 30.94, 'lipoC3S3': 11.61, 'lipoC3S2': 7.69, 'rot1': 52, 'rot0': 52, 'rot3': 14, 'rot2': 15, 'state': 'normal', 'yaw': 0.02, 'datetime': '2018-10-09 13:44:14.752000', 'mgs': 0, 'volt': 0.7813, 'depth': -0.293, 'time': 7, 'pitch': 23.6, 'roll': -33.16, 'pres': 160}
{'lipoC2': 7.34, 'lipoC3S1': 3.84, 'temp': 30.94, 'lipoC3S3': 11.54, 'lipoC3S2': 7.68, 'rot1': 53, 'rot0': 54, 'rot3': 14, 'rot2': 15, 'state': 'normal', 'yaw': 0.02, 'datetime': '2018-10-09 13:44:14.858613', 'mgs': 0, 'volt': 0.7813, 'depth': -0.293, 'time': 7, 'pitch': 23.6, 'roll': -33.16, 'pres': 160}
{'lipoC2': 7.34, 'lipoC3S1': 3.84, 'temp': 30.94, 'lipoC3S3': 11.54, 'lipoC3S2': 7.68, 'rot1': 54, 'rot0': 55, 'rot3': 15, 'rot2': 16, 'state': 'normal', 'yaw': 0.02, 'datetime': '2018-10-09 13:44:14.962785', 'mgs': 0, 'volt': 0.7813, 'depth': -0.293, 'time': 7, 'pitch': 23.6, 'roll': -33.17, 'pres': 160}
{'lipoC2': 7.34, 'lipoC3S1': 3.84, 'temp': 30.88, 'lipoC3S3': 11.61, 'lipoC3S2': 7.6, 'rot1': 55, 'rot0': 56, 'rot3': 15, 'rot2': 16, 'state': 'normal', 'yaw': 0.02, 'datetime': '2018-10-09 13:44:15.067004', 'mgs': 0, 'volt': 0.7813, 'depth': -0.293, 'time': 8, 'pitch': 23.6, 'roll': -33.18, 'pres': 160}
{'lipoC2': 7.33, 'lipoC3S1': 3.84, 'temp': 30.88, 'lipoC3S3': 11.61, 'lipoC3S2': 7.68, 'rot1': 56, 'rot0': 57, 'rot3': 15, 'rot2': 16, 'state': 'normal', 'yaw': 0.02, 'datetime': '2018-10-09 13:44:15.172418', 'mgs': 0, 'volt': 0.7666, 'depth': -0.522, 'time': 8, 'pitch': 23.6, 'roll': -33.18, 'pres': 157}
{'lipoC2': 7.34, 'lipoC3S1': 3.84, 'temp': 30.88, 'lipoC3S3': 11.61, 'lipoC3S2': 7.68, 'rot1': 57, 'rot0': 58, 'rot3': 16, 'rot2': 17, 'state': 'normal', 'yaw': 0.02, 'datetime': '2018-10-09 13:44:15.276439', 'mgs': 0, 'volt': 0.7813, 'depth': -0.293, 'time': 8, 'pitch': 23.6, 'roll': -33.19, 'pres': 160}
{'lipoC2': 7.34, 'lipoC3S1': 3.84, 'temp': 30.88, 'lipoC3S3': 11.61, 'lipoC3S2': 7.67, 'rot1': 58, 'rot0': 59, 'rot3': 16, 'rot2': 17, 'state': 'normal', 'yaw': 0.02, 'datetime': '2018-10-09 13:44:15.380586', 'mgs': 0, 'volt': 0.7813, 'depth': -0.293, 'time': 8, 'pitch': 23.59, 'roll': -33.2, 'pres': 160}
{'lipoC2': 7.34, 'lipoC3S1': 3.83, 'temp': 30.88, 'lipoC3S3': 11.61, 'lipoC3S2': 7.63, 'rot1': 60, 'rot0': 61, 'rot3': 16, 'rot2': 17, 'state': 'normal', 'yaw': 0.02, 'datetime': '2018-10-09 13:44:15.484533', 'mgs': 0, 'volt': 0.7813, 'depth': -0.293, 'time': 8, 'pitch': 23.6, 'roll': -33.21, 'pres': 160}
{'lipoC2': 7.34, 'lipoC3S1': 3.84, 'temp': 30.94, 'lipoC3S3': 11.61, 'lipoC3S2': 7.6, 'rot1': 61, 'rot0': 62, 'rot3': 16, 'rot2': 18, 'state': 'normal', 'yaw': 0.02, 'datetime': '2018-10-09 13:44:15.589930', 'mgs': 0, 'volt': 0.7813, 'depth': -0.293, 'time': 8, 'pitch': 23.6, 'roll': -33.22, 'pres': 160}
{'lipoC2': 7.34, 'lipoC3S1': 3.84, 'temp': 30.94, 'lipoC3S3': 11.56, 'lipoC3S2': 7.68, 'rot1': 62, 'rot0': 63, 'rot3': 17, 'rot2': 18, 'state': 'normal', 'yaw': 0.02, 'datetime': '2018-10-09 13:44:15.694290', 'mgs': 0, 'volt': 0.7813, 'depth': -0.293, 'time': 8, 'pitch': 23.6, 'roll': -33.22, 'pres': 160}
{'lipoC2': 7.34, 'lipoC3S1': 3.83, 'temp': 30.88, 'lipoC3S3': 11.61, 'lipoC3S2': 7.62, 'rot1': 63, 'rot0': 64, 'rot3': 17, 'rot2': 18, 'state': 'normal', 'yaw': 0.02, 'datetime': '2018-10-09 13:44:15.798245', 'mgs': 0, 'volt': 0.7813, 'depth': -0.293, 'time': 8, 'pitch': 23.6, 'roll': -33.22, 'pres': 160}
{'lipoC2': 7.34, 'lipoC3S1': 3.84, 'temp': 30.88, 'lipoC3S3': 11.56, 'lipoC3S2': 7.68, 'rot1': 64, 'rot0': 65, 'rot3': 17, 'rot2': 19, 'state': 'normal', 'yaw': 0.02, 'datetime': '2018-10-09 13:44:15.903647', 'mgs': 0, 'volt': 0.7813, 'depth': -0.293, 'time': 8, 'pitch': 23.6, 'roll': -33.23, 'pres': 160}
{'lipoC2': 7.34, 'lipoC3S1': 3.84, 'temp': 30.94, 'lipoC3S3': 11.61, 'lipoC3S2': 7.6, 'rot1': 65, 'rot0': 66, 'rot3': 18, 'rot2': 19, 'state': 'normal', 'yaw': 0.02, 'datetime': '2018-10-09 13:44:16.007649', 'mgs': 0, 'volt': 0.7813, 'depth': -0.293, 'time': 8, 'pitch': 23.59, 'roll': -33.24, 'pres': 160}
{'lipoC2': 7.34, 'lipoC3S1': 3.84, 'temp': 30.94, 'lipoC3S3': 11.51, 'lipoC3S2': 7.68, 'rot1': 66, 'rot0': 67, 'rot3': 18, 'rot2': 19, 'state': 'normal', 'yaw': 0.02, 'datetime': '2018-10-09 13:44:16.113366', 'mgs': 0, 'volt': 0.7813, 'depth': -0.293, 'time': 9, 'pitch': 23.6, 'roll': -33.25, 'pres': 160}
{'lipoC2': 7.34, 'lipoC3S1': 3.84, 'temp': 30.94, 'lipoC3S3': 11.61, 'lipoC3S2': 7.57, 'rot1': 68, 'rot0': 69, 'rot3': 18, 'rot2': 20, 'state': 'normal', 'yaw': 0.02, 'datetime': '2018-10-09 13:44:16.217321', 'mgs': 0, 'volt': 0.7813, 'depth': -0.293, 'time': 9, 'pitch': 23.6, 'roll': -33.26, 'pres': 160}
{'lipoC2': 7.34, 'lipoC3S1': 3.84, 'temp': 30.94, 'lipoC3S3': 11.48, 'lipoC3S2': 7.68, 'rot1': 69, 'rot0': 70, 'rot3': 19, 'rot2': 20, 'state': 'normal', 'yaw': 0.02, 'datetime': '2018-10-09 13:44:16.322447', 'mgs': 0, 'volt': 0.7813, 'depth': -0.293, 'time': 9, 'pitch': 23.6, 'roll': -33.26, 'pres': 160}
{'lipoC2': 7.34, 'lipoC3S1': 3.84, 'temp': 30.94, 'lipoC3S3': 11.6, 'lipoC3S2': 7.67, 'rot1': 70, 'rot0': 71, 'rot3': 19, 'rot2': 20, 'state': 'normal', 'yaw': 0.03, 'datetime': '2018-10-09 13:44:16.426413', 'mgs': 0, 'volt': 0.7813, 'depth': -0.293, 'time': 9, 'pitch': 23.6, 'roll': -33.28, 'pres': 160}
{'lipoC2': 7.34, 'lipoC3S1': 3.83, 'temp': 30.94, 'lipoC3S3': 11.61, 'lipoC3S2': 7.66, 'rot1': 71, 'rot0': 72, 'rot3': 19, 'rot2': 20, 'state': 'normal', 'yaw': 0.03, 'datetime': '2018-10-09 13:44:16.530692', 'mgs': 0, 'volt': 0.7813, 'depth': -0.293, 'time': 9, 'pitch': 23.6, 'roll': -33.28, 'pres': 160}
{'lipoC2': 7.34, 'lipoC3S1': 3.84, 'temp': 30.94, 'lipoC3S3': 11.61, 'lipoC3S2': 7.68, 'rot1': 72, 'rot0': 73, 'rot3': 19, 'rot2': 21, 'state': 'normal', 'yaw': 0.03, 'datetime': '2018-10-09 13:44:16.635750', 'mgs': 0, 'volt': 0.7813, 'depth': -0.293, 'time': 9, 'pitch': 23.6, 'roll': -33.29, 'pres': 160}
{'lipoC2': 7.34, 'lipoC3S1': 3.81, 'temp': 30.88, 'lipoC3S3': 11.61, 'lipoC3S2': 7.69, 'rot1': 73, 'rot0': 74, 'rot3': 20, 'rot2': 21, 'state': 'normal', 'yaw': 0.03, 'datetime': '2018-10-09 13:44:16.739750', 'mgs': 0, 'volt': 0.7813, 'depth': -0.293, 'time': 9, 'pitch': 23.6, 'roll': -33.28, 'pres': 160}
{'lipoC2': 7.34, 'lipoC3S1': 3.83, 'temp': 30.88, 'lipoC3S3': 11.61, 'lipoC3S2': 7.64, 'rot1': 75, 'rot0': 76, 'rot3': 20, 'rot2': 21, 'state': 'normal', 'yaw': 0.03, 'datetime': '2018-10-09 13:44:16.845250', 'mgs': 0, 'volt': 0.7813, 'depth': -0.293, 'time': 9, 'pitch': 23.6, 'roll': -33.3, 'pres': 160}
{'lipoC2': 7.34, 'lipoC3S1': 3.78, 'temp': 30.88, 'lipoC3S3': 11.61, 'lipoC3S2': 7.69, 'rot1': 76, 'rot0': 77, 'rot3': 20, 'rot2': 22, 'state': 'normal', 'yaw': 0.03, 'datetime': '2018-10-09 13:44:16.949121', 'mgs': 0, 'volt': 0.7813, 'depth': -0.293, 'time': 9, 'pitch': 23.6, 'roll': -33.3, 'pres': 160}
{'lipoC2': 7.34, 'lipoC3S1': 3.84, 'temp': 30.88, 'lipoC3S3': 11.61, 'lipoC3S2': 7.59, 'rot1': 77, 'rot0': 78, 'rot3': 21, 'rot2': 22, 'state': 'normal', 'yaw': 0.03, 'datetime': '2018-10-09 13:44:17.054720', 'mgs': 0, 'volt': 0.7813, 'depth': -0.293, 'time': 10, 'pitch': 23.6, 'roll': -33.3, 'pres': 160}
{'lipoC2': 7.34, 'lipoC3S1': 3.83, 'temp': 30.88, 'lipoC3S3': 11.61, 'lipoC3S2': 7.62, 'rot1': 78, 'rot0': 79, 'rot3': 21, 'rot2': 22, 'state': 'normal', 'yaw': 0.03, 'datetime': '2018-10-09 13:44:17.158895', 'mgs': 0, 'volt': 0.7813, 'depth': -0.293, 'time': 10, 'pitch': 23.6, 'roll': -33.31, 'pres': 160}
{'lipoC2': 7.34, 'lipoC3S1': 3.84, 'temp': 30.94, 'lipoC3S3': 11.6, 'lipoC3S2': 7.68, 'rot1': 79, 'rot0': 80, 'rot3': 21, 'rot2': 23, 'state': 'normal', 'yaw': 0.03, 'datetime': '2018-10-09 13:44:17.258481', 'mgs': 0, 'volt': 0.7813, 'depth': -0.293, 'time': 10, 'pitch': 23.6, 'roll': -33.32, 'pres': 160}
{'lipoC2': 7.34, 'lipoC3S1': 3.84, 'temp': 30.94, 'lipoC3S3': 11.5, 'lipoC3S2': 7.68, 'rot1': 80, 'rot0': 81, 'rot3': 21, 'rot2': 23, 'state': 'normal', 'yaw': 0.02, 'datetime': '2018-10-09 13:44:17.362689', 'mgs': 0, 'volt': 0.7813, 'depth': -0.293, 'time': 10, 'pitch': 23.6, 'roll': -33.33, 'pres': 160}
{'lipoC2': 7.34, 'lipoC3S1': 3.84, 'temp': 30.88, 'lipoC3S3': 11.51, 'lipoC3S2': 7.68, 'rot1': 81, 'rot0': 82, 'rot3': 22, 'rot2': 23, 'state': 'normal', 'yaw': 0.02, 'datetime': '2018-10-09 13:44:17.466899', 'mgs': 0, 'volt': 0.7813, 'depth': -0.293, 'time': 10, 'pitch': 23.6, 'roll': -33.33, 'pres': 160}
{'lipoC2': 7.33, 'lipoC3S1': 3.84, 'temp': 30.88, 'lipoC3S3': 11.6, 'lipoC3S2': 7.68, 'rot1': 83, 'rot0': 84, 'rot3': 22, 'rot2': 24, 'state': 'normal', 'yaw': 0.02, 'datetime': '2018-10-09 13:44:17.572203', 'mgs': 0, 'volt': 0.7813, 'depth': -0.293, 'time': 10, 'pitch': 23.6, 'roll': -33.34, 'pres': 160}
{'lipoC2': 7.33, 'lipoC3S1': 3.84, 'temp': 30.88, 'lipoC3S3': 11.6, 'lipoC3S2': 7.68, 'rot1': 84, 'rot0': 85, 'rot3': 22, 'rot2': 24, 'state': 'normal', 'yaw': 0.03, 'datetime': '2018-10-09 13:44:17.680557', 'mgs': 0, 'volt': 0.7813, 'depth': -0.293, 'time': 10, 'pitch': 23.6, 'roll': -33.35, 'pres': 160}
{'lipoC2': 7.34, 'lipoC3S1': 3.84, 'temp': 30.94, 'lipoC3S3': 11.54, 'lipoC3S2': 7.68, 'rot1': 85, 'rot0': 86, 'rot3': 23, 'rot2': 24, 'state': 'normal', 'yaw': 0.02, 'datetime': '2018-10-09 13:44:17.781414', 'mgs': 0, 'volt': 0.7813, 'depth': -0.293, 'time': 10, 'pitch': 23.6, 'roll': -33.34, 'pres': 160}
{'lipoC2': 7.34, 'lipoC3S1': 3.84, 'temp': 30.94, 'lipoC3S3': 11.54, 'lipoC3S2': 7.68, 'rot1': 86, 'rot0': 87, 'rot3': 23, 'rot2': 25, 'state': 'normal', 'yaw': 0.02, 'datetime': '2018-10-09 13:44:17.885658', 'mgs': 0, 'volt': 0.7813, 'depth': -0.293, 'time': 10, 'pitch': 23.6, 'roll': -33.34, 'pres': 160}
{'lipoC2': 7.34, 'lipoC3S1': 3.84, 'temp': 30.94, 'lipoC3S3': 11.61, 'lipoC3S2': 7.68, 'rot1': 87, 'rot0': 88, 'rot3': 23, 'rot2': 25, 'state': 'normal', 'yaw': 0.02, 'datetime': '2018-10-09 13:44:17.991054', 'mgs': 0, 'volt': 0.791, 'depth': -0.14, 'time': 10, 'pitch': 23.6, 'roll': -33.36, 'pres': 162}
{'lipoC2': 7.33, 'lipoC3S1': 3.84, 'temp': 30.94, 'lipoC3S3': 11.6, 'lipoC3S2': 7.68, 'rot1': 88, 'rot0': 89, 'rot3': 24, 'rot2': 25, 'state': 'normal', 'yaw': 0.02, 'datetime': '2018-10-09 13:44:18.095292', 'mgs': 0, 'volt': 0.7813, 'depth': -0.293, 'time': 11, 'pitch': 23.6, 'roll': -33.36, 'pres': 160}
{'lipoC2': 7.34, 'lipoC3S1': 3.83, 'temp': 30.88, 'lipoC3S3': 11.61, 'lipoC3S2': 7.69, 'rot1': 89, 'rot0': 91, 'rot3': 24, 'rot2': 26, 'state': 'normal', 'yaw': 0.02, 'datetime': '2018-10-09 13:44:18.200689', 'mgs': 0, 'volt': 0.7813, 'depth': -0.293, 'time': 11, 'pitch': 23.6, 'roll': -33.37, 'pres': 160}
{'lipoC2': 7.34, 'lipoC3S1': 3.85, 'temp': 30.88, 'lipoC3S3': 11.61, 'lipoC3S2': 7.68, 'rot1': 91, 'rot0': 92, 'rot3': 24, 'rot2': 26, 'state': 'normal', 'yaw': 0.02, 'datetime': '2018-10-09 13:44:18.304905', 'mgs': 0, 'volt': 0.7861, 'depth': -0.217, 'time': 11, 'pitch': 23.59, 'roll': -33.39, 'pres': 161}
{'lipoC2': 7.33, 'lipoC3S1': 3.84, 'temp': 30.88, 'lipoC3S3': 11.61, 'lipoC3S2': 7.68, 'rot1': 92, 'rot0': 93, 'rot3': 24, 'rot2': 26, 'state': 'normal', 'yaw': 0.02, 'datetime': '2018-10-09 13:44:18.409822', 'mgs': 0, 'volt': 0.7813, 'depth': -0.293, 'time': 11, 'pitch': 23.59, 'roll': -33.39, 'pres': 160}
{'lipoC2': 7.34, 'lipoC3S1': 3.83, 'temp': 30.88, 'lipoC3S3': 11.61, 'lipoC3S2': 7.63, 'rot1': 93, 'rot0': 94, 'rot3': 25, 'rot2': 27, 'state': 'normal', 'yaw': 0.02, 'datetime': '2018-10-09 13:44:18.514541', 'mgs': 0, 'volt': 0.7813, 'depth': -0.293, 'time': 11, 'pitch': 23.6, 'roll': -33.41, 'pres': 160}
{'lipoC2': 7.34, 'lipoC3S1': 3.83, 'temp': 30.88, 'lipoC3S3': 11.61, 'lipoC3S2': 7.64, 'rot1': 94, 'rot0': 95, 'rot3': 25, 'rot2': 27, 'state': 'normal', 'yaw': 0.02, 'datetime': '2018-10-09 13:44:18.619935', 'mgs': 0, 'volt': 0.7813, 'depth': -0.293, 'time': 11, 'pitch': 23.6, 'roll': -33.42, 'pres': 160}
{'lipoC2': 7.35, 'lipoC3S1': 3.84, 'temp': 30.88, 'lipoC3S3': 11.61, 'lipoC3S2': 7.68, 'rot1': 95, 'rot0': 96, 'rot3': 25, 'rot2': 27, 'state': 'normal', 'yaw': 0.02, 'datetime': '2018-10-09 13:44:18.733190', 'mgs': 0, 'volt': 0.7813, 'depth': -0.293, 'time': 11, 'pitch': 23.6, 'roll': -33.42, 'pres': 160}
{'lipoC2': 7.34, 'lipoC3S1': 3.84, 'temp': 30.88, 'lipoC3S3': 11.46, 'lipoC3S2': 7.68, 'rot1': 96, 'rot0': 97, 'rot3': 26, 'rot2': 28, 'state': 'normal', 'yaw': 0.02, 'datetime': '2018-10-09 13:44:18.838308', 'mgs': 0, 'volt': 0.7813, 'depth': -0.293, 'time': 11, 'pitch': 23.6, 'roll': -33.43, 'pres': 160}
{'lipoC2': 7.32, 'lipoC3S1': 3.84, 'temp': 30.88, 'lipoC3S3': 11.6, 'lipoC3S2': 7.68, 'rot1': 97, 'rot0': 99, 'rot3': 26, 'rot2': 28, 'state': 'normal', 'yaw': 0.02, 'datetime': '2018-10-09 13:44:18.937602', 'mgs': 0, 'volt': 0.7813, 'depth': -0.293, 'time': 11, 'pitch': 23.6, 'roll': -33.43, 'pres': 160}
{'lipoC2': 7.32, 'lipoC3S1': 3.84, 'temp': 30.88, 'lipoC3S3': 11.6, 'lipoC3S2': 7.68, 'rot1': 99, 'rot0': 100, 'rot3': 26, 'rot2': 28, 'state': 'normal', 'yaw': 0.02, 'datetime': '2018-10-09 13:44:19.040253', 'mgs': 0, 'volt': 0.7813, 'depth': -0.293, 'time': 11, 'pitch': 23.6, 'roll': -33.44, 'pres': 160}
{'lipoC2': 7.34, 'lipoC3S1': 3.87, 'temp': 30.88, 'lipoC3S3': 11.61, 'lipoC3S2': 7.68, 'rot1': 100, 'rot0': 101, 'rot3': 27, 'rot2': 29, 'state': 'normal', 'yaw': 0.02, 'datetime': '2018-10-09 13:44:19.145918', 'mgs': 0, 'volt': 0.7813, 'depth': -0.293, 'time': 12, 'pitch': 23.6, 'roll': -33.44, 'pres': 160}
