{'lipoC2': 7.33, 'lipoC3S1': 3.85, 'temp': 26.88, 'lipoC3S3': 11.64, 'lipoC3S2': 7.71, 'rot1': 25, 'rot0': 24, 'rot3': 55, 'rot2': 44, 'state': 'normal', 'yaw': -6.04, 'datetime': '2018-10-09 20:03:44.742767', 'mgs': 0, 'volt': 0.8545, 'depth': 0.851, 'time': 31, 'pitch': 11.21, 'roll': -5.83, 'pres': 175}
{'lipoC2': 7.33, 'lipoC3S1': 3.85, 'temp': 26.88, 'lipoC3S3': 11.64, 'lipoC3S2': 7.71, 'rot1': 25, 'rot0': 24, 'rot3': 55, 'rot2': 44, 'state': 'normal', 'yaw': -5.94, 'datetime': '2018-10-09 20:03:47.770796', 'mgs': 0, 'volt': 0.8594, 'depth': 0.928, 'time': 32, 'pitch': 11.21, 'roll': -5.61, 'pres': 176}
{'lipoC2': 7.33, 'lipoC3S1': 3.85, 'temp': 26.88, 'lipoC3S3': 11.64, 'lipoC3S2': 7.71, 'rot1': 25, 'rot0': 24, 'rot3': 55, 'rot2': 44, 'state': 'normal', 'yaw': -5.83, 'datetime': '2018-10-09 20:03:50.813405', 'mgs': 0, 'volt': 0.8594, 'depth': 0.928, 'time': 32, 'pitch': 11.21, 'roll': -5.36, 'pres': 176}
{'lipoC2': 7.33, 'lipoC3S1': 3.85, 'temp': 26.94, 'lipoC3S3': 11.64, 'lipoC3S2': 7.71, 'rot1': 25, 'rot0': 24, 'rot3': 55, 'rot2': 44, 'state': 'normal', 'yaw': -5.74, 'datetime': '2018-10-09 20:03:50.843985', 'mgs': 0, 'volt': 0.8643, 'depth': 1.004, 'time': 32, 'pitch': 11.19, 'roll': -5.12, 'pres': 177}
{'lipoC2': 7.33, 'lipoC3S1': 3.85, 'temp': 26.94, 'lipoC3S3': 11.64, 'lipoC3S2': 7.71, 'rot1': 25, 'rot0': 24, 'rot3': 55, 'rot2': 44, 'state': 'normal', 'yaw': -5.63, 'datetime': '2018-10-09 20:03:50.861733', 'mgs': 0, 'volt': 0.8643, 'depth': 1.004, 'time': 32, 'pitch': 11.13, 'roll': -4.89, 'pres': 177}
{'lipoC2': 7.33, 'lipoC3S1': 3.85, 'temp': 26.94, 'lipoC3S3': 11.64, 'lipoC3S2': 7.71, 'rot1': 25, 'rot0': 24, 'rot3': 55, 'rot2': 44, 'state': 'normal', 'yaw': -5.44, 'datetime': '2018-10-09 20:03:50.877716', 'mgs': 0, 'volt': 0.8643, 'depth': 1.004, 'time': 32, 'pitch': 11.09, 'roll': -4.68, 'pres': 177}
{'lipoC2': 7.33, 'lipoC3S1': 3.85, 'temp': 26.94, 'lipoC3S3': 11.64, 'lipoC3S2': 7.71, 'rot1': 25, 'rot0': 24, 'rot3': 55, 'rot2': 44, 'state': 'normal', 'yaw': -5.14, 'datetime': '2018-10-09 20:03:50.893772', 'mgs': 0, 'volt': 0.8643, 'depth': 1.004, 'time': 32, 'pitch': 11.11, 'roll': -4.56, 'pres': 177}
{'lipoC2': 7.33, 'lipoC3S1': 3.85, 'temp': 26.94, 'lipoC3S3': 11.64, 'lipoC3S2': 7.71, 'rot1': 25, 'rot0': 24, 'rot3': 55, 'rot2': 44, 'state': 'normal', 'yaw': -4.81, 'datetime': '2018-10-09 20:03:50.909797', 'mgs': 0, 'volt': 0.8643, 'depth': 1.004, 'time': 32, 'pitch': 11.06, 'roll': -4.49, 'pres': 177}
{'lipoC2': 7.33, 'lipoC3S1': 3.85, 'temp': 26.94, 'lipoC3S3': 11.64, 'lipoC3S2': 7.71, 'rot1': 25, 'rot0': 24, 'rot3': 55, 'rot2': 44, 'state': 'normal', 'yaw': -4.44, 'datetime': '2018-10-09 20:03:50.925838', 'mgs': 0, 'volt': 0.8691, 'depth': 1.08, 'time': 32, 'pitch': 11.04, 'roll': -4.42, 'pres': 178}
{'lipoC2': 7.33, 'lipoC3S1': 3.85, 'temp': 26.94, 'lipoC3S3': 11.64, 'lipoC3S2': 7.71, 'rot1': 25, 'rot0': 24, 'rot3': 55, 'rot2': 44, 'state': 'normal', 'yaw': -3.92, 'datetime': '2018-10-09 20:03:50.941894', 'mgs': 0, 'volt': 0.8691, 'depth': 1.08, 'time': 32, 'pitch': 11.11, 'roll': -4.49, 'pres': 178}
{'lipoC2': 7.33, 'lipoC3S1': 3.85, 'temp': 26.94, 'lipoC3S3': 11.64, 'lipoC3S2': 7.71, 'rot1': 25, 'rot0': 24, 'rot3': 55, 'rot2': 44, 'state': 'normal', 'yaw': -3.21, 'datetime': '2018-10-09 20:03:50.957874', 'mgs': 0, 'volt': 0.8691, 'depth': 1.08, 'time': 32, 'pitch': 11.17, 'roll': -4.64, 'pres': 178}
{'lipoC2': 7.33, 'lipoC3S1': 3.85, 'temp': 26.94, 'lipoC3S3': 11.64, 'lipoC3S2': 7.71, 'rot1': 25, 'rot0': 24, 'rot3': 55, 'rot2': 44, 'state': 'normal', 'yaw': -2.53, 'datetime': '2018-10-09 20:03:50.973898', 'mgs': 0, 'volt': 0.874, 'depth': 1.157, 'time': 33, 'pitch': 11.23, 'roll': -4.78, 'pres': 179}
{'lipoC2': 7.33, 'lipoC3S1': 3.85, 'temp': 26.94, 'lipoC3S3': 11.64, 'lipoC3S2': 7.71, 'rot1': 25, 'rot0': 24, 'rot3': 55, 'rot2': 44, 'state': 'normal', 'yaw': -1.79, 'datetime': '2018-10-09 20:03:50.989950', 'mgs': 0, 'volt': 0.874, 'depth': 1.157, 'time': 33, 'pitch': 11.21, 'roll': -4.88, 'pres': 179}
{'lipoC2': 7.33, 'lipoC3S1': 3.85, 'temp': 26.94, 'lipoC3S3': 11.64, 'lipoC3S2': 7.71, 'rot1': 25, 'rot0': 24, 'rot3': 55, 'rot2': 44, 'state': 'normal', 'yaw': -1.13, 'datetime': '2018-10-09 20:03:51.006005', 'mgs': 0, 'volt': 0.874, 'depth': 1.157, 'time': 33, 'pitch': 11.11, 'roll': -4.88, 'pres': 179}
{'lipoC2': 7.33, 'lipoC3S1': 3.85, 'temp': 26.94, 'lipoC3S3': 11.64, 'lipoC3S2': 7.71, 'rot1': 25, 'rot0': 24, 'rot3': 55, 'rot2': 44, 'state': 'normal', 'yaw': -0.5, 'datetime': '2018-10-09 20:03:51.022151', 'mgs': 0, 'volt': 0.8789, 'depth': 1.233, 'time': 33, 'pitch': 10.94, 'roll': -4.79, 'pres': 180}
{'lipoC2': 7.33, 'lipoC3S1': 3.85, 'temp': 26.94, 'lipoC3S3': 11.64, 'lipoC3S2': 7.71, 'rot1': 25, 'rot0': 24, 'rot3': 55, 'rot2': 44, 'state': 'normal', 'yaw': 0.21, 'datetime': '2018-10-09 20:03:51.038164', 'mgs': 0, 'volt': 0.8789, 'depth': 1.233, 'time': 33, 'pitch': 10.77, 'roll': -4.65, 'pres': 180}
{'lipoC2': 7.33, 'lipoC3S1': 3.85, 'temp': 26.94, 'lipoC3S3': 11.64, 'lipoC3S2': 7.71, 'rot1': 25, 'rot0': 24, 'rot3': 55, 'rot2': 44, 'state': 'normal', 'yaw': 0.84, 'datetime': '2018-10-09 20:03:51.054158', 'mgs': 0, 'volt': 0.8838, 'depth': 1.309, 'time': 33, 'pitch': 10.67, 'roll': -4.47, 'pres': 181}
{'lipoC2': 7.33, 'lipoC3S1': 3.85, 'temp': 26.94, 'lipoC3S3': 11.64, 'lipoC3S2': 7.71, 'rot1': 25, 'rot0': 24, 'rot3': 55, 'rot2': 44, 'state': 'normal', 'yaw': 1.44, 'datetime': '2018-10-09 20:03:51.070138', 'mgs': 0, 'volt': 0.8838, 'depth': 1.309, 'time': 33, 'pitch': 10.69, 'roll': -4.21, 'pres': 181}
{'lipoC2': 7.33, 'lipoC3S1': 3.85, 'temp': 26.94, 'lipoC3S3': 11.64, 'lipoC3S2': 7.71, 'rot1': 25, 'rot0': 24, 'rot3': 55, 'rot2': 44, 'state': 'normal', 'yaw': 2.07, 'datetime': '2018-10-09 20:03:51.086228', 'mgs': 0, 'volt': 0.8838, 'depth': 1.309, 'time': 33, 'pitch': 10.73, 'roll': -3.86, 'pres': 181}
{'lipoC2': 7.33, 'lipoC3S1': 3.85, 'temp': 26.88, 'lipoC3S3': 11.64, 'lipoC3S2': 7.71, 'rot1': 25, 'rot0': 24, 'rot3': 55, 'rot2': 44, 'state': 'normal', 'yaw': 2.62, 'datetime': '2018-10-09 20:03:51.102293', 'mgs': 0, 'volt': 0.8887, 'depth': 1.385, 'time': 33, 'pitch': 10.77, 'roll': -3.51, 'pres': 182}
{'lipoC2': 7.33, 'lipoC3S1': 3.85, 'temp': 26.88, 'lipoC3S3': 11.64, 'lipoC3S2': 7.71, 'rot1': 25, 'rot0': 24, 'rot3': 55, 'rot2': 44, 'state': 'normal', 'yaw': 3.15, 'datetime': '2018-10-09 20:03:51.118289', 'mgs': 0, 'volt': 0.8887, 'depth': 1.385, 'time': 34, 'pitch': 10.8, 'roll': -3.12, 'pres': 182}
{'lipoC2': 7.33, 'lipoC3S1': 3.85, 'temp': 26.94, 'lipoC3S3': 11.64, 'lipoC3S2': 7.71, 'rot1': 25, 'rot0': 24, 'rot3': 55, 'rot2': 44, 'state': 'normal', 'yaw': 3.72, 'datetime': '2018-10-09 20:03:51.134293', 'mgs': 0, 'volt': 0.8887, 'depth': 1.385, 'time': 34, 'pitch': 10.83, 'roll': -2.69, 'pres': 182}
{'lipoC2': 7.33, 'lipoC3S1': 3.85, 'temp': 26.94, 'lipoC3S3': 11.64, 'lipoC3S2': 7.71, 'rot1': 25, 'rot0': 24, 'rot3': 55, 'rot2': 44, 'state': 'normal', 'yaw': 4.22, 'datetime': '2018-10-09 20:03:51.150317', 'mgs': 0, 'volt': 0.8887, 'depth': 1.385, 'time': 34, 'pitch': 10.85, 'roll': -2.29, 'pres': 182}
{'lipoC2': 7.33, 'lipoC3S1': 3.85, 'temp': 26.94, 'lipoC3S3': 11.64, 'lipoC3S2': 7.71, 'rot1': 25, 'rot0': 24, 'rot3': 55, 'rot2': 44, 'state': 'normal', 'yaw': 4.71, 'datetime': '2018-10-09 20:03:51.166307', 'mgs': 0, 'volt': 0.8936, 'depth': 1.462, 'time': 34, 'pitch': 10.87, 'roll': -1.93, 'pres': 183}
{'lipoC2': 7.33, 'lipoC3S1': 3.85, 'temp': 26.94, 'lipoC3S3': 11.64, 'lipoC3S2': 7.71, 'rot1': 25, 'rot0': 24, 'rot3': 55, 'rot2': 44, 'state': 'normal', 'yaw': 5.23, 'datetime': '2018-10-09 20:03:51.182321', 'mgs': 0, 'volt': 0.8936, 'depth': 1.462, 'time': 34, 'pitch': 10.89, 'roll': -1.58, 'pres': 183}
{'lipoC2': 7.33, 'lipoC3S1': 3.85, 'temp': 26.94, 'lipoC3S3': 11.64, 'lipoC3S2': 7.71, 'rot1': 25, 'rot0': 24, 'rot3': 55, 'rot2': 44, 'state': 'normal', 'yaw': 5.69, 'datetime': '2018-10-09 20:03:51.198334', 'mgs': 0, 'volt': 0.8936, 'depth': 1.462, 'time': 34, 'pitch': 10.92, 'roll': -1.34, 'pres': 183}
{'lipoC2': 7.33, 'lipoC3S1': 3.85, 'temp': 26.94, 'lipoC3S3': 11.64, 'lipoC3S2': 7.71, 'rot1': 25, 'rot0': 24, 'rot3': 55, 'rot2': 44, 'state': 'normal', 'yaw': 6.19, 'datetime': '2018-10-09 20:03:51.214351', 'mgs': 0, 'volt': 0.8984, 'depth': 1.538, 'time': 34, 'pitch': 10.93, 'roll': -1.14, 'pres': 184}
{'lipoC2': 7.33, 'lipoC3S1': 3.85, 'temp': 26.94, 'lipoC3S3': 11.64, 'lipoC3S2': 7.71, 'rot1': 25, 'rot0': 24, 'rot3': 55, 'rot2': 44, 'state': 'normal', 'yaw': 6.64, 'datetime': '2018-10-09 20:03:51.230514', 'mgs': 0, 'volt': 0.8984, 'depth': 1.538, 'time': 34, 'pitch': 10.94, 'roll': -1.05, 'pres': 184}
{'lipoC2': 7.33, 'lipoC3S1': 3.85, 'temp': 26.94, 'lipoC3S3': 11.64, 'lipoC3S2': 7.71, 'rot1': 25, 'rot0': 24, 'rot3': 55, 'rot2': 44, 'state': 'normal', 'yaw': 7.07, 'datetime': '2018-10-09 20:03:51.246520', 'mgs': 0, 'volt': 0.8984, 'depth': 1.538, 'time': 34, 'pitch': 10.96, 'roll': -0.97, 'pres': 184}
{'lipoC2': 7.33, 'lipoC3S1': 3.85, 'temp': 26.94, 'lipoC3S3': 11.64, 'lipoC3S2': 7.71, 'rot1': 25, 'rot0': 24, 'rot3': 55, 'rot2': 44, 'state': 'normal', 'yaw': 7.5, 'datetime': '2018-10-09 20:03:51.262497', 'mgs': 0, 'volt': 0.9033, 'depth': 1.614, 'time': 34, 'pitch': 11.08, 'roll': -0.96, 'pres': 185}
{'lipoC2': 7.33, 'lipoC3S1': 3.85, 'temp': 26.94, 'lipoC3S3': 11.64, 'lipoC3S2': 7.71, 'rot1': 25, 'rot0': 24, 'rot3': 55, 'rot2': 44, 'state': 'normal', 'yaw': 7.59, 'datetime': '2018-10-09 20:03:51.278464', 'mgs': 0, 'volt': 0.8984, 'depth': 1.538, 'time': 35, 'pitch': 11.23, 'roll': -0.92, 'pres': 184}
{'lipoC2': 7.33, 'lipoC3S1': 3.85, 'temp': 26.94, 'lipoC3S3': 11.64, 'lipoC3S2': 7.71, 'rot1': 25, 'rot0': 24, 'rot3': 55, 'rot2': 44, 'state': 'normal', 'yaw': 7.51, 'datetime': '2018-10-09 20:03:51.294472', 'mgs': 0, 'volt': 0.9033, 'depth': 1.614, 'time': 35, 'pitch': 11.03, 'roll': -0.81, 'pres': 185}
{'lipoC2': 7.33, 'lipoC3S1': 3.85, 'temp': 26.94, 'lipoC3S3': 11.64, 'lipoC3S2': 7.71, 'rot1': 25, 'rot0': 24, 'rot3': 55, 'rot2': 44, 'state': 'normal', 'yaw': 7.34, 'datetime': '2018-10-09 20:03:51.310536', 'mgs': 0, 'volt': 0.9033, 'depth': 1.614, 'time': 35, 'pitch': 10.27, 'roll': -0.76, 'pres': 185}
{'lipoC2': 7.33, 'lipoC3S1': 3.85, 'temp': 26.94, 'lipoC3S3': 11.64, 'lipoC3S2': 7.71, 'rot1': 25, 'rot0': 24, 'rot3': 55, 'rot2': 44, 'state': 'normal', 'yaw': 7.35, 'datetime': '2018-10-09 20:03:51.326566', 'mgs': 0, 'volt': 0.9033, 'depth': 1.614, 'time': 35, 'pitch': 9.04, 'roll': -0.86, 'pres': 185}
{'lipoC2': 7.33, 'lipoC3S1': 3.85, 'temp': 26.94, 'lipoC3S3': 11.64, 'lipoC3S2': 7.71, 'rot1': 25, 'rot0': 24, 'rot3': 55, 'rot2': 44, 'state': 'normal', 'yaw': 7.17, 'datetime': '2018-10-09 20:03:51.342665', 'mgs': 0, 'volt': 0.9033, 'depth': 1.614, 'time': 35, 'pitch': 7.97, 'roll': -1.02, 'pres': 185}
{'lipoC2': 7.33, 'lipoC3S1': 3.85, 'temp': 26.94, 'lipoC3S3': 11.64, 'lipoC3S2': 7.71, 'rot1': 25, 'rot0': 24, 'rot3': 55, 'rot2': 44, 'state': 'normal', 'yaw': 6.9, 'datetime': '2018-10-09 20:03:51.358659', 'mgs': 0, 'volt': 0.8984, 'depth': 1.538, 'time': 35, 'pitch': 7.15, 'roll': -1.26, 'pres': 184}
{'lipoC2': 7.33, 'lipoC3S1': 3.85, 'temp': 26.94, 'lipoC3S3': 11.64, 'lipoC3S2': 7.71, 'rot1': 25, 'rot0': 24, 'rot3': 55, 'rot2': 44, 'state': 'normal', 'yaw': 6.75, 'datetime': '2018-10-09 20:03:51.374662', 'mgs': 0, 'volt': 0.9033, 'depth': 1.614, 'time': 35, 'pitch': 6.77, 'roll': -1.71, 'pres': 185}
{'lipoC2': 7.33, 'lipoC3S1': 3.85, 'temp': 26.94, 'lipoC3S3': 11.64, 'lipoC3S2': 7.71, 'rot1': 25, 'rot0': 24, 'rot3': 55, 'rot2': 44, 'state': 'normal', 'yaw': 6.74, 'datetime': '2018-10-09 20:03:51.390671', 'mgs': 0, 'volt': 0.8984, 'depth': 1.538, 'time': 35, 'pitch': 6.75, 'roll': -2.39, 'pres': 184}
{'lipoC2': 7.33, 'lipoC3S1': 3.85, 'temp': 27.0, 'lipoC3S3': 11.64, 'lipoC3S2': 7.71, 'rot1': 25, 'rot0': 24, 'rot3': 55, 'rot2': 44, 'state': 'normal', 'yaw': 6.92, 'datetime': '2018-10-09 20:03:51.406656', 'mgs': 0, 'volt': 0.8984, 'depth': 1.538, 'time': 35, 'pitch': 6.87, 'roll': -3.05, 'pres': 184}
{'lipoC2': 7.33, 'lipoC3S1': 3.85, 'temp': 27.0, 'lipoC3S3': 11.64, 'lipoC3S2': 7.71, 'rot1': 25, 'rot0': 24, 'rot3': 55, 'rot2': 44, 'state': 'normal', 'yaw': 7.1, 'datetime': '2018-10-09 20:03:51.422694', 'mgs': 0, 'volt': 0.8936, 'depth': 1.462, 'time': 36, 'pitch': 6.82, 'roll': -3.56, 'pres': 183}
{'lipoC2': 7.33, 'lipoC3S1': 3.85, 'temp': 26.94, 'lipoC3S3': 11.64, 'lipoC3S2': 7.71, 'rot1': 25, 'rot0': 24, 'rot3': 55, 'rot2': 44, 'state': 'normal', 'yaw': 7.08, 'datetime': '2018-10-09 20:03:51.438745', 'mgs': 0, 'volt': 0.8936, 'depth': 1.462, 'time': 36, 'pitch': 6.58, 'roll': -3.66, 'pres': 183}
{'lipoC2': 7.33, 'lipoC3S1': 3.85, 'temp': 26.94, 'lipoC3S3': 11.64, 'lipoC3S2': 7.71, 'rot1': 25, 'rot0': 24, 'rot3': 55, 'rot2': 44, 'state': 'normal', 'yaw': 6.67, 'datetime': '2018-10-09 20:03:51.454883', 'mgs': 0, 'volt': 0.8936, 'depth': 1.462, 'time': 36, 'pitch': 6.51, 'roll': -3.39, 'pres': 183}
{'lipoC2': 7.33, 'lipoC3S1': 3.85, 'temp': 26.94, 'lipoC3S3': 11.64, 'lipoC3S2': 7.71, 'rot1': 25, 'rot0': 24, 'rot3': 55, 'rot2': 44, 'state': 'normal', 'yaw': 5.86, 'datetime': '2018-10-09 20:03:51.470932', 'mgs': 0, 'volt': 0.8936, 'depth': 1.462, 'time': 36, 'pitch': 6.92, 'roll': -2.82, 'pres': 183}
{'lipoC2': 7.33, 'lipoC3S1': 3.85, 'temp': 26.94, 'lipoC3S3': 11.64, 'lipoC3S2': 7.71, 'rot1': 25, 'rot0': 24, 'rot3': 55, 'rot2': 44, 'state': 'normal', 'yaw': 5.09, 'datetime': '2018-10-09 20:03:51.486964', 'mgs': 0, 'volt': 0.8936, 'depth': 1.462, 'time': 36, 'pitch': 7.61, 'roll': -2.29, 'pres': 183}
{'lipoC2': 7.33, 'lipoC3S1': 3.85, 'temp': 26.94, 'lipoC3S3': 11.64, 'lipoC3S2': 7.71, 'rot1': 25, 'rot0': 24, 'rot3': 55, 'rot2': 44, 'state': 'normal', 'yaw': 4.5, 'datetime': '2018-10-09 20:03:51.502993', 'mgs': 0, 'volt': 0.8887, 'depth': 1.385, 'time': 36, 'pitch': 8.38, 'roll': -1.93, 'pres': 182}
{'lipoC2': 7.33, 'lipoC3S1': 3.85, 'temp': 26.94, 'lipoC3S3': 11.64, 'lipoC3S2': 7.71, 'rot1': 25, 'rot0': 24, 'rot3': 55, 'rot2': 44, 'state': 'normal', 'yaw': 4.19, 'datetime': '2018-10-09 20:03:51.518982', 'mgs': 0, 'volt': 0.8838, 'depth': 1.309, 'time': 36, 'pitch': 9.1, 'roll': -1.82, 'pres': 181}
{'lipoC2': 7.33, 'lipoC3S1': 3.85, 'temp': 26.94, 'lipoC3S3': 11.64, 'lipoC3S2': 7.71, 'rot1': 25, 'rot0': 24, 'rot3': 55, 'rot2': 44, 'state': 'normal', 'yaw': 4.13, 'datetime': '2018-10-09 20:03:51.534987', 'mgs': 0, 'volt': 0.8838, 'depth': 1.309, 'time': 36, 'pitch': 9.57, 'roll': -1.9, 'pres': 181}
{'lipoC2': 7.33, 'lipoC3S1': 3.85, 'temp': 26.94, 'lipoC3S3': 11.64, 'lipoC3S2': 7.71, 'rot1': 25, 'rot0': 24, 'rot3': 55, 'rot2': 44, 'state': 'normal', 'yaw': 4.18, 'datetime': '2018-10-09 20:03:51.550994', 'mgs': 0, 'volt': 0.8789, 'depth': 1.233, 'time': 36, 'pitch': 9.96, 'roll': -2.11, 'pres': 180}
{'lipoC2': 7.33, 'lipoC3S1': 3.85, 'temp': 26.94, 'lipoC3S3': 11.64, 'lipoC3S2': 7.71, 'rot1': 25, 'rot0': 24, 'rot3': 55, 'rot2': 44, 'state': 'normal', 'yaw': 4.33, 'datetime': '2018-10-09 20:03:51.567014', 'mgs': 0, 'volt': 0.874, 'depth': 1.157, 'time': 36, 'pitch': 10.26, 'roll': -2.42, 'pres': 179}
{'lipoC2': 7.33, 'lipoC3S1': 3.85, 'temp': 26.94, 'lipoC3S3': 11.64, 'lipoC3S2': 7.71, 'rot1': 25, 'rot0': 24, 'rot3': 55, 'rot2': 44, 'state': 'normal', 'yaw': 4.5, 'datetime': '2018-10-09 20:03:51.583206', 'mgs': 0, 'volt': 0.874, 'depth': 1.157, 'time': 37, 'pitch': 10.43, 'roll': -2.7, 'pres': 179}
{'lipoC2': 7.33, 'lipoC3S1': 3.85, 'temp': 26.94, 'lipoC3S3': 11.64, 'lipoC3S2': 7.71, 'rot1': 25, 'rot0': 24, 'rot3': 55, 'rot2': 44, 'state': 'normal', 'yaw': 4.84, 'datetime': '2018-10-09 20:03:51.599257', 'mgs': 0, 'volt': 0.8691, 'depth': 1.08, 'time': 37, 'pitch': 10.51, 'roll': -3.1, 'pres': 178}
{'lipoC2': 7.33, 'lipoC3S1': 3.85, 'temp': 26.94, 'lipoC3S3': 11.64, 'lipoC3S2': 7.71, 'rot1': 25, 'rot0': 24, 'rot3': 55, 'rot2': 44, 'state': 'normal', 'yaw': 5.08, 'datetime': '2018-10-09 20:03:51.615344', 'mgs': 0, 'volt': 0.8691, 'depth': 1.08, 'time': 37, 'pitch': 10.34, 'roll': -3.38, 'pres': 178}
{'lipoC2': 7.33, 'lipoC3S1': 3.85, 'temp': 26.94, 'lipoC3S3': 11.64, 'lipoC3S2': 7.71, 'rot1': 25, 'rot0': 24, 'rot3': 55, 'rot2': 44, 'state': 'normal', 'yaw': 5.31, 'datetime': '2018-10-09 20:03:51.631376', 'mgs': 0, 'volt': 0.8643, 'depth': 1.004, 'time': 37, 'pitch': 10.09, 'roll': -3.59, 'pres': 177}
{'lipoC2': 7.33, 'lipoC3S1': 3.85, 'temp': 26.94, 'lipoC3S3': 11.64, 'lipoC3S2': 7.71, 'rot1': 25, 'rot0': 24, 'rot3': 55, 'rot2': 44, 'state': 'normal', 'yaw': 5.4, 'datetime': '2018-10-09 20:03:51.647399', 'mgs': 0, 'volt': 0.8643, 'depth': 1.004, 'time': 37, 'pitch': 10.15, 'roll': -3.68, 'pres': 177}
{'lipoC2': 7.33, 'lipoC3S1': 3.85, 'temp': 26.94, 'lipoC3S3': 11.64, 'lipoC3S2': 7.71, 'rot1': 25, 'rot0': 24, 'rot3': 55, 'rot2': 44, 'state': 'normal', 'yaw': 5.32, 'datetime': '2018-10-09 20:03:51.663566', 'mgs': 0, 'volt': 0.8594, 'depth': 0.928, 'time': 37, 'pitch': 10.66, 'roll': -3.61, 'pres': 176}
{'lipoC2': 7.33, 'lipoC3S1': 3.85, 'temp': 26.94, 'lipoC3S3': 11.64, 'lipoC3S2': 7.71, 'rot1': 25, 'rot0': 24, 'rot3': 55, 'rot2': 44, 'state': 'normal', 'yaw': 5.27, 'datetime': '2018-10-09 20:03:51.679580', 'mgs': 0, 'volt': 0.8594, 'depth': 0.928, 'time': 37, 'pitch': 11.51, 'roll': -3.47, 'pres': 176}
{'lipoC2': 7.33, 'lipoC3S1': 3.85, 'temp': 26.94, 'lipoC3S3': 11.64, 'lipoC3S2': 7.71, 'rot1': 25, 'rot0': 24, 'rot3': 55, 'rot2': 44, 'state': 'normal', 'yaw': 5.09, 'datetime': '2018-10-09 20:03:51.695557', 'mgs': 0, 'volt': 0.8545, 'depth': 0.851, 'time': 37, 'pitch': 12.45, 'roll': -3.24, 'pres': 175}
{'lipoC2': 7.33, 'lipoC3S1': 3.85, 'temp': 26.94, 'lipoC3S3': 11.64, 'lipoC3S2': 7.71, 'rot1': 25, 'rot0': 24, 'rot3': 55, 'rot2': 44, 'state': 'normal', 'yaw': 5.01, 'datetime': '2018-10-09 20:03:51.711590', 'mgs': 0, 'volt': 0.8545, 'depth': 0.851, 'time': 37, 'pitch': 13.26, 'roll': -3.04, 'pres': 175}
{'lipoC2': 7.33, 'lipoC3S1': 3.85, 'temp': 26.94, 'lipoC3S3': 11.64, 'lipoC3S2': 7.71, 'rot1': 25, 'rot0': 24, 'rot3': 55, 'rot2': 44, 'state': 'normal', 'yaw': 5.03, 'datetime': '2018-10-09 20:03:51.727629', 'mgs': 0, 'volt': 0.8545, 'depth': 0.851, 'time': 37, 'pitch': 13.97, 'roll': -2.85, 'pres': 175}
{'lipoC2': 7.33, 'lipoC3S1': 3.85, 'temp': 26.94, 'lipoC3S3': 11.64, 'lipoC3S2': 7.71, 'rot1': 25, 'rot0': 24, 'rot3': 55, 'rot2': 44, 'state': 'normal', 'yaw': 5.18, 'datetime': '2018-10-09 20:03:51.743705', 'mgs': 0, 'volt': 0.8496, 'depth': 0.775, 'time': 38, 'pitch': 14.4, 'roll': -2.68, 'pres': 174}
{'lipoC2': 7.33, 'lipoC3S1': 3.85, 'temp': 26.94, 'lipoC3S3': 11.64, 'lipoC3S2': 7.71, 'rot1': 25, 'rot0': 24, 'rot3': 55, 'rot2': 44, 'state': 'normal', 'yaw': 5.47, 'datetime': '2018-10-09 20:03:51.759689', 'mgs': 0, 'volt': 0.8496, 'depth': 0.775, 'time': 38, 'pitch': 14.5, 'roll': -2.5, 'pres': 174}
{'lipoC2': 7.33, 'lipoC3S1': 3.85, 'temp': 27.0, 'lipoC3S3': 11.64, 'lipoC3S2': 7.71, 'rot1': 25, 'rot0': 24, 'rot3': 55, 'rot2': 44, 'state': 'normal', 'yaw': 5.92, 'datetime': '2018-10-09 20:03:51.775667', 'mgs': 0, 'volt': 0.8496, 'depth': 0.775, 'time': 38, 'pitch': 14.34, 'roll': -2.33, 'pres': 174}
{'lipoC2': 7.33, 'lipoC3S1': 3.85, 'temp': 27.0, 'lipoC3S3': 11.64, 'lipoC3S2': 7.71, 'rot1': 25, 'rot0': 24, 'rot3': 55, 'rot2': 44, 'state': 'normal', 'yaw': 6.39, 'datetime': '2018-10-09 20:03:51.791686', 'mgs': 0, 'volt': 0.8447, 'depth': 0.699, 'time': 38, 'pitch': 14.14, 'roll': -2.21, 'pres': 173}
{'lipoC2': 7.33, 'lipoC3S1': 3.85, 'temp': 26.94, 'lipoC3S3': 11.64, 'lipoC3S2': 7.71, 'rot1': 25, 'rot0': 24, 'rot3': 55, 'rot2': 44, 'state': 'normal', 'yaw': 6.73, 'datetime': '2018-10-09 20:03:51.807670', 'mgs': 0, 'volt': 0.8447, 'depth': 0.699, 'time': 38, 'pitch': 13.95, 'roll': -2.09, 'pres': 173}
{'lipoC2': 7.33, 'lipoC3S1': 3.85, 'temp': 26.94, 'lipoC3S3': 11.64, 'lipoC3S2': 7.71, 'rot1': 25, 'rot0': 24, 'rot3': 55, 'rot2': 44, 'state': 'normal', 'yaw': 6.95, 'datetime': '2018-10-09 20:03:51.823706', 'mgs': 0, 'volt': 0.8447, 'depth': 0.699, 'time': 38, 'pitch': 13.78, 'roll': -1.93, 'pres': 173}
{'lipoC2': 7.33, 'lipoC3S1': 3.85, 'temp': 26.94, 'lipoC3S3': 11.64, 'lipoC3S2': 7.71, 'rot1': 25, 'rot0': 24, 'rot3': 55, 'rot2': 44, 'state': 'normal', 'yaw': 6.98, 'datetime': '2018-10-09 20:03:51.839728', 'mgs': 0, 'volt': 0.8447, 'depth': 0.699, 'time': 38, 'pitch': 13.76, 'roll': -1.78, 'pres': 173}
{'lipoC2': 7.33, 'lipoC3S1': 3.85, 'temp': 26.94, 'lipoC3S3': 11.64, 'lipoC3S2': 7.71, 'rot1': 25, 'rot0': 24, 'rot3': 55, 'rot2': 44, 'state': 'normal', 'yaw': 6.79, 'datetime': '2018-10-09 20:03:51.855746', 'mgs': 0, 'volt': 0.8398, 'depth': 0.623, 'time': 38, 'pitch': 13.93, 'roll': -1.59, 'pres': 172}
{'lipoC2': 7.33, 'lipoC3S1': 3.85, 'temp': 26.94, 'lipoC3S3': 11.64, 'lipoC3S2': 7.71, 'rot1': 25, 'rot0': 24, 'rot3': 55, 'rot2': 44, 'state': 'normal', 'yaw': 6.51, 'datetime': '2018-10-09 20:03:51.871903', 'mgs': 0, 'volt': 0.8398, 'depth': 0.623, 'time': 38, 'pitch': 14.32, 'roll': -1.48, 'pres': 172}
{'lipoC2': 7.33, 'lipoC3S1': 3.85, 'temp': 26.94, 'lipoC3S3': 11.64, 'lipoC3S2': 7.71, 'rot1': 25, 'rot0': 24, 'rot3': 55, 'rot2': 44, 'state': 'normal', 'yaw': 6.24, 'datetime': '2018-10-09 20:03:51.887913', 'mgs': 0, 'volt': 0.8398, 'depth': 0.623, 'time': 39, 'pitch': 14.75, 'roll': -1.5, 'pres': 172}
{'lipoC2': 7.33, 'lipoC3S1': 3.85, 'temp': 26.94, 'lipoC3S3': 11.64, 'lipoC3S2': 7.71, 'rot1': 25, 'rot0': 24, 'rot3': 55, 'rot2': 44, 'state': 'normal', 'yaw': 6.12, 'datetime': '2018-10-09 20:03:51.903968', 'mgs': 0, 'volt': 0.835, 'depth': 0.546, 'time': 39, 'pitch': 14.82, 'roll': -1.72, 'pres': 171}
{'lipoC2': 7.33, 'lipoC3S1': 3.85, 'temp': 26.94, 'lipoC3S3': 11.64, 'lipoC3S2': 7.71, 'rot1': 25, 'rot0': 24, 'rot3': 55, 'rot2': 44, 'state': 'normal', 'yaw': 5.97, 'datetime': '2018-10-09 20:03:51.920019', 'mgs': 0, 'volt': 0.835, 'depth': 0.546, 'time': 39, 'pitch': 14.47, 'roll': -2.01, 'pres': 171}
{'lipoC2': 7.33, 'lipoC3S1': 3.85, 'temp': 26.94, 'lipoC3S3': 11.64, 'lipoC3S2': 7.71, 'rot1': 25, 'rot0': 24, 'rot3': 55, 'rot2': 44, 'state': 'normal', 'yaw': 5.61, 'datetime': '2018-10-09 20:03:51.936159', 'mgs': 0, 'volt': 0.835, 'depth': 0.546, 'time': 39, 'pitch': 14.1, 'roll': -2.22, 'pres': 171}
{'lipoC2': 7.33, 'lipoC3S1': 3.85, 'temp': 26.94, 'lipoC3S3': 11.64, 'lipoC3S2': 7.71, 'rot1': 25, 'rot0': 24, 'rot3': 55, 'rot2': 44, 'state': 'normal', 'yaw': 5.08, 'datetime': '2018-10-09 20:03:51.952318', 'mgs': 0, 'volt': 0.835, 'depth': 0.546, 'time': 39, 'pitch': 13.75, 'roll': -2.36, 'pres': 171}
{'lipoC2': 7.33, 'lipoC3S1': 3.85, 'temp': 26.94, 'lipoC3S3': 11.64, 'lipoC3S2': 7.71, 'rot1': 25, 'rot0': 24, 'rot3': 55, 'rot2': 44, 'state': 'normal', 'yaw': 4.68, 'datetime': '2018-10-09 20:03:51.968417', 'mgs': 0, 'volt': 0.835, 'depth': 0.546, 'time': 39, 'pitch': 13.42, 'roll': -2.45, 'pres': 171}
{'lipoC2': 7.33, 'lipoC3S1': 3.85, 'temp': 26.94, 'lipoC3S3': 11.64, 'lipoC3S2': 7.71, 'rot1': 25, 'rot0': 24, 'rot3': 55, 'rot2': 44, 'state': 'normal', 'yaw': 4.43, 'datetime': '2018-10-09 20:03:51.984511', 'mgs': 0, 'volt': 0.8398, 'depth': 0.623, 'time': 39, 'pitch': 13.08, 'roll': -2.67, 'pres': 172}
{'lipoC2': 7.33, 'lipoC3S1': 3.85, 'temp': 26.94, 'lipoC3S3': 11.64, 'lipoC3S2': 7.71, 'rot1': 25, 'rot0': 24, 'rot3': 55, 'rot2': 44, 'state': 'normal', 'yaw': 4.48, 'datetime': '2018-10-09 20:03:52.000625', 'mgs': 0, 'volt': 0.835, 'depth': 0.546, 'time': 39, 'pitch': 12.98, 'roll': -3.0, 'pres': 171}
{'lipoC2': 7.33, 'lipoC3S1': 3.85, 'temp': 26.94, 'lipoC3S3': 11.64, 'lipoC3S2': 7.71, 'rot1': 25, 'rot0': 24, 'rot3': 55, 'rot2': 44, 'state': 'normal', 'yaw': 4.62, 'datetime': '2018-10-09 20:03:52.016742', 'mgs': 0, 'volt': 0.8398, 'depth': 0.623, 'time': 39, 'pitch': 13.07, 'roll': -3.35, 'pres': 172}
{'lipoC2': 7.33, 'lipoC3S1': 3.85, 'temp': 26.94, 'lipoC3S3': 11.64, 'lipoC3S2': 7.71, 'rot1': 25, 'rot0': 24, 'rot3': 55, 'rot2': 44, 'state': 'normal', 'yaw': 4.59, 'datetime': '2018-10-09 20:03:52.032864', 'mgs': 0, 'volt': 0.8398, 'depth': 0.623, 'time': 39, 'pitch': 13.15, 'roll': -3.54, 'pres': 172}
{'lipoC2': 7.33, 'lipoC3S1': 3.85, 'temp': 26.94, 'lipoC3S3': 11.64, 'lipoC3S2': 7.71, 'rot1': 25, 'rot0': 24, 'rot3': 55, 'rot2': 44, 'state': 'normal', 'yaw': 4.35, 'datetime': '2018-10-09 20:03:52.048989', 'mgs': 0, 'volt': 0.8398, 'depth': 0.623, 'time': 40, 'pitch': 13.07, 'roll': -3.51, 'pres': 172}
{'lipoC2': 7.33, 'lipoC3S1': 3.85, 'temp': 26.94, 'lipoC3S3': 11.64, 'lipoC3S2': 7.71, 'rot1': 25, 'rot0': 24, 'rot3': 55, 'rot2': 44, 'state': 'normal', 'yaw': 4.11, 'datetime': '2018-10-09 20:03:52.065088', 'mgs': 0, 'volt': 0.8398, 'depth': 0.623, 'time': 40, 'pitch': 12.67, 'roll': -3.37, 'pres': 172}
{'lipoC2': 7.33, 'lipoC3S1': 3.85, 'temp': 26.94, 'lipoC3S3': 11.64, 'lipoC3S2': 7.71, 'rot1': 25, 'rot0': 24, 'rot3': 55, 'rot2': 44, 'state': 'normal', 'yaw': 4.06, 'datetime': '2018-10-09 20:03:52.081167', 'mgs': 0, 'volt': 0.8398, 'depth': 0.623, 'time': 40, 'pitch': 12.15, 'roll': -3.3, 'pres': 172}
{'lipoC2': 7.33, 'lipoC3S1': 3.85, 'temp': 26.94, 'lipoC3S3': 11.64, 'lipoC3S2': 7.71, 'rot1': 25, 'rot0': 24, 'rot3': 55, 'rot2': 44, 'state': 'normal', 'yaw': 4.13, 'datetime': '2018-10-09 20:03:52.097475', 'mgs': 0, 'volt': 0.8447, 'depth': 0.699, 'time': 40, 'pitch': 11.82, 'roll': -3.28, 'pres': 173}
{'lipoC2': 7.33, 'lipoC3S1': 3.85, 'temp': 26.94, 'lipoC3S3': 11.64, 'lipoC3S2': 7.71, 'rot1': 25, 'rot0': 24, 'rot3': 55, 'rot2': 44, 'state': 'normal', 'yaw': 4.14, 'datetime': '2018-10-09 20:03:52.113611', 'mgs': 0, 'volt': 0.8447, 'depth': 0.699, 'time': 40, 'pitch': 11.82, 'roll': -3.28, 'pres': 173}
{'lipoC2': 7.33, 'lipoC3S1': 3.85, 'temp': 26.94, 'lipoC3S3': 11.64, 'lipoC3S2': 7.71, 'rot1': 25, 'rot0': 24, 'rot3': 55, 'rot2': 44, 'state': 'normal', 'yaw': 4.11, 'datetime': '2018-10-09 20:03:52.129727', 'mgs': 0, 'volt': 0.8447, 'depth': 0.699, 'time': 40, 'pitch': 11.92, 'roll': -3.29, 'pres': 173}
{'lipoC2': 7.33, 'lipoC3S1': 3.85, 'temp': 26.94, 'lipoC3S3': 11.64, 'lipoC3S2': 7.71, 'rot1': 25, 'rot0': 24, 'rot3': 55, 'rot2': 44, 'state': 'normal', 'yaw': 4.03, 'datetime': '2018-10-09 20:03:52.145928', 'mgs': 0, 'volt': 0.8496, 'depth': 0.775, 'time': 40, 'pitch': 11.86, 'roll': -3.24, 'pres': 174}
{'lipoC2': 7.33, 'lipoC3S1': 3.85, 'temp': 26.94, 'lipoC3S3': 11.64, 'lipoC3S2': 7.71, 'rot1': 25, 'rot0': 24, 'rot3': 55, 'rot2': 44, 'state': 'normal', 'yaw': 4.01, 'datetime': '2018-10-09 20:03:52.162035', 'mgs': 0, 'volt': 0.8496, 'depth': 0.775, 'time': 40, 'pitch': 11.45, 'roll': -3.23, 'pres': 174}
{'lipoC2': 7.33, 'lipoC3S1': 3.85, 'temp': 26.94, 'lipoC3S3': 11.64, 'lipoC3S2': 7.71, 'rot1': 25, 'rot0': 24, 'rot3': 55, 'rot2': 44, 'state': 'normal', 'yaw': 4.06, 'datetime': '2018-10-09 20:03:52.178475', 'mgs': 0, 'volt': 0.8447, 'depth': 0.699, 'time': 40, 'pitch': 10.96, 'roll': -3.29, 'pres': 173}
{'lipoC2': 7.33, 'lipoC3S1': 3.85, 'temp': 26.94, 'lipoC3S3': 11.64, 'lipoC3S2': 7.71, 'rot1': 25, 'rot0': 24, 'rot3': 55, 'rot2': 44, 'state': 'normal', 'yaw': 4.18, 'datetime': '2018-10-09 20:03:52.194573', 'mgs': 0, 'volt': 0.8496, 'depth': 0.775, 'time': 40, 'pitch': 10.67, 'roll': -3.43, 'pres': 174}
{'lipoC2': 7.33, 'lipoC3S1': 3.85, 'temp': 26.94, 'lipoC3S3': 11.64, 'lipoC3S2': 7.71, 'rot1': 25, 'rot0': 24, 'rot3': 55, 'rot2': 44, 'state': 'normal', 'yaw': 4.22, 'datetime': '2018-10-09 20:03:52.210575', 'mgs': 0, 'volt': 0.8496, 'depth': 0.775, 'time': 41, 'pitch': 10.62, 'roll': -3.62, 'pres': 174}
{'lipoC2': 7.33, 'lipoC3S1': 3.85, 'temp': 26.94, 'lipoC3S3': 11.64, 'lipoC3S2': 7.71, 'rot1': 25, 'rot0': 24, 'rot3': 55, 'rot2': 44, 'state': 'normal', 'yaw': 4.17, 'datetime': '2018-10-09 20:03:52.226551', 'mgs': 0, 'volt': 0.8496, 'depth': 0.775, 'time': 41, 'pitch': 10.62, 'roll': -3.76, 'pres': 174}
{'lipoC2': 7.33, 'lipoC3S1': 3.85, 'temp': 26.94, 'lipoC3S3': 11.64, 'lipoC3S2': 7.71, 'rot1': 25, 'rot0': 24, 'rot3': 55, 'rot2': 44, 'state': 'normal', 'yaw': 4.06, 'datetime': '2018-10-09 20:03:52.242606', 'mgs': 0, 'volt': 0.8545, 'depth': 0.851, 'time': 41, 'pitch': 10.49, 'roll': -3.88, 'pres': 175}
{'lipoC2': 7.33, 'lipoC3S1': 3.85, 'temp': 26.94, 'lipoC3S3': 11.64, 'lipoC3S2': 7.71, 'rot1': 25, 'rot0': 24, 'rot3': 55, 'rot2': 44, 'state': 'normal', 'yaw': 4.08, 'datetime': '2018-10-09 20:03:52.258601', 'mgs': 0, 'volt': 0.8545, 'depth': 0.851, 'time': 41, 'pitch': 10.23, 'roll': -3.98, 'pres': 175}
{'lipoC2': 7.33, 'lipoC3S1': 3.85, 'temp': 26.94, 'lipoC3S3': 11.64, 'lipoC3S2': 7.71, 'rot1': 25, 'rot0': 24, 'rot3': 55, 'rot2': 44, 'state': 'normal', 'yaw': 4.17, 'datetime': '2018-10-09 20:03:52.274596', 'mgs': 0, 'volt': 0.8545, 'depth': 0.851, 'time': 41, 'pitch': 10.14, 'roll': -4.07, 'pres': 175}
{'lipoC2': 7.33, 'lipoC3S1': 3.85, 'temp': 26.94, 'lipoC3S3': 11.64, 'lipoC3S2': 7.71, 'rot1': 25, 'rot0': 24, 'rot3': 55, 'rot2': 44, 'state': 'normal', 'yaw': 4.33, 'datetime': '2018-10-09 20:03:52.290555', 'mgs': 0, 'volt': 0.8545, 'depth': 0.851, 'time': 41, 'pitch': 10.47, 'roll': -4.09, 'pres': 175}
{'lipoC2': 7.33, 'lipoC3S1': 3.85, 'temp': 26.94, 'lipoC3S3': 11.64, 'lipoC3S2': 7.71, 'rot1': 25, 'rot0': 24, 'rot3': 55, 'rot2': 44, 'state': 'normal', 'yaw': 4.52, 'datetime': '2018-10-09 20:03:52.306640', 'mgs': 0, 'volt': 0.8594, 'depth': 0.928, 'time': 41, 'pitch': 10.93, 'roll': -4.05, 'pres': 176}
{'lipoC2': 7.33, 'lipoC3S1': 3.85, 'temp': 26.94, 'lipoC3S3': 11.64, 'lipoC3S2': 7.71, 'rot1': 25, 'rot0': 24, 'rot3': 55, 'rot2': 44, 'state': 'normal', 'yaw': 4.74, 'datetime': '2018-10-09 20:03:52.322649', 'mgs': 0, 'volt': 0.8594, 'depth': 0.928, 'time': 41, 'pitch': 11.33, 'roll': -3.92, 'pres': 176}
{'lipoC2': 7.33, 'lipoC3S1': 3.85, 'temp': 26.94, 'lipoC3S3': 11.64, 'lipoC3S2': 7.71, 'rot1': 25, 'rot0': 24, 'rot3': 55, 'rot2': 44, 'state': 'normal', 'yaw': 4.97, 'datetime': '2018-10-09 20:03:52.338690', 'mgs': 0, 'volt': 0.8643, 'depth': 1.004, 'time': 41, 'pitch': 11.64, 'roll': -3.72, 'pres': 177}
{'lipoC2': 7.33, 'lipoC3S1': 3.85, 'temp': 26.94, 'lipoC3S3': 11.64, 'lipoC3S2': 7.71, 'rot1': 25, 'rot0': 24, 'rot3': 55, 'rot2': 44, 'state': 'normal', 'yaw': 5.22, 'datetime': '2018-10-09 20:03:52.354722', 'mgs': 0, 'volt': 0.8643, 'depth': 1.004, 'time': 42, 'pitch': 12.0, 'roll': -3.47, 'pres': 177}
{'lipoC2': 7.33, 'lipoC3S1': 3.85, 'temp': 26.94, 'lipoC3S3': 11.64, 'lipoC3S2': 7.71, 'rot1': 25, 'rot0': 24, 'rot3': 55, 'rot2': 44, 'state': 'normal', 'yaw': 5.49, 'datetime': '2018-10-09 20:03:52.370697', 'mgs': 0, 'volt': 0.8691, 'depth': 1.08, 'time': 42, 'pitch': 12.42, 'roll': -3.13, 'pres': 178}
{'lipoC2': 7.33, 'lipoC3S1': 3.85, 'temp': 26.94, 'lipoC3S3': 11.64, 'lipoC3S2': 7.71, 'rot1': 25, 'rot0': 24, 'rot3': 55, 'rot2': 44, 'state': 'normal', 'yaw': 5.73, 'datetime': '2018-10-09 20:03:52.386816', 'mgs': 0, 'volt': 0.8691, 'depth': 1.08, 'time': 42, 'pitch': 12.72, 'roll': -2.78, 'pres': 178}
{'lipoC2': 7.33, 'lipoC3S1': 3.85, 'temp': 26.94, 'lipoC3S3': 11.64, 'lipoC3S2': 7.71, 'rot1': 25, 'rot0': 24, 'rot3': 55, 'rot2': 44, 'state': 'normal', 'yaw': 5.95, 'datetime': '2018-10-09 20:03:52.402840', 'mgs': 0, 'volt': 0.874, 'depth': 1.157, 'time': 42, 'pitch': 12.98, 'roll': -2.43, 'pres': 179}
{'lipoC2': 7.33, 'lipoC3S1': 3.85, 'temp': 26.94, 'lipoC3S3': 11.64, 'lipoC3S2': 7.71, 'rot1': 25, 'rot0': 24, 'rot3': 55, 'rot2': 44, 'state': 'normal', 'yaw': 6.16, 'datetime': '2018-10-09 20:03:52.418795', 'mgs': 0, 'volt': 0.874, 'depth': 1.157, 'time': 42, 'pitch': 13.22, 'roll': -2.05, 'pres': 179}
{'lipoC2': 7.33, 'lipoC3S1': 3.85, 'temp': 26.94, 'lipoC3S3': 11.64, 'lipoC3S2': 7.71, 'rot1': 25, 'rot0': 24, 'rot3': 55, 'rot2': 44, 'state': 'normal', 'yaw': 6.33, 'datetime': '2018-10-09 20:03:52.434825', 'mgs': 0, 'volt': 0.8789, 'depth': 1.233, 'time': 42, 'pitch': 13.44, 'roll': -1.73, 'pres': 180}
{'lipoC2': 7.33, 'lipoC3S1': 3.85, 'temp': 26.94, 'lipoC3S3': 11.64, 'lipoC3S2': 7.71, 'rot1': 25, 'rot0': 24, 'rot3': 55, 'rot2': 44, 'state': 'normal', 'yaw': 6.52, 'datetime': '2018-10-09 20:03:52.450893', 'mgs': 0, 'volt': 0.8838, 'depth': 1.309, 'time': 42, 'pitch': 13.67, 'roll': -1.44, 'pres': 181}
{'lipoC2': 7.33, 'lipoC3S1': 3.85, 'temp': 26.94, 'lipoC3S3': 11.64, 'lipoC3S2': 7.71, 'rot1': 25, 'rot0': 24, 'rot3': 55, 'rot2': 44, 'state': 'normal', 'yaw': 6.73, 'datetime': '2018-10-09 20:03:52.466883', 'mgs': 0, 'volt': 0.8838, 'depth': 1.309, 'time': 42, 'pitch': 13.8, 'roll': -1.19, 'pres': 181}
{'lipoC2': 7.33, 'lipoC3S1': 3.85, 'temp': 26.94, 'lipoC3S3': 11.64, 'lipoC3S2': 7.71, 'rot1': 25, 'rot0': 24, 'rot3': 55, 'rot2': 44, 'state': 'normal', 'yaw': 6.85, 'datetime': '2018-10-09 20:03:52.482875', 'mgs': 0, 'volt': 0.8838, 'depth': 1.309, 'time': 42, 'pitch': 13.8, 'roll': -1.01, 'pres': 181}
{'lipoC2': 7.33, 'lipoC3S1': 3.85, 'temp': 26.94, 'lipoC3S3': 11.64, 'lipoC3S2': 7.71, 'rot1': 25, 'rot0': 24, 'rot3': 55, 'rot2': 44, 'state': 'normal', 'yaw': 6.9, 'datetime': '2018-10-09 20:03:52.498851', 'mgs': 0, 'volt': 0.8887, 'depth': 1.385, 'time': 42, 'pitch': 13.75, 'roll': -0.89, 'pres': 182}
{'lipoC2': 7.33, 'lipoC3S1': 3.85, 'temp': 26.94, 'lipoC3S3': 11.64, 'lipoC3S2': 7.71, 'rot1': 25, 'rot0': 24, 'rot3': 55, 'rot2': 44, 'state': 'normal', 'yaw': 6.9, 'datetime': '2018-10-09 20:03:52.514962', 'mgs': 0, 'volt': 0.8887, 'depth': 1.385, 'time': 43, 'pitch': 13.75, 'roll': -0.87, 'pres': 182}
{'lipoC2': 7.33, 'lipoC3S1': 3.85, 'temp': 26.94, 'lipoC3S3': 11.64, 'lipoC3S2': 7.71, 'rot1': 25, 'rot0': 24, 'rot3': 55, 'rot2': 44, 'state': 'normal', 'yaw': 6.9, 'datetime': '2018-10-09 20:03:52.530933', 'mgs': 0, 'volt': 0.8887, 'depth': 1.385, 'time': 43, 'pitch': 13.75, 'roll': -0.89, 'pres': 182}
{'lipoC2': 7.33, 'lipoC3S1': 3.85, 'temp': 26.94, 'lipoC3S3': 11.64, 'lipoC3S2': 7.71, 'rot1': 25, 'rot0': 24, 'rot3': 55, 'rot2': 44, 'state': 'normal', 'yaw': 6.9, 'datetime': '2018-10-09 20:03:52.546966', 'mgs': 0, 'volt': 0.8936, 'depth': 1.462, 'time': 43, 'pitch': 13.84, 'roll': -1.04, 'pres': 183}
{'lipoC2': 7.33, 'lipoC3S1': 3.85, 'temp': 26.94, 'lipoC3S3': 11.64, 'lipoC3S2': 7.71, 'rot1': 25, 'rot0': 24, 'rot3': 55, 'rot2': 44, 'state': 'normal', 'yaw': 6.89, 'datetime': '2018-10-09 20:03:52.563002', 'mgs': 0, 'volt': 0.8936, 'depth': 1.462, 'time': 43, 'pitch': 13.94, 'roll': -1.25, 'pres': 183}
{'lipoC2': 7.33, 'lipoC3S1': 3.85, 'temp': 26.94, 'lipoC3S3': 11.64, 'lipoC3S2': 7.71, 'rot1': 25, 'rot0': 24, 'rot3': 55, 'rot2': 44, 'state': 'normal', 'yaw': 6.9, 'datetime': '2018-10-09 20:03:52.579006', 'mgs': 0, 'volt': 0.8936, 'depth': 1.462, 'time': 43, 'pitch': 14.0, 'roll': -1.55, 'pres': 183}
{'lipoC2': 7.33, 'lipoC3S1': 3.85, 'temp': 26.94, 'lipoC3S3': 11.64, 'lipoC3S2': 7.71, 'rot1': 25, 'rot0': 24, 'rot3': 55, 'rot2': 44, 'state': 'normal', 'yaw': 6.89, 'datetime': '2018-10-09 20:03:52.595016', 'mgs': 0, 'volt': 0.8936, 'depth': 1.462, 'time': 43, 'pitch': 14.0, 'roll': -1.85, 'pres': 183}
{'lipoC2': 7.33, 'lipoC3S1': 3.85, 'temp': 26.94, 'lipoC3S3': 11.64, 'lipoC3S2': 7.71, 'rot1': 25, 'rot0': 24, 'rot3': 55, 'rot2': 44, 'state': 'normal', 'yaw': 6.89, 'datetime': '2018-10-09 20:03:52.610991', 'mgs': 0, 'volt': 0.8984, 'depth': 1.538, 'time': 43, 'pitch': 14.0, 'roll': -2.15, 'pres': 184}
{'lipoC2': 7.33, 'lipoC3S1': 3.85, 'temp': 26.94, 'lipoC3S3': 11.64, 'lipoC3S2': 7.71, 'rot1': 25, 'rot0': 24, 'rot3': 55, 'rot2': 44, 'state': 'normal', 'yaw': 6.88, 'datetime': '2018-10-09 20:03:52.626990', 'mgs': 0, 'volt': 0.8984, 'depth': 1.538, 'time': 43, 'pitch': 14.0, 'roll': -2.48, 'pres': 184}
{'lipoC2': 7.33, 'lipoC3S1': 3.85, 'temp': 26.94, 'lipoC3S3': 11.64, 'lipoC3S2': 7.71, 'rot1': 25, 'rot0': 24, 'rot3': 55, 'rot2': 44, 'state': 'normal', 'yaw': 6.86, 'datetime': '2018-10-09 20:03:52.643050', 'mgs': 0, 'volt': 0.8984, 'depth': 1.538, 'time': 43, 'pitch': 14.02, 'roll': -2.75, 'pres': 184}
{'lipoC2': 7.33, 'lipoC3S1': 3.85, 'temp': 26.94, 'lipoC3S3': 11.64, 'lipoC3S2': 7.71, 'rot1': 25, 'rot0': 24, 'rot3': 55, 'rot2': 44, 'state': 'normal', 'yaw': 6.83, 'datetime': '2018-10-09 20:03:52.659017', 'mgs': 0, 'volt': 0.8984, 'depth': 1.538, 'time': 44, 'pitch': 14.11, 'roll': -2.99, 'pres': 184}
{'lipoC2': 7.33, 'lipoC3S1': 3.85, 'temp': 26.94, 'lipoC3S3': 11.64, 'lipoC3S2': 7.71, 'rot1': 25, 'rot0': 24, 'rot3': 55, 'rot2': 44, 'state': 'normal', 'yaw': 6.76, 'datetime': '2018-10-09 20:03:52.675000', 'mgs': 0, 'volt': 0.8984, 'depth': 1.538, 'time': 44, 'pitch': 14.17, 'roll': -3.19, 'pres': 184}
{'lipoC2': 7.33, 'lipoC3S1': 3.85, 'temp': 26.94, 'lipoC3S3': 11.64, 'lipoC3S2': 7.71, 'rot1': 25, 'rot0': 24, 'rot3': 55, 'rot2': 44, 'state': 'normal', 'yaw': 6.69, 'datetime': '2018-10-09 20:03:52.690988', 'mgs': 0, 'volt': 0.8984, 'depth': 1.538, 'time': 44, 'pitch': 14.16, 'roll': -3.29, 'pres': 184}
{'lipoC2': 7.33, 'lipoC3S1': 3.85, 'temp': 26.94, 'lipoC3S3': 11.64, 'lipoC3S2': 7.71, 'rot1': 25, 'rot0': 24, 'rot3': 55, 'rot2': 44, 'state': 'normal', 'yaw': 6.59, 'datetime': '2018-10-09 20:03:52.706959', 'mgs': 0, 'volt': 0.9033, 'depth': 1.614, 'time': 44, 'pitch': 14.15, 'roll': -3.31, 'pres': 185}
{'lipoC2': 7.33, 'lipoC3S1': 3.85, 'temp': 26.94, 'lipoC3S3': 11.64, 'lipoC3S2': 7.71, 'rot1': 25, 'rot0': 24, 'rot3': 55, 'rot2': 44, 'state': 'normal', 'yaw': 6.51, 'datetime': '2018-10-09 20:03:52.722991', 'mgs': 0, 'volt': 0.9033, 'depth': 1.614, 'time': 44, 'pitch': 14.07, 'roll': -3.27, 'pres': 185}
{'lipoC2': 7.33, 'lipoC3S1': 3.85, 'temp': 26.94, 'lipoC3S3': 11.64, 'lipoC3S2': 7.71, 'rot1': 25, 'rot0': 24, 'rot3': 55, 'rot2': 44, 'state': 'normal', 'yaw': 6.44, 'datetime': '2018-10-09 20:03:52.739089', 'mgs': 0, 'volt': 0.9033, 'depth': 1.614, 'time': 44, 'pitch': 14.07, 'roll': -3.15, 'pres': 185}
{'lipoC2': 7.33, 'lipoC3S1': 3.85, 'temp': 26.94, 'lipoC3S3': 11.64, 'lipoC3S2': 7.71, 'rot1': 25, 'rot0': 24, 'rot3': 55, 'rot2': 44, 'state': 'normal', 'yaw': 6.35, 'datetime': '2018-10-09 20:03:52.755135', 'mgs': 0, 'volt': 0.9082, 'depth': 1.691, 'time': 44, 'pitch': 14.06, 'roll': -2.96, 'pres': 186}
{'lipoC2': 7.33, 'lipoC3S1': 3.85, 'temp': 26.94, 'lipoC3S3': 11.64, 'lipoC3S2': 7.71, 'rot1': 25, 'rot0': 24, 'rot3': 55, 'rot2': 44, 'state': 'normal', 'yaw': 6.27, 'datetime': '2018-10-09 20:03:52.771125', 'mgs': 0, 'volt': 0.9082, 'depth': 1.691, 'time': 44, 'pitch': 14.09, 'roll': -2.76, 'pres': 186}
{'lipoC2': 7.33, 'lipoC3S1': 3.85, 'temp': 26.94, 'lipoC3S3': 11.64, 'lipoC3S2': 7.71, 'rot1': 25, 'rot0': 24, 'rot3': 55, 'rot2': 44, 'state': 'normal', 'yaw': 6.21, 'datetime': '2018-10-09 20:03:52.787088', 'mgs': 0, 'volt': 0.9082, 'depth': 1.691, 'time': 44, 'pitch': 14.11, 'roll': -2.53, 'pres': 186}
{'lipoC2': 7.33, 'lipoC3S1': 3.85, 'temp': 26.94, 'lipoC3S3': 11.64, 'lipoC3S2': 7.71, 'rot1': 25, 'rot0': 24, 'rot3': 55, 'rot2': 44, 'state': 'normal', 'yaw': 6.13, 'datetime': '2018-10-09 20:03:52.803132', 'mgs': 0, 'volt': 0.9131, 'depth': 1.767, 'time': 44, 'pitch': 14.1, 'roll': -2.29, 'pres': 187}
{'lipoC2': 7.33, 'lipoC3S1': 3.85, 'temp': 26.94, 'lipoC3S3': 11.64, 'lipoC3S2': 7.71, 'rot1': 25, 'rot0': 24, 'rot3': 55, 'rot2': 44, 'state': 'normal', 'yaw': 6.07, 'datetime': '2018-10-09 20:03:52.819202', 'mgs': 0, 'volt': 0.9082, 'depth': 1.691, 'time': 45, 'pitch': 14.1, 'roll': -2.08, 'pres': 186}
{'lipoC2': 7.33, 'lipoC3S1': 3.85, 'temp': 26.94, 'lipoC3S3': 11.64, 'lipoC3S2': 7.71, 'rot1': 25, 'rot0': 24, 'rot3': 55, 'rot2': 44, 'state': 'normal', 'yaw': 6.01, 'datetime': '2018-10-09 20:03:52.835225', 'mgs': 0, 'volt': 0.9131, 'depth': 1.767, 'time': 45, 'pitch': 14.1, 'roll': -1.9, 'pres': 187}
{'lipoC2': 7.33, 'lipoC3S1': 3.85, 'temp': 26.94, 'lipoC3S3': 11.64, 'lipoC3S2': 7.71, 'rot1': 25, 'rot0': 24, 'rot3': 55, 'rot2': 44, 'state': 'normal', 'yaw': 5.94, 'datetime': '2018-10-09 20:03:52.851280', 'mgs': 0, 'volt': 0.9131, 'depth': 1.767, 'time': 45, 'pitch': 14.1, 'roll': -1.76, 'pres': 187}
{'lipoC2': 7.33, 'lipoC3S1': 3.85, 'temp': 26.94, 'lipoC3S3': 11.64, 'lipoC3S2': 7.71, 'rot1': 25, 'rot0': 24, 'rot3': 55, 'rot2': 44, 'state': 'normal', 'yaw': 5.87, 'datetime': '2018-10-09 20:03:52.867322', 'mgs': 0, 'volt': 0.9131, 'depth': 1.767, 'time': 45, 'pitch': 14.1, 'roll': -1.69, 'pres': 187}
{'lipoC2': 7.33, 'lipoC3S1': 3.85, 'temp': 26.94, 'lipoC3S3': 11.64, 'lipoC3S2': 7.71, 'rot1': 25, 'rot0': 24, 'rot3': 55, 'rot2': 44, 'state': 'normal', 'yaw': 5.86, 'datetime': '2018-10-09 20:03:52.883348', 'mgs': 0, 'volt': 0.918, 'depth': 1.843, 'time': 45, 'pitch': 14.09, 'roll': -1.69, 'pres': 188}
{'lipoC2': 7.33, 'lipoC3S1': 3.85, 'temp': 26.94, 'lipoC3S3': 11.64, 'lipoC3S2': 7.71, 'rot1': 25, 'rot0': 24, 'rot3': 55, 'rot2': 44, 'state': 'normal', 'yaw': 5.86, 'datetime': '2018-10-09 20:03:52.899352', 'mgs': 0, 'volt': 0.9131, 'depth': 1.767, 'time': 45, 'pitch': 14.06, 'roll': -1.74, 'pres': 187}
{'lipoC2': 7.33, 'lipoC3S1': 3.85, 'temp': 26.94, 'lipoC3S3': 11.64, 'lipoC3S2': 7.71, 'rot1': 25, 'rot0': 24, 'rot3': 55, 'rot2': 44, 'state': 'normal', 'yaw': 5.86, 'datetime': '2018-10-09 20:03:52.915346', 'mgs': 0, 'volt': 0.918, 'depth': 1.843, 'time': 45, 'pitch': 14.02, 'roll': -1.88, 'pres': 188}
{'lipoC2': 7.33, 'lipoC3S1': 3.85, 'temp': 26.94, 'lipoC3S3': 11.64, 'lipoC3S2': 7.71, 'rot1': 25, 'rot0': 24, 'rot3': 55, 'rot2': 44, 'state': 'normal', 'yaw': 5.87, 'datetime': '2018-10-09 20:03:52.931340', 'mgs': 0, 'volt': 0.9131, 'depth': 1.767, 'time': 45, 'pitch': 14.01, 'roll': -2.06, 'pres': 187}
{'lipoC2': 7.33, 'lipoC3S1': 3.85, 'temp': 26.94, 'lipoC3S3': 11.64, 'lipoC3S2': 7.71, 'rot1': 25, 'rot0': 24, 'rot3': 55, 'rot2': 44, 'state': 'normal', 'yaw': 5.86, 'datetime': '2018-10-09 20:03:52.947442', 'mgs': 0, 'volt': 0.9131, 'depth': 1.767, 'time': 45, 'pitch': 14.01, 'roll': -2.27, 'pres': 187}
{'lipoC2': 7.33, 'lipoC3S1': 3.85, 'temp': 26.88, 'lipoC3S3': 11.64, 'lipoC3S2': 7.71, 'rot1': 25, 'rot0': 24, 'rot3': 55, 'rot2': 44, 'state': 'normal', 'yaw': 5.86, 'datetime': '2018-10-09 20:03:52.963450', 'mgs': 0, 'volt': 0.9131, 'depth': 1.767, 'time': 45, 'pitch': 14.01, 'roll': -2.51, 'pres': 187}
{'lipoC2': 7.33, 'lipoC3S1': 3.85, 'temp': 26.88, 'lipoC3S3': 11.64, 'lipoC3S2': 7.71, 'rot1': 25, 'rot0': 24, 'rot3': 55, 'rot2': 44, 'state': 'normal', 'yaw': 5.87, 'datetime': '2018-10-09 20:03:52.979482', 'mgs': 0, 'volt': 0.918, 'depth': 1.843, 'time': 46, 'pitch': 14.01, 'roll': -2.72, 'pres': 188}
{'lipoC2': 7.33, 'lipoC3S1': 3.85, 'temp': 26.88, 'lipoC3S3': 11.64, 'lipoC3S2': 7.71, 'rot1': 25, 'rot0': 24, 'rot3': 55, 'rot2': 44, 'state': 'normal', 'yaw': 5.87, 'datetime': '2018-10-09 20:03:52.995504', 'mgs': 0, 'volt': 0.918, 'depth': 1.843, 'time': 46, 'pitch': 14.03, 'roll': -2.92, 'pres': 188}
{'lipoC2': 7.33, 'lipoC3S1': 3.85, 'temp': 26.94, 'lipoC3S3': 11.64, 'lipoC3S2': 7.71, 'rot1': 25, 'rot0': 24, 'rot3': 55, 'rot2': 44, 'state': 'normal', 'yaw': 5.86, 'datetime': '2018-10-09 20:03:53.011508', 'mgs': 0, 'volt': 0.918, 'depth': 1.843, 'time': 46, 'pitch': 14.12, 'roll': -3.1, 'pres': 188}
{'lipoC2': 7.33, 'lipoC3S1': 3.85, 'temp': 26.94, 'lipoC3S3': 11.64, 'lipoC3S2': 7.71, 'rot1': 25, 'rot0': 24, 'rot3': 55, 'rot2': 44, 'state': 'normal', 'yaw': 5.85, 'datetime': '2018-10-09 20:03:53.027488', 'mgs': 0, 'volt': 0.918, 'depth': 1.843, 'time': 46, 'pitch': 14.19, 'roll': -3.23, 'pres': 188}
{'lipoC2': 7.33, 'lipoC3S1': 3.85, 'temp': 26.94, 'lipoC3S3': 11.64, 'lipoC3S2': 7.71, 'rot1': 25, 'rot0': 24, 'rot3': 55, 'rot2': 44, 'state': 'normal', 'yaw': 5.85, 'datetime': '2018-10-09 20:03:53.043521', 'mgs': 0, 'volt': 0.918, 'depth': 1.843, 'time': 46, 'pitch': 14.26, 'roll': -3.31, 'pres': 188}
{'lipoC2': 7.33, 'lipoC3S1': 3.85, 'temp': 26.94, 'lipoC3S3': 11.64, 'lipoC3S2': 7.71, 'rot1': 25, 'rot0': 24, 'rot3': 55, 'rot2': 44, 'state': 'normal', 'yaw': 5.85, 'datetime': '2018-10-09 20:03:53.059543', 'mgs': 0, 'volt': 0.918, 'depth': 1.843, 'time': 46, 'pitch': 14.25, 'roll': -3.33, 'pres': 188}
{'lipoC2': 7.33, 'lipoC3S1': 3.85, 'temp': 26.94, 'lipoC3S3': 11.64, 'lipoC3S2': 7.71, 'rot1': 25, 'rot0': 24, 'rot3': 55, 'rot2': 44, 'state': 'normal', 'yaw': 5.85, 'datetime': '2018-10-09 20:03:53.075666', 'mgs': 0, 'volt': 0.918, 'depth': 1.843, 'time': 46, 'pitch': 14.25, 'roll': -3.33, 'pres': 188}
{'lipoC2': 7.33, 'lipoC3S1': 3.85, 'temp': 26.94, 'lipoC3S3': 11.64, 'lipoC3S2': 7.71, 'rot1': 25, 'rot0': 24, 'rot3': 55, 'rot2': 44, 'state': 'normal', 'yaw': 5.85, 'datetime': '2018-10-09 20:03:53.091857', 'mgs': 0, 'volt': 0.918, 'depth': 1.843, 'time': 46, 'pitch': 14.25, 'roll': -3.33, 'pres': 188}
{'lipoC2': 7.33, 'lipoC3S1': 3.85, 'temp': 26.94, 'lipoC3S3': 11.64, 'lipoC3S2': 7.71, 'rot1': 25, 'rot0': 24, 'rot3': 55, 'rot2': 44, 'state': 'normal', 'yaw': 5.85, 'datetime': '2018-10-09 20:03:53.107883', 'mgs': 0, 'volt': 0.918, 'depth': 1.843, 'time': 46, 'pitch': 14.25, 'roll': -3.25, 'pres': 188}
{'lipoC2': 7.33, 'lipoC3S1': 3.85, 'temp': 26.94, 'lipoC3S3': 11.64, 'lipoC3S2': 7.71, 'rot1': 25, 'rot0': 24, 'rot3': 55, 'rot2': 44, 'state': 'normal', 'yaw': 5.85, 'datetime': '2018-10-09 20:03:53.123865', 'mgs': 0, 'volt': 0.918, 'depth': 1.843, 'time': 47, 'pitch': 14.28, 'roll': -3.12, 'pres': 188}
{'lipoC2': 7.33, 'lipoC3S1': 3.85, 'temp': 27.0, 'lipoC3S3': 11.64, 'lipoC3S2': 7.71, 'rot1': 0, 'rot0': 0, 'rot3': 0, 'rot2': 0, 'state': 'normal', 'yaw': 0.0, 'datetime': '2018-10-09 20:03:53.139703', 'mgs': 0, 'volt': 0.9229, 'depth': 1.92, 'time': 1, 'pitch': 14.51, 'roll': -2.81, 'pres': 189}
{'lipoC2': 7.33, 'lipoC3S1': 3.85, 'temp': 27.0, 'lipoC3S3': 11.64, 'lipoC3S2': 7.71, 'rot1': 0, 'rot0': 0, 'rot3': 0, 'rot2': 0, 'state': 'normal', 'yaw': -0.09, 'datetime': '2018-10-09 20:03:53.155546', 'mgs': 0, 'volt': 0.9229, 'depth': 1.92, 'time': 1, 'pitch': 14.5, 'roll': -3.01, 'pres': 189}
{'lipoC2': 7.33, 'lipoC3S1': 3.85, 'temp': 26.94, 'lipoC3S3': 11.64, 'lipoC3S2': 7.71, 'rot1': 0, 'rot0': 0, 'rot3': 0, 'rot2': 0, 'state': 'normal', 'yaw': -0.09, 'datetime': '2018-10-09 20:03:53.171483', 'mgs': 0, 'volt': 0.9229, 'depth': 1.92, 'time': 1, 'pitch': 14.47, 'roll': -3.22, 'pres': 189}
{'lipoC2': 7.33, 'lipoC3S1': 3.85, 'temp': 26.94, 'lipoC3S3': 11.65, 'lipoC3S2': 7.71, 'rot1': 0, 'rot0': 0, 'rot3': 0, 'rot2': 0, 'state': 'normal', 'yaw': -0.08, 'datetime': '2018-10-09 20:03:53.187342', 'mgs': 0, 'volt': 0.918, 'depth': 1.843, 'time': 1, 'pitch': 14.36, 'roll': -3.45, 'pres': 188}
{'lipoC2': 7.33, 'lipoC3S1': 3.85, 'temp': 26.94, 'lipoC3S3': 11.64, 'lipoC3S2': 7.71, 'rot1': 0, 'rot0': 0, 'rot3': 0, 'rot2': 0, 'state': 'normal', 'yaw': -0.08, 'datetime': '2018-10-09 20:03:53.203166', 'mgs': 0, 'volt': 0.918, 'depth': 1.843, 'time': 1, 'pitch': 14.18, 'roll': -3.7, 'pres': 188}
{'lipoC2': 7.33, 'lipoC3S1': 3.85, 'temp': 27.0, 'lipoC3S3': 11.64, 'lipoC3S2': 7.71, 'rot1': 0, 'rot0': 0, 'rot3': 0, 'rot2': 0, 'state': 'normal', 'yaw': -0.07, 'datetime': '2018-10-09 20:03:53.218952', 'mgs': 0, 'volt': 0.918, 'depth': 1.843, 'time': 1, 'pitch': 14.01, 'roll': -3.89, 'pres': 188}
{'lipoC2': 7.33, 'lipoC3S1': 3.85, 'temp': 27.0, 'lipoC3S3': 11.65, 'lipoC3S2': 7.71, 'rot1': 0, 'rot0': 0, 'rot3': 0, 'rot2': 0, 'state': 'normal', 'yaw': -0.06, 'datetime': '2018-10-09 20:03:53.234772', 'mgs': 0, 'volt': 0.918, 'depth': 1.843, 'time': 1, 'pitch': 13.9, 'roll': -4.03, 'pres': 188}
{'lipoC2': 7.33, 'lipoC3S1': 3.85, 'temp': 27.0, 'lipoC3S3': 11.64, 'lipoC3S2': 7.71, 'rot1': 0, 'rot0': 0, 'rot3': 0, 'rot2': 0, 'state': 'normal', 'yaw': -0.05, 'datetime': '2018-10-09 20:03:53.250588', 'mgs': 0, 'volt': 0.918, 'depth': 1.843, 'time': 1, 'pitch': 13.83, 'roll': -4.12, 'pres': 188}
{'lipoC2': 7.33, 'lipoC3S1': 3.85, 'temp': 27.0, 'lipoC3S3': 11.64, 'lipoC3S2': 7.71, 'rot1': 0, 'rot0': 0, 'rot3': 0, 'rot2': 0, 'state': 'normal', 'yaw': -0.0, 'datetime': '2018-10-09 20:03:53.266398', 'mgs': 0, 'volt': 0.918, 'depth': 1.843, 'time': 2, 'pitch': 13.9, 'roll': -4.14, 'pres': 188}
{'lipoC2': 7.33, 'lipoC3S1': 3.85, 'temp': 27.0, 'lipoC3S3': 11.64, 'lipoC3S2': 7.71, 'rot1': 0, 'rot0': 0, 'rot3': 0, 'rot2': 0, 'state': 'normal', 'yaw': 0.15, 'datetime': '2018-10-09 20:03:53.282212', 'mgs': 0, 'volt': 0.918, 'depth': 1.843, 'time': 2, 'pitch': 14.12, 'roll': -4.15, 'pres': 188}
{'lipoC2': 7.33, 'lipoC3S1': 3.85, 'temp': 27.0, 'lipoC3S3': 11.64, 'lipoC3S2': 7.71, 'rot1': 0, 'rot0': 0, 'rot3': 0, 'rot2': 0, 'state': 'normal', 'yaw': 0.46, 'datetime': '2018-10-09 20:03:53.297978', 'mgs': 0, 'volt': 0.918, 'depth': 1.843, 'time': 2, 'pitch': 14.47, 'roll': -4.16, 'pres': 188}
{'lipoC2': 7.33, 'lipoC3S1': 3.85, 'temp': 27.0, 'lipoC3S3': 11.64, 'lipoC3S2': 7.71, 'rot1': 0, 'rot0': 0, 'rot3': 0, 'rot2': 0, 'state': 'normal', 'yaw': 0.74, 'datetime': '2018-10-09 20:03:53.313758', 'mgs': 0, 'volt': 0.918, 'depth': 1.843, 'time': 2, 'pitch': 14.83, 'roll': -4.09, 'pres': 188}
{'lipoC2': 7.33, 'lipoC3S1': 3.85, 'temp': 26.94, 'lipoC3S3': 11.64, 'lipoC3S2': 7.71, 'rot1': 0, 'rot0': 0, 'rot3': 0, 'rot2': 0, 'state': 'normal', 'yaw': 0.96, 'datetime': '2018-10-09 20:03:53.329627', 'mgs': 0, 'volt': 0.9131, 'depth': 1.767, 'time': 2, 'pitch': 15.17, 'roll': -3.94, 'pres': 187}
{'lipoC2': 7.33, 'lipoC3S1': 3.85, 'temp': 26.94, 'lipoC3S3': 11.64, 'lipoC3S2': 7.71, 'rot1': 0, 'rot0': 0, 'rot3': 0, 'rot2': 0, 'state': 'normal', 'yaw': 1.03, 'datetime': '2018-10-09 20:03:53.345560', 'mgs': 0, 'volt': 0.9131, 'depth': 1.767, 'time': 2, 'pitch': 15.43, 'roll': -3.62, 'pres': 187}
{'lipoC2': 7.33, 'lipoC3S1': 3.85, 'temp': 26.94, 'lipoC3S3': 11.65, 'lipoC3S2': 7.71, 'rot1': 0, 'rot0': 0, 'rot3': 0, 'rot2': 0, 'state': 'normal', 'yaw': 1.01, 'datetime': '2018-10-09 20:03:53.361469', 'mgs': 0, 'volt': 0.918, 'depth': 1.843, 'time': 2, 'pitch': 15.56, 'roll': -3.24, 'pres': 188}
{'lipoC2': 7.33, 'lipoC3S1': 3.85, 'temp': 26.94, 'lipoC3S3': 11.64, 'lipoC3S2': 7.71, 'rot1': 0, 'rot0': 0, 'rot3': 0, 'rot2': 0, 'state': 'normal', 'yaw': 1.01, 'datetime': '2018-10-09 20:03:53.377502', 'mgs': 0, 'volt': 0.918, 'depth': 1.843, 'time': 2, 'pitch': 15.62, 'roll': -2.84, 'pres': 188}
{'lipoC2': 7.33, 'lipoC3S1': 3.85, 'temp': 27.0, 'lipoC3S3': 11.65, 'lipoC3S2': 7.71, 'rot1': 0, 'rot0': 0, 'rot3': 0, 'rot2': 0, 'state': 'normal', 'yaw': 1.01, 'datetime': '2018-10-09 20:03:53.393429', 'mgs': 0, 'volt': 0.9131, 'depth': 1.767, 'time': 2, 'pitch': 15.62, 'roll': -2.44, 'pres': 187}
{'lipoC2': 7.32, 'lipoC3S1': 3.8, 'temp': 27.0, 'lipoC3S3': 11.56, 'lipoC3S2': 7.65, 'rot1': 0, 'rot0': 0, 'rot3': 0, 'rot2': 0, 'state': 'normal', 'yaw': 1.06, 'datetime': '2018-10-09 20:03:53.409316', 'mgs': 0, 'volt': 0.9375, 'depth': 2.148, 'time': 3, 'pitch': 15.64, 'roll': -2.13, 'pres': 192}
{'lipoC2': 7.32, 'lipoC3S1': 3.82, 'temp': 27.0, 'lipoC3S3': 11.51, 'lipoC3S2': 7.66, 'rot1': 0, 'rot0': 0, 'rot3': 1, 'rot2': 1, 'state': 'normal', 'yaw': 1.14, 'datetime': '2018-10-09 20:03:53.425212', 'mgs': 0, 'volt': 0.9229, 'depth': 1.92, 'time': 3, 'pitch': 15.91, 'roll': -1.77, 'pres': 189}
{'lipoC2': 7.32, 'lipoC3S1': 3.82, 'temp': 26.94, 'lipoC3S3': 11.58, 'lipoC3S2': 7.67, 'rot1': 0, 'rot0': 0, 'rot3': 2, 'rot2': 1, 'state': 'normal', 'yaw': 1.18, 'datetime': '2018-10-09 20:03:53.441165', 'mgs': 0, 'volt': 0.9277, 'depth': 1.996, 'time': 3, 'pitch': 16.38, 'roll': -1.32, 'pres': 190}
{'lipoC2': 7.32, 'lipoC3S1': 3.82, 'temp': 26.94, 'lipoC3S3': 11.51, 'lipoC3S2': 7.66, 'rot1': 0, 'rot0': 0, 'rot3': 3, 'rot2': 2, 'state': 'normal', 'yaw': 1.22, 'datetime': '2018-10-09 20:03:53.457107', 'mgs': 0, 'volt': 0.9229, 'depth': 1.92, 'time': 3, 'pitch': 17.0, 'roll': -0.83, 'pres': 189}
{'lipoC2': 7.33, 'lipoC3S1': 3.81, 'temp': 26.94, 'lipoC3S3': 11.58, 'lipoC3S2': 7.64, 'rot1': 0, 'rot0': 0, 'rot3': 4, 'rot2': 3, 'state': 'normal', 'yaw': 1.26, 'datetime': '2018-10-09 20:03:53.473023', 'mgs': 0, 'volt': 0.918, 'depth': 1.843, 'time': 3, 'pitch': 17.61, 'roll': -0.43, 'pres': 188}
{'lipoC2': 7.32, 'lipoC3S1': 3.83, 'temp': 26.94, 'lipoC3S3': 11.52, 'lipoC3S2': 7.61, 'rot1': 0, 'rot0': 0, 'rot3': 5, 'rot2': 4, 'state': 'normal', 'yaw': 1.29, 'datetime': '2018-10-09 20:03:53.488963', 'mgs': 0, 'volt': 0.9082, 'depth': 1.691, 'time': 3, 'pitch': 18.21, 'roll': -0.09, 'pres': 186}
{'lipoC2': 7.32, 'lipoC3S1': 3.83, 'temp': 26.94, 'lipoC3S3': 11.52, 'lipoC3S2': 7.61, 'rot1': 0, 'rot0': 0, 'rot3': 6, 'rot2': 5, 'state': 'normal', 'yaw': 1.29, 'datetime': '2018-10-09 20:03:53.504862', 'mgs': 0, 'volt': 0.9082, 'depth': 1.691, 'time': 3, 'pitch': 18.73, 'roll': 0.18, 'pres': 186}
{'lipoC2': 7.32, 'lipoC3S1': 3.83, 'temp': 26.94, 'lipoC3S3': 11.54, 'lipoC3S2': 7.66, 'rot1': 0, 'rot0': 0, 'rot3': 7, 'rot2': 5, 'state': 'normal', 'yaw': 1.3, 'datetime': '2018-10-09 20:03:53.520765', 'mgs': 0, 'volt': 0.9082, 'depth': 1.691, 'time': 3, 'pitch': 19.01, 'roll': 0.28, 'pres': 186}
{'lipoC2': 7.32, 'lipoC3S1': 3.81, 'temp': 26.94, 'lipoC3S3': 11.58, 'lipoC3S2': 7.66, 'rot1': 0, 'rot0': 0, 'rot3': 8, 'rot2': 6, 'state': 'normal', 'yaw': 1.24, 'datetime': '2018-10-09 20:03:53.536675', 'mgs': 0, 'volt': 0.9033, 'depth': 1.614, 'time': 3, 'pitch': 19.16, 'roll': 0.26, 'pres': 185}
{'lipoC2': 7.32, 'lipoC3S1': 3.82, 'temp': 26.94, 'lipoC3S3': 11.51, 'lipoC3S2': 7.66, 'rot1': 0, 'rot0': 0, 'rot3': 9, 'rot2': 7, 'state': 'normal', 'yaw': 1.14, 'datetime': '2018-10-09 20:03:53.552573', 'mgs': 0, 'volt': 0.8936, 'depth': 1.462, 'time': 3, 'pitch': 19.29, 'roll': 0.23, 'pres': 183}
{'lipoC2': 7.33, 'lipoC3S1': 3.81, 'temp': 26.94, 'lipoC3S3': 11.58, 'lipoC3S2': 7.64, 'rot1': 0, 'rot0': 0, 'rot3': 10, 'rot2': 8, 'state': 'normal', 'yaw': 1.05, 'datetime': '2018-10-09 20:03:53.568491', 'mgs': 0, 'volt': 0.8936, 'depth': 1.462, 'time': 4, 'pitch': 19.34, 'roll': 0.17, 'pres': 183}
{'lipoC2': 7.33, 'lipoC3S1': 3.8, 'temp': 27.0, 'lipoC3S3': 11.56, 'lipoC3S2': 7.63, 'rot1': 0, 'rot0': 0, 'rot3': 11, 'rot2': 9, 'state': 'normal', 'yaw': 0.91, 'datetime': '2018-10-09 20:03:53.584466', 'mgs': 0, 'volt': 0.8887, 'depth': 1.385, 'time': 4, 'pitch': 19.34, 'roll': 0.02, 'pres': 182}
{'lipoC2': 7.33, 'lipoC3S1': 3.8, 'temp': 27.0, 'lipoC3S3': 11.56, 'lipoC3S2': 7.64, 'rot1': 0, 'rot0': 0, 'rot3': 12, 'rot2': 9, 'state': 'normal', 'yaw': 0.75, 'datetime': '2018-10-09 20:03:53.600612', 'mgs': 0, 'volt': 0.8496, 'depth': 0.775, 'time': 4, 'pitch': 19.37, 'roll': -0.17, 'pres': 174}
{'lipoC2': 7.32, 'lipoC3S1': 3.8, 'temp': 26.94, 'lipoC3S3': 11.55, 'lipoC3S2': 7.62, 'rot1': 0, 'rot0': 0, 'rot3': 12, 'rot2': 10, 'state': 'normal', 'yaw': 0.57, 'datetime': '2018-10-09 20:03:53.616624', 'mgs': 0, 'volt': 0.8545, 'depth': 0.851, 'time': 4, 'pitch': 19.5, 'roll': -0.39, 'pres': 175}
{'lipoC2': 7.32, 'lipoC3S1': 3.83, 'temp': 26.94, 'lipoC3S3': 11.52, 'lipoC3S2': 7.61, 'rot1': 0, 'rot0': 0, 'rot3': 13, 'rot2': 11, 'state': 'normal', 'yaw': 0.35, 'datetime': '2018-10-09 20:03:53.632664', 'mgs': 0, 'volt': 0.8594, 'depth': 0.928, 'time': 4, 'pitch': 19.72, 'roll': -0.63, 'pres': 176}
{'lipoC2': 7.32, 'lipoC3S1': 3.82, 'temp': 26.94, 'lipoC3S3': 11.58, 'lipoC3S2': 7.66, 'rot1': 0, 'rot0': 0, 'rot3': 14, 'rot2': 12, 'state': 'normal', 'yaw': 0.12, 'datetime': '2018-10-09 20:03:53.648675', 'mgs': 0, 'volt': 0.8594, 'depth': 0.928, 'time': 4, 'pitch': 20.01, 'roll': -0.86, 'pres': 176}
{'lipoC2': 7.33, 'lipoC3S1': 3.81, 'temp': 27.0, 'lipoC3S3': 11.58, 'lipoC3S2': 7.65, 'rot1': 0, 'rot0': 0, 'rot3': 15, 'rot2': 13, 'state': 'normal', 'yaw': -0.13, 'datetime': '2018-10-09 20:03:53.664707', 'mgs': 0, 'volt': 0.8594, 'depth': 0.928, 'time': 4, 'pitch': 20.33, 'roll': -1.1, 'pres': 176}
{'lipoC2': 7.32, 'lipoC3S1': 3.8, 'temp': 27.0, 'lipoC3S3': 11.55, 'lipoC3S2': 7.63, 'rot1': 0, 'rot0': 0, 'rot3': 17, 'rot2': 14, 'state': 'normal', 'yaw': -0.39, 'datetime': '2018-10-09 20:03:53.680694', 'mgs': 0, 'volt': 0.835, 'depth': 0.546, 'time': 4, 'pitch': 20.6, 'roll': -1.54, 'pres': 171}
{'lipoC2': 7.33, 'lipoC3S1': 3.83, 'temp': 27.0, 'lipoC3S3': 11.55, 'lipoC3S2': 7.63, 'rot1': 0, 'rot0': 0, 'rot3': 18, 'rot2': 14, 'state': 'normal', 'yaw': -0.51, 'datetime': '2018-10-09 20:03:53.696730', 'mgs': 0, 'volt': 0.835, 'depth': 0.546, 'time': 4, 'pitch': 20.7, 'roll': -1.99, 'pres': 171}
{'lipoC2': 7.33, 'lipoC3S1': 3.81, 'temp': 27.0, 'lipoC3S3': 11.58, 'lipoC3S2': 7.65, 'rot1': 0, 'rot0': 0, 'rot3': 19, 'rot2': 15, 'state': 'normal', 'yaw': -0.5, 'datetime': '2018-10-09 20:03:53.712740', 'mgs': 0, 'volt': 0.8105, 'depth': 0.165, 'time': 4, 'pitch': 20.63, 'roll': -2.36, 'pres': 166}
{'lipoC2': 7.33, 'lipoC3S1': 3.83, 'temp': 26.94, 'lipoC3S3': 11.55, 'lipoC3S2': 7.63, 'rot1': 0, 'rot0': 0, 'rot3': 20, 'rot2': 16, 'state': 'normal', 'yaw': -0.49, 'datetime': '2018-10-09 20:03:53.728768', 'mgs': 0, 'volt': 0.8252, 'depth': 0.394, 'time': 5, 'pitch': 20.34, 'roll': -2.57, 'pres': 169}
{'lipoC2': 7.33, 'lipoC3S1': 3.83, 'temp': 26.94, 'lipoC3S3': 11.59, 'lipoC3S2': 7.65, 'rot1': 0, 'rot0': 0, 'rot3': 21, 'rot2': 17, 'state': 'normal', 'yaw': -0.51, 'datetime': '2018-10-09 20:03:53.744807', 'mgs': 0, 'volt': 0.8301, 'depth': 0.47, 'time': 5, 'pitch': 20.0, 'roll': -2.66, 'pres': 170}
{'lipoC2': 7.32, 'lipoC3S1': 3.83, 'temp': 26.94, 'lipoC3S3': 11.55, 'lipoC3S2': 7.63, 'rot1': 0, 'rot0': 0, 'rot3': 22, 'rot2': 18, 'state': 'normal', 'yaw': -0.58, 'datetime': '2018-10-09 20:03:53.760789', 'mgs': 0, 'volt': 0.8252, 'depth': 0.394, 'time': 5, 'pitch': 19.67, 'roll': -2.71, 'pres': 169}
{'lipoC2': 7.32, 'lipoC3S1': 3.83, 'temp': 26.94, 'lipoC3S3': 11.56, 'lipoC3S2': 7.67, 'rot1': 0, 'rot0': 0, 'rot3': 24, 'rot2': 19, 'state': 'normal', 'yaw': -0.63, 'datetime': '2018-10-09 20:03:53.776803', 'mgs': 0, 'volt': 0.8301, 'depth': 0.47, 'time': 5, 'pitch': 19.52, 'roll': -2.79, 'pres': 170}
{'lipoC2': 7.33, 'lipoC3S1': 3.81, 'temp': 26.94, 'lipoC3S3': 11.56, 'lipoC3S2': 7.64, 'rot1': 0, 'rot0': 0, 'rot3': 25, 'rot2': 20, 'state': 'normal', 'yaw': -0.66, 'datetime': '2018-10-09 20:03:53.792817', 'mgs': 0, 'volt': 0.8203, 'depth': 0.317, 'time': 5, 'pitch': 19.53, 'roll': -2.93, 'pres': 168}
{'lipoC2': 7.33, 'lipoC3S1': 3.85, 'temp': 26.94, 'lipoC3S3': 11.55, 'lipoC3S2': 7.67, 'rot1': 0, 'rot0': 0, 'rot3': 26, 'rot2': 21, 'state': 'normal', 'yaw': -0.67, 'datetime': '2018-10-09 20:03:53.808843', 'mgs': 0, 'volt': 0.8252, 'depth': 0.394, 'time': 5, 'pitch': 19.57, 'roll': -3.11, 'pres': 169}
{'lipoC2': 7.33, 'lipoC3S1': 3.82, 'temp': 26.94, 'lipoC3S3': 11.59, 'lipoC3S2': 7.67, 'rot1': 0, 'rot0': 0, 'rot3': 27, 'rot2': 22, 'state': 'normal', 'yaw': -0.62, 'datetime': '2018-10-09 20:03:53.824775', 'mgs': 0, 'volt': 0.835, 'depth': 0.546, 'time': 5, 'pitch': 19.57, 'roll': -3.31, 'pres': 171}
{'lipoC2': 7.33, 'lipoC3S1': 3.81, 'temp': 26.94, 'lipoC3S3': 11.56, 'lipoC3S2': 7.64, 'rot1': 0, 'rot0': 0, 'rot3': 28, 'rot2': 22, 'state': 'normal', 'yaw': -0.47, 'datetime': '2018-10-09 20:03:53.840708', 'mgs': 0, 'volt': 0.8057, 'depth': 0.089, 'time': 5, 'pitch': 19.58, 'roll': -3.47, 'pres': 165}
{'lipoC2': 7.33, 'lipoC3S1': 3.83, 'temp': 26.94, 'lipoC3S3': 11.55, 'lipoC3S2': 7.65, 'rot1': 0, 'rot0': 0, 'rot3': 29, 'rot2': 23, 'state': 'normal', 'yaw': -0.27, 'datetime': '2018-10-09 20:03:53.856594', 'mgs': 0, 'volt': 0.8203, 'depth': 0.317, 'time': 5, 'pitch': 19.59, 'roll': -3.51, 'pres': 168}
{'lipoC2': 7.32, 'lipoC3S1': 3.83, 'temp': 26.94, 'lipoC3S3': 11.54, 'lipoC3S2': 7.67, 'rot1': 0, 'rot0': 0, 'rot3': 30, 'rot2': 24, 'state': 'normal', 'yaw': -0.07, 'datetime': '2018-10-09 20:03:53.872442', 'mgs': 0, 'volt': 0.8301, 'depth': 0.47, 'time': 6, 'pitch': 19.61, 'roll': -3.4, 'pres': 170}
{'lipoC2': 7.32, 'lipoC3S1': 3.81, 'temp': 26.94, 'lipoC3S3': 11.59, 'lipoC3S2': 7.65, 'rot1': 0, 'rot0': 0, 'rot3': 32, 'rot2': 25, 'state': 'normal', 'yaw': 0.2, 'datetime': '2018-10-09 20:03:53.888303', 'mgs': 0, 'volt': 0.8398, 'depth': 0.623, 'time': 6, 'pitch': 19.62, 'roll': -3.16, 'pres': 172}
{'lipoC2': 7.33, 'lipoC3S1': 3.8, 'temp': 26.94, 'lipoC3S3': 11.55, 'lipoC3S2': 7.63, 'rot1': 0, 'rot0': 0, 'rot3': 33, 'rot2': 26, 'state': 'normal', 'yaw': 0.64, 'datetime': '2018-10-09 20:03:53.904206', 'mgs': 0, 'volt': 0.8203, 'depth': 0.317, 'time': 6, 'pitch': 19.64, 'roll': -2.81, 'pres': 168}
{'lipoC2': 7.32, 'lipoC3S1': 3.83, 'temp': 26.88, 'lipoC3S3': 11.54, 'lipoC3S2': 7.61, 'rot1': 0, 'rot0': 0, 'rot3': 34, 'rot2': 27, 'state': 'normal', 'yaw': 1.11, 'datetime': '2018-10-09 20:03:53.920064', 'mgs': 0, 'volt': 0.8252, 'depth': 0.394, 'time': 6, 'pitch': 19.73, 'roll': -2.46, 'pres': 169}
