{'lipoC2': 7.7, 'lipoC3S1': 3.83, 'temp': 28.5, 'lipoC3S3': 11.59, 'lipoC3S2': 7.67, 'rot1': 275, 'rot0': 274, 'rot3': 186, 'rot2': 150, 'state': 'normal', 'yaw': -25.76, 'datetime': '2018-10-05 20:18:20.277055', 'mgs': 0, 'volt': 0.8252, 'depth': 0.394, 'time': 109, 'pitch': -23.6, 'roll': -1.79, 'pres': 169}
{'lipoC2': 7.7, 'lipoC3S1': 3.83, 'temp': 28.5, 'lipoC3S3': 11.58, 'lipoC3S2': 7.67, 'rot1': 275, 'rot0': 274, 'rot3': 186, 'rot2': 150, 'state': 'normal', 'yaw': -23.14, 'datetime': '2018-10-05 20:18:20.299952', 'mgs': 0, 'volt': 0.8252, 'depth': 0.394, 'time': 109, 'pitch': -24.35, 'roll': 0.23, 'pres': 169}
{'lipoC2': 7.7, 'lipoC3S1': 3.83, 'temp': 28.5, 'lipoC3S3': 11.58, 'lipoC3S2': 7.66, 'rot1': 275, 'rot0': 274, 'rot3': 186, 'rot2': 150, 'state': 'normal', 'yaw': -20.35, 'datetime': '2018-10-05 20:18:20.320232', 'mgs': 0, 'volt': 0.8252, 'depth': 0.394, 'time': 109, 'pitch': -25.6, 'roll': 2.34, 'pres': 169}
{'lipoC2': 7.7, 'lipoC3S1': 3.83, 'temp': 28.5, 'lipoC3S3': 11.59, 'lipoC3S2': 7.66, 'rot1': 275, 'rot0': 274, 'rot3': 186, 'rot2': 150, 'state': 'normal', 'yaw': -17.46, 'datetime': '2018-10-05 20:18:20.330173', 'mgs': 0, 'volt': 0.8301, 'depth': 0.47, 'time': 109, 'pitch': -26.97, 'roll': 3.73, 'pres': 170}
{'lipoC2': 7.7, 'lipoC3S1': 3.83, 'temp': 28.5, 'lipoC3S3': 11.59, 'lipoC3S2': 7.66, 'rot1': 275, 'rot0': 274, 'rot3': 186, 'rot2': 150, 'state': 'normal', 'yaw': -13.6, 'datetime': '2018-10-05 20:18:20.340135', 'mgs': 0, 'volt': 0.8301, 'depth': 0.47, 'time': 109, 'pitch': -28.06, 'roll': 4.15, 'pres': 170}
{'lipoC2': 7.7, 'lipoC3S1': 3.83, 'temp': 28.56, 'lipoC3S3': 11.59, 'lipoC3S2': 7.67, 'rot1': 275, 'rot0': 274, 'rot3': 186, 'rot2': 150, 'state': 'normal', 'yaw': -9.92, 'datetime': '2018-10-05 20:18:20.350048', 'mgs': 0, 'volt': 0.8301, 'depth': 0.47, 'time': 109, 'pitch': -28.34, 'roll': 3.89, 'pres': 170}
{'lipoC2': 7.7, 'lipoC3S1': 3.83, 'temp': 28.56, 'lipoC3S3': 11.59, 'lipoC3S2': 7.67, 'rot1': 275, 'rot0': 274, 'rot3': 186, 'rot2': 150, 'state': 'normal', 'yaw': -5.8, 'datetime': '2018-10-05 20:18:20.359959', 'mgs': 0, 'volt': 0.8301, 'depth': 0.47, 'time': 109, 'pitch': -27.9, 'roll': 3.13, 'pres': 170}
{'lipoC2': 7.7, 'lipoC3S1': 3.83, 'temp': 28.5, 'lipoC3S3': 11.59, 'lipoC3S2': 7.67, 'rot1': 275, 'rot0': 274, 'rot3': 186, 'rot2': 150, 'state': 'normal', 'yaw': -1.96, 'datetime': '2018-10-05 20:18:20.369851', 'mgs': 0, 'volt': 0.8301, 'depth': 0.47, 'time': 109, 'pitch': -27.02, 'roll': 2.07, 'pres': 170}
{'lipoC2': 7.69, 'lipoC3S1': 3.83, 'temp': 28.5, 'lipoC3S3': 11.58, 'lipoC3S2': 7.66, 'rot1': 275, 'rot0': 274, 'rot3': 186, 'rot2': 150, 'state': 'normal', 'yaw': 1.87, 'datetime': '2018-10-05 20:18:20.379751', 'mgs': 0, 'volt': 0.8301, 'depth': 0.47, 'time': 110, 'pitch': -25.79, 'roll': 0.85, 'pres': 170}
{'lipoC2': 7.7, 'lipoC3S1': 3.83, 'temp': 28.5, 'lipoC3S3': 11.58, 'lipoC3S2': 7.66, 'rot1': 275, 'rot0': 274, 'rot3': 186, 'rot2': 150, 'state': 'normal', 'yaw': 5.89, 'datetime': '2018-10-05 20:18:20.389651', 'mgs': 0, 'volt': 0.8301, 'depth': 0.47, 'time': 110, 'pitch': -24.12, 'roll': -0.42, 'pres': 170}
{'lipoC2': 7.7, 'lipoC3S1': 3.83, 'temp': 28.5, 'lipoC3S3': 11.58, 'lipoC3S2': 7.66, 'rot1': 275, 'rot0': 274, 'rot3': 186, 'rot2': 150, 'state': 'normal', 'yaw': 9.21, 'datetime': '2018-10-05 20:18:20.399538', 'mgs': 0, 'volt': 0.835, 'depth': 0.546, 'time': 110, 'pitch': -22.5, 'roll': -1.37, 'pres': 171}
{'lipoC2': 7.7, 'lipoC3S1': 3.83, 'temp': 28.5, 'lipoC3S3': 11.58, 'lipoC3S2': 7.66, 'rot1': 275, 'rot0': 274, 'rot3': 186, 'rot2': 150, 'state': 'normal', 'yaw': 12.31, 'datetime': '2018-10-05 20:18:20.409393', 'mgs': 0, 'volt': 0.835, 'depth': 0.546, 'time': 110, 'pitch': -20.57, 'roll': -2.01, 'pres': 171}
{'lipoC2': 7.7, 'lipoC3S1': 3.83, 'temp': 28.5, 'lipoC3S3': 11.58, 'lipoC3S2': 7.66, 'rot1': 275, 'rot0': 274, 'rot3': 186, 'rot2': 150, 'state': 'normal', 'yaw': 14.6, 'datetime': '2018-10-05 20:18:20.419309', 'mgs': 0, 'volt': 0.835, 'depth': 0.546, 'time': 110, 'pitch': -18.63, 'roll': -2.18, 'pres': 171}
{'lipoC2': 7.7, 'lipoC3S1': 3.83, 'temp': 28.5, 'lipoC3S3': 11.58, 'lipoC3S2': 7.66, 'rot1': 275, 'rot0': 274, 'rot3': 186, 'rot2': 150, 'state': 'normal', 'yaw': 16.57, 'datetime': '2018-10-05 20:18:20.429233', 'mgs': 0, 'volt': 0.835, 'depth': 0.546, 'time': 110, 'pitch': -16.72, 'roll': -1.99, 'pres': 171}
{'lipoC2': 7.69, 'lipoC3S1': 3.83, 'temp': 28.5, 'lipoC3S3': 11.58, 'lipoC3S2': 7.66, 'rot1': 275, 'rot0': 274, 'rot3': 186, 'rot2': 150, 'state': 'normal', 'yaw': 17.75, 'datetime': '2018-10-05 20:18:20.439440', 'mgs': 0, 'volt': 0.8398, 'depth': 0.623, 'time': 110, 'pitch': -15.55, 'roll': -1.45, 'pres': 172}
{'lipoC2': 7.69, 'lipoC3S1': 3.83, 'temp': 28.5, 'lipoC3S3': 11.58, 'lipoC3S2': 7.66, 'rot1': 275, 'rot0': 274, 'rot3': 186, 'rot2': 150, 'state': 'normal', 'yaw': 18.57, 'datetime': '2018-10-05 20:18:20.457786', 'mgs': 0, 'volt': 0.8398, 'depth': 0.623, 'time': 110, 'pitch': -14.87, 'roll': -0.77, 'pres': 172}
{'lipoC2': 7.69, 'lipoC3S1': 3.83, 'temp': 28.38, 'lipoC3S3': 11.58, 'lipoC3S2': 7.66, 'rot1': 275, 'rot0': 274, 'rot3': 186, 'rot2': 150, 'state': 'normal', 'yaw': 19.14, 'datetime': '2018-10-05 20:18:20.561986', 'mgs': 0, 'volt': 0.8398, 'depth': 0.623, 'time': 110, 'pitch': -13.83, 'roll': 0.08, 'pres': 172}
{'lipoC2': 7.69, 'lipoC3S1': 3.83, 'temp': 28.38, 'lipoC3S3': 11.58, 'lipoC3S2': 7.66, 'rot1': 275, 'rot0': 274, 'rot3': 186, 'rot2': 150, 'state': 'normal', 'yaw': 19.49, 'datetime': '2018-10-05 20:18:20.666271', 'mgs': 0, 'volt': 0.8398, 'depth': 0.623, 'time': 110, 'pitch': -12.91, 'roll': 0.76, 'pres': 172}
{'lipoC2': 7.7, 'lipoC3S1': 3.83, 'temp': 28.38, 'lipoC3S3': 11.58, 'lipoC3S2': 7.66, 'rot1': 275, 'rot0': 274, 'rot3': 186, 'rot2': 150, 'state': 'normal', 'yaw': 19.84, 'datetime': '2018-10-05 20:18:20.770450', 'mgs': 0, 'volt': 0.8398, 'depth': 0.623, 'time': 111, 'pitch': -12.39, 'roll': 1.28, 'pres': 172}
{'lipoC2': 7.69, 'lipoC3S1': 3.83, 'temp': 28.5, 'lipoC3S3': 11.58, 'lipoC3S2': 7.66, 'rot1': 275, 'rot0': 274, 'rot3': 186, 'rot2': 150, 'state': 'normal', 'yaw': 20.17, 'datetime': '2018-10-05 20:18:20.874642', 'mgs': 0, 'volt': 0.8398, 'depth': 0.623, 'time': 111, 'pitch': -11.83, 'roll': 1.5, 'pres': 172}
{'lipoC2': 7.7, 'lipoC3S1': 3.83, 'temp': 28.5, 'lipoC3S3': 11.58, 'lipoC3S2': 7.66, 'rot1': 275, 'rot0': 274, 'rot3': 186, 'rot2': 150, 'state': 'normal', 'yaw': 20.56, 'datetime': '2018-10-05 20:18:20.979085', 'mgs': 0, 'volt': 0.8398, 'depth': 0.623, 'time': 111, 'pitch': -11.47, 'roll': 1.42, 'pres': 172}
{'lipoC2': 7.7, 'lipoC3S1': 3.83, 'temp': 28.5, 'lipoC3S3': 11.58, 'lipoC3S2': 7.66, 'rot1': 275, 'rot0': 274, 'rot3': 186, 'rot2': 150, 'state': 'normal', 'yaw': 21.04, 'datetime': '2018-10-05 20:18:21.083988', 'mgs': 0, 'volt': 0.8398, 'depth': 0.623, 'time': 111, 'pitch': -11.16, 'roll': 1.03, 'pres': 172}
{'lipoC2': 7.7, 'lipoC3S1': 3.83, 'temp': 28.5, 'lipoC3S3': 11.58, 'lipoC3S2': 7.66, 'rot1': 275, 'rot0': 274, 'rot3': 186, 'rot2': 150, 'state': 'normal', 'yaw': 21.46, 'datetime': '2018-10-05 20:18:21.192858', 'mgs': 0, 'volt': 0.835, 'depth': 0.546, 'time': 111, 'pitch': -11.07, 'roll': 0.53, 'pres': 171}
{'lipoC2': 7.7, 'lipoC3S1': 3.83, 'temp': 28.5, 'lipoC3S3': 11.58, 'lipoC3S2': 7.66, 'rot1': 275, 'rot0': 274, 'rot3': 186, 'rot2': 150, 'state': 'normal', 'yaw': 21.9, 'datetime': '2018-10-05 20:18:21.299024', 'mgs': 0, 'volt': 0.835, 'depth': 0.546, 'time': 111, 'pitch': -11.19, 'roll': -0.08, 'pres': 171}
{'lipoC2': 7.69, 'lipoC3S1': 3.83, 'temp': 28.5, 'lipoC3S3': 11.58, 'lipoC3S2': 7.66, 'rot1': 275, 'rot0': 274, 'rot3': 186, 'rot2': 150, 'state': 'normal', 'yaw': 22.15, 'datetime': '2018-10-05 20:18:21.403972', 'mgs': 0, 'volt': 0.835, 'depth': 0.546, 'time': 111, 'pitch': -11.27, 'roll': -0.6, 'pres': 171}
{'lipoC2': 7.7, 'lipoC3S1': 3.83, 'temp': 28.5, 'lipoC3S3': 11.58, 'lipoC3S2': 7.66, 'rot1': 275, 'rot0': 274, 'rot3': 186, 'rot2': 150, 'state': 'normal', 'yaw': 22.02, 'datetime': '2018-10-05 20:18:21.508189', 'mgs': 0, 'volt': 0.835, 'depth': 0.546, 'time': 111, 'pitch': -11.02, 'roll': -0.9, 'pres': 171}
{'lipoC2': 7.7, 'lipoC3S1': 3.83, 'temp': 28.5, 'lipoC3S3': 11.58, 'lipoC3S2': 7.66, 'rot1': 275, 'rot0': 274, 'rot3': 186, 'rot2': 150, 'state': 'normal', 'yaw': 21.51, 'datetime': '2018-10-05 20:18:21.612510', 'mgs': 0, 'volt': 0.835, 'depth': 0.546, 'time': 111, 'pitch': -10.79, 'roll': -0.98, 'pres': 171}
{'lipoC2': 7.69, 'lipoC3S1': 3.83, 'temp': 28.5, 'lipoC3S3': 11.58, 'lipoC3S2': 7.66, 'rot1': 275, 'rot0': 274, 'rot3': 186, 'rot2': 150, 'state': 'normal', 'yaw': 20.87, 'datetime': '2018-10-05 20:18:21.718015', 'mgs': 0, 'volt': 0.835, 'depth': 0.546, 'time': 111, 'pitch': -10.58, 'roll': -1.02, 'pres': 171}
{'lipoC2': 7.7, 'lipoC3S1': 3.83, 'temp': 28.5, 'lipoC3S3': 11.58, 'lipoC3S2': 7.66, 'rot1': 275, 'rot0': 274, 'rot3': 186, 'rot2': 150, 'state': 'normal', 'yaw': 20.42, 'datetime': '2018-10-05 20:18:21.822247', 'mgs': 0, 'volt': 0.835, 'depth': 0.546, 'time': 112, 'pitch': -10.55, 'roll': -1.32, 'pres': 171}
{'lipoC2': 7.7, 'lipoC3S1': 3.83, 'temp': 28.5, 'lipoC3S3': 11.58, 'lipoC3S2': 7.66, 'rot1': 275, 'rot0': 274, 'rot3': 186, 'rot2': 150, 'state': 'normal', 'yaw': 20.22, 'datetime': '2018-10-05 20:18:21.926308', 'mgs': 0, 'volt': 0.835, 'depth': 0.546, 'time': 112, 'pitch': -11.11, 'roll': -1.79, 'pres': 171}
{'lipoC2': 7.7, 'lipoC3S1': 3.83, 'temp': 28.5, 'lipoC3S3': 11.58, 'lipoC3S2': 7.66, 'rot1': 275, 'rot0': 274, 'rot3': 186, 'rot2': 150, 'state': 'normal', 'yaw': 20.27, 'datetime': '2018-10-05 20:18:22.030557', 'mgs': 0, 'volt': 0.8301, 'depth': 0.47, 'time': 112, 'pitch': -12.27, 'roll': -2.5, 'pres': 170}
{'lipoC2': 7.7, 'lipoC3S1': 3.83, 'temp': 28.5, 'lipoC3S3': 11.58, 'lipoC3S2': 7.66, 'rot1': 275, 'rot0': 274, 'rot3': 186, 'rot2': 150, 'state': 'normal', 'yaw': 20.33, 'datetime': '2018-10-05 20:18:22.134748', 'mgs': 0, 'volt': 0.8301, 'depth': 0.47, 'time': 112, 'pitch': -13.64, 'roll': -3.09, 'pres': 170}
{'lipoC2': 7.7, 'lipoC3S1': 3.83, 'temp': 28.5, 'lipoC3S3': 11.58, 'lipoC3S2': 7.66, 'rot1': 275, 'rot0': 274, 'rot3': 186, 'rot2': 150, 'state': 'normal', 'yaw': 19.94, 'datetime': '2018-10-05 20:18:22.239207', 'mgs': 0, 'volt': 0.8301, 'depth': 0.47, 'time': 112, 'pitch': -14.92, 'roll': -3.24, 'pres': 170}
{'lipoC2': 7.7, 'lipoC3S1': 3.83, 'temp': 28.5, 'lipoC3S3': 11.58, 'lipoC3S2': 7.66, 'rot1': 275, 'rot0': 274, 'rot3': 186, 'rot2': 150, 'state': 'normal', 'yaw': 19.15, 'datetime': '2018-10-05 20:18:22.343586', 'mgs': 0, 'volt': 0.8301, 'depth': 0.47, 'time': 112, 'pitch': -15.7, 'roll': -3.01, 'pres': 170}
{'lipoC2': 7.7, 'lipoC3S1': 3.83, 'temp': 28.5, 'lipoC3S3': 11.58, 'lipoC3S2': 7.66, 'rot1': 275, 'rot0': 274, 'rot3': 186, 'rot2': 150, 'state': 'normal', 'yaw': 18.25, 'datetime': '2018-10-05 20:18:22.447805', 'mgs': 0, 'volt': 0.8301, 'depth': 0.47, 'time': 112, 'pitch': -15.88, 'roll': -2.64, 'pres': 170}
{'lipoC2': 7.69, 'lipoC3S1': 3.83, 'temp': 28.5, 'lipoC3S3': 11.58, 'lipoC3S2': 7.66, 'rot1': 275, 'rot0': 274, 'rot3': 186, 'rot2': 150, 'state': 'normal', 'yaw': 17.3, 'datetime': '2018-10-05 20:18:22.552292', 'mgs': 0, 'volt': 0.8252, 'depth': 0.394, 'time': 112, 'pitch': -16.18, 'roll': -2.28, 'pres': 169}
{'lipoC2': 7.7, 'lipoC3S1': 3.83, 'temp': 28.5, 'lipoC3S3': 11.58, 'lipoC3S2': 7.66, 'rot1': 275, 'rot0': 274, 'rot3': 186, 'rot2': 150, 'state': 'normal', 'yaw': 16.71, 'datetime': '2018-10-05 20:18:22.657559', 'mgs': 0, 'volt': 0.8301, 'depth': 0.47, 'time': 112, 'pitch': -16.38, 'roll': -2.22, 'pres': 170}
{'lipoC2': 7.7, 'lipoC3S1': 3.83, 'temp': 28.5, 'lipoC3S3': 11.58, 'lipoC3S2': 7.66, 'rot1': 275, 'rot0': 274, 'rot3': 186, 'rot2': 150, 'state': 'normal', 'yaw': 16.52, 'datetime': '2018-10-05 20:18:22.762242', 'mgs': 0, 'volt': 0.8301, 'depth': 0.47, 'time': 113, 'pitch': -16.15, 'roll': -2.46, 'pres': 170}
{'lipoC2': 7.7, 'lipoC3S1': 3.83, 'temp': 28.5, 'lipoC3S3': 11.58, 'lipoC3S2': 7.66, 'rot1': 275, 'rot0': 274, 'rot3': 186, 'rot2': 150, 'state': 'normal', 'yaw': 16.8, 'datetime': '2018-10-05 20:18:22.866354', 'mgs': 0, 'volt': 0.8301, 'depth': 0.47, 'time': 113, 'pitch': -15.48, 'roll': -2.98, 'pres': 170}
{'lipoC2': 7.7, 'lipoC3S1': 3.83, 'temp': 28.5, 'lipoC3S3': 11.58, 'lipoC3S2': 7.66, 'rot1': 275, 'rot0': 274, 'rot3': 186, 'rot2': 150, 'state': 'normal', 'yaw': 17.31, 'datetime': '2018-10-05 20:18:22.971483', 'mgs': 0, 'volt': 0.8252, 'depth': 0.394, 'time': 113, 'pitch': -15.06, 'roll': -3.61, 'pres': 169}
{'lipoC2': 7.7, 'lipoC3S1': 3.83, 'temp': 28.5, 'lipoC3S3': 11.58, 'lipoC3S2': 7.66, 'rot1': 275, 'rot0': 274, 'rot3': 186, 'rot2': 150, 'state': 'normal', 'yaw': 17.57, 'datetime': '2018-10-05 20:18:23.075764', 'mgs': 0, 'volt': 0.8301, 'depth': 0.47, 'time': 113, 'pitch': -15.11, 'roll': -3.98, 'pres': 170}
{'lipoC2': 7.7, 'lipoC3S1': 3.83, 'temp': 28.5, 'lipoC3S3': 11.58, 'lipoC3S2': 7.66, 'rot1': 275, 'rot0': 274, 'rot3': 186, 'rot2': 150, 'state': 'normal', 'yaw': 17.12, 'datetime': '2018-10-05 20:18:23.180217', 'mgs': 0, 'volt': 0.8301, 'depth': 0.47, 'time': 113, 'pitch': -15.56, 'roll': -3.7, 'pres': 170}
{'lipoC2': 7.7, 'lipoC3S1': 3.83, 'temp': 28.5, 'lipoC3S3': 11.58, 'lipoC3S2': 7.66, 'rot1': 275, 'rot0': 274, 'rot3': 186, 'rot2': 150, 'state': 'normal', 'yaw': 16.37, 'datetime': '2018-10-05 20:18:23.278110', 'mgs': 0, 'volt': 0.8301, 'depth': 0.47, 'time': 113, 'pitch': -16.17, 'roll': -3.07, 'pres': 170}
{'lipoC2': 7.7, 'lipoC3S1': 3.83, 'temp': 28.5, 'lipoC3S3': 11.58, 'lipoC3S2': 7.66, 'rot1': 275, 'rot0': 274, 'rot3': 186, 'rot2': 150, 'state': 'normal', 'yaw': 16.22, 'datetime': '2018-10-05 20:18:23.382372', 'mgs': 0, 'volt': 0.835, 'depth': 0.546, 'time': 113, 'pitch': -16.61, 'roll': -2.82, 'pres': 171}
{'lipoC2': 7.7, 'lipoC3S1': 3.83, 'temp': 28.5, 'lipoC3S3': 11.58, 'lipoC3S2': 7.66, 'rot1': 275, 'rot0': 274, 'rot3': 186, 'rot2': 150, 'state': 'normal', 'yaw': 16.86, 'datetime': '2018-10-05 20:18:23.486765', 'mgs': 0, 'volt': 0.835, 'depth': 0.546, 'time': 113, 'pitch': -16.78, 'roll': -3.16, 'pres': 171}
{'lipoC2': 7.7, 'lipoC3S1': 3.83, 'temp': 28.5, 'lipoC3S3': 11.58, 'lipoC3S2': 7.66, 'rot1': 275, 'rot0': 274, 'rot3': 186, 'rot2': 150, 'state': 'normal', 'yaw': 17.68, 'datetime': '2018-10-05 20:18:23.590980', 'mgs': 0, 'volt': 0.835, 'depth': 0.546, 'time': 113, 'pitch': -16.64, 'roll': -3.62, 'pres': 171}
{'lipoC2': 7.7, 'lipoC3S1': 3.83, 'temp': 28.5, 'lipoC3S3': 11.58, 'lipoC3S2': 7.66, 'rot1': 275, 'rot0': 274, 'rot3': 186, 'rot2': 150, 'state': 'normal', 'yaw': 18.21, 'datetime': '2018-10-05 20:18:23.695975', 'mgs': 0, 'volt': 0.8398, 'depth': 0.623, 'time': 113, 'pitch': -16.44, 'roll': -3.75, 'pres': 172}
{'lipoC2': 7.7, 'lipoC3S1': 3.83, 'temp': 28.5, 'lipoC3S3': 11.58, 'lipoC3S2': 7.66, 'rot1': 275, 'rot0': 274, 'rot3': 186, 'rot2': 150, 'state': 'normal', 'yaw': 18.49, 'datetime': '2018-10-05 20:18:23.800302', 'mgs': 0, 'volt': 0.8398, 'depth': 0.623, 'time': 114, 'pitch': -16.19, 'roll': -3.54, 'pres': 172}
{'lipoC2': 7.7, 'lipoC3S1': 3.83, 'temp': 28.5, 'lipoC3S3': 11.58, 'lipoC3S2': 7.66, 'rot1': 275, 'rot0': 274, 'rot3': 186, 'rot2': 150, 'state': 'normal', 'yaw': 18.52, 'datetime': '2018-10-05 20:18:23.906001', 'mgs': 0, 'volt': 0.8447, 'depth': 0.699, 'time': 114, 'pitch': -16.12, 'roll': -3.06, 'pres': 173}
{'lipoC2': 7.7, 'lipoC3S1': 3.83, 'temp': 28.56, 'lipoC3S3': 11.58, 'lipoC3S2': 7.66, 'rot1': 275, 'rot0': 274, 'rot3': 186, 'rot2': 150, 'state': 'normal', 'yaw': 18.41, 'datetime': '2018-10-05 20:18:24.010242', 'mgs': 0, 'volt': 0.8398, 'depth': 0.623, 'time': 114, 'pitch': -16.27, 'roll': -2.34, 'pres': 172}
{'lipoC2': 7.7, 'lipoC3S1': 3.83, 'temp': 28.56, 'lipoC3S3': 11.58, 'lipoC3S2': 7.66, 'rot1': 275, 'rot0': 274, 'rot3': 186, 'rot2': 150, 'state': 'normal', 'yaw': 18.36, 'datetime': '2018-10-05 20:18:24.115843', 'mgs': 0, 'volt': 0.8447, 'depth': 0.699, 'time': 114, 'pitch': -16.84, 'roll': -1.65, 'pres': 173}
{'lipoC2': 7.7, 'lipoC3S1': 3.83, 'temp': 28.5, 'lipoC3S3': 11.58, 'lipoC3S2': 7.66, 'rot1': 275, 'rot0': 274, 'rot3': 186, 'rot2': 150, 'state': 'normal', 'yaw': 18.71, 'datetime': '2018-10-05 20:18:24.220171', 'mgs': 0, 'volt': 0.8447, 'depth': 0.699, 'time': 114, 'pitch': -17.74, 'roll': -1.19, 'pres': 173}
{'lipoC2': 7.69, 'lipoC3S1': 3.83, 'temp': 28.5, 'lipoC3S3': 11.58, 'lipoC3S2': 7.66, 'rot1': 275, 'rot0': 274, 'rot3': 186, 'rot2': 150, 'state': 'normal', 'yaw': 19.33, 'datetime': '2018-10-05 20:18:24.324510', 'mgs': 0, 'volt': 0.8447, 'depth': 0.699, 'time': 114, 'pitch': -18.5, 'roll': -0.97, 'pres': 173}
{'lipoC2': 7.7, 'lipoC3S1': 3.83, 'temp': 28.5, 'lipoC3S3': 11.58, 'lipoC3S2': 7.66, 'rot1': 275, 'rot0': 274, 'rot3': 186, 'rot2': 150, 'state': 'normal', 'yaw': 19.88, 'datetime': '2018-10-05 20:18:24.428926', 'mgs': 0, 'volt': 0.8496, 'depth': 0.775, 'time': 114, 'pitch': -19.08, 'roll': -0.7, 'pres': 174}
{'lipoC2': 7.7, 'lipoC3S1': 3.83, 'temp': 28.5, 'lipoC3S3': 11.58, 'lipoC3S2': 7.66, 'rot1': 275, 'rot0': 274, 'rot3': 186, 'rot2': 150, 'state': 'normal', 'yaw': 20.59, 'datetime': '2018-10-05 20:18:24.533240', 'mgs': 0, 'volt': 0.8496, 'depth': 0.775, 'time': 114, 'pitch': -19.33, 'roll': -0.49, 'pres': 174}
{'lipoC2': 7.7, 'lipoC3S1': 3.83, 'temp': 28.5, 'lipoC3S3': 11.58, 'lipoC3S2': 7.66, 'rot1': 275, 'rot0': 274, 'rot3': 186, 'rot2': 150, 'state': 'normal', 'yaw': 21.24, 'datetime': '2018-10-05 20:18:24.637625', 'mgs': 0, 'volt': 0.8496, 'depth': 0.775, 'time': 114, 'pitch': -19.29, 'roll': -0.37, 'pres': 174}
{'lipoC2': 7.7, 'lipoC3S1': 3.83, 'temp': 28.5, 'lipoC3S3': 11.58, 'lipoC3S2': 7.66, 'rot1': 275, 'rot0': 274, 'rot3': 186, 'rot2': 150, 'state': 'normal', 'yaw': 21.58, 'datetime': '2018-10-05 20:18:24.743323', 'mgs': 0, 'volt': 0.8496, 'depth': 0.775, 'time': 115, 'pitch': -19.03, 'roll': -0.04, 'pres': 174}
{'lipoC2': 7.7, 'lipoC3S1': 3.83, 'temp': 28.5, 'lipoC3S3': 11.58, 'lipoC3S2': 7.66, 'rot1': 275, 'rot0': 274, 'rot3': 186, 'rot2': 150, 'state': 'normal', 'yaw': 21.7, 'datetime': '2018-10-05 20:18:24.846206', 'mgs': 0, 'volt': 0.8496, 'depth': 0.775, 'time': 115, 'pitch': -19.03, 'roll': 0.33, 'pres': 174}
{'lipoC2': 7.7, 'lipoC3S1': 3.83, 'temp': 28.5, 'lipoC3S3': 11.58, 'lipoC3S2': 7.66, 'rot1': 275, 'rot0': 274, 'rot3': 186, 'rot2': 150, 'state': 'normal', 'yaw': 21.46, 'datetime': '2018-10-05 20:18:24.950546', 'mgs': 0, 'volt': 0.8496, 'depth': 0.775, 'time': 115, 'pitch': -19.5, 'roll': 0.99, 'pres': 174}
{'lipoC2': 7.7, 'lipoC3S1': 3.83, 'temp': 28.5, 'lipoC3S3': 11.58, 'lipoC3S2': 7.66, 'rot1': 275, 'rot0': 274, 'rot3': 186, 'rot2': 150, 'state': 'normal', 'yaw': 21.49, 'datetime': '2018-10-05 20:18:25.054843', 'mgs': 0, 'volt': 0.8496, 'depth': 0.775, 'time': 115, 'pitch': -20.12, 'roll': 1.42, 'pres': 174}
{'lipoC2': 7.7, 'lipoC3S1': 3.83, 'temp': 28.5, 'lipoC3S3': 11.58, 'lipoC3S2': 7.66, 'rot1': 275, 'rot0': 274, 'rot3': 186, 'rot2': 150, 'state': 'normal', 'yaw': 21.81, 'datetime': '2018-10-05 20:18:25.160141', 'mgs': 0, 'volt': 0.8496, 'depth': 0.775, 'time': 115, 'pitch': -20.72, 'roll': 1.49, 'pres': 174}
{'lipoC2': 7.7, 'lipoC3S1': 3.83, 'temp': 28.5, 'lipoC3S3': 11.58, 'lipoC3S2': 7.66, 'rot1': 275, 'rot0': 274, 'rot3': 186, 'rot2': 150, 'state': 'normal', 'yaw': 21.99, 'datetime': '2018-10-05 20:18:25.264476', 'mgs': 0, 'volt': 0.8496, 'depth': 0.775, 'time': 115, 'pitch': -21.16, 'roll': 1.48, 'pres': 174}
{'lipoC2': 7.7, 'lipoC3S1': 3.83, 'temp': 28.5, 'lipoC3S3': 11.58, 'lipoC3S2': 7.66, 'rot1': 275, 'rot0': 274, 'rot3': 186, 'rot2': 150, 'state': 'normal', 'yaw': 21.98, 'datetime': '2018-10-05 20:18:25.370055', 'mgs': 0, 'volt': 0.8496, 'depth': 0.775, 'time': 115, 'pitch': -21.22, 'roll': 1.39, 'pres': 174}
{'lipoC2': 7.7, 'lipoC3S1': 3.83, 'temp': 28.5, 'lipoC3S3': 11.58, 'lipoC3S2': 7.66, 'rot1': 275, 'rot0': 274, 'rot3': 186, 'rot2': 150, 'state': 'normal', 'yaw': 22.13, 'datetime': '2018-10-05 20:18:25.474355', 'mgs': 0, 'volt': 0.8447, 'depth': 0.699, 'time': 115, 'pitch': -20.8, 'roll': 0.93, 'pres': 173}
{'lipoC2': 7.7, 'lipoC3S1': 3.83, 'temp': 28.5, 'lipoC3S3': 11.58, 'lipoC3S2': 7.66, 'rot1': 275, 'rot0': 274, 'rot3': 186, 'rot2': 150, 'state': 'normal', 'yaw': 22.32, 'datetime': '2018-10-05 20:18:25.578680', 'mgs': 0, 'volt': 0.8447, 'depth': 0.699, 'time': 115, 'pitch': -20.05, 'roll': 0.25, 'pres': 173}
{'lipoC2': 7.7, 'lipoC3S1': 3.83, 'temp': 28.56, 'lipoC3S3': 11.58, 'lipoC3S2': 7.66, 'rot1': 275, 'rot0': 274, 'rot3': 186, 'rot2': 150, 'state': 'normal', 'yaw': 22.45, 'datetime': '2018-10-05 20:18:25.682997', 'mgs': 0, 'volt': 0.8447, 'depth': 0.699, 'time': 115, 'pitch': -19.41, 'roll': -0.63, 'pres': 173}
{'lipoC2': 7.7, 'lipoC3S1': 3.83, 'temp': 28.56, 'lipoC3S3': 11.58, 'lipoC3S2': 7.66, 'rot1': 275, 'rot0': 274, 'rot3': 186, 'rot2': 150, 'state': 'normal', 'yaw': 22.42, 'datetime': '2018-10-05 20:18:25.787413', 'mgs': 0, 'volt': 0.8447, 'depth': 0.699, 'time': 116, 'pitch': -19.07, 'roll': -1.37, 'pres': 173}
{'lipoC2': 7.7, 'lipoC3S1': 3.83, 'temp': 28.5, 'lipoC3S3': 11.58, 'lipoC3S2': 7.66, 'rot1': 275, 'rot0': 274, 'rot3': 186, 'rot2': 150, 'state': 'normal', 'yaw': 22.26, 'datetime': '2018-10-05 20:18:25.891865', 'mgs': 0, 'volt': 0.8398, 'depth': 0.623, 'time': 116, 'pitch': -18.68, 'roll': -1.96, 'pres': 172}
{'lipoC2': 7.7, 'lipoC3S1': 3.83, 'temp': 28.5, 'lipoC3S3': 11.58, 'lipoC3S2': 7.66, 'rot1': 275, 'rot0': 274, 'rot3': 186, 'rot2': 150, 'state': 'normal', 'yaw': 22.1, 'datetime': '2018-10-05 20:18:25.996222', 'mgs': 0, 'volt': 0.8398, 'depth': 0.623, 'time': 116, 'pitch': -18.22, 'roll': -2.5, 'pres': 172}
{'lipoC2': 7.7, 'lipoC3S1': 3.83, 'temp': 28.5, 'lipoC3S3': 11.58, 'lipoC3S2': 7.66, 'rot1': 275, 'rot0': 274, 'rot3': 186, 'rot2': 150, 'state': 'normal', 'yaw': 22.05, 'datetime': '2018-10-05 20:18:26.101351', 'mgs': 0, 'volt': 0.835, 'depth': 0.546, 'time': 116, 'pitch': -17.82, 'roll': -2.96, 'pres': 171}
{'lipoC2': 7.69, 'lipoC3S1': 3.83, 'temp': 28.56, 'lipoC3S3': 11.58, 'lipoC3S2': 7.66, 'rot1': 275, 'rot0': 274, 'rot3': 186, 'rot2': 150, 'state': 'normal', 'yaw': 22.08, 'datetime': '2018-10-05 20:18:26.205670', 'mgs': 0, 'volt': 0.835, 'depth': 0.546, 'time': 116, 'pitch': -17.16, 'roll': -3.37, 'pres': 171}
{'lipoC2': 7.7, 'lipoC3S1': 3.83, 'temp': 28.56, 'lipoC3S3': 11.58, 'lipoC3S2': 7.66, 'rot1': 275, 'rot0': 274, 'rot3': 186, 'rot2': 150, 'state': 'normal', 'yaw': 22.07, 'datetime': '2018-10-05 20:18:26.311325', 'mgs': 0, 'volt': 0.8301, 'depth': 0.47, 'time': 116, 'pitch': -16.48, 'roll': -3.54, 'pres': 170}
{'lipoC2': 7.7, 'lipoC3S1': 3.83, 'temp': 28.5, 'lipoC3S3': 11.58, 'lipoC3S2': 7.66, 'rot1': 275, 'rot0': 274, 'rot3': 186, 'rot2': 150, 'state': 'normal', 'yaw': 22.03, 'datetime': '2018-10-05 20:18:26.415570', 'mgs': 0, 'volt': 0.8301, 'depth': 0.47, 'time': 116, 'pitch': -15.69, 'roll': -3.55, 'pres': 170}
{'lipoC2': 7.7, 'lipoC3S1': 3.83, 'temp': 28.5, 'lipoC3S3': 11.58, 'lipoC3S2': 7.67, 'rot1': 275, 'rot0': 274, 'rot3': 186, 'rot2': 150, 'state': 'normal', 'yaw': 21.99, 'datetime': '2018-10-05 20:18:26.521168', 'mgs': 0, 'volt': 0.8301, 'depth': 0.47, 'time': 116, 'pitch': -15.05, 'roll': -3.42, 'pres': 170}
{'lipoC2': 7.69, 'lipoC3S1': 3.83, 'temp': 28.5, 'lipoC3S3': 11.58, 'lipoC3S2': 7.66, 'rot1': 275, 'rot0': 274, 'rot3': 186, 'rot2': 150, 'state': 'normal', 'yaw': 21.99, 'datetime': '2018-10-05 20:18:26.625529', 'mgs': 0, 'volt': 0.8252, 'depth': 0.394, 'time': 116, 'pitch': -14.46, 'roll': -3.15, 'pres': 169}
{'lipoC2': 7.69, 'lipoC3S1': 3.83, 'temp': 28.5, 'lipoC3S3': 11.58, 'lipoC3S2': 7.66, 'rot1': 275, 'rot0': 274, 'rot3': 186, 'rot2': 150, 'state': 'normal', 'yaw': 22.03, 'datetime': '2018-10-05 20:18:26.729703', 'mgs': 0, 'volt': 0.8252, 'depth': 0.394, 'time': 116, 'pitch': -14.05, 'roll': -2.8, 'pres': 169}
{'lipoC2': 7.7, 'lipoC3S1': 3.83, 'temp': 28.5, 'lipoC3S3': 11.58, 'lipoC3S2': 7.66, 'rot1': 275, 'rot0': 274, 'rot3': 186, 'rot2': 150, 'state': 'normal', 'yaw': 22.02, 'datetime': '2018-10-05 20:18:26.834172', 'mgs': 0, 'volt': 0.8252, 'depth': 0.394, 'time': 117, 'pitch': -13.76, 'roll': -2.39, 'pres': 169}
{'lipoC2': 7.7, 'lipoC3S1': 3.83, 'temp': 28.56, 'lipoC3S3': 11.58, 'lipoC3S2': 7.66, 'rot1': 275, 'rot0': 274, 'rot3': 186, 'rot2': 150, 'state': 'normal', 'yaw': 22.0, 'datetime': '2018-10-05 20:18:26.938349', 'mgs': 0, 'volt': 0.8203, 'depth': 0.317, 'time': 117, 'pitch': -13.36, 'roll': -2.02, 'pres': 168}
{'lipoC2': 7.7, 'lipoC3S1': 3.83, 'temp': 28.56, 'lipoC3S3': 11.58, 'lipoC3S2': 7.66, 'rot1': 275, 'rot0': 274, 'rot3': 186, 'rot2': 150, 'state': 'normal', 'yaw': 21.98, 'datetime': '2018-10-05 20:18:27.042568', 'mgs': 0, 'volt': 0.8203, 'depth': 0.317, 'time': 117, 'pitch': -12.84, 'roll': -1.89, 'pres': 168}
{'lipoC2': 7.7, 'lipoC3S1': 3.83, 'temp': 28.5, 'lipoC3S3': 11.58, 'lipoC3S2': 7.66, 'rot1': 275, 'rot0': 274, 'rot3': 186, 'rot2': 150, 'state': 'normal', 'yaw': 21.9, 'datetime': '2018-10-05 20:18:27.146835', 'mgs': 0, 'volt': 0.8154, 'depth': 0.241, 'time': 117, 'pitch': -12.1, 'roll': -2.04, 'pres': 167}
{'lipoC2': 7.7, 'lipoC3S1': 3.83, 'temp': 28.5, 'lipoC3S3': 11.58, 'lipoC3S2': 7.66, 'rot1': 275, 'rot0': 274, 'rot3': 186, 'rot2': 150, 'state': 'normal', 'yaw': 21.72, 'datetime': '2018-10-05 20:18:27.250994', 'mgs': 0, 'volt': 0.8154, 'depth': 0.241, 'time': 117, 'pitch': -11.44, 'roll': -2.38, 'pres': 167}
{'lipoC2': 7.7, 'lipoC3S1': 3.83, 'temp': 28.5, 'lipoC3S3': 11.58, 'lipoC3S2': 7.66, 'rot1': 275, 'rot0': 274, 'rot3': 186, 'rot2': 150, 'state': 'normal', 'yaw': 21.45, 'datetime': '2018-10-05 20:18:27.355815', 'mgs': 0, 'volt': 0.8154, 'depth': 0.241, 'time': 117, 'pitch': -10.93, 'roll': -2.73, 'pres': 167}
{'lipoC2': 7.7, 'lipoC3S1': 3.83, 'temp': 28.5, 'lipoC3S3': 11.58, 'lipoC3S2': 7.66, 'rot1': 275, 'rot0': 274, 'rot3': 186, 'rot2': 150, 'state': 'normal', 'yaw': 21.11, 'datetime': '2018-10-05 20:18:27.460050', 'mgs': 0, 'volt': 0.8105, 'depth': 0.165, 'time': 117, 'pitch': -10.61, 'roll': -3.08, 'pres': 166}
{'lipoC2': 7.7, 'lipoC3S1': 3.83, 'temp': 28.5, 'lipoC3S3': 11.58, 'lipoC3S2': 7.66, 'rot1': 275, 'rot0': 274, 'rot3': 186, 'rot2': 150, 'state': 'normal', 'yaw': 20.82, 'datetime': '2018-10-05 20:18:27.565567', 'mgs': 0, 'volt': 0.8105, 'depth': 0.165, 'time': 117, 'pitch': -10.38, 'roll': -3.35, 'pres': 166}
{'lipoC2': 7.7, 'lipoC3S1': 3.83, 'temp': 28.5, 'lipoC3S3': 11.58, 'lipoC3S2': 7.66, 'rot1': 275, 'rot0': 274, 'rot3': 186, 'rot2': 150, 'state': 'normal', 'yaw': 20.63, 'datetime': '2018-10-05 20:18:27.669813', 'mgs': 0, 'volt': 0.8057, 'depth': 0.089, 'time': 117, 'pitch': -10.12, 'roll': -3.62, 'pres': 165}
{'lipoC2': 7.69, 'lipoC3S1': 3.83, 'temp': 28.5, 'lipoC3S3': 11.58, 'lipoC3S2': 7.66, 'rot1': 275, 'rot0': 274, 'rot3': 186, 'rot2': 150, 'state': 'normal', 'yaw': 20.58, 'datetime': '2018-10-05 20:18:27.775368', 'mgs': 0, 'volt': 0.8057, 'depth': 0.089, 'time': 118, 'pitch': -9.94, 'roll': -3.78, 'pres': 165}
{'lipoC2': 7.7, 'lipoC3S1': 3.83, 'temp': 28.5, 'lipoC3S3': 11.58, 'lipoC3S2': 7.66, 'rot1': 275, 'rot0': 274, 'rot3': 186, 'rot2': 150, 'state': 'normal', 'yaw': 20.47, 'datetime': '2018-10-05 20:18:27.879564', 'mgs': 0, 'volt': 0.8057, 'depth': 0.089, 'time': 118, 'pitch': -9.93, 'roll': -3.66, 'pres': 165}
{'lipoC2': 7.69, 'lipoC3S1': 3.83, 'temp': 28.5, 'lipoC3S3': 11.58, 'lipoC3S2': 7.67, 'rot1': 275, 'rot0': 274, 'rot3': 186, 'rot2': 150, 'state': 'normal', 'yaw': 20.41, 'datetime': '2018-10-05 20:18:27.983766', 'mgs': 0, 'volt': 0.8057, 'depth': 0.089, 'time': 118, 'pitch': -9.9, 'roll': -3.27, 'pres': 165}
{'lipoC2': 7.7, 'lipoC3S1': 3.83, 'temp': 28.5, 'lipoC3S3': 11.58, 'lipoC3S2': 7.67, 'rot1': 275, 'rot0': 274, 'rot3': 186, 'rot2': 150, 'state': 'normal', 'yaw': 20.47, 'datetime': '2018-10-05 20:18:28.088008', 'mgs': 0, 'volt': 0.8057, 'depth': 0.089, 'time': 118, 'pitch': -9.69, 'roll': -2.67, 'pres': 165}
{'lipoC2': 7.7, 'lipoC3S1': 3.83, 'temp': 28.5, 'lipoC3S3': 11.58, 'lipoC3S2': 7.66, 'rot1': 275, 'rot0': 274, 'rot3': 186, 'rot2': 150, 'state': 'normal', 'yaw': 20.68, 'datetime': '2018-10-05 20:18:28.192248', 'mgs': 0, 'volt': 0.8057, 'depth': 0.089, 'time': 118, 'pitch': -9.59, 'roll': -2.09, 'pres': 165}
{'lipoC2': 7.7, 'lipoC3S1': 3.83, 'temp': 28.5, 'lipoC3S3': 11.58, 'lipoC3S2': 7.66, 'rot1': 275, 'rot0': 274, 'rot3': 186, 'rot2': 150, 'state': 'normal', 'yaw': 20.9, 'datetime': '2018-10-05 20:18:28.296505', 'mgs': 0, 'volt': 0.8057, 'depth': 0.089, 'time': 118, 'pitch': -9.66, 'roll': -1.54, 'pres': 165}
{'lipoC2': 7.7, 'lipoC3S1': 3.83, 'temp': 28.5, 'lipoC3S3': 11.58, 'lipoC3S2': 7.66, 'rot1': 275, 'rot0': 274, 'rot3': 186, 'rot2': 150, 'state': 'normal', 'yaw': 21.07, 'datetime': '2018-10-05 20:18:28.400679', 'mgs': 0, 'volt': 0.8057, 'depth': 0.089, 'time': 118, 'pitch': -9.82, 'roll': -1.05, 'pres': 165}
{'lipoC2': 7.7, 'lipoC3S1': 3.83, 'temp': 28.5, 'lipoC3S3': 11.58, 'lipoC3S2': 7.66, 'rot1': 275, 'rot0': 274, 'rot3': 186, 'rot2': 150, 'state': 'normal', 'yaw': 21.13, 'datetime': '2018-10-05 20:18:28.504911', 'mgs': 0, 'volt': 0.8057, 'depth': 0.089, 'time': 118, 'pitch': -9.98, 'roll': -0.82, 'pres': 165}
{'lipoC2': 7.69, 'lipoC3S1': 3.83, 'temp': 28.5, 'lipoC3S3': 11.58, 'lipoC3S2': 7.66, 'rot1': 275, 'rot0': 274, 'rot3': 186, 'rot2': 150, 'state': 'normal', 'yaw': 20.99, 'datetime': '2018-10-05 20:18:28.609309', 'mgs': 0, 'volt': 0.8105, 'depth': 0.165, 'time': 118, 'pitch': -10.1, 'roll': -0.76, 'pres': 166}
{'lipoC2': 7.7, 'lipoC3S1': 3.83, 'temp': 28.5, 'lipoC3S3': 11.58, 'lipoC3S2': 7.66, 'rot1': 275, 'rot0': 274, 'rot3': 186, 'rot2': 150, 'state': 'normal', 'yaw': 20.92, 'datetime': '2018-10-05 20:18:28.713505', 'mgs': 0, 'volt': 0.8057, 'depth': 0.089, 'time': 118, 'pitch': -10.12, 'roll': -0.95, 'pres': 165}
{'lipoC2': 7.7, 'lipoC3S1': 3.83, 'temp': 28.5, 'lipoC3S3': 11.58, 'lipoC3S2': 7.66, 'rot1': 275, 'rot0': 274, 'rot3': 186, 'rot2': 150, 'state': 'normal', 'yaw': 20.92, 'datetime': '2018-10-05 20:18:28.818863', 'mgs': 0, 'volt': 0.8105, 'depth': 0.165, 'time': 119, 'pitch': -10.31, 'roll': -1.27, 'pres': 166}
{'lipoC2': 7.7, 'lipoC3S1': 3.83, 'temp': 28.5, 'lipoC3S3': 11.58, 'lipoC3S2': 7.66, 'rot1': 275, 'rot0': 274, 'rot3': 186, 'rot2': 150, 'state': 'normal', 'yaw': 20.91, 'datetime': '2018-10-05 20:18:28.923081', 'mgs': 0, 'volt': 0.8057, 'depth': 0.089, 'time': 119, 'pitch': -10.55, 'roll': -1.68, 'pres': 165}
{'lipoC2': 7.7, 'lipoC3S1': 3.83, 'temp': 28.5, 'lipoC3S3': 11.58, 'lipoC3S2': 7.66, 'rot1': 275, 'rot0': 274, 'rot3': 186, 'rot2': 150, 'state': 'normal', 'yaw': 20.84, 'datetime': '2018-10-05 20:18:29.028620', 'mgs': 0, 'volt': 0.8105, 'depth': 0.165, 'time': 119, 'pitch': -10.67, 'roll': -2.02, 'pres': 166}
{'lipoC2': 7.7, 'lipoC3S1': 3.83, 'temp': 28.5, 'lipoC3S3': 11.58, 'lipoC3S2': 7.66, 'rot1': 275, 'rot0': 274, 'rot3': 186, 'rot2': 150, 'state': 'normal', 'yaw': 20.82, 'datetime': '2018-10-05 20:18:29.132831', 'mgs': 0, 'volt': 0.8105, 'depth': 0.165, 'time': 119, 'pitch': -10.86, 'roll': -2.39, 'pres': 166}
{'lipoC2': 7.7, 'lipoC3S1': 3.83, 'temp': 28.5, 'lipoC3S3': 11.58, 'lipoC3S2': 7.66, 'rot1': 275, 'rot0': 274, 'rot3': 186, 'rot2': 150, 'state': 'normal', 'yaw': 20.96, 'datetime': '2018-10-05 20:18:29.237226', 'mgs': 0, 'volt': 0.8105, 'depth': 0.165, 'time': 119, 'pitch': -11.2, 'roll': -2.71, 'pres': 166}
{'lipoC2': 7.7, 'lipoC3S1': 3.83, 'temp': 28.5, 'lipoC3S3': 11.58, 'lipoC3S2': 7.66, 'rot1': 275, 'rot0': 274, 'rot3': 186, 'rot2': 150, 'state': 'normal', 'yaw': 21.18, 'datetime': '2018-10-05 20:18:29.341346', 'mgs': 0, 'volt': 0.8105, 'depth': 0.165, 'time': 119, 'pitch': -11.57, 'roll': -2.94, 'pres': 166}
{'lipoC2': 7.7, 'lipoC3S1': 3.83, 'temp': 28.5, 'lipoC3S3': 11.58, 'lipoC3S2': 7.66, 'rot1': 275, 'rot0': 274, 'rot3': 186, 'rot2': 150, 'state': 'normal', 'yaw': 21.35, 'datetime': '2018-10-05 20:18:29.445501', 'mgs': 0, 'volt': 0.8105, 'depth': 0.165, 'time': 119, 'pitch': -11.83, 'roll': -2.98, 'pres': 166}
{'lipoC2': 7.69, 'lipoC3S1': 3.83, 'temp': 28.5, 'lipoC3S3': 11.58, 'lipoC3S2': 7.66, 'rot1': 275, 'rot0': 274, 'rot3': 186, 'rot2': 150, 'state': 'normal', 'yaw': 21.52, 'datetime': '2018-10-05 20:18:29.549767', 'mgs': 0, 'volt': 0.8154, 'depth': 0.241, 'time': 119, 'pitch': -11.99, 'roll': -2.97, 'pres': 167}
{'lipoC2': 7.7, 'lipoC3S1': 3.83, 'temp': 28.5, 'lipoC3S3': 11.58, 'lipoC3S2': 7.66, 'rot1': 275, 'rot0': 274, 'rot3': 186, 'rot2': 150, 'state': 'normal', 'yaw': 21.67, 'datetime': '2018-10-05 20:18:29.653989', 'mgs': 0, 'volt': 0.8154, 'depth': 0.241, 'time': 119, 'pitch': -12.06, 'roll': -2.85, 'pres': 167}
{'lipoC2': 7.7, 'lipoC3S1': 3.83, 'temp': 28.5, 'lipoC3S3': 11.58, 'lipoC3S2': 7.66, 'rot1': 275, 'rot0': 274, 'rot3': 186, 'rot2': 150, 'state': 'normal', 'yaw': 21.71, 'datetime': '2018-10-05 20:18:29.758205', 'mgs': 0, 'volt': 0.8154, 'depth': 0.241, 'time': 120, 'pitch': -12.01, 'roll': -2.66, 'pres': 167}
{'lipoC2': 7.69, 'lipoC3S1': 3.83, 'temp': 28.5, 'lipoC3S3': 11.58, 'lipoC3S2': 7.66, 'rot1': 275, 'rot0': 274, 'rot3': 186, 'rot2': 150, 'state': 'normal', 'yaw': 21.71, 'datetime': '2018-10-05 20:18:29.862491', 'mgs': 0, 'volt': 0.8154, 'depth': 0.241, 'time': 120, 'pitch': -11.93, 'roll': -2.38, 'pres': 167}
{'lipoC2': 7.7, 'lipoC3S1': 3.83, 'temp': 28.5, 'lipoC3S3': 11.58, 'lipoC3S2': 7.66, 'rot1': 275, 'rot0': 274, 'rot3': 186, 'rot2': 150, 'state': 'normal', 'yaw': 21.7, 'datetime': '2018-10-05 20:18:29.966749', 'mgs': 0, 'volt': 0.8154, 'depth': 0.241, 'time': 120, 'pitch': -11.99, 'roll': -2.13, 'pres': 167}
{'lipoC2': 7.7, 'lipoC3S1': 3.83, 'temp': 28.5, 'lipoC3S3': 11.58, 'lipoC3S2': 7.66, 'rot1': 275, 'rot0': 274, 'rot3': 186, 'rot2': 150, 'state': 'normal', 'yaw': 21.79, 'datetime': '2018-10-05 20:18:30.072103', 'mgs': 0, 'volt': 0.8154, 'depth': 0.241, 'time': 120, 'pitch': -12.19, 'roll': -2.01, 'pres': 167}
{'lipoC2': 7.69, 'lipoC3S1': 3.83, 'temp': 28.5, 'lipoC3S3': 11.58, 'lipoC3S2': 7.66, 'rot1': 275, 'rot0': 274, 'rot3': 186, 'rot2': 150, 'state': 'normal', 'yaw': 21.95, 'datetime': '2018-10-05 20:18:30.176389', 'mgs': 1, 'volt': 0.8154, 'depth': 0.241, 'time': 120, 'pitch': -12.45, 'roll': -2.02, 'pres': 167}
{'lipoC2': 7.69, 'lipoC3S1': 3.83, 'temp': 28.5, 'lipoC3S3': 11.58, 'lipoC3S2': 7.66, 'rot1': 0, 'rot0': 0, 'rot3': 0, 'rot2': 0, 'state': 'normal', 'yaw': 0.01, 'datetime': '2018-10-05 20:18:36.208496', 'mgs': 0, 'volt': 0.8154, 'depth': 0.241, 'time': 1, 'pitch': -12.46, 'roll': -0.81, 'pres': 167}
{'lipoC2': 7.7, 'lipoC3S1': 3.83, 'temp': 28.5, 'lipoC3S3': 11.58, 'lipoC3S2': 7.66, 'rot1': 0, 'rot0': 0, 'rot3': 0, 'rot2': 0, 'state': 'normal', 'yaw': 0.08, 'datetime': '2018-10-05 20:18:39.250612', 'mgs': 0, 'volt': 0.8154, 'depth': 0.241, 'time': 1, 'pitch': -12.38, 'roll': -0.66, 'pres': 167}
{'lipoC2': 7.7, 'lipoC3S1': 3.83, 'temp': 28.5, 'lipoC3S3': 11.58, 'lipoC3S2': 7.67, 'rot1': 0, 'rot0': 0, 'rot3': 0, 'rot2': 0, 'state': 'normal', 'yaw': 0.05, 'datetime': '2018-10-05 20:18:39.286514', 'mgs': 0, 'volt': 0.8154, 'depth': 0.241, 'time': 1, 'pitch': -12.37, 'roll': -0.64, 'pres': 167}
{'lipoC2': 7.7, 'lipoC3S1': 3.83, 'temp': 28.5, 'lipoC3S3': 11.58, 'lipoC3S2': 7.67, 'rot1': 0, 'rot0': 0, 'rot3': 0, 'rot2': 0, 'state': 'normal', 'yaw': 0.0, 'datetime': '2018-10-05 20:18:39.303120', 'mgs': 0, 'volt': 0.8154, 'depth': 0.241, 'time': 1, 'pitch': -12.39, 'roll': -0.85, 'pres': 167}
{'lipoC2': 7.7, 'lipoC3S1': 3.83, 'temp': 28.5, 'lipoC3S3': 11.59, 'lipoC3S2': 7.67, 'rot1': 0, 'rot0': 0, 'rot3': 0, 'rot2': 0, 'state': 'normal', 'yaw': 0.0, 'datetime': '2018-10-05 20:18:39.319152', 'mgs': 0, 'volt': 0.8154, 'depth': 0.241, 'time': 1, 'pitch': -12.37, 'roll': -1.23, 'pres': 167}
{'lipoC2': 7.7, 'lipoC3S1': 3.83, 'temp': 28.5, 'lipoC3S3': 11.59, 'lipoC3S2': 7.67, 'rot1': 0, 'rot0': 0, 'rot3': 0, 'rot2': 0, 'state': 'normal', 'yaw': -0.08, 'datetime': '2018-10-05 20:18:39.335179', 'mgs': 0, 'volt': 0.8154, 'depth': 0.241, 'time': 1, 'pitch': -12.24, 'roll': -1.61, 'pres': 167}
{'lipoC2': 7.7, 'lipoC3S1': 3.83, 'temp': 28.5, 'lipoC3S3': 11.58, 'lipoC3S2': 7.67, 'rot1': 0, 'rot0': 0, 'rot3': 0, 'rot2': 0, 'state': 'normal', 'yaw': -0.27, 'datetime': '2018-10-05 20:18:39.345166', 'mgs': 0, 'volt': 0.8154, 'depth': 0.241, 'time': 1, 'pitch': -12.06, 'roll': -1.92, 'pres': 167}
{'lipoC2': 7.7, 'lipoC3S1': 3.83, 'temp': 28.56, 'lipoC3S3': 11.58, 'lipoC3S2': 7.66, 'rot1': 0, 'rot0': 0, 'rot3': 0, 'rot2': 0, 'state': 'normal', 'yaw': -0.52, 'datetime': '2018-10-05 20:18:39.361475', 'mgs': 0, 'volt': 0.8154, 'depth': 0.241, 'time': 1, 'pitch': -11.89, 'roll': -2.01, 'pres': 167}
{'lipoC2': 7.7, 'lipoC3S1': 3.83, 'temp': 28.56, 'lipoC3S3': 11.58, 'lipoC3S2': 7.66, 'rot1': 0, 'rot0': 0, 'rot3': 0, 'rot2': 0, 'state': 'normal', 'yaw': -0.76, 'datetime': '2018-10-05 20:18:39.377540', 'mgs': 0, 'volt': 0.8154, 'depth': 0.241, 'time': 2, 'pitch': -11.72, 'roll': -1.96, 'pres': 167}
{'lipoC2': 7.69, 'lipoC3S1': 3.83, 'temp': 28.56, 'lipoC3S3': 11.58, 'lipoC3S2': 7.66, 'rot1': 0, 'rot0': 0, 'rot3': 0, 'rot2': 0, 'state': 'normal', 'yaw': -0.75, 'datetime': '2018-10-05 20:18:39.387552', 'mgs': 0, 'volt': 0.8154, 'depth': 0.241, 'time': 2, 'pitch': -11.72, 'roll': -1.96, 'pres': 167}
{'lipoC2': 7.69, 'lipoC3S1': 3.83, 'temp': 28.56, 'lipoC3S3': 11.58, 'lipoC3S2': 7.67, 'rot1': 0, 'rot0': 0, 'rot3': 0, 'rot2': 0, 'state': 'normal', 'yaw': -0.57, 'datetime': '2018-10-05 20:18:39.403679', 'mgs': 0, 'volt': 0.8105, 'depth': 0.165, 'time': 2, 'pitch': -11.78, 'roll': -1.97, 'pres': 166}
{'lipoC2': 7.7, 'lipoC3S1': 3.83, 'temp': 28.56, 'lipoC3S3': 11.58, 'lipoC3S2': 7.66, 'rot1': 0, 'rot0': 0, 'rot3': 0, 'rot2': 0, 'state': 'normal', 'yaw': -0.43, 'datetime': '2018-10-05 20:18:39.419767', 'mgs': 0, 'volt': 0.8154, 'depth': 0.241, 'time': 2, 'pitch': -11.86, 'roll': -1.83, 'pres': 167}
{'lipoC2': 7.7, 'lipoC3S1': 3.83, 'temp': 28.5, 'lipoC3S3': 11.59, 'lipoC3S2': 7.67, 'rot1': 0, 'rot0': 0, 'rot3': 0, 'rot2': 0, 'state': 'normal', 'yaw': -0.43, 'datetime': '2018-10-05 20:18:39.429804', 'mgs': 0, 'volt': 0.8154, 'depth': 0.241, 'time': 2, 'pitch': -12.0, 'roll': -1.59, 'pres': 167}
{'lipoC2': 7.7, 'lipoC3S1': 3.83, 'temp': 28.5, 'lipoC3S3': 11.59, 'lipoC3S2': 7.67, 'rot1': 0, 'rot0': 0, 'rot3': 0, 'rot2': 0, 'state': 'normal', 'yaw': -0.43, 'datetime': '2018-10-05 20:18:39.445763', 'mgs': 0, 'volt': 0.8154, 'depth': 0.241, 'time': 2, 'pitch': -12.14, 'roll': -1.29, 'pres': 167}
{'lipoC2': 7.7, 'lipoC3S1': 3.83, 'temp': 28.5, 'lipoC3S3': 11.59, 'lipoC3S2': 7.67, 'rot1': 0, 'rot0': 0, 'rot3': 0, 'rot2': 0, 'state': 'normal', 'yaw': -0.41, 'datetime': '2018-10-05 20:18:39.461767', 'mgs': 0, 'volt': 0.8154, 'depth': 0.241, 'time': 2, 'pitch': -12.27, 'roll': -0.99, 'pres': 167}
{'lipoC2': 7.69, 'lipoC3S1': 3.83, 'temp': 28.5, 'lipoC3S3': 11.59, 'lipoC3S2': 7.67, 'rot1': 0, 'rot0': 0, 'rot3': 0, 'rot2': 0, 'state': 'normal', 'yaw': -0.29, 'datetime': '2018-10-05 20:18:39.471802', 'mgs': 0, 'volt': 0.8154, 'depth': 0.241, 'time': 2, 'pitch': -12.28, 'roll': -0.73, 'pres': 167}
{'lipoC2': 7.7, 'lipoC3S1': 3.83, 'temp': 28.5, 'lipoC3S3': 11.59, 'lipoC3S2': 7.67, 'rot1': 0, 'rot0': 0, 'rot3': 0, 'rot2': 0, 'state': 'normal', 'yaw': -0.18, 'datetime': '2018-10-05 20:18:39.487800', 'mgs': 0, 'volt': 0.8154, 'depth': 0.241, 'time': 2, 'pitch': -12.2, 'roll': -0.5, 'pres': 167}
{'lipoC2': 7.7, 'lipoC3S1': 3.83, 'temp': 28.5, 'lipoC3S3': 11.58, 'lipoC3S2': 7.66, 'rot1': 0, 'rot0': 0, 'rot3': 0, 'rot2': 0, 'state': 'normal', 'yaw': -0.07, 'datetime': '2018-10-05 20:18:39.503813', 'mgs': 0, 'volt': 0.8154, 'depth': 0.241, 'time': 3, 'pitch': -12.26, 'roll': -0.3, 'pres': 167}
{'lipoC2': 7.7, 'lipoC3S1': 3.83, 'temp': 28.5, 'lipoC3S3': 11.58, 'lipoC3S2': 7.66, 'rot1': 0, 'rot0': 0, 'rot3': 0, 'rot2': 0, 'state': 'normal', 'yaw': 0.06, 'datetime': '2018-10-05 20:18:39.513823', 'mgs': 0, 'volt': 0.8203, 'depth': 0.317, 'time': 3, 'pitch': -12.51, 'roll': -0.13, 'pres': 168}
{'lipoC2': 7.7, 'lipoC3S1': 3.83, 'temp': 28.5, 'lipoC3S3': 11.58, 'lipoC3S2': 7.66, 'rot1': 0, 'rot0': 0, 'rot3': 0, 'rot2': 0, 'state': 'normal', 'yaw': 0.17, 'datetime': '2018-10-05 20:18:39.529812', 'mgs': 0, 'volt': 0.8203, 'depth': 0.317, 'time': 3, 'pitch': -12.76, 'roll': 0.03, 'pres': 168}
{'lipoC2': 7.7, 'lipoC3S1': 3.83, 'temp': 28.5, 'lipoC3S3': 11.58, 'lipoC3S2': 7.66, 'rot1': 0, 'rot0': 0, 'rot3': 0, 'rot2': 0, 'state': 'normal', 'yaw': 0.25, 'datetime': '2018-10-05 20:18:39.545813', 'mgs': 0, 'volt': 0.8203, 'depth': 0.317, 'time': 3, 'pitch': -12.82, 'roll': 0.19, 'pres': 168}
{'lipoC2': 7.7, 'lipoC3S1': 3.83, 'temp': 28.5, 'lipoC3S3': 11.59, 'lipoC3S2': 7.67, 'rot1': 0, 'rot0': 0, 'rot3': 0, 'rot2': 0, 'state': 'normal', 'yaw': 0.25, 'datetime': '2018-10-05 20:18:39.555826', 'mgs': 0, 'volt': 0.8203, 'depth': 0.317, 'time': 3, 'pitch': -12.93, 'roll': 0.39, 'pres': 168}
{'lipoC2': 7.7, 'lipoC3S1': 3.83, 'temp': 28.5, 'lipoC3S3': 11.59, 'lipoC3S2': 7.67, 'rot1': 0, 'rot0': 0, 'rot3': 0, 'rot2': 0, 'state': 'normal', 'yaw': 0.26, 'datetime': '2018-10-05 20:18:39.571849', 'mgs': 0, 'volt': 0.8252, 'depth': 0.394, 'time': 3, 'pitch': -13.19, 'roll': 0.46, 'pres': 169}
{'lipoC2': 7.7, 'lipoC3S1': 3.83, 'temp': 28.56, 'lipoC3S3': 11.59, 'lipoC3S2': 7.67, 'rot1': 0, 'rot0': 0, 'rot3': 0, 'rot2': 0, 'state': 'normal', 'yaw': 0.25, 'datetime': '2018-10-05 20:18:39.587884', 'mgs': 0, 'volt': 0.8203, 'depth': 0.317, 'time': 3, 'pitch': -13.51, 'roll': 0.41, 'pres': 168}
{'lipoC2': 7.7, 'lipoC3S1': 3.83, 'temp': 28.56, 'lipoC3S3': 11.59, 'lipoC3S2': 7.67, 'rot1': 0, 'rot0': 0, 'rot3': 0, 'rot2': 0, 'state': 'normal', 'yaw': 0.25, 'datetime': '2018-10-05 20:18:39.598032', 'mgs': 0, 'volt': 0.8252, 'depth': 0.394, 'time': 3, 'pitch': -13.76, 'roll': 0.21, 'pres': 169}
{'lipoC2': 7.7, 'lipoC3S1': 3.83, 'temp': 28.56, 'lipoC3S3': 11.59, 'lipoC3S2': 7.67, 'rot1': 0, 'rot0': 0, 'rot3': 0, 'rot2': 0, 'state': 'normal', 'yaw': 0.32, 'datetime': '2018-10-05 20:18:39.614041', 'mgs': 0, 'volt': 0.8252, 'depth': 0.394, 'time': 3, 'pitch': -13.77, 'roll': -0.18, 'pres': 169}
{'lipoC2': 7.69, 'lipoC3S1': 3.83, 'temp': 28.5, 'lipoC3S3': 11.58, 'lipoC3S2': 7.66, 'rot1': 0, 'rot0': 0, 'rot3': 0, 'rot2': 0, 'state': 'normal', 'yaw': 0.31, 'datetime': '2018-10-05 20:18:39.630067', 'mgs': 0, 'volt': 0.8252, 'depth': 0.394, 'time': 3, 'pitch': -13.83, 'roll': -0.56, 'pres': 169}
{'lipoC2': 7.7, 'lipoC3S1': 3.83, 'temp': 28.5, 'lipoC3S3': 11.58, 'lipoC3S2': 7.66, 'rot1': 0, 'rot0': 0, 'rot3': 0, 'rot2': 0, 'state': 'normal', 'yaw': 0.14, 'datetime': '2018-10-05 20:18:39.640274', 'mgs': 0, 'volt': 0.8252, 'depth': 0.394, 'time': 4, 'pitch': -14.0, 'roll': -0.83, 'pres': 169}
{'lipoC2': 7.69, 'lipoC3S1': 3.83, 'temp': 28.5, 'lipoC3S3': 11.58, 'lipoC3S2': 7.66, 'rot1': 0, 'rot0': 0, 'rot3': 0, 'rot2': 0, 'state': 'normal', 'yaw': -0.04, 'datetime': '2018-10-05 20:18:39.656329', 'mgs': 0, 'volt': 0.8252, 'depth': 0.394, 'time': 4, 'pitch': -14.16, 'roll': -0.93, 'pres': 169}
{'lipoC2': 7.7, 'lipoC3S1': 3.83, 'temp': 28.5, 'lipoC3S3': 11.58, 'lipoC3S2': 7.66, 'rot1': 0, 'rot0': 0, 'rot3': 0, 'rot2': 0, 'state': 'normal', 'yaw': -0.22, 'datetime': '2018-10-05 20:18:39.672363', 'mgs': 0, 'volt': 0.8252, 'depth': 0.394, 'time': 4, 'pitch': -14.34, 'roll': -0.91, 'pres': 169}
{'lipoC2': 7.7, 'lipoC3S1': 3.83, 'temp': 28.5, 'lipoC3S3': 11.58, 'lipoC3S2': 7.66, 'rot1': 0, 'rot0': 0, 'rot3': 0, 'rot2': 0, 'state': 'normal', 'yaw': -0.36, 'datetime': '2018-10-05 20:18:39.682386', 'mgs': 0, 'volt': 0.8252, 'depth': 0.394, 'time': 4, 'pitch': -14.57, 'roll': -0.88, 'pres': 169}
{'lipoC2': 7.7, 'lipoC3S1': 3.83, 'temp': 28.5, 'lipoC3S3': 11.58, 'lipoC3S2': 7.67, 'rot1': 0, 'rot0': 0, 'rot3': 0, 'rot2': 0, 'state': 'normal', 'yaw': -0.39, 'datetime': '2018-10-05 20:18:39.698489', 'mgs': 0, 'volt': 0.8252, 'depth': 0.394, 'time': 4, 'pitch': -14.74, 'roll': -0.87, 'pres': 169}
{'lipoC2': 7.7, 'lipoC3S1': 3.83, 'temp': 28.5, 'lipoC3S3': 11.59, 'lipoC3S2': 7.67, 'rot1': 0, 'rot0': 0, 'rot3': 0, 'rot2': 0, 'state': 'normal', 'yaw': -0.39, 'datetime': '2018-10-05 20:18:39.714514', 'mgs': 0, 'volt': 0.8252, 'depth': 0.394, 'time': 4, 'pitch': -14.83, 'roll': -0.84, 'pres': 169}
{'lipoC2': 7.7, 'lipoC3S1': 3.83, 'temp': 28.5, 'lipoC3S3': 11.58, 'lipoC3S2': 7.67, 'rot1': 0, 'rot0': 0, 'rot3': 0, 'rot2': 0, 'state': 'normal', 'yaw': -0.29, 'datetime': '2018-10-05 20:18:39.724527', 'mgs': 0, 'volt': 0.8252, 'depth': 0.394, 'time': 4, 'pitch': -14.94, 'roll': -0.7, 'pres': 169}
{'lipoC2': 7.7, 'lipoC3S1': 3.83, 'temp': 28.5, 'lipoC3S3': 11.59, 'lipoC3S2': 7.67, 'rot1': 0, 'rot0': 0, 'rot3': 0, 'rot2': 0, 'state': 'normal', 'yaw': -0.18, 'datetime': '2018-10-05 20:18:39.741951', 'mgs': 0, 'volt': 0.8252, 'depth': 0.394, 'time': 4, 'pitch': -15.07, 'roll': -0.47, 'pres': 169}
{'lipoC2': 7.7, 'lipoC3S1': 3.83, 'temp': 28.5, 'lipoC3S3': 11.59, 'lipoC3S2': 7.67, 'rot1': 0, 'rot0': 0, 'rot3': 0, 'rot2': 0, 'state': 'normal', 'yaw': -0.05, 'datetime': '2018-10-05 20:18:39.758068', 'mgs': 0, 'volt': 0.8252, 'depth': 0.394, 'time': 4, 'pitch': -15.06, 'roll': -0.15, 'pres': 169}
{'lipoC2': 7.7, 'lipoC3S1': 3.83, 'temp': 28.5, 'lipoC3S3': 11.58, 'lipoC3S2': 7.66, 'rot1': 0, 'rot0': 0, 'rot3': 0, 'rot2': 0, 'state': 'normal', 'yaw': 0.15, 'datetime': '2018-10-05 20:18:39.768141', 'mgs': 0, 'volt': 0.8252, 'depth': 0.394, 'time': 4, 'pitch': -14.85, 'roll': 0.17, 'pres': 169}
{'lipoC2': 7.7, 'lipoC3S1': 3.83, 'temp': 28.5, 'lipoC3S3': 11.58, 'lipoC3S2': 7.66, 'rot1': 0, 'rot0': 0, 'rot3': 0, 'rot2': 0, 'state': 'normal', 'yaw': 0.34, 'datetime': '2018-10-05 20:18:39.784161', 'mgs': 0, 'volt': 0.8252, 'depth': 0.394, 'time': 5, 'pitch': -14.73, 'roll': 0.38, 'pres': 169}
{'lipoC2': 7.7, 'lipoC3S1': 3.83, 'temp': 28.5, 'lipoC3S3': 11.58, 'lipoC3S2': 7.66, 'rot1': 0, 'rot0': 0, 'rot3': 0, 'rot2': 0, 'state': 'normal', 'yaw': 0.41, 'datetime': '2018-10-05 20:18:39.800048', 'mgs': 0, 'volt': 0.8252, 'depth': 0.394, 'time': 5, 'pitch': -14.73, 'roll': 0.61, 'pres': 169}
{'lipoC2': 7.7, 'lipoC3S1': 3.83, 'temp': 28.5, 'lipoC3S3': 11.58, 'lipoC3S2': 7.66, 'rot1': 0, 'rot0': 0, 'rot3': 0, 'rot2': 0, 'state': 'normal', 'yaw': 0.41, 'datetime': '2018-10-05 20:18:39.810192', 'mgs': 0, 'volt': 0.8252, 'depth': 0.394, 'time': 5, 'pitch': -14.73, 'roll': 0.77, 'pres': 169}
{'lipoC2': 7.7, 'lipoC3S1': 3.83, 'temp': 28.56, 'lipoC3S3': 11.58, 'lipoC3S2': 7.66, 'rot1': 0, 'rot0': 0, 'rot3': 0, 'rot2': 0, 'state': 'normal', 'yaw': 0.34, 'datetime': '2018-10-05 20:18:39.826264', 'mgs': 0, 'volt': 0.8252, 'depth': 0.394, 'time': 5, 'pitch': -14.73, 'roll': 0.84, 'pres': 169}
{'lipoC2': 7.7, 'lipoC3S1': 3.83, 'temp': 28.56, 'lipoC3S3': 11.59, 'lipoC3S2': 7.67, 'rot1': 0, 'rot0': 0, 'rot3': 0, 'rot2': 0, 'state': 'normal', 'yaw': 0.25, 'datetime': '2018-10-05 20:18:39.842323', 'mgs': 0, 'volt': 0.8252, 'depth': 0.394, 'time': 5, 'pitch': -14.73, 'roll': 0.84, 'pres': 169}
{'lipoC2': 7.7, 'lipoC3S1': 3.83, 'temp': 28.5, 'lipoC3S3': 11.59, 'lipoC3S2': 7.67, 'rot1': 0, 'rot0': 0, 'rot3': 0, 'rot2': 0, 'state': 'normal', 'yaw': 0.22, 'datetime': '2018-10-05 20:18:39.852343', 'mgs': 0, 'volt': 0.8252, 'depth': 0.394, 'time': 5, 'pitch': -14.7, 'roll': 0.73, 'pres': 169}
{'lipoC2': 7.7, 'lipoC3S1': 3.83, 'temp': 28.5, 'lipoC3S3': 11.58, 'lipoC3S2': 7.67, 'rot1': 0, 'rot0': 0, 'rot3': 0, 'rot2': 0, 'state': 'normal', 'yaw': 0.22, 'datetime': '2018-10-05 20:18:39.868395', 'mgs': 0, 'volt': 0.8252, 'depth': 0.394, 'time': 5, 'pitch': -14.52, 'roll': 0.56, 'pres': 169}
{'lipoC2': 7.69, 'lipoC3S1': 3.83, 'temp': 28.56, 'lipoC3S3': 11.59, 'lipoC3S2': 7.67, 'rot1': 0, 'rot0': 0, 'rot3': 0, 'rot2': 0, 'state': 'normal', 'yaw': 0.23, 'datetime': '2018-10-05 20:18:39.884427', 'mgs': 0, 'volt': 0.8252, 'depth': 0.394, 'time': 5, 'pitch': -14.2, 'roll': 0.38, 'pres': 169}
{'lipoC2': 7.69, 'lipoC3S1': 3.83, 'temp': 28.56, 'lipoC3S3': 11.59, 'lipoC3S2': 7.67, 'rot1': 0, 'rot0': 0, 'rot3': 0, 'rot2': 0, 'state': 'normal', 'yaw': 0.1, 'datetime': '2018-10-05 20:18:39.894434', 'mgs': 0, 'volt': 0.8252, 'depth': 0.394, 'time': 5, 'pitch': -13.94, 'roll': 0.22, 'pres': 169}
{'lipoC2': 7.69, 'lipoC3S1': 3.8, 'temp': 28.56, 'lipoC3S3': 11.47, 'lipoC3S2': 7.61, 'rot1': 0, 'rot0': 0, 'rot3': 1, 'rot2': 0, 'state': 'normal', 'yaw': -0.04, 'datetime': '2018-10-05 20:18:39.910369', 'mgs': 0, 'volt': 0.8398, 'depth': 0.623, 'time': 6, 'pitch': -13.8, 'roll': 0.12, 'pres': 172}
{'lipoC2': 7.69, 'lipoC3S1': 3.79, 'temp': 28.5, 'lipoC3S3': 11.52, 'lipoC3S2': 7.62, 'rot1': 0, 'rot0': 0, 'rot3': 2, 'rot2': 1, 'state': 'normal', 'yaw': -0.16, 'datetime': '2018-10-05 20:18:39.926490', 'mgs': 0, 'volt': 0.8398, 'depth': 0.623, 'time': 6, 'pitch': -13.48, 'roll': 0.19, 'pres': 172}
{'lipoC2': 7.69, 'lipoC3S1': 3.8, 'temp': 28.5, 'lipoC3S3': 11.47, 'lipoC3S2': 7.62, 'rot1': 0, 'rot0': 0, 'rot3': 3, 'rot2': 2, 'state': 'normal', 'yaw': -0.06, 'datetime': '2018-10-05 20:18:39.936506', 'mgs': 0, 'volt': 0.835, 'depth': 0.546, 'time': 6, 'pitch': -12.81, 'roll': 0.41, 'pres': 171}
{'lipoC2': 7.69, 'lipoC3S1': 3.81, 'temp': 28.5, 'lipoC3S3': 11.5, 'lipoC3S2': 7.59, 'rot1': 0, 'rot0': 0, 'rot3': 4, 'rot2': 3, 'state': 'normal', 'yaw': 0.3, 'datetime': '2018-10-05 20:18:39.952481', 'mgs': 0, 'volt': 0.8252, 'depth': 0.394, 'time': 6, 'pitch': -12.15, 'roll': 0.73, 'pres': 169}
{'lipoC2': 7.69, 'lipoC3S1': 3.81, 'temp': 28.5, 'lipoC3S3': 11.47, 'lipoC3S2': 7.62, 'rot1': 0, 'rot0': 0, 'rot3': 5, 'rot2': 3, 'state': 'normal', 'yaw': 0.83, 'datetime': '2018-10-05 20:18:39.968489', 'mgs': 0, 'volt': 0.8252, 'depth': 0.394, 'time': 6, 'pitch': -11.75, 'roll': 1.07, 'pres': 169}
{'lipoC2': 7.69, 'lipoC3S1': 3.81, 'temp': 28.5, 'lipoC3S3': 11.48, 'lipoC3S2': 7.65, 'rot1': 0, 'rot0': 0, 'rot3': 6, 'rot2': 4, 'state': 'normal', 'yaw': 1.32, 'datetime': '2018-10-05 20:18:39.978612', 'mgs': 0, 'volt': 0.8203, 'depth': 0.317, 'time': 6, 'pitch': -11.54, 'roll': 1.41, 'pres': 168}
{'lipoC2': 7.69, 'lipoC3S1': 3.8, 'temp': 28.5, 'lipoC3S3': 11.54, 'lipoC3S2': 7.63, 'rot1': 0, 'rot0': 0, 'rot3': 7, 'rot2': 5, 'state': 'normal', 'yaw': 1.62, 'datetime': '2018-10-05 20:18:39.994601', 'mgs': 0, 'volt': 0.8252, 'depth': 0.394, 'time': 6, 'pitch': -11.21, 'roll': 1.74, 'pres': 169}
{'lipoC2': 7.69, 'lipoC3S1': 3.79, 'temp': 28.5, 'lipoC3S3': 11.52, 'lipoC3S2': 7.6, 'rot1': 0, 'rot0': 0, 'rot3': 8, 'rot2': 6, 'state': 'normal', 'yaw': 1.92, 'datetime': '2018-10-05 20:18:40.010615', 'mgs': 0, 'volt': 0.8252, 'depth': 0.394, 'time': 6, 'pitch': -10.68, 'roll': 1.91, 'pres': 169}
{'lipoC2': 7.69, 'lipoC3S1': 3.8, 'temp': 28.5, 'lipoC3S3': 11.54, 'lipoC3S2': 7.62, 'rot1': 0, 'rot0': 0, 'rot3': 9, 'rot2': 7, 'state': 'normal', 'yaw': 2.29, 'datetime': '2018-10-05 20:18:40.020610', 'mgs': 0, 'volt': 0.8252, 'depth': 0.394, 'time': 6, 'pitch': -10.06, 'roll': 1.86, 'pres': 169}
{'lipoC2': 7.69, 'lipoC3S1': 3.79, 'temp': 28.5, 'lipoC3S3': 11.51, 'lipoC3S2': 7.6, 'rot1': 0, 'rot0': 0, 'rot3': 11, 'rot2': 7, 'state': 'normal', 'yaw': 2.6, 'datetime': '2018-10-05 20:18:40.036614', 'mgs': 0, 'volt': 0.8057, 'depth': 0.089, 'time': 6, 'pitch': -9.75, 'roll': 1.55, 'pres': 165}
{'lipoC2': 7.69, 'lipoC3S1': 3.81, 'temp': 28.5, 'lipoC3S3': 11.51, 'lipoC3S2': 7.61, 'rot1': 0, 'rot0': 0, 'rot3': 12, 'rot2': 8, 'state': 'normal', 'yaw': 2.99, 'datetime': '2018-10-05 20:18:40.052684', 'mgs': 0, 'volt': 0.8105, 'depth': 0.165, 'time': 7, 'pitch': -9.67, 'roll': 1.06, 'pres': 166}
{'lipoC2': 7.69, 'lipoC3S1': 3.81, 'temp': 28.5, 'lipoC3S3': 11.5, 'lipoC3S2': 7.59, 'rot1': 0, 'rot0': 0, 'rot3': 13, 'rot2': 9, 'state': 'normal', 'yaw': 3.16, 'datetime': '2018-10-05 20:18:40.062722', 'mgs': 0, 'volt': 0.8105, 'depth': 0.165, 'time': 7, 'pitch': -10.0, 'roll': 0.67, 'pres': 166}
{'lipoC2': 7.69, 'lipoC3S1': 3.82, 'temp': 28.5, 'lipoC3S3': 11.5, 'lipoC3S2': 7.63, 'rot1': 0, 'rot0': 0, 'rot3': 14, 'rot2': 10, 'state': 'normal', 'yaw': 3.21, 'datetime': '2018-10-05 20:18:40.078766', 'mgs': 0, 'volt': 0.8154, 'depth': 0.241, 'time': 7, 'pitch': -10.41, 'roll': 0.41, 'pres': 167}
{'lipoC2': 7.7, 'lipoC3S1': 3.8, 'temp': 28.5, 'lipoC3S3': 11.55, 'lipoC3S2': 7.62, 'rot1': 0, 'rot0': 0, 'rot3': 15, 'rot2': 11, 'state': 'normal', 'yaw': 3.15, 'datetime': '2018-10-05 20:18:40.094805', 'mgs': 0, 'volt': 0.8154, 'depth': 0.241, 'time': 7, 'pitch': -10.71, 'roll': 0.21, 'pres': 167}
{'lipoC2': 7.69, 'lipoC3S1': 3.79, 'temp': 28.5, 'lipoC3S3': 11.52, 'lipoC3S2': 7.61, 'rot1': 0, 'rot0': 0, 'rot3': 17, 'rot2': 12, 'state': 'normal', 'yaw': 2.98, 'datetime': '2018-10-05 20:18:40.104837', 'mgs': 0, 'volt': 0.8057, 'depth': 0.089, 'time': 7, 'pitch': -10.89, 'roll': 0.03, 'pres': 165}
{'lipoC2': 7.69, 'lipoC3S1': 3.81, 'temp': 28.5, 'lipoC3S3': 11.5, 'lipoC3S2': 7.59, 'rot1': 0, 'rot0': 0, 'rot3': 18, 'rot2': 13, 'state': 'normal', 'yaw': 2.79, 'datetime': '2018-10-05 20:18:40.120870', 'mgs': 0, 'volt': 0.8057, 'depth': 0.089, 'time': 7, 'pitch': -10.74, 'roll': -0.18, 'pres': 165}
{'lipoC2': 7.69, 'lipoC3S1': 3.8, 'temp': 28.5, 'lipoC3S3': 11.54, 'lipoC3S2': 7.63, 'rot1': 0, 'rot0': 0, 'rot3': 19, 'rot2': 14, 'state': 'normal', 'yaw': 2.51, 'datetime': '2018-10-05 20:18:40.136994', 'mgs': 0, 'volt': 0.8203, 'depth': 0.317, 'time': 7, 'pitch': -10.58, 'roll': -0.42, 'pres': 168}
{'lipoC2': 7.69, 'lipoC3S1': 3.79, 'temp': 28.5, 'lipoC3S3': 11.54, 'lipoC3S2': 7.61, 'rot1': 0, 'rot0': 0, 'rot3': 20, 'rot2': 15, 'state': 'normal', 'yaw': 2.33, 'datetime': '2018-10-05 20:18:40.147052', 'mgs': 0, 'volt': 0.8154, 'depth': 0.241, 'time': 7, 'pitch': -10.18, 'roll': -0.84, 'pres': 167}
{'lipoC2': 7.69, 'lipoC3S1': 3.81, 'temp': 28.5, 'lipoC3S3': 11.51, 'lipoC3S2': 7.6, 'rot1': 0, 'rot0': 0, 'rot3': 21, 'rot2': 16, 'state': 'normal', 'yaw': 2.23, 'datetime': '2018-10-05 20:18:40.163129', 'mgs': 0, 'volt': 0.8105, 'depth': 0.165, 'time': 7, 'pitch': -9.93, 'roll': -1.26, 'pres': 166}
{'lipoC2': 7.69, 'lipoC3S1': 3.8, 'temp': 28.5, 'lipoC3S3': 11.52, 'lipoC3S2': 7.63, 'rot1': 0, 'rot0': 0, 'rot3': 23, 'rot2': 17, 'state': 'normal', 'yaw': 2.17, 'datetime': '2018-10-05 20:18:40.179363', 'mgs': 0, 'volt': 0.8154, 'depth': 0.241, 'time': 7, 'pitch': -9.7, 'roll': -1.68, 'pres': 167}
{'lipoC2': 7.7, 'lipoC3S1': 3.8, 'temp': 28.5, 'lipoC3S3': 11.55, 'lipoC3S2': 7.62, 'rot1': 0, 'rot0': 0, 'rot3': 24, 'rot2': 17, 'state': 'normal', 'yaw': 2.16, 'datetime': '2018-10-05 20:18:40.189469', 'mgs': 0, 'volt': 0.8203, 'depth': 0.317, 'time': 8, 'pitch': -9.53, 'roll': -1.93, 'pres': 168}
{'lipoC2': 7.7, 'lipoC3S1': 3.79, 'temp': 28.5, 'lipoC3S3': 11.52, 'lipoC3S2': 7.61, 'rot1': 0, 'rot0': 0, 'rot3': 25, 'rot2': 18, 'state': 'normal', 'yaw': 2.13, 'datetime': '2018-10-05 20:18:40.205576', 'mgs': 0, 'volt': 0.7959, 'depth': -0.064, 'time': 8, 'pitch': -9.7, 'roll': -1.96, 'pres': 163}
{'lipoC2': 7.69, 'lipoC3S1': 3.81, 'temp': 28.5, 'lipoC3S3': 11.51, 'lipoC3S2': 7.6, 'rot1': 0, 'rot0': 0, 'rot3': 26, 'rot2': 19, 'state': 'normal', 'yaw': 2.2, 'datetime': '2018-10-05 20:18:40.221154', 'mgs': 0, 'volt': 0.8105, 'depth': 0.165, 'time': 8, 'pitch': -10.08, 'roll': -1.95, 'pres': 166}
{'lipoC2': 7.7, 'lipoC3S1': 3.79, 'temp': 28.5, 'lipoC3S3': 11.52, 'lipoC3S2': 7.61, 'rot1': 0, 'rot0': 0, 'rot3': 27, 'rot2': 20, 'state': 'normal', 'yaw': 2.46, 'datetime': '2018-10-05 20:18:40.230649', 'mgs': 0, 'volt': 0.8203, 'depth': 0.317, 'time': 8, 'pitch': -10.41, 'roll': -2.04, 'pres': 168}
{'lipoC2': 7.69, 'lipoC3S1': 3.79, 'temp': 28.5, 'lipoC3S3': 11.5, 'lipoC3S2': 7.6, 'rot1': 0, 'rot0': 0, 'rot3': 28, 'rot2': 21, 'state': 'normal', 'yaw': 2.79, 'datetime': '2018-10-05 20:18:40.246177', 'mgs': 0, 'volt': 0.8057, 'depth': 0.089, 'time': 8, 'pitch': -10.69, 'roll': -2.3, 'pres': 165}
{'lipoC2': 7.69, 'lipoC3S1': 3.81, 'temp': 28.5, 'lipoC3S3': 11.48, 'lipoC3S2': 7.62, 'rot1': 0, 'rot0': 0, 'rot3': 30, 'rot2': 22, 'state': 'normal', 'yaw': 2.91, 'datetime': '2018-10-05 20:18:40.261748', 'mgs': 0, 'volt': 0.8057, 'depth': 0.089, 'time': 8, 'pitch': -10.79, 'roll': -2.48, 'pres': 165}
{'lipoC2': 7.69, 'lipoC3S1': 3.8, 'temp': 28.5, 'lipoC3S3': 11.52, 'lipoC3S2': 7.62, 'rot1': 0, 'rot0': 0, 'rot3': 31, 'rot2': 23, 'state': 'normal', 'yaw': 2.99, 'datetime': '2018-10-05 20:18:40.271245', 'mgs': 0, 'volt': 0.8154, 'depth': 0.241, 'time': 8, 'pitch': -10.67, 'roll': -2.62, 'pres': 167}
{'lipoC2': 7.7, 'lipoC3S1': 3.8, 'temp': 28.5, 'lipoC3S3': 11.54, 'lipoC3S2': 7.61, 'rot1': 0, 'rot0': 0, 'rot3': 32, 'rot2': 24, 'state': 'normal', 'yaw': 3.0, 'datetime': '2018-10-05 20:18:40.286719', 'mgs': 0, 'volt': 0.8008, 'depth': 0.012, 'time': 8, 'pitch': -10.39, 'roll': -2.66, 'pres': 164}
{'lipoC2': 7.69, 'lipoC3S1': 3.81, 'temp': 28.5, 'lipoC3S3': 11.48, 'lipoC3S2': 7.59, 'rot1': 0, 'rot0': 0, 'rot3': 33, 'rot2': 25, 'state': 'normal', 'yaw': 3.0, 'datetime': '2018-10-05 20:18:40.302221', 'mgs': 0, 'volt': 0.8057, 'depth': 0.089, 'time': 8, 'pitch': -10.12, 'roll': -2.63, 'pres': 165}
{'lipoC2': 7.69, 'lipoC3S1': 3.82, 'temp': 28.5, 'lipoC3S3': 11.51, 'lipoC3S2': 7.63, 'rot1': 0, 'rot0': 0, 'rot3': 34, 'rot2': 26, 'state': 'normal', 'yaw': 2.99, 'datetime': '2018-10-05 20:18:40.311701', 'mgs': 0, 'volt': 0.8105, 'depth': 0.165, 'time': 9, 'pitch': -9.82, 'roll': -2.51, 'pres': 166}
{'lipoC2': 7.69, 'lipoC3S1': 3.72, 'temp': 28.5, 'lipoC3S3': 11.39, 'lipoC3S2': 7.44, 'rot1': 0, 'rot0': 0, 'rot3': 36, 'rot2': 26, 'state': 'normal', 'yaw': 2.97, 'datetime': '2018-10-05 20:18:40.327224', 'mgs': 0, 'volt': 0.8301, 'depth': 0.47, 'time': 9, 'pitch': -9.46, 'roll': -2.33, 'pres': 170}
{'lipoC2': 7.69, 'lipoC3S1': 3.77, 'temp': 28.44, 'lipoC3S3': 11.3, 'lipoC3S2': 7.39, 'rot1': 2, 'rot0': 2, 'rot3': 37, 'rot2': 27, 'state': 'normal', 'yaw': 2.86, 'datetime': '2018-10-05 20:18:40.342697', 'mgs': 0, 'volt': 0.8252, 'depth': 0.394, 'time': 9, 'pitch': -8.63, 'roll': -2.19, 'pres': 169}
{'lipoC2': 7.69, 'lipoC3S1': 3.71, 'temp': 28.44, 'lipoC3S3': 11.43, 'lipoC3S2': 7.54, 'rot1': 3, 'rot0': 3, 'rot3': 39, 'rot2': 28, 'state': 'normal', 'yaw': 2.57, 'datetime': '2018-10-05 20:18:40.352395', 'mgs': 0, 'volt': 0.8203, 'depth': 0.317, 'time': 9, 'pitch': -7.17, 'roll': -1.94, 'pres': 168}
{'lipoC2': 7.69, 'lipoC3S1': 3.76, 'temp': 28.44, 'lipoC3S3': 11.36, 'lipoC3S2': 7.41, 'rot1': 4, 'rot0': 4, 'rot3': 40, 'rot2': 29, 'state': 'normal', 'yaw': 2.19, 'datetime': '2018-10-05 20:18:40.367950', 'mgs': 0, 'volt': 0.8301, 'depth': 0.47, 'time': 9, 'pitch': -5.48, 'roll': -1.78, 'pres': 170}
{'lipoC2': 7.68, 'lipoC3S1': 3.77, 'temp': 28.44, 'lipoC3S3': 11.39, 'lipoC3S2': 7.52, 'rot1': 5, 'rot0': 6, 'rot3': 41, 'rot2': 30, 'state': 'normal', 'yaw': 1.82, 'datetime': '2018-10-05 20:18:40.383515', 'mgs': 0, 'volt': 0.8545, 'depth': 0.851, 'time': 9, 'pitch': -4.25, 'roll': -1.76, 'pres': 175}
{'lipoC2': 7.68, 'lipoC3S1': 3.76, 'temp': 28.44, 'lipoC3S3': 11.25, 'lipoC3S2': 7.51, 'rot1': 7, 'rot0': 7, 'rot3': 43, 'rot2': 31, 'state': 'normal', 'yaw': 1.48, 'datetime': '2018-10-05 20:18:40.393018', 'mgs': 0, 'volt': 0.8398, 'depth': 0.623, 'time': 9, 'pitch': -3.21, 'roll': -1.84, 'pres': 172}
{'lipoC2': 7.67, 'lipoC3S1': 3.77, 'temp': 28.44, 'lipoC3S3': 11.38, 'lipoC3S2': 7.52, 'rot1': 8, 'rot0': 8, 'rot3': 44, 'rot2': 32, 'state': 'normal', 'yaw': 1.07, 'datetime': '2018-10-05 20:18:40.408536', 'mgs': 0, 'volt': 0.8887, 'depth': 1.385, 'time': 9, 'pitch': -2.29, 'roll': -2.04, 'pres': 182}
{'lipoC2': 7.69, 'lipoC3S1': 3.76, 'temp': 28.44, 'lipoC3S3': 11.3, 'lipoC3S2': 7.37, 'rot1': 9, 'rot0': 10, 'rot3': 45, 'rot2': 33, 'state': 'normal', 'yaw': 0.66, 'datetime': '2018-10-05 20:18:40.424041', 'mgs': 0, 'volt': 0.8545, 'depth': 0.851, 'time': 9, 'pitch': -1.56, 'roll': -2.16, 'pres': 175}
{'lipoC2': 7.67, 'lipoC3S1': 3.76, 'temp': 28.44, 'lipoC3S3': 11.38, 'lipoC3S2': 7.51, 'rot1': 10, 'rot0': 11, 'rot3': 46, 'rot2': 34, 'state': 'normal', 'yaw': 0.13, 'datetime': '2018-10-05 20:18:40.433654', 'mgs': 0, 'volt': 0.8887, 'depth': 1.385, 'time': 9, 'pitch': -0.89, 'roll': -2.34, 'pres': 182}
{'lipoC2': 7.69, 'lipoC3S1': 3.76, 'temp': 28.44, 'lipoC3S3': 11.35, 'lipoC3S2': 7.4, 'rot1': 12, 'rot0': 12, 'rot3': 47, 'rot2': 34, 'state': 'normal', 'yaw': -0.41, 'datetime': '2018-10-05 20:18:40.449327', 'mgs': 0, 'volt': 0.8691, 'depth': 1.08, 'time': 10, 'pitch': -0.47, 'roll': -2.64, 'pres': 178}
