{'lipoC2': 0.0, 'lipoC3S1': 3.95, 'temp': 26.38, 'lipoC3S3': 11.93, 'lipoC3S2': 7.89, 'rot1': 380, 'rot0': 394, 'rot3': 219, 'rot2': 201, 'state': 'normal', 'yaw': -8.03, 'datetime': '2018-10-03 17:27:44.847870', 'mgs': 1, 'volt': 1.0303, 'depth': 3.598, 'time': 186, 'pitch': -66.09, 'roll': 37.0, 'pres': 211}
{'lipoC2': 0.0, 'lipoC3S1': 3.94, 'temp': 26.38, 'lipoC3S3': 11.93, 'lipoC3S2': 7.88, 'rot1': 0, 'rot0': 0, 'rot3': 0, 'rot2': 0, 'state': 'normal', 'yaw': 0.01, 'datetime': '2018-10-03 17:27:50.880103', 'mgs': 1, 'volt': 1.0254, 'depth': 3.522, 'time': 1, 'pitch': -66.34, 'roll': 37.9, 'pres': 210}
{'lipoC2': 0.0, 'lipoC3S1': 3.94, 'temp': 26.38, 'lipoC3S3': 11.92, 'lipoC3S2': 7.88, 'rot1': 0, 'rot0': 0, 'rot3': 0, 'rot2': 0, 'state': 'normal', 'yaw': 0.01, 'datetime': '2018-10-03 17:27:53.921821', 'mgs': 1, 'volt': 1.0254, 'depth': 3.522, 'time': 1, 'pitch': -66.34, 'roll': 37.87, 'pres': 210}
{'lipoC2': 0.0, 'lipoC3S1': 3.94, 'temp': 26.38, 'lipoC3S3': 11.92, 'lipoC3S2': 7.88, 'rot1': 0, 'rot0': 0, 'rot3': 0, 'rot2': 0, 'state': 'normal', 'yaw': -0.16, 'datetime': '2018-10-03 17:27:53.951997', 'mgs': 1, 'volt': 1.0254, 'depth': 3.522, 'time': 1, 'pitch': -66.43, 'roll': 37.9, 'pres': 210}
{'lipoC2': 0.0, 'lipoC3S1': 3.94, 'temp': 26.38, 'lipoC3S3': 11.92, 'lipoC3S2': 7.88, 'rot1': 0, 'rot0': 0, 'rot3': 0, 'rot2': 0, 'state': 'normal', 'yaw': -0.37, 'datetime': '2018-10-03 17:27:53.987969', 'mgs': 1, 'volt': 1.0254, 'depth': 3.522, 'time': 1, 'pitch': -66.55, 'roll': 37.94, 'pres': 210}
{'lipoC2': 0.0, 'lipoC3S1': 3.94, 'temp': 26.38, 'lipoC3S3': 11.92, 'lipoC3S2': 7.88, 'rot1': 0, 'rot0': 0, 'rot3': 0, 'rot2': 0, 'state': 'normal', 'yaw': -0.44, 'datetime': '2018-10-03 17:27:54.010687', 'mgs': 1, 'volt': 1.0254, 'depth': 3.522, 'time': 1, 'pitch': -66.59, 'roll': 37.96, 'pres': 210}
{'lipoC2': 0.0, 'lipoC3S1': 3.94, 'temp': 26.38, 'lipoC3S3': 11.92, 'lipoC3S2': 7.88, 'rot1': 0, 'rot0': 0, 'rot3': 0, 'rot2': 0, 'state': 'normal', 'yaw': -0.31, 'datetime': '2018-10-03 17:27:54.040647', 'mgs': 1, 'volt': 1.0254, 'depth': 3.522, 'time': 1, 'pitch': -66.53, 'roll': 37.91, 'pres': 210}
{'lipoC2': 0.0, 'lipoC3S1': 3.94, 'temp': 26.38, 'lipoC3S3': 11.93, 'lipoC3S2': 7.88, 'rot1': 0, 'rot0': 0, 'rot3': 0, 'rot2': 0, 'state': 'normal', 'yaw': -0.09, 'datetime': '2018-10-03 17:27:54.059967', 'mgs': 1, 'volt': 1.0254, 'depth': 3.522, 'time': 1, 'pitch': -66.4, 'roll': 37.79, 'pres': 210}
{'lipoC2': 0.0, 'lipoC3S1': 3.94, 'temp': 26.38, 'lipoC3S3': 11.92, 'lipoC3S2': 7.88, 'rot1': 0, 'rot0': 0, 'rot3': 0, 'rot2': 0, 'state': 'normal', 'yaw': 0.07, 'datetime': '2018-10-03 17:27:54.069665', 'mgs': 1, 'volt': 1.0254, 'depth': 3.522, 'time': 1, 'pitch': -66.32, 'roll': 37.71, 'pres': 210}
{'lipoC2': 0.0, 'lipoC3S1': 3.94, 'temp': 26.38, 'lipoC3S3': 11.93, 'lipoC3S2': 7.88, 'rot1': 0, 'rot0': 0, 'rot3': 0, 'rot2': 0, 'state': 'normal', 'yaw': 0.19, 'datetime': '2018-10-03 17:27:54.085648', 'mgs': 1, 'volt': 1.0254, 'depth': 3.522, 'time': 2, 'pitch': -66.26, 'roll': 37.63, 'pres': 210}
{'lipoC2': 0.0, 'lipoC3S1': 3.94, 'temp': 26.38, 'lipoC3S3': 11.92, 'lipoC3S2': 7.88, 'rot1': 0, 'rot0': 0, 'rot3': 0, 'rot2': 0, 'state': 'normal', 'yaw': 0.2, 'datetime': '2018-10-03 17:27:54.104054', 'mgs': 1, 'volt': 1.0254, 'depth': 3.522, 'time': 2, 'pitch': -66.26, 'roll': 37.62, 'pres': 210}
{'lipoC2': 0.0, 'lipoC3S1': 3.94, 'temp': 26.38, 'lipoC3S3': 11.92, 'lipoC3S2': 7.88, 'rot1': 0, 'rot0': 0, 'rot3': 0, 'rot2': 0, 'state': 'normal', 'yaw': 0.2, 'datetime': '2018-10-03 17:27:54.113911', 'mgs': 1, 'volt': 1.0254, 'depth': 3.522, 'time': 2, 'pitch': -66.26, 'roll': 37.62, 'pres': 210}
{'lipoC2': 0.0, 'lipoC3S1': 3.94, 'temp': 26.38, 'lipoC3S3': 11.92, 'lipoC3S2': 7.88, 'rot1': 0, 'rot0': 0, 'rot3': 0, 'rot2': 0, 'state': 'normal', 'yaw': 0.2, 'datetime': '2018-10-03 17:27:54.129747', 'mgs': 1, 'volt': 1.0254, 'depth': 3.522, 'time': 2, 'pitch': -66.26, 'roll': 37.62, 'pres': 210}
{'lipoC2': 0.0, 'lipoC3S1': 3.94, 'temp': 26.38, 'lipoC3S3': 11.92, 'lipoC3S2': 7.88, 'rot1': 0, 'rot0': 0, 'rot3': 0, 'rot2': 0, 'state': 'normal', 'yaw': 0.2, 'datetime': '2018-10-03 17:27:54.148115', 'mgs': 1, 'volt': 1.0254, 'depth': 3.522, 'time': 2, 'pitch': -66.26, 'roll': 37.63, 'pres': 210}
{'lipoC2': 0.0, 'lipoC3S1': 3.94, 'temp': 26.38, 'lipoC3S3': 11.92, 'lipoC3S2': 7.88, 'rot1': 0, 'rot0': 0, 'rot3': 0, 'rot2': 0, 'state': 'normal', 'yaw': 0.16, 'datetime': '2018-10-03 17:27:54.159435', 'mgs': 1, 'volt': 1.0303, 'depth': 3.598, 'time': 2, 'pitch': -66.27, 'roll': 37.68, 'pres': 211}
{'lipoC2': 0.0, 'lipoC3S1': 3.94, 'temp': 26.38, 'lipoC3S3': 11.93, 'lipoC3S2': 7.88, 'rot1': 0, 'rot0': 0, 'rot3': 0, 'rot2': 0, 'state': 'normal', 'yaw': 0.04, 'datetime': '2018-10-03 17:27:54.179117', 'mgs': 1, 'volt': 1.0254, 'depth': 3.522, 'time': 2, 'pitch': -66.35, 'roll': 37.83, 'pres': 210}
{'lipoC2': 0.0, 'lipoC3S1': 3.94, 'temp': 26.38, 'lipoC3S3': 11.92, 'lipoC3S2': 7.88, 'rot1': 0, 'rot0': 0, 'rot3': 0, 'rot2': 0, 'state': 'normal', 'yaw': -0.15, 'datetime': '2018-10-03 17:27:54.197818', 'mgs': 1, 'volt': 1.0254, 'depth': 3.522, 'time': 2, 'pitch': -66.44, 'roll': 38.0, 'pres': 210}
{'lipoC2': 0.0, 'lipoC3S1': 3.94, 'temp': 26.38, 'lipoC3S3': 11.93, 'lipoC3S2': 7.88, 'rot1': 0, 'rot0': 0, 'rot3': 0, 'rot2': 0, 'state': 'normal', 'yaw': -0.42, 'datetime': '2018-10-03 17:27:54.207784', 'mgs': 1, 'volt': 1.0254, 'depth': 3.522, 'time': 2, 'pitch': -66.59, 'roll': 38.18, 'pres': 210}
{'lipoC2': 0.0, 'lipoC3S1': 3.94, 'temp': 26.38, 'lipoC3S3': 11.92, 'lipoC3S2': 7.88, 'rot1': 0, 'rot0': 0, 'rot3': 0, 'rot2': 0, 'state': 'normal', 'yaw': -0.71, 'datetime': '2018-10-03 17:27:54.223630', 'mgs': 1, 'volt': 1.0303, 'depth': 3.598, 'time': 3, 'pitch': -66.72, 'roll': 38.37, 'pres': 211}
{'lipoC2': 0.0, 'lipoC3S1': 3.94, 'temp': 26.38, 'lipoC3S3': 11.92, 'lipoC3S2': 7.88, 'rot1': 0, 'rot0': 0, 'rot3': 0, 'rot2': 0, 'state': 'normal', 'yaw': -0.94, 'datetime': '2018-10-03 17:27:54.242277', 'mgs': 1, 'volt': 1.0303, 'depth': 3.598, 'time': 3, 'pitch': -66.85, 'roll': 38.66, 'pres': 211}
{'lipoC2': 0.0, 'lipoC3S1': 3.94, 'temp': 26.38, 'lipoC3S3': 11.92, 'lipoC3S2': 7.88, 'rot1': 0, 'rot0': 0, 'rot3': 0, 'rot2': 0, 'state': 'normal', 'yaw': -1.22, 'datetime': '2018-10-03 17:27:54.252239', 'mgs': 1, 'volt': 1.0303, 'depth': 3.598, 'time': 3, 'pitch': -66.97, 'roll': 39.1, 'pres': 211}
{'lipoC2': 0.0, 'lipoC3S1': 3.94, 'temp': 26.38, 'lipoC3S3': 11.92, 'lipoC3S2': 7.88, 'rot1': 0, 'rot0': 0, 'rot3': 0, 'rot2': 0, 'state': 'normal', 'yaw': -1.48, 'datetime': '2018-10-03 17:27:54.267969', 'mgs': 1, 'volt': 1.0254, 'depth': 3.522, 'time': 3, 'pitch': -67.1, 'roll': 39.5, 'pres': 210}
{'lipoC2': 0.0, 'lipoC3S1': 3.94, 'temp': 26.38, 'lipoC3S3': 11.93, 'lipoC3S2': 7.88, 'rot1': 0, 'rot0': 0, 'rot3': 0, 'rot2': 0, 'state': 'normal', 'yaw': -1.71, 'datetime': '2018-10-03 17:27:54.286618', 'mgs': 1, 'volt': 1.0254, 'depth': 3.522, 'time': 3, 'pitch': -67.21, 'roll': 39.87, 'pres': 210}
{'lipoC2': 0.0, 'lipoC3S1': 3.94, 'temp': 26.38, 'lipoC3S3': 11.92, 'lipoC3S2': 7.88, 'rot1': 0, 'rot0': 0, 'rot3': 0, 'rot2': 0, 'state': 'normal', 'yaw': -1.98, 'datetime': '2018-10-03 17:27:54.296573', 'mgs': 1, 'volt': 1.0254, 'depth': 3.522, 'time': 3, 'pitch': -67.33, 'roll': 40.26, 'pres': 210}
{'lipoC2': 0.0, 'lipoC3S1': 3.94, 'temp': 26.44, 'lipoC3S3': 11.92, 'lipoC3S2': 7.88, 'rot1': 0, 'rot0': 0, 'rot3': 0, 'rot2': 0, 'state': 'normal', 'yaw': -2.2, 'datetime': '2018-10-03 17:27:54.312373', 'mgs': 1, 'volt': 1.0254, 'depth': 3.522, 'time': 3, 'pitch': -67.43, 'roll': 40.57, 'pres': 210}
{'lipoC2': 0.0, 'lipoC3S1': 3.94, 'temp': 26.44, 'lipoC3S3': 11.92, 'lipoC3S2': 7.88, 'rot1': 0, 'rot0': 0, 'rot3': 0, 'rot2': 0, 'state': 'normal', 'yaw': -2.4, 'datetime': '2018-10-03 17:27:54.330998', 'mgs': 1, 'volt': 1.0254, 'depth': 3.522, 'time': 3, 'pitch': -67.52, 'roll': 40.83, 'pres': 210}
{'lipoC2': 0.0, 'lipoC3S1': 3.94, 'temp': 26.44, 'lipoC3S3': 11.92, 'lipoC3S2': 7.88, 'rot1': 0, 'rot0': 0, 'rot3': 0, 'rot2': 0, 'state': 'normal', 'yaw': -2.46, 'datetime': '2018-10-03 17:27:54.340709', 'mgs': 1, 'volt': 1.0254, 'depth': 3.522, 'time': 3, 'pitch': -67.64, 'roll': 40.9, 'pres': 210}
{'lipoC2': 0.0, 'lipoC3S1': 3.94, 'temp': 26.38, 'lipoC3S3': 11.92, 'lipoC3S2': 7.88, 'rot1': 0, 'rot0': 0, 'rot3': 0, 'rot2': 0, 'state': 'normal', 'yaw': -2.35, 'datetime': '2018-10-03 17:27:54.356496', 'mgs': 1, 'volt': 1.0254, 'depth': 3.522, 'time': 3, 'pitch': -67.7, 'roll': 40.8, 'pres': 210}
{'lipoC2': 0.0, 'lipoC3S1': 3.94, 'temp': 26.38, 'lipoC3S3': 11.92, 'lipoC3S2': 7.88, 'rot1': 0, 'rot0': 0, 'rot3': 0, 'rot2': 0, 'state': 'normal', 'yaw': -2.18, 'datetime': '2018-10-03 17:27:54.375486', 'mgs': 1, 'volt': 1.0254, 'depth': 3.522, 'time': 4, 'pitch': -67.76, 'roll': 40.64, 'pres': 210}
{'lipoC2': 0.0, 'lipoC3S1': 3.94, 'temp': 26.38, 'lipoC3S3': 11.92, 'lipoC3S2': 7.88, 'rot1': 0, 'rot0': 0, 'rot3': 0, 'rot2': 0, 'state': 'normal', 'yaw': -1.98, 'datetime': '2018-10-03 17:27:54.385248', 'mgs': 1, 'volt': 1.0254, 'depth': 3.522, 'time': 4, 'pitch': -67.82, 'roll': 40.44, 'pres': 210}
{'lipoC2': 0.0, 'lipoC3S1': 3.94, 'temp': 26.38, 'lipoC3S3': 11.92, 'lipoC3S2': 7.88, 'rot1': 0, 'rot0': 0, 'rot3': 0, 'rot2': 0, 'state': 'normal', 'yaw': -1.73, 'datetime': '2018-10-03 17:27:54.401045', 'mgs': 1, 'volt': 1.0254, 'depth': 3.522, 'time': 4, 'pitch': -67.9, 'roll': 40.14, 'pres': 210}
{'lipoC2': 0.0, 'lipoC3S1': 3.94, 'temp': 26.44, 'lipoC3S3': 11.92, 'lipoC3S2': 7.88, 'rot1': 0, 'rot0': 0, 'rot3': 0, 'rot2': 0, 'state': 'normal', 'yaw': -1.43, 'datetime': '2018-10-03 17:27:54.419614', 'mgs': 1, 'volt': 1.0254, 'depth': 3.522, 'time': 4, 'pitch': -67.99, 'roll': 39.77, 'pres': 210}
{'lipoC2': 0.0, 'lipoC3S1': 3.94, 'temp': 26.44, 'lipoC3S3': 11.92, 'lipoC3S2': 7.88, 'rot1': 0, 'rot0': 0, 'rot3': 0, 'rot2': 0, 'state': 'normal', 'yaw': -1.12, 'datetime': '2018-10-03 17:27:54.429538', 'mgs': 1, 'volt': 1.0254, 'depth': 3.522, 'time': 4, 'pitch': -68.08, 'roll': 39.35, 'pres': 210}
{'lipoC2': 0.0, 'lipoC3S1': 3.94, 'temp': 26.44, 'lipoC3S3': 11.92, 'lipoC3S2': 7.88, 'rot1': 0, 'rot0': 0, 'rot3': 0, 'rot2': 0, 'state': 'normal', 'yaw': -0.82, 'datetime': '2018-10-03 17:27:54.445394', 'mgs': 1, 'volt': 1.0254, 'depth': 3.522, 'time': 4, 'pitch': -68.18, 'roll': 38.97, 'pres': 210}
{'lipoC2': 0.0, 'lipoC3S1': 3.94, 'temp': 26.44, 'lipoC3S3': 11.92, 'lipoC3S2': 7.88, 'rot1': 0, 'rot0': 0, 'rot3': 0, 'rot2': 0, 'state': 'normal', 'yaw': -0.5, 'datetime': '2018-10-03 17:27:54.463807', 'mgs': 1, 'volt': 1.0254, 'depth': 3.522, 'time': 4, 'pitch': -68.22, 'roll': 38.56, 'pres': 210}
{'lipoC2': 0.0, 'lipoC3S1': 3.94, 'temp': 26.44, 'lipoC3S3': 11.92, 'lipoC3S2': 7.88, 'rot1': 0, 'rot0': 0, 'rot3': 0, 'rot2': 0, 'state': 'normal', 'yaw': -0.42, 'datetime': '2018-10-03 17:27:54.473734', 'mgs': 1, 'volt': 1.0254, 'depth': 3.522, 'time': 4, 'pitch': -68.24, 'roll': 38.48, 'pres': 210}
{'lipoC2': 0.0, 'lipoC3S1': 3.94, 'temp': 26.44, 'lipoC3S3': 11.93, 'lipoC3S2': 7.88, 'rot1': 0, 'rot0': 0, 'rot3': 0, 'rot2': 0, 'state': 'normal', 'yaw': -0.42, 'datetime': '2018-10-03 17:27:54.489607', 'mgs': 1, 'volt': 1.0254, 'depth': 3.522, 'time': 4, 'pitch': -68.24, 'roll': 38.57, 'pres': 210}
{'lipoC2': 0.0, 'lipoC3S1': 3.94, 'temp': 26.44, 'lipoC3S3': 11.92, 'lipoC3S2': 7.88, 'rot1': 0, 'rot0': 0, 'rot3': 0, 'rot2': 0, 'state': 'normal', 'yaw': -0.43, 'datetime': '2018-10-03 17:27:54.508254', 'mgs': 1, 'volt': 1.0254, 'depth': 3.522, 'time': 4, 'pitch': -68.24, 'roll': 38.68, 'pres': 210}
{'lipoC2': 0.0, 'lipoC3S1': 3.94, 'temp': 26.44, 'lipoC3S3': 11.92, 'lipoC3S2': 7.88, 'rot1': 0, 'rot0': 0, 'rot3': 0, 'rot2': 0, 'state': 'normal', 'yaw': -0.43, 'datetime': '2018-10-03 17:27:54.518188', 'mgs': 1, 'volt': 1.0254, 'depth': 3.522, 'time': 5, 'pitch': -68.24, 'roll': 38.78, 'pres': 210}
{'lipoC2': 0.0, 'lipoC3S1': 3.94, 'temp': 26.44, 'lipoC3S3': 11.93, 'lipoC3S2': 7.88, 'rot1': 0, 'rot0': 0, 'rot3': 0, 'rot2': 0, 'state': 'normal', 'yaw': -0.48, 'datetime': '2018-10-03 17:27:54.534039', 'mgs': 1, 'volt': 1.0254, 'depth': 3.522, 'time': 5, 'pitch': -68.26, 'roll': 38.9, 'pres': 210}
{'lipoC2': 0.0, 'lipoC3S1': 3.94, 'temp': 26.44, 'lipoC3S3': 11.93, 'lipoC3S2': 7.88, 'rot1': 0, 'rot0': 0, 'rot3': 0, 'rot2': 0, 'state': 'normal', 'yaw': -0.52, 'datetime': '2018-10-03 17:27:54.552766', 'mgs': 1, 'volt': 1.0254, 'depth': 3.522, 'time': 5, 'pitch': -68.36, 'roll': 39.02, 'pres': 210}
{'lipoC2': 0.0, 'lipoC3S1': 3.94, 'temp': 26.44, 'lipoC3S3': 11.92, 'lipoC3S2': 7.88, 'rot1': 0, 'rot0': 0, 'rot3': 0, 'rot2': 0, 'state': 'normal', 'yaw': -0.49, 'datetime': '2018-10-03 17:27:54.563010', 'mgs': 1, 'volt': 1.0254, 'depth': 3.522, 'time': 5, 'pitch': -68.5, 'roll': 39.08, 'pres': 210}
{'lipoC2': 0.0, 'lipoC3S1': 3.94, 'temp': 26.44, 'lipoC3S3': 11.92, 'lipoC3S2': 7.88, 'rot1': 0, 'rot0': 0, 'rot3': 0, 'rot2': 0, 'state': 'normal', 'yaw': -0.5, 'datetime': '2018-10-03 17:27:54.578884', 'mgs': 1, 'volt': 1.0254, 'depth': 3.522, 'time': 5, 'pitch': -68.65, 'roll': 39.14, 'pres': 210}
{'lipoC2': 0.0, 'lipoC3S1': 3.94, 'temp': 26.44, 'lipoC3S3': 11.92, 'lipoC3S2': 7.88, 'rot1': 0, 'rot0': 0, 'rot3': 0, 'rot2': 0, 'state': 'normal', 'yaw': -0.49, 'datetime': '2018-10-03 17:27:54.597561', 'mgs': 1, 'volt': 1.0254, 'depth': 3.522, 'time': 5, 'pitch': -68.83, 'roll': 39.17, 'pres': 210}
{'lipoC2': 0.0, 'lipoC3S1': 3.94, 'temp': 26.44, 'lipoC3S3': 11.92, 'lipoC3S2': 7.88, 'rot1': 0, 'rot0': 0, 'rot3': 0, 'rot2': 0, 'state': 'normal', 'yaw': -0.51, 'datetime': '2018-10-03 17:27:54.607510', 'mgs': 1, 'volt': 1.0254, 'depth': 3.522, 'time': 5, 'pitch': -69.03, 'roll': 39.19, 'pres': 210}
{'lipoC2': 0.0, 'lipoC3S1': 3.94, 'temp': 26.44, 'lipoC3S3': 11.93, 'lipoC3S2': 7.88, 'rot1': 0, 'rot0': 0, 'rot3': 0, 'rot2': 0, 'state': 'normal', 'yaw': -0.53, 'datetime': '2018-10-03 17:27:54.623351', 'mgs': 1, 'volt': 1.0254, 'depth': 3.522, 'time': 5, 'pitch': -69.19, 'roll': 39.21, 'pres': 210}
{'lipoC2': 0.0, 'lipoC3S1': 3.94, 'temp': 26.44, 'lipoC3S3': 11.92, 'lipoC3S2': 7.88, 'rot1': 0, 'rot0': 0, 'rot3': 0, 'rot2': 0, 'state': 'normal', 'yaw': -0.55, 'datetime': '2018-10-03 17:27:54.642019', 'mgs': 1, 'volt': 1.0254, 'depth': 3.522, 'time': 5, 'pitch': -69.31, 'roll': 39.23, 'pres': 210}
{'lipoC2': 0.0, 'lipoC3S1': 3.94, 'temp': 26.44, 'lipoC3S3': 11.92, 'lipoC3S2': 7.88, 'rot1': 0, 'rot0': 0, 'rot3': 0, 'rot2': 0, 'state': 'normal', 'yaw': -0.52, 'datetime': '2018-10-03 17:27:54.651982', 'mgs': 1, 'volt': 1.0254, 'depth': 3.522, 'time': 6, 'pitch': -69.41, 'roll': 39.21, 'pres': 210}
{'lipoC2': 0.0, 'lipoC3S1': 3.94, 'temp': 26.38, 'lipoC3S3': 11.93, 'lipoC3S2': 7.88, 'rot1': 0, 'rot0': 0, 'rot3': 0, 'rot2': 0, 'state': 'normal', 'yaw': -0.47, 'datetime': '2018-10-03 17:27:54.667903', 'mgs': 1, 'volt': 1.0254, 'depth': 3.522, 'time': 6, 'pitch': -69.43, 'roll': 39.1, 'pres': 210}
{'lipoC2': 0.0, 'lipoC3S1': 3.94, 'temp': 26.38, 'lipoC3S3': 11.92, 'lipoC3S2': 7.88, 'rot1': 0, 'rot0': 0, 'rot3': 0, 'rot2': 0, 'state': 'normal', 'yaw': -0.41, 'datetime': '2018-10-03 17:27:54.686641', 'mgs': 1, 'volt': 1.0254, 'depth': 3.522, 'time': 6, 'pitch': -69.41, 'roll': 38.9, 'pres': 210}
{'lipoC2': 0.0, 'lipoC3S1': 3.94, 'temp': 26.38, 'lipoC3S3': 11.92, 'lipoC3S2': 7.88, 'rot1': 0, 'rot0': 0, 'rot3': 0, 'rot2': 0, 'state': 'normal', 'yaw': -0.2, 'datetime': '2018-10-03 17:27:54.696585', 'mgs': 1, 'volt': 1.0254, 'depth': 3.522, 'time': 6, 'pitch': -69.31, 'roll': 38.52, 'pres': 210}
{'lipoC2': 0.0, 'lipoC3S1': 3.94, 'temp': 26.38, 'lipoC3S3': 11.92, 'lipoC3S2': 7.88, 'rot1': 0, 'rot0': 0, 'rot3': 0, 'rot2': 0, 'state': 'normal', 'yaw': 0.07, 'datetime': '2018-10-03 17:27:54.712422', 'mgs': 1, 'volt': 1.0254, 'depth': 3.522, 'time': 6, 'pitch': -69.19, 'roll': 38.32, 'pres': 210}
{'lipoC2': 0.0, 'lipoC3S1': 3.94, 'temp': 26.38, 'lipoC3S3': 11.93, 'lipoC3S2': 7.88, 'rot1': 0, 'rot0': 0, 'rot3': 0, 'rot2': 0, 'state': 'normal', 'yaw': 0.25, 'datetime': '2018-10-03 17:27:54.731085', 'mgs': 0, 'volt': 1.0254, 'depth': 3.522, 'time': 6, 'pitch': -69.11, 'roll': 38.33, 'pres': 210}
{'lipoC2': 0.0, 'lipoC3S1': 3.94, 'temp': 26.38, 'lipoC3S3': 11.92, 'lipoC3S2': 7.88, 'rot1': 0, 'rot0': 0, 'rot3': 0, 'rot2': 0, 'state': 'normal', 'yaw': 0.28, 'datetime': '2018-10-03 17:27:54.741014', 'mgs': 0, 'volt': 1.0254, 'depth': 3.522, 'time': 6, 'pitch': -69.1, 'roll': 38.5, 'pres': 210}
{'lipoC2': 0.0, 'lipoC3S1': 3.94, 'temp': 26.38, 'lipoC3S3': 11.93, 'lipoC3S2': 7.88, 'rot1': 0, 'rot0': 0, 'rot3': 0, 'rot2': 0, 'state': 'normal', 'yaw': 0.29, 'datetime': '2018-10-03 17:27:54.756789', 'mgs': 0, 'volt': 1.0254, 'depth': 3.522, 'time': 6, 'pitch': -69.1, 'roll': 38.76, 'pres': 210}
{'lipoC2': 0.0, 'lipoC3S1': 3.94, 'temp': 26.38, 'lipoC3S3': 11.93, 'lipoC3S2': 7.88, 'rot1': 0, 'rot0': 0, 'rot3': 0, 'rot2': 0, 'state': 'normal', 'yaw': 0.19, 'datetime': '2018-10-03 17:27:54.775744', 'mgs': 0, 'volt': 1.0254, 'depth': 3.522, 'time': 6, 'pitch': -69.07, 'roll': 39.1, 'pres': 210}
{'lipoC2': 0.0, 'lipoC3S1': 3.94, 'temp': 26.38, 'lipoC3S3': 11.93, 'lipoC3S2': 7.88, 'rot1': 0, 'rot0': 0, 'rot3': 0, 'rot2': 0, 'state': 'normal', 'yaw': 0.1, 'datetime': '2018-10-03 17:27:54.785695', 'mgs': 0, 'volt': 1.0254, 'depth': 3.522, 'time': 6, 'pitch': -69.04, 'roll': 39.45, 'pres': 210}
{'lipoC2': 0.0, 'lipoC3S1': 3.94, 'temp': 26.44, 'lipoC3S3': 11.92, 'lipoC3S2': 7.88, 'rot1': 0, 'rot0': 0, 'rot3': 0, 'rot2': 0, 'state': 'normal', 'yaw': 0.02, 'datetime': '2018-10-03 17:27:54.801508', 'mgs': 0, 'volt': 1.0254, 'depth': 3.522, 'time': 7, 'pitch': -69.02, 'roll': 39.8, 'pres': 210}
{'lipoC2': 0.0, 'lipoC3S1': 3.94, 'temp': 26.44, 'lipoC3S3': 11.93, 'lipoC3S2': 7.88, 'rot1': 0, 'rot0': 0, 'rot3': 0, 'rot2': 0, 'state': 'normal', 'yaw': -0.18, 'datetime': '2018-10-03 17:27:54.820140', 'mgs': 0, 'volt': 1.0254, 'depth': 3.522, 'time': 7, 'pitch': -69.04, 'roll': 40.22, 'pres': 210}
{'lipoC2': 0.0, 'lipoC3S1': 3.94, 'temp': 26.38, 'lipoC3S3': 11.92, 'lipoC3S2': 7.88, 'rot1': 0, 'rot0': 0, 'rot3': 0, 'rot2': 0, 'state': 'normal', 'yaw': -0.37, 'datetime': '2018-10-03 17:27:54.830080', 'mgs': 0, 'volt': 1.0254, 'depth': 3.522, 'time': 7, 'pitch': -69.1, 'roll': 40.59, 'pres': 210}
{'lipoC2': 0.0, 'lipoC3S1': 3.94, 'temp': 26.38, 'lipoC3S3': 11.93, 'lipoC3S2': 7.88, 'rot1': 0, 'rot0': 0, 'rot3': 0, 'rot2': 0, 'state': 'normal', 'yaw': -0.61, 'datetime': '2018-10-03 17:27:54.845900', 'mgs': 0, 'volt': 1.0254, 'depth': 3.522, 'time': 7, 'pitch': -69.19, 'roll': 40.97, 'pres': 210}
{'lipoC2': 0.0, 'lipoC3S1': 3.94, 'temp': 26.38, 'lipoC3S3': 11.92, 'lipoC3S2': 7.88, 'rot1': 0, 'rot0': 0, 'rot3': 0, 'rot2': 0, 'state': 'normal', 'yaw': -0.86, 'datetime': '2018-10-03 17:27:54.864654', 'mgs': 0, 'volt': 1.0254, 'depth': 3.522, 'time': 7, 'pitch': -69.3, 'roll': 41.29, 'pres': 210}
{'lipoC2': 0.0, 'lipoC3S1': 3.94, 'temp': 26.38, 'lipoC3S3': 11.93, 'lipoC3S2': 7.88, 'rot1': 0, 'rot0': 0, 'rot3': 0, 'rot2': 0, 'state': 'normal', 'yaw': -1.37, 'datetime': '2018-10-03 17:27:54.874618', 'mgs': 0, 'volt': 1.0254, 'depth': 3.522, 'time': 7, 'pitch': -69.5, 'roll': 41.69, 'pres': 210}
{'lipoC2': 0.0, 'lipoC3S1': 3.94, 'temp': 26.38, 'lipoC3S3': 11.92, 'lipoC3S2': 7.88, 'rot1': 0, 'rot0': 0, 'rot3': 0, 'rot2': 0, 'state': 'normal', 'yaw': -1.98, 'datetime': '2018-10-03 17:27:54.890590', 'mgs': 0, 'volt': 1.0254, 'depth': 3.522, 'time': 7, 'pitch': -69.74, 'roll': 42.1, 'pres': 210}
{'lipoC2': 0.0, 'lipoC3S1': 3.94, 'temp': 26.38, 'lipoC3S3': 11.92, 'lipoC3S2': 7.88, 'rot1': 0, 'rot0': 0, 'rot3': 0, 'rot2': 0, 'state': 'normal', 'yaw': -2.55, 'datetime': '2018-10-03 17:27:54.909069', 'mgs': 0, 'volt': 1.0254, 'depth': 3.522, 'time': 7, 'pitch': -69.97, 'roll': 42.41, 'pres': 210}
{'lipoC2': 0.0, 'lipoC3S1': 3.94, 'temp': 26.38, 'lipoC3S3': 11.92, 'lipoC3S2': 7.88, 'rot1': 0, 'rot0': 0, 'rot3': 0, 'rot2': 0, 'state': 'normal', 'yaw': -3.08, 'datetime': '2018-10-03 17:27:54.919028', 'mgs': 0, 'volt': 1.0254, 'depth': 3.522, 'time': 7, 'pitch': -70.15, 'roll': 42.61, 'pres': 210}
{'lipoC2': 0.0, 'lipoC3S1': 3.94, 'temp': 26.38, 'lipoC3S3': 11.93, 'lipoC3S2': 7.88, 'rot1': 0, 'rot0': 0, 'rot3': 0, 'rot2': 0, 'state': 'normal', 'yaw': -3.5, 'datetime': '2018-10-03 17:27:54.934816', 'mgs': 0, 'volt': 1.0254, 'depth': 3.522, 'time': 7, 'pitch': -70.31, 'roll': 42.65, 'pres': 210}
{'lipoC2': 0.0, 'lipoC3S1': 3.94, 'temp': 26.44, 'lipoC3S3': 11.92, 'lipoC3S2': 7.88, 'rot1': 0, 'rot0': 0, 'rot3': 0, 'rot2': 0, 'state': 'normal', 'yaw': -3.64, 'datetime': '2018-10-03 17:27:54.953310', 'mgs': 0, 'volt': 1.0205, 'depth': 3.445, 'time': 8, 'pitch': -70.37, 'roll': 42.48, 'pres': 209}
{'lipoC2': 0.0, 'lipoC3S1': 3.94, 'temp': 26.44, 'lipoC3S3': 11.92, 'lipoC3S2': 7.88, 'rot1': 0, 'rot0': 0, 'rot3': 0, 'rot2': 0, 'state': 'normal', 'yaw': -3.64, 'datetime': '2018-10-03 17:27:54.963569', 'mgs': 0, 'volt': 1.0254, 'depth': 3.522, 'time': 8, 'pitch': -70.36, 'roll': 42.22, 'pres': 210}
{'lipoC2': 0.0, 'lipoC3S1': 3.94, 'temp': 26.38, 'lipoC3S3': 11.92, 'lipoC3S2': 7.88, 'rot1': 0, 'rot0': 0, 'rot3': 0, 'rot2': 0, 'state': 'normal', 'yaw': -3.63, 'datetime': '2018-10-03 17:27:54.979363', 'mgs': 0, 'volt': 1.0254, 'depth': 3.522, 'time': 8, 'pitch': -70.37, 'roll': 42.04, 'pres': 210}
{'lipoC2': 0.0, 'lipoC3S1': 3.94, 'temp': 26.38, 'lipoC3S3': 11.93, 'lipoC3S2': 7.88, 'rot1': 0, 'rot0': 0, 'rot3': 0, 'rot2': 0, 'state': 'normal', 'yaw': -3.9, 'datetime': '2018-10-03 17:27:54.997946', 'mgs': 0, 'volt': 1.0254, 'depth': 3.522, 'time': 8, 'pitch': -70.28, 'roll': 42.28, 'pres': 210}
{'lipoC2': 0.0, 'lipoC3S1': 3.94, 'temp': 26.38, 'lipoC3S3': 11.92, 'lipoC3S2': 7.88, 'rot1': 0, 'rot0': 0, 'rot3': 0, 'rot2': 0, 'state': 'normal', 'yaw': -4.23, 'datetime': '2018-10-03 17:27:55.007819', 'mgs': 0, 'volt': 1.0254, 'depth': 3.522, 'time': 8, 'pitch': -70.17, 'roll': 42.74, 'pres': 210}
{'lipoC2': 0.0, 'lipoC3S1': 3.94, 'temp': 26.38, 'lipoC3S3': 11.92, 'lipoC3S2': 7.88, 'rot1': 0, 'rot0': 0, 'rot3': 0, 'rot2': 0, 'state': 'normal', 'yaw': -4.56, 'datetime': '2018-10-03 17:27:55.023537', 'mgs': 0, 'volt': 1.0254, 'depth': 3.522, 'time': 8, 'pitch': -70.03, 'roll': 43.28, 'pres': 210}
{'lipoC2': 0.0, 'lipoC3S1': 3.94, 'temp': 26.38, 'lipoC3S3': 11.92, 'lipoC3S2': 7.88, 'rot1': 0, 'rot0': 0, 'rot3': 0, 'rot2': 0, 'state': 'normal', 'yaw': -4.76, 'datetime': '2018-10-03 17:27:55.042065', 'mgs': 0, 'volt': 1.0254, 'depth': 3.522, 'time': 8, 'pitch': -69.87, 'roll': 43.71, 'pres': 210}
{'lipoC2': 0.0, 'lipoC3S1': 3.94, 'temp': 26.38, 'lipoC3S3': 11.93, 'lipoC3S2': 7.88, 'rot1': 0, 'rot0': 0, 'rot3': 0, 'rot2': 0, 'state': 'normal', 'yaw': -5.05, 'datetime': '2018-10-03 17:27:55.051901', 'mgs': 0, 'volt': 1.0254, 'depth': 3.522, 'time': 8, 'pitch': -69.78, 'roll': 44.11, 'pres': 210}
{'lipoC2': 0.0, 'lipoC3S1': 3.94, 'temp': 26.38, 'lipoC3S3': 11.92, 'lipoC3S2': 7.88, 'rot1': 0, 'rot0': 0, 'rot3': 0, 'rot2': 0, 'state': 'normal', 'yaw': -5.46, 'datetime': '2018-10-03 17:27:55.067666', 'mgs': 0, 'volt': 1.0254, 'depth': 3.522, 'time': 8, 'pitch': -69.93, 'roll': 44.38, 'pres': 210}
{'lipoC2': 0.0, 'lipoC3S1': 3.94, 'temp': 26.44, 'lipoC3S3': 11.92, 'lipoC3S2': 7.88, 'rot1': 0, 'rot0': 0, 'rot3': 0, 'rot2': 0, 'state': 'normal', 'yaw': -5.71, 'datetime': '2018-10-03 17:27:55.086363', 'mgs': 0, 'volt': 1.0254, 'depth': 3.522, 'time': 9, 'pitch': -70.03, 'roll': 44.54, 'pres': 210}
{'lipoC2': 0.0, 'lipoC3S1': 3.94, 'temp': 26.44, 'lipoC3S3': 11.93, 'lipoC3S2': 7.88, 'rot1': 0, 'rot0': 0, 'rot3': 0, 'rot2': 0, 'state': 'normal', 'yaw': -5.92, 'datetime': '2018-10-03 17:27:55.096215', 'mgs': 0, 'volt': 1.0254, 'depth': 3.522, 'time': 9, 'pitch': -70.1, 'roll': 44.69, 'pres': 210}
{'lipoC2': 0.0, 'lipoC3S1': 3.94, 'temp': 26.38, 'lipoC3S3': 11.93, 'lipoC3S2': 7.88, 'rot1': 0, 'rot0': 0, 'rot3': 0, 'rot2': 0, 'state': 'normal', 'yaw': -5.93, 'datetime': '2018-10-03 17:27:55.111948', 'mgs': 0, 'volt': 1.0254, 'depth': 3.522, 'time': 9, 'pitch': -70.08, 'roll': 44.71, 'pres': 210}
{'lipoC2': 0.0, 'lipoC3S1': 3.94, 'temp': 26.38, 'lipoC3S3': 11.92, 'lipoC3S2': 7.88, 'rot1': 0, 'rot0': 0, 'rot3': 0, 'rot2': 0, 'state': 'normal', 'yaw': -5.93, 'datetime': '2018-10-03 17:27:55.130541', 'mgs': 0, 'volt': 1.0254, 'depth': 3.522, 'time': 9, 'pitch': -70.09, 'roll': 44.82, 'pres': 210}
{'lipoC2': 0.0, 'lipoC3S1': 3.94, 'temp': 26.38, 'lipoC3S3': 11.93, 'lipoC3S2': 7.88, 'rot1': 0, 'rot0': 0, 'rot3': 0, 'rot2': 0, 'state': 'normal', 'yaw': -5.93, 'datetime': '2018-10-03 17:27:55.140366', 'mgs': 0, 'volt': 1.0254, 'depth': 3.522, 'time': 9, 'pitch': -70.09, 'roll': 44.92, 'pres': 210}
{'lipoC2': 0.0, 'lipoC3S1': 3.94, 'temp': 26.44, 'lipoC3S3': 11.92, 'lipoC3S2': 7.88, 'rot1': 0, 'rot0': 0, 'rot3': 0, 'rot2': 0, 'state': 'normal', 'yaw': -5.9, 'datetime': '2018-10-03 17:27:55.156183', 'mgs': 0, 'volt': 1.0254, 'depth': 3.522, 'time': 9, 'pitch': -70.08, 'roll': 45.02, 'pres': 210}
{'lipoC2': 0.0, 'lipoC3S1': 3.94, 'temp': 26.44, 'lipoC3S3': 11.92, 'lipoC3S2': 7.88, 'rot1': 0, 'rot0': 0, 'rot3': 0, 'rot2': 0, 'state': 'normal', 'yaw': -5.82, 'datetime': '2018-10-03 17:27:55.175196', 'mgs': 0, 'volt': 1.0254, 'depth': 3.522, 'time': 9, 'pitch': -70.06, 'roll': 45.09, 'pres': 210}
{'lipoC2': 0.0, 'lipoC3S1': 3.94, 'temp': 26.44, 'lipoC3S3': 11.92, 'lipoC3S2': 7.88, 'rot1': 0, 'rot0': 0, 'rot3': 0, 'rot2': 0, 'state': 'normal', 'yaw': -5.69, 'datetime': '2018-10-03 17:27:55.185155', 'mgs': 0, 'volt': 1.0254, 'depth': 3.522, 'time': 9, 'pitch': -70.0, 'roll': 45.11, 'pres': 210}
{'lipoC2': 0.0, 'lipoC3S1': 3.94, 'temp': 26.44, 'lipoC3S3': 11.92, 'lipoC3S2': 7.88, 'rot1': 0, 'rot0': 0, 'rot3': 0, 'rot2': 0, 'state': 'normal', 'yaw': -5.56, 'datetime': '2018-10-03 17:27:55.200926', 'mgs': 0, 'volt': 1.0254, 'depth': 3.522, 'time': 9, 'pitch': -69.97, 'roll': 45.14, 'pres': 210}
{'lipoC2': 0.0, 'lipoC3S1': 3.94, 'temp': 26.44, 'lipoC3S3': 11.92, 'lipoC3S2': 7.88, 'rot1': 0, 'rot0': 0, 'rot3': 0, 'rot2': 0, 'state': 'normal', 'yaw': -5.55, 'datetime': '2018-10-03 17:27:55.219566', 'mgs': 0, 'volt': 1.0254, 'depth': 3.522, 'time': 9, 'pitch': -69.96, 'roll': 45.21, 'pres': 210}
{'lipoC2': 0.0, 'lipoC3S1': 3.94, 'temp': 26.44, 'lipoC3S3': 11.93, 'lipoC3S2': 7.88, 'rot1': 0, 'rot0': 0, 'rot3': 0, 'rot2': 0, 'state': 'normal', 'yaw': -5.55, 'datetime': '2018-10-03 17:27:55.229526', 'mgs': 0, 'volt': 1.0254, 'depth': 3.522, 'time': 10, 'pitch': -69.97, 'roll': 45.25, 'pres': 210}
{'lipoC2': 0.0, 'lipoC3S1': 3.94, 'temp': 26.44, 'lipoC3S3': 11.92, 'lipoC3S2': 7.88, 'rot1': 0, 'rot0': 0, 'rot3': 0, 'rot2': 0, 'state': 'normal', 'yaw': -5.56, 'datetime': '2018-10-03 17:27:55.245347', 'mgs': 0, 'volt': 1.0254, 'depth': 3.522, 'time': 10, 'pitch': -69.97, 'roll': 45.26, 'pres': 210}
{'lipoC2': 0.0, 'lipoC3S1': 3.94, 'temp': 26.44, 'lipoC3S3': 11.93, 'lipoC3S2': 7.88, 'rot1': 0, 'rot0': 0, 'rot3': 0, 'rot2': 0, 'state': 'normal', 'yaw': -5.7, 'datetime': '2018-10-03 17:27:55.264128', 'mgs': 0, 'volt': 1.0254, 'depth': 3.522, 'time': 10, 'pitch': -70.0, 'roll': 45.33, 'pres': 210}
{'lipoC2': 0.0, 'lipoC3S1': 3.94, 'temp': 26.44, 'lipoC3S3': 11.92, 'lipoC3S2': 7.88, 'rot1': 0, 'rot0': 0, 'rot3': 0, 'rot2': 0, 'state': 'normal', 'yaw': -5.89, 'datetime': '2018-10-03 17:27:55.274093', 'mgs': 0, 'volt': 1.0303, 'depth': 3.598, 'time': 10, 'pitch': -70.09, 'roll': 45.41, 'pres': 211}
{'lipoC2': 0.0, 'lipoC3S1': 3.94, 'temp': 26.38, 'lipoC3S3': 11.92, 'lipoC3S2': 7.88, 'rot1': 0, 'rot0': 0, 'rot3': 0, 'rot2': 0, 'state': 'normal', 'yaw': -6.21, 'datetime': '2018-10-03 17:27:55.289996', 'mgs': 0, 'volt': 1.0254, 'depth': 3.522, 'time': 10, 'pitch': -70.17, 'roll': 45.55, 'pres': 210}
{'lipoC2': 0.0, 'lipoC3S1': 3.94, 'temp': 26.38, 'lipoC3S3': 11.93, 'lipoC3S2': 7.88, 'rot1': 0, 'rot0': 0, 'rot3': 0, 'rot2': 0, 'state': 'normal', 'yaw': -6.52, 'datetime': '2018-10-03 17:27:55.308693', 'mgs': 0, 'volt': 1.0303, 'depth': 3.598, 'time': 10, 'pitch': -70.27, 'roll': 45.7, 'pres': 211}
{'lipoC2': 0.0, 'lipoC3S1': 3.94, 'temp': 26.44, 'lipoC3S3': 11.92, 'lipoC3S2': 7.88, 'rot1': 0, 'rot0': 0, 'rot3': 0, 'rot2': 0, 'state': 'normal', 'yaw': -6.85, 'datetime': '2018-10-03 17:27:55.318672', 'mgs': 0, 'volt': 1.0254, 'depth': 3.522, 'time': 10, 'pitch': -70.39, 'roll': 45.92, 'pres': 210}
{'lipoC2': 0.0, 'lipoC3S1': 3.94, 'temp': 26.44, 'lipoC3S3': 11.92, 'lipoC3S2': 7.88, 'rot1': 0, 'rot0': 0, 'rot3': 0, 'rot2': 0, 'state': 'normal', 'yaw': -7.1, 'datetime': '2018-10-03 17:27:55.334491', 'mgs': 0, 'volt': 1.0254, 'depth': 3.522, 'time': 10, 'pitch': -70.48, 'roll': 46.13, 'pres': 210}
{'lipoC2': 0.0, 'lipoC3S1': 3.94, 'temp': 26.44, 'lipoC3S3': 11.92, 'lipoC3S2': 7.88, 'rot1': 0, 'rot0': 0, 'rot3': 0, 'rot2': 0, 'state': 'normal', 'yaw': -6.98, 'datetime': '2018-10-03 17:27:55.352985', 'mgs': 0, 'volt': 1.0254, 'depth': 3.522, 'time': 10, 'pitch': -70.52, 'roll': 46.04, 'pres': 210}
{'lipoC2': 0.0, 'lipoC3S1': 3.94, 'temp': 26.38, 'lipoC3S3': 11.92, 'lipoC3S2': 7.88, 'rot1': 0, 'rot0': 0, 'rot3': 0, 'rot2': 0, 'state': 'normal', 'yaw': -7.0, 'datetime': '2018-10-03 17:27:55.363259', 'mgs': 0, 'volt': 1.0254, 'depth': 3.522, 'time': 10, 'pitch': -70.52, 'roll': 46.22, 'pres': 210}
{'lipoC2': 0.0, 'lipoC3S1': 3.94, 'temp': 26.38, 'lipoC3S3': 11.92, 'lipoC3S2': 7.88, 'rot1': 0, 'rot0': 0, 'rot3': 0, 'rot2': 0, 'state': 'normal', 'yaw': -7.09, 'datetime': '2018-10-03 17:27:55.378920', 'mgs': 0, 'volt': 1.0254, 'depth': 3.522, 'time': 11, 'pitch': -70.55, 'roll': 46.45, 'pres': 210}
{'lipoC2': 0.0, 'lipoC3S1': 3.94, 'temp': 26.38, 'lipoC3S3': 11.92, 'lipoC3S2': 7.88, 'rot1': 0, 'rot0': 0, 'rot3': 0, 'rot2': 0, 'state': 'normal', 'yaw': 0.0, 'datetime': '2018-10-03 17:27:55.397546', 'mgs': 0, 'volt': 1.0254, 'depth': 3.522, 'time': 1, 'pitch': -71.05, 'roll': 45.65, 'pres': 210}
{'lipoC2': 0.0, 'lipoC3S1': 3.94, 'temp': 26.38, 'lipoC3S3': 11.92, 'lipoC3S2': 7.88, 'rot1': 0, 'rot0': 0, 'rot3': 0, 'rot2': 0, 'state': 'normal', 'yaw': 0.13, 'datetime': '2018-10-03 17:27:55.407441', 'mgs': 0, 'volt': 1.0254, 'depth': 3.522, 'time': 1, 'pitch': -71.09, 'roll': 45.53, 'pres': 210}
{'lipoC2': 0.0, 'lipoC3S1': 3.95, 'temp': 26.38, 'lipoC3S3': 11.93, 'lipoC3S2': 7.89, 'rot1': 0, 'rot0': 0, 'rot3': 0, 'rot2': 0, 'state': 'normal', 'yaw': 0.17, 'datetime': '2018-10-03 17:27:55.423156', 'mgs': 0, 'volt': 1.0303, 'depth': 3.598, 'time': 1, 'pitch': -71.09, 'roll': 45.48, 'pres': 211}
{'lipoC2': 0.0, 'lipoC3S1': 3.95, 'temp': 26.38, 'lipoC3S3': 11.93, 'lipoC3S2': 7.89, 'rot1': 0, 'rot0': 0, 'rot3': 0, 'rot2': 0, 'state': 'normal', 'yaw': 0.18, 'datetime': '2018-10-03 17:27:55.441777', 'mgs': 0, 'volt': 1.0254, 'depth': 3.522, 'time': 1, 'pitch': -71.11, 'roll': 45.53, 'pres': 210}
{'lipoC2': 0.0, 'lipoC3S1': 3.95, 'temp': 26.38, 'lipoC3S3': 11.93, 'lipoC3S2': 7.88, 'rot1': 0, 'rot0': 0, 'rot3': 0, 'rot2': 0, 'state': 'normal', 'yaw': 0.03, 'datetime': '2018-10-03 17:27:55.451719', 'mgs': 0, 'volt': 1.0254, 'depth': 3.522, 'time': 1, 'pitch': -71.15, 'roll': 45.76, 'pres': 210}
{'lipoC2': 0.0, 'lipoC3S1': 3.95, 'temp': 26.44, 'lipoC3S3': 11.93, 'lipoC3S2': 7.89, 'rot1': 0, 'rot0': 0, 'rot3': 0, 'rot2': 0, 'state': 'normal', 'yaw': -0.27, 'datetime': '2018-10-03 17:27:55.467442', 'mgs': 0, 'volt': 1.0303, 'depth': 3.598, 'time': 1, 'pitch': -71.23, 'roll': 46.07, 'pres': 211}
{'lipoC2': 0.0, 'lipoC3S1': 3.95, 'temp': 26.44, 'lipoC3S3': 11.93, 'lipoC3S2': 7.88, 'rot1': 0, 'rot0': 0, 'rot3': 0, 'rot2': 0, 'state': 'normal', 'yaw': -0.7, 'datetime': '2018-10-03 17:27:55.486110', 'mgs': 0, 'volt': 1.0303, 'depth': 3.598, 'time': 1, 'pitch': -71.36, 'roll': 46.49, 'pres': 211}
{'lipoC2': 0.0, 'lipoC3S1': 3.94, 'temp': 26.44, 'lipoC3S3': 11.92, 'lipoC3S2': 7.88, 'rot1': 0, 'rot0': 0, 'rot3': 0, 'rot2': 0, 'state': 'normal', 'yaw': -1.16, 'datetime': '2018-10-03 17:27:55.496062', 'mgs': 0, 'volt': 1.0254, 'depth': 3.522, 'time': 1, 'pitch': -71.51, 'roll': 46.93, 'pres': 210}
{'lipoC2': 0.0, 'lipoC3S1': 3.94, 'temp': 26.44, 'lipoC3S3': 11.92, 'lipoC3S2': 7.88, 'rot1': 0, 'rot0': 0, 'rot3': 0, 'rot2': 0, 'state': 'normal', 'yaw': -1.49, 'datetime': '2018-10-03 17:27:55.511820', 'mgs': 0, 'volt': 1.0254, 'depth': 3.522, 'time': 2, 'pitch': -71.61, 'roll': 47.32, 'pres': 210}
{'lipoC2': 0.0, 'lipoC3S1': 3.94, 'temp': 26.38, 'lipoC3S3': 11.92, 'lipoC3S2': 7.88, 'rot1': 0, 'rot0': 0, 'rot3': 0, 'rot2': 0, 'state': 'normal', 'yaw': -1.73, 'datetime': '2018-10-03 17:27:55.530440', 'mgs': 0, 'volt': 1.0254, 'depth': 3.522, 'time': 2, 'pitch': -71.67, 'roll': 47.64, 'pres': 210}
{'lipoC2': 0.0, 'lipoC3S1': 3.94, 'temp': 26.38, 'lipoC3S3': 11.92, 'lipoC3S2': 7.88, 'rot1': 0, 'rot0': 0, 'rot3': 0, 'rot2': 0, 'state': 'normal', 'yaw': -1.86, 'datetime': '2018-10-03 17:27:55.540348', 'mgs': 0, 'volt': 1.0254, 'depth': 3.522, 'time': 2, 'pitch': -71.72, 'roll': 47.86, 'pres': 210}
{'lipoC2': 0.0, 'lipoC3S1': 3.94, 'temp': 26.38, 'lipoC3S3': 11.92, 'lipoC3S2': 7.88, 'rot1': 0, 'rot0': 0, 'rot3': 0, 'rot2': 0, 'state': 'normal', 'yaw': -1.87, 'datetime': '2018-10-03 17:27:55.556144', 'mgs': 0, 'volt': 1.0254, 'depth': 3.522, 'time': 2, 'pitch': -71.72, 'roll': 47.89, 'pres': 210}
{'lipoC2': 0.0, 'lipoC3S1': 3.95, 'temp': 26.44, 'lipoC3S3': 11.93, 'lipoC3S2': 7.89, 'rot1': 0, 'rot0': 0, 'rot3': 0, 'rot2': 0, 'state': 'normal', 'yaw': -1.86, 'datetime': '2018-10-03 17:27:55.575103', 'mgs': 0, 'volt': 1.0254, 'depth': 3.522, 'time': 2, 'pitch': -71.73, 'roll': 47.9, 'pres': 210}
{'lipoC2': 0.0, 'lipoC3S1': 3.95, 'temp': 26.44, 'lipoC3S3': 11.93, 'lipoC3S2': 7.89, 'rot1': 0, 'rot0': 0, 'rot3': 0, 'rot2': 0, 'state': 'normal', 'yaw': -1.97, 'datetime': '2018-10-03 17:27:55.585072', 'mgs': 0, 'volt': 1.0254, 'depth': 3.522, 'time': 2, 'pitch': -71.68, 'roll': 48.0, 'pres': 210}
{'lipoC2': 0.0, 'lipoC3S1': 3.94, 'temp': 26.44, 'lipoC3S3': 11.93, 'lipoC3S2': 7.89, 'rot1': 0, 'rot0': 0, 'rot3': 0, 'rot2': 0, 'state': 'normal', 'yaw': -2.12, 'datetime': '2018-10-03 17:27:55.600879', 'mgs': 0, 'volt': 1.0254, 'depth': 3.522, 'time': 2, 'pitch': -71.63, 'roll': 48.15, 'pres': 210}
{'lipoC2': 0.0, 'lipoC3S1': 3.95, 'temp': 26.44, 'lipoC3S3': 11.93, 'lipoC3S2': 7.89, 'rot1': 0, 'rot0': 0, 'rot3': 0, 'rot2': 0, 'state': 'normal', 'yaw': -2.29, 'datetime': '2018-10-03 17:27:55.619557', 'mgs': 0, 'volt': 1.0254, 'depth': 3.522, 'time': 2, 'pitch': -71.56, 'roll': 48.29, 'pres': 210}
{'lipoC2': 0.0, 'lipoC3S1': 3.95, 'temp': 26.44, 'lipoC3S3': 11.93, 'lipoC3S2': 7.89, 'rot1': 0, 'rot0': 0, 'rot3': 0, 'rot2': 0, 'state': 'normal', 'yaw': -2.46, 'datetime': '2018-10-03 17:27:55.629371', 'mgs': 0, 'volt': 1.0254, 'depth': 3.522, 'time': 2, 'pitch': -71.51, 'roll': 48.47, 'pres': 210}
{'lipoC2': 0.0, 'lipoC3S1': 3.94, 'temp': 26.44, 'lipoC3S3': 11.92, 'lipoC3S2': 7.88, 'rot1': 0, 'rot0': 0, 'rot3': 0, 'rot2': 0, 'state': 'normal', 'yaw': -2.61, 'datetime': '2018-10-03 17:27:55.645171', 'mgs': 0, 'volt': 1.0254, 'depth': 3.522, 'time': 3, 'pitch': -71.46, 'roll': 48.61, 'pres': 210}
{'lipoC2': 0.0, 'lipoC3S1': 3.94, 'temp': 26.44, 'lipoC3S3': 11.93, 'lipoC3S2': 7.88, 'rot1': 0, 'rot0': 0, 'rot3': 0, 'rot2': 0, 'state': 'normal', 'yaw': -2.74, 'datetime': '2018-10-03 17:27:55.663917', 'mgs': 0, 'volt': 1.0254, 'depth': 3.522, 'time': 3, 'pitch': -71.4, 'roll': 48.75, 'pres': 210}
{'lipoC2': 0.0, 'lipoC3S1': 3.94, 'temp': 26.44, 'lipoC3S3': 11.93, 'lipoC3S2': 7.88, 'rot1': 0, 'rot0': 0, 'rot3': 0, 'rot2': 0, 'state': 'normal', 'yaw': -2.87, 'datetime': '2018-10-03 17:27:55.673783', 'mgs': 0, 'volt': 1.0254, 'depth': 3.522, 'time': 3, 'pitch': -71.35, 'roll': 48.86, 'pres': 210}
{'lipoC2': 0.0, 'lipoC3S1': 3.94, 'temp': 26.44, 'lipoC3S3': 11.93, 'lipoC3S2': 7.88, 'rot1': 0, 'rot0': 0, 'rot3': 0, 'rot2': 0, 'state': 'normal', 'yaw': -3.02, 'datetime': '2018-10-03 17:27:55.689660', 'mgs': 0, 'volt': 1.0303, 'depth': 3.598, 'time': 3, 'pitch': -71.34, 'roll': 49.02, 'pres': 211}
{'lipoC2': 0.0, 'lipoC3S1': 3.94, 'temp': 26.38, 'lipoC3S3': 11.92, 'lipoC3S2': 7.88, 'rot1': 0, 'rot0': 0, 'rot3': 0, 'rot2': 0, 'state': 'normal', 'yaw': -3.37, 'datetime': '2018-10-03 17:27:55.708280', 'mgs': 0, 'volt': 1.0303, 'depth': 3.598, 'time': 3, 'pitch': -71.41, 'roll': 49.35, 'pres': 211}
{'lipoC2': 0.0, 'lipoC3S1': 3.95, 'temp': 26.38, 'lipoC3S3': 11.93, 'lipoC3S2': 7.89, 'rot1': 0, 'rot0': 0, 'rot3': 0, 'rot2': 0, 'state': 'normal', 'yaw': -3.87, 'datetime': '2018-10-03 17:27:55.718239', 'mgs': 0, 'volt': 1.0303, 'depth': 3.598, 'time': 3, 'pitch': -71.55, 'roll': 49.8, 'pres': 211}
{'lipoC2': 0.0, 'lipoC3S1': 3.95, 'temp': 26.38, 'lipoC3S3': 11.93, 'lipoC3S2': 7.89, 'rot1': 0, 'rot0': 0, 'rot3': 0, 'rot2': 0, 'state': 'normal', 'yaw': -4.48, 'datetime': '2018-10-03 17:27:55.734035', 'mgs': 0, 'volt': 1.0303, 'depth': 3.598, 'time': 3, 'pitch': -71.71, 'roll': 50.35, 'pres': 211}
{'lipoC2': 0.0, 'lipoC3S1': 3.95, 'temp': 26.38, 'lipoC3S3': 11.93, 'lipoC3S2': 7.89, 'rot1': 0, 'rot0': 0, 'rot3': 0, 'rot2': 0, 'state': 'normal', 'yaw': -4.91, 'datetime': '2018-10-03 17:27:55.752707', 'mgs': 0, 'volt': 1.0254, 'depth': 3.522, 'time': 3, 'pitch': -71.81, 'roll': 50.81, 'pres': 210}
{'lipoC2': 0.0, 'lipoC3S1': 3.95, 'temp': 26.38, 'lipoC3S3': 11.93, 'lipoC3S2': 7.89, 'rot1': 0, 'rot0': 0, 'rot3': 0, 'rot2': 0, 'state': 'normal', 'yaw': -5.31, 'datetime': '2018-10-03 17:27:55.762996', 'mgs': 0, 'volt': 1.0254, 'depth': 3.522, 'time': 3, 'pitch': -71.93, 'roll': 51.33, 'pres': 210}
{'lipoC2': 0.0, 'lipoC3S1': 3.94, 'temp': 26.44, 'lipoC3S3': 11.92, 'lipoC3S2': 7.88, 'rot1': 0, 'rot0': 0, 'rot3': 0, 'rot2': 0, 'state': 'normal', 'yaw': -5.59, 'datetime': '2018-10-03 17:27:55.778862', 'mgs': 0, 'volt': 1.0254, 'depth': 3.522, 'time': 3, 'pitch': -71.99, 'roll': 51.73, 'pres': 210}
{'lipoC2': 0.0, 'lipoC3S1': 3.94, 'temp': 26.44, 'lipoC3S3': 11.92, 'lipoC3S2': 7.88, 'rot1': 0, 'rot0': 0, 'rot3': 0, 'rot2': 0, 'state': 'normal', 'yaw': -5.65, 'datetime': '2018-10-03 17:27:55.797588', 'mgs': 0, 'volt': 1.0254, 'depth': 3.522, 'time': 4, 'pitch': -72.01, 'roll': 51.94, 'pres': 210}
{'lipoC2': 0.0, 'lipoC3S1': 3.94, 'temp': 26.31, 'lipoC3S3': 11.92, 'lipoC3S2': 7.88, 'rot1': 0, 'rot0': 0, 'rot3': 0, 'rot2': 0, 'state': 'normal', 'yaw': -5.63, 'datetime': '2018-10-03 17:27:55.807561', 'mgs': 0, 'volt': 1.0254, 'depth': 3.522, 'time': 4, 'pitch': -72.01, 'roll': 52.08, 'pres': 210}
{'lipoC2': 0.0, 'lipoC3S1': 3.94, 'temp': 26.31, 'lipoC3S3': 11.93, 'lipoC3S2': 7.88, 'rot1': 0, 'rot0': 0, 'rot3': 0, 'rot2': 0, 'state': 'normal', 'yaw': -5.64, 'datetime': '2018-10-03 17:27:55.823368', 'mgs': 0, 'volt': 1.0254, 'depth': 3.522, 'time': 4, 'pitch': -72.01, 'roll': 52.25, 'pres': 210}
{'lipoC2': 0.0, 'lipoC3S1': 3.94, 'temp': 26.38, 'lipoC3S3': 11.92, 'lipoC3S2': 7.88, 'rot1': 0, 'rot0': 0, 'rot3': 0, 'rot2': 0, 'state': 'normal', 'yaw': -5.64, 'datetime': '2018-10-03 17:27:55.842287', 'mgs': 0, 'volt': 1.0254, 'depth': 3.522, 'time': 4, 'pitch': -72.0, 'roll': 52.41, 'pres': 210}
{'lipoC2': 0.0, 'lipoC3S1': 3.95, 'temp': 26.38, 'lipoC3S3': 11.93, 'lipoC3S2': 7.89, 'rot1': 0, 'rot0': 0, 'rot3': 0, 'rot2': 0, 'state': 'normal', 'yaw': -5.53, 'datetime': '2018-10-03 17:27:55.852301', 'mgs': 0, 'volt': 1.0254, 'depth': 3.522, 'time': 4, 'pitch': -71.95, 'roll': 52.43, 'pres': 210}
{'lipoC2': 0.0, 'lipoC3S1': 3.95, 'temp': 26.38, 'lipoC3S3': 11.93, 'lipoC3S2': 7.89, 'rot1': 0, 'rot0': 0, 'rot3': 0, 'rot2': 0, 'state': 'normal', 'yaw': -5.5, 'datetime': '2018-10-03 17:27:55.868165', 'mgs': 0, 'volt': 1.0254, 'depth': 3.522, 'time': 4, 'pitch': -71.96, 'roll': 52.46, 'pres': 210}
{'lipoC2': 0.0, 'lipoC3S1': 3.95, 'temp': 26.38, 'lipoC3S3': 11.93, 'lipoC3S2': 7.89, 'rot1': 0, 'rot0': 0, 'rot3': 0, 'rot2': 0, 'state': 'normal', 'yaw': -5.5, 'datetime': '2018-10-03 17:27:55.886805', 'mgs': 0, 'volt': 1.0254, 'depth': 3.522, 'time': 4, 'pitch': -71.96, 'roll': 52.46, 'pres': 210}
{'lipoC2': 0.0, 'lipoC3S1': 3.95, 'temp': 26.38, 'lipoC3S3': 11.93, 'lipoC3S2': 7.89, 'rot1': 0, 'rot0': 0, 'rot3': 0, 'rot2': 0, 'state': 'normal', 'yaw': -5.5, 'datetime': '2018-10-03 17:27:55.896659', 'mgs': 0, 'volt': 1.0254, 'depth': 3.522, 'time': 4, 'pitch': -71.96, 'roll': 52.46, 'pres': 210}
{'lipoC2': 0.0, 'lipoC3S1': 3.95, 'temp': 26.38, 'lipoC3S3': 11.93, 'lipoC3S2': 7.89, 'rot1': 0, 'rot0': 0, 'rot3': 0, 'rot2': 0, 'state': 'normal', 'yaw': -5.5, 'datetime': '2018-10-03 17:27:55.912516', 'mgs': 0, 'volt': 1.0254, 'depth': 3.522, 'time': 4, 'pitch': -71.96, 'roll': 52.44, 'pres': 210}
{'lipoC2': 0.0, 'lipoC3S1': 3.94, 'temp': 26.38, 'lipoC3S3': 11.93, 'lipoC3S2': 7.88, 'rot1': 0, 'rot0': 0, 'rot3': 0, 'rot2': 0, 'state': 'normal', 'yaw': -5.51, 'datetime': '2018-10-03 17:27:55.931152', 'mgs': 0, 'volt': 1.0254, 'depth': 3.522, 'time': 4, 'pitch': -71.96, 'roll': 52.37, 'pres': 210}
{'lipoC2': 0.0, 'lipoC3S1': 3.94, 'temp': 26.38, 'lipoC3S3': 11.93, 'lipoC3S2': 7.88, 'rot1': 0, 'rot0': 0, 'rot3': 0, 'rot2': 0, 'state': 'normal', 'yaw': -5.5, 'datetime': '2018-10-03 17:27:55.940900', 'mgs': 0, 'volt': 1.0254, 'depth': 3.522, 'time': 5, 'pitch': -71.97, 'roll': 52.26, 'pres': 210}
{'lipoC2': 0.0, 'lipoC3S1': 3.94, 'temp': 26.38, 'lipoC3S3': 11.93, 'lipoC3S2': 7.88, 'rot1': 0, 'rot0': 0, 'rot3': 0, 'rot2': 0, 'state': 'normal', 'yaw': -5.52, 'datetime': '2018-10-03 17:27:55.956726', 'mgs': 0, 'volt': 1.0254, 'depth': 3.522, 'time': 5, 'pitch': -71.97, 'roll': 52.11, 'pres': 210}
{'lipoC2': 0.0, 'lipoC3S1': 3.94, 'temp': 26.38, 'lipoC3S3': 11.92, 'lipoC3S2': 7.88, 'rot1': 0, 'rot0': 0, 'rot3': 0, 'rot2': 0, 'state': 'normal', 'yaw': -5.61, 'datetime': '2018-10-03 17:27:55.975664', 'mgs': 0, 'volt': 1.0254, 'depth': 3.522, 'time': 5, 'pitch': -71.98, 'roll': 52.02, 'pres': 210}
{'lipoC2': 0.0, 'lipoC3S1': 3.94, 'temp': 26.38, 'lipoC3S3': 11.93, 'lipoC3S2': 7.88, 'rot1': 0, 'rot0': 0, 'rot3': 0, 'rot2': 0, 'state': 'normal', 'yaw': -5.79, 'datetime': '2018-10-03 17:27:55.985405', 'mgs': 0, 'volt': 1.0254, 'depth': 3.522, 'time': 5, 'pitch': -72.03, 'roll': 52.02, 'pres': 210}
{'lipoC2': 0.0, 'lipoC3S1': 3.95, 'temp': 26.38, 'lipoC3S3': 11.93, 'lipoC3S2': 7.88, 'rot1': 0, 'rot0': 0, 'rot3': 0, 'rot2': 0, 'state': 'normal', 'yaw': -6.07, 'datetime': '2018-10-03 17:27:56.001188', 'mgs': 0, 'volt': 1.0254, 'depth': 3.522, 'time': 5, 'pitch': -71.92, 'roll': 52.17, 'pres': 210}
{'lipoC2': 0.0, 'lipoC3S1': 3.95, 'temp': 26.38, 'lipoC3S3': 11.93, 'lipoC3S2': 7.89, 'rot1': 0, 'rot0': 0, 'rot3': 0, 'rot2': 0, 'state': 'normal', 'yaw': -9.7, 'datetime': '2018-10-03 17:27:56.019781', 'mgs': 0, 'volt': 1.0205, 'depth': 3.445, 'time': 5, 'pitch': -71.11, 'roll': 55.93, 'pres': 209}
{'lipoC2': 0.0, 'lipoC3S1': 3.95, 'temp': 26.38, 'lipoC3S3': 11.93, 'lipoC3S2': 7.89, 'rot1': 0, 'rot0': 0, 'rot3': 0, 'rot2': 0, 'state': 'normal', 'yaw': -16.91, 'datetime': '2018-10-03 17:27:56.029673', 'mgs': 0, 'volt': 1.0205, 'depth': 3.445, 'time': 5, 'pitch': -69.0, 'roll': 63.29, 'pres': 209}
{'lipoC2': 0.0, 'lipoC3S1': 3.95, 'temp': 26.38, 'lipoC3S3': 11.93, 'lipoC3S2': 7.89, 'rot1': 0, 'rot0': 0, 'rot3': 0, 'rot2': 0, 'state': 'normal', 'yaw': -23.66, 'datetime': '2018-10-03 17:27:56.045486', 'mgs': 0, 'volt': 1.0205, 'depth': 3.445, 'time': 5, 'pitch': -64.92, 'roll': 69.75, 'pres': 209}
{'lipoC2': 0.0, 'lipoC3S1': 3.95, 'temp': 26.38, 'lipoC3S3': 11.93, 'lipoC3S2': 7.89, 'rot1': 0, 'rot0': 0, 'rot3': 0, 'rot2': 0, 'state': 'normal', 'yaw': -28.94, 'datetime': '2018-10-03 17:27:56.064252', 'mgs': 0, 'volt': 1.0156, 'depth': 3.369, 'time': 5, 'pitch': -60.55, 'roll': 74.82, 'pres': 208}
{'lipoC2': 0.0, 'lipoC3S1': 3.89, 'temp': 26.38, 'lipoC3S3': 11.75, 'lipoC3S2': 7.8, 'rot1': 0, 'rot0': 0, 'rot3': 0, 'rot2': 1, 'state': 'normal', 'yaw': -33.21, 'datetime': '2018-10-03 17:27:56.074213', 'mgs': 0, 'volt': 1.0303, 'depth': 3.598, 'time': 6, 'pitch': -56.57, 'roll': 78.31, 'pres': 211}
{'lipoC2': 0.0, 'lipoC3S1': 3.89, 'temp': 26.44, 'lipoC3S3': 11.85, 'lipoC3S2': 7.79, 'rot1': 0, 'rot0': 0, 'rot3': 1, 'rot2': 1, 'state': 'normal', 'yaw': -36.32, 'datetime': '2018-10-03 17:27:56.090074', 'mgs': 0, 'volt': 1.0303, 'depth': 3.598, 'time': 6, 'pitch': -53.16, 'roll': 80.17, 'pres': 211}
{'lipoC2': 0.0, 'lipoC3S1': 3.92, 'temp': 26.44, 'lipoC3S3': 11.8, 'lipoC3S2': 7.77, 'rot1': 0, 'rot0': 0, 'rot3': 2, 'rot2': 2, 'state': 'normal', 'yaw': -37.22, 'datetime': '2018-10-03 17:27:56.108759', 'mgs': 0, 'volt': 1.001, 'depth': 3.14, 'time': 6, 'pitch': -51.24, 'roll': 79.83, 'pres': 205}
{'lipoC2': 0.0, 'lipoC3S1': 3.92, 'temp': 26.38, 'lipoC3S3': 11.81, 'lipoC3S2': 7.78, 'rot1': 0, 'rot0': 0, 'rot3': 3, 'rot2': 3, 'state': 'normal', 'yaw': -36.37, 'datetime': '2018-10-03 17:27:56.118698', 'mgs': 0, 'volt': 0.9961, 'depth': 3.064, 'time': 6, 'pitch': -49.92, 'roll': 78.02, 'pres': 204}
{'lipoC2': 0.0, 'lipoC3S1': 3.9, 'temp': 26.38, 'lipoC3S3': 11.79, 'lipoC3S2': 7.82, 'rot1': 0, 'rot0': 0, 'rot3': 4, 'rot2': 4, 'state': 'normal', 'yaw': -33.89, 'datetime': '2018-10-03 17:27:56.134476', 'mgs': 0, 'volt': 1.0059, 'depth': 3.217, 'time': 6, 'pitch': -48.67, 'roll': 75.06, 'pres': 206}
{'lipoC2': 0.0, 'lipoC3S1': 3.89, 'temp': 26.38, 'lipoC3S3': 11.83, 'lipoC3S2': 7.8, 'rot1': 0, 'rot0': 0, 'rot3': 5, 'rot2': 5, 'state': 'normal', 'yaw': -31.44, 'datetime': '2018-10-03 17:27:56.153040', 'mgs': 0, 'volt': 1.0059, 'depth': 3.217, 'time': 6, 'pitch': -48.05, 'roll': 72.25, 'pres': 206}
{'lipoC2': 0.0, 'lipoC3S1': 3.92, 'temp': 26.38, 'lipoC3S3': 11.81, 'lipoC3S2': 7.79, 'rot1': 0, 'rot0': 0, 'rot3': 6, 'rot2': 5, 'state': 'normal', 'yaw': -29.24, 'datetime': '2018-10-03 17:27:56.163379', 'mgs': 0, 'volt': 0.9814, 'depth': 2.835, 'time': 6, 'pitch': -47.74, 'roll': 69.73, 'pres': 201}
{'lipoC2': 0.0, 'lipoC3S1': 3.88, 'temp': 26.38, 'lipoC3S3': 11.81, 'lipoC3S2': 7.78, 'rot1': 0, 'rot0': 0, 'rot3': 7, 'rot2': 6, 'state': 'normal', 'yaw': -26.7, 'datetime': '2018-10-03 17:27:56.179247', 'mgs': 0, 'volt': 0.9912, 'depth': 2.988, 'time': 6, 'pitch': -47.33, 'roll': 67.31, 'pres': 203}
{'lipoC2': 0.0, 'lipoC3S1': 3.91, 'temp': 26.38, 'lipoC3S3': 11.79, 'lipoC3S2': 7.82, 'rot1': 0, 'rot0': 0, 'rot3': 8, 'rot2': 7, 'state': 'normal', 'yaw': -24.44, 'datetime': '2018-10-03 17:27:56.197854', 'mgs': 0, 'volt': 0.9766, 'depth': 2.759, 'time': 6, 'pitch': -47.21, 'roll': 65.27, 'pres': 200}
{'lipoC2': 0.0, 'lipoC3S1': 3.9, 'temp': 26.38, 'lipoC3S3': 11.85, 'lipoC3S2': 7.81, 'rot1': 0, 'rot0': 0, 'rot3': 9, 'rot2': 8, 'state': 'normal', 'yaw': -23.09, 'datetime': '2018-10-03 17:27:56.207821', 'mgs': 0, 'volt': 0.9814, 'depth': 2.835, 'time': 6, 'pitch': -47.63, 'roll': 64.02, 'pres': 201}
{'lipoC2': 0.0, 'lipoC3S1': 3.93, 'temp': 26.38, 'lipoC3S3': 11.81, 'lipoC3S2': 7.78, 'rot1': 0, 'rot0': 0, 'rot3': 10, 'rot2': 8, 'state': 'normal', 'yaw': -22.18, 'datetime': '2018-10-03 17:27:56.223827', 'mgs': 0, 'volt': 0.9521, 'depth': 2.377, 'time': 7, 'pitch': -48.2, 'roll': 63.33, 'pres': 195}
{'lipoC2': 0.0, 'lipoC3S1': 3.9, 'temp': 26.38, 'lipoC3S3': 11.85, 'lipoC3S2': 7.8, 'rot1': 0, 'rot0': 0, 'rot3': 11, 'rot2': 9, 'state': 'normal', 'yaw': -21.79, 'datetime': '2018-10-03 17:27:56.242665', 'mgs': 0, 'volt': 0.9521, 'depth': 2.377, 'time': 7, 'pitch': -49.25, 'roll': 63.14, 'pres': 195}
{'lipoC2': 0.0, 'lipoC3S1': 3.91, 'temp': 26.38, 'lipoC3S3': 11.79, 'lipoC3S2': 7.85, 'rot1': 0, 'rot0': 0, 'rot3': 12, 'rot2': 10, 'state': 'normal', 'yaw': -21.89, 'datetime': '2018-10-03 17:27:56.252682', 'mgs': 0, 'volt': 0.9473, 'depth': 2.301, 'time': 7, 'pitch': -50.32, 'roll': 63.48, 'pres': 194}
{'lipoC2': 0.0, 'lipoC3S1': 3.89, 'temp': 26.38, 'lipoC3S3': 11.84, 'lipoC3S2': 7.8, 'rot1': 0, 'rot0': 0, 'rot3': 13, 'rot2': 11, 'state': 'normal', 'yaw': -21.73, 'datetime': '2018-10-03 17:27:56.268595', 'mgs': 0, 'volt': 0.9521, 'depth': 2.377, 'time': 7, 'pitch': -51.34, 'roll': 63.7, 'pres': 195}
{'lipoC2': 0.0, 'lipoC3S1': 3.9, 'temp': 26.38, 'lipoC3S3': 11.84, 'lipoC3S2': 7.81, 'rot1': 0, 'rot0': 0, 'rot3': 14, 'rot2': 11, 'state': 'normal', 'yaw': -20.76, 'datetime': '2018-10-03 17:27:56.287374', 'mgs': 0, 'volt': 0.9473, 'depth': 2.301, 'time': 7, 'pitch': -52.34, 'roll': 63.33, 'pres': 194}
{'lipoC2': 0.0, 'lipoC3S1': 3.93, 'temp': 26.38, 'lipoC3S3': 11.8, 'lipoC3S2': 7.77, 'rot1': 0, 'rot0': 0, 'rot3': 15, 'rot2': 12, 'state': 'normal', 'yaw': -19.3, 'datetime': '2018-10-03 17:27:56.297400', 'mgs': 0, 'volt': 0.9229, 'depth': 1.92, 'time': 7, 'pitch': -53.32, 'roll': 62.48, 'pres': 189}
{'lipoC2': 0.0, 'lipoC3S1': 3.89, 'temp': 26.38, 'lipoC3S3': 11.83, 'lipoC3S2': 7.79, 'rot1': 0, 'rot0': 0, 'rot3': 16, 'rot2': 13, 'state': 'normal', 'yaw': -17.47, 'datetime': '2018-10-03 17:27:56.313318', 'mgs': 0, 'volt': 0.9375, 'depth': 2.148, 'time': 7, 'pitch': -54.45, 'roll': 61.33, 'pres': 192}
{'lipoC2': 0.0, 'lipoC3S1': 3.89, 'temp': 26.44, 'lipoC3S3': 11.84, 'lipoC3S2': 7.79, 'rot1': 0, 'rot0': 0, 'rot3': 17, 'rot2': 14, 'state': 'normal', 'yaw': -15.7, 'datetime': '2018-10-03 17:27:56.332100', 'mgs': 0, 'volt': 0.9326, 'depth': 2.072, 'time': 7, 'pitch': -55.43, 'roll': 60.15, 'pres': 191}
{'lipoC2': 0.0, 'lipoC3S1': 3.92, 'temp': 26.44, 'lipoC3S3': 11.8, 'lipoC3S2': 7.77, 'rot1': 0, 'rot0': 0, 'rot3': 18, 'rot2': 15, 'state': 'normal', 'yaw': -13.77, 'datetime': '2018-10-03 17:27:56.342092', 'mgs': 0, 'volt': 0.9082, 'depth': 1.691, 'time': 7, 'pitch': -56.26, 'roll': 58.74, 'pres': 186}
{'lipoC2': 0.0, 'lipoC3S1': 3.88, 'temp': 26.44, 'lipoC3S3': 11.81, 'lipoC3S2': 7.78, 'rot1': 0, 'rot0': 0, 'rot3': 19, 'rot2': 15, 'state': 'normal', 'yaw': -12.23, 'datetime': '2018-10-03 17:27:56.358010', 'mgs': 0, 'volt': 0.8984, 'depth': 1.538, 'time': 7, 'pitch': -57.34, 'roll': 57.53, 'pres': 184}
{'lipoC2': 0.0, 'lipoC3S1': 3.89, 'temp': 26.44, 'lipoC3S3': 11.83, 'lipoC3S2': 7.79, 'rot1': 0, 'rot0': 0, 'rot3': 20, 'rot2': 16, 'state': 'normal', 'yaw': -12.39, 'datetime': '2018-10-03 17:27:56.377148', 'mgs': 0, 'volt': 0.9082, 'depth': 1.691, 'time': 8, 'pitch': -59.02, 'roll': 57.6, 'pres': 186}
{'lipoC2': 0.0, 'lipoC3S1': 3.89, 'temp': 26.44, 'lipoC3S3': 11.84, 'lipoC3S2': 7.8, 'rot1': 0, 'rot0': 0, 'rot3': 21, 'rot2': 17, 'state': 'normal', 'yaw': -13.48, 'datetime': '2018-10-03 17:27:56.387351', 'mgs': 0, 'volt': 0.9033, 'depth': 1.614, 'time': 8, 'pitch': -60.64, 'roll': 58.62, 'pres': 185}
{'lipoC2': 0.0, 'lipoC3S1': 3.91, 'temp': 26.44, 'lipoC3S3': 11.8, 'lipoC3S2': 7.81, 'rot1': 0, 'rot0': 0, 'rot3': 22, 'rot2': 18, 'state': 'normal', 'yaw': -14.03, 'datetime': '2018-10-03 17:27:56.403325', 'mgs': 0, 'volt': 0.8936, 'depth': 1.462, 'time': 8, 'pitch': -61.71, 'roll': 59.4, 'pres': 183}
{'lipoC2': 0.0, 'lipoC3S1': 3.91, 'temp': 26.44, 'lipoC3S3': 11.79, 'lipoC3S2': 7.77, 'rot1': 0, 'rot0': 0, 'rot3': 23, 'rot2': 18, 'state': 'normal', 'yaw': -13.61, 'datetime': '2018-10-03 17:27:56.422071', 'mgs': 0, 'volt': 0.8838, 'depth': 1.309, 'time': 8, 'pitch': -62.41, 'roll': 59.29, 'pres': 181}
{'lipoC2': 0.0, 'lipoC3S1': 3.88, 'temp': 26.44, 'lipoC3S3': 11.81, 'lipoC3S2': 7.78, 'rot1': 0, 'rot0': 0, 'rot3': 24, 'rot2': 19, 'state': 'normal', 'yaw': -13.07, 'datetime': '2018-10-03 17:27:56.432105', 'mgs': 0, 'volt': 0.8691, 'depth': 1.08, 'time': 8, 'pitch': -62.93, 'roll': 59.05, 'pres': 178}
{'lipoC2': 0.0, 'lipoC3S1': 3.89, 'temp': 26.44, 'lipoC3S3': 11.84, 'lipoC3S2': 7.79, 'rot1': 0, 'rot0': 0, 'rot3': 25, 'rot2': 20, 'state': 'normal', 'yaw': -13.08, 'datetime': '2018-10-03 17:27:56.447975', 'mgs': 0, 'volt': 0.8887, 'depth': 1.385, 'time': 8, 'pitch': -63.53, 'roll': 59.26, 'pres': 182}
{'lipoC2': 0.0, 'lipoC3S1': 3.89, 'temp': 26.44, 'lipoC3S3': 11.85, 'lipoC3S2': 7.81, 'rot1': 0, 'rot0': 0, 'rot3': 26, 'rot2': 21, 'state': 'normal', 'yaw': -13.17, 'datetime': '2018-10-03 17:27:56.466834', 'mgs': 0, 'volt': 0.874, 'depth': 1.157, 'time': 8, 'pitch': -63.88, 'roll': 59.57, 'pres': 179}
{'lipoC2': 0.0, 'lipoC3S1': 3.93, 'temp': 26.44, 'lipoC3S3': 11.81, 'lipoC3S2': 7.78, 'rot1': 0, 'rot0': 0, 'rot3': 27, 'rot2': 21, 'state': 'normal', 'yaw': -13.08, 'datetime': '2018-10-03 17:27:56.476868', 'mgs': 0, 'volt': 0.8594, 'depth': 0.928, 'time': 8, 'pitch': -63.83, 'roll': 59.84, 'pres': 176}
{'lipoC2': 0.0, 'lipoC3S1': 3.89, 'temp': 26.44, 'lipoC3S3': 11.83, 'lipoC3S2': 7.79, 'rot1': 0, 'rot0': 0, 'rot3': 28, 'rot2': 22, 'state': 'normal', 'yaw': -13.01, 'datetime': '2018-10-03 17:27:56.492755', 'mgs': 0, 'volt': 0.8643, 'depth': 1.004, 'time': 8, 'pitch': -63.74, 'roll': 59.99, 'pres': 177}
{'lipoC2': 0.0, 'lipoC3S1': 3.94, 'temp': 26.44, 'lipoC3S3': 11.89, 'lipoC3S2': 7.86, 'rot1': 0, 'rot0': 0, 'rot3': 29, 'rot2': 23, 'state': 'normal', 'yaw': -12.99, 'datetime': '2018-10-03 17:27:56.511402', 'mgs': 0, 'volt': 0.8496, 'depth': 0.775, 'time': 9, 'pitch': -63.62, 'roll': 60.03, 'pres': 174}
{'lipoC2': 0.0, 'lipoC3S1': 3.92, 'temp': 26.44, 'lipoC3S3': 11.77, 'lipoC3S2': 7.82, 'rot1': 0, 'rot0': 0, 'rot3': 30, 'rot2': 24, 'state': 'normal', 'yaw': -13.48, 'datetime': '2018-10-03 17:27:56.521398', 'mgs': 0, 'volt': 0.8496, 'depth': 0.775, 'time': 9, 'pitch': -63.58, 'roll': 60.48, 'pres': 174}
{'lipoC2': 0.0, 'lipoC3S1': 3.91, 'temp': 26.38, 'lipoC3S3': 11.69, 'lipoC3S2': 7.81, 'rot1': 0, 'rot0': 0, 'rot3': 30, 'rot2': 24, 'state': 'normal', 'yaw': -14.16, 'datetime': '2018-10-03 17:27:56.537340', 'mgs': 0, 'volt': 0.8496, 'depth': 0.775, 'time': 9, 'pitch': -63.55, 'roll': 61.15, 'pres': 174}
{'lipoC2': 0.0, 'lipoC3S1': 3.88, 'temp': 26.38, 'lipoC3S3': 11.83, 'lipoC3S2': 7.81, 'rot1': 2, 'rot0': 2, 'rot3': 31, 'rot2': 25, 'state': 'normal', 'yaw': -13.77, 'datetime': '2018-10-03 17:27:56.556105', 'mgs': 0, 'volt': 0.9131, 'depth': 1.767, 'time': 9, 'pitch': -63.2, 'roll': 60.9, 'pres': 187}
{'lipoC2': 0.0, 'lipoC3S1': 3.92, 'temp': 26.25, 'lipoC3S3': 11.81, 'lipoC3S2': 7.81, 'rot1': 3, 'rot0': 3, 'rot3': 31, 'rot2': 25, 'state': 'normal', 'yaw': -12.1, 'datetime': '2018-10-03 17:27:56.566404', 'mgs': 0, 'volt': 0.8643, 'depth': 1.004, 'time': 9, 'pitch': -62.57, 'roll': 59.58, 'pres': 177}
{'lipoC2': 0.0, 'lipoC3S1': 3.91, 'temp': 26.25, 'lipoC3S3': 11.65, 'lipoC3S2': 7.8, 'rot1': 4, 'rot0': 4, 'rot3': 32, 'rot2': 26, 'state': 'normal', 'yaw': -10.14, 'datetime': '2018-10-03 17:27:56.582370', 'mgs': 0, 'volt': 0.8545, 'depth': 0.851, 'time': 9, 'pitch': -61.93, 'roll': 57.99, 'pres': 175}
{'lipoC2': 0.0, 'lipoC3S1': 3.91, 'temp': 26.25, 'lipoC3S3': 11.8, 'lipoC3S2': 7.66, 'rot1': 5, 'rot0': 5, 'rot3': 32, 'rot2': 26, 'state': 'normal', 'yaw': -8.33, 'datetime': '2018-10-03 17:27:56.601061', 'mgs': 0, 'volt': 0.8545, 'depth': 0.851, 'time': 9, 'pitch': -61.38, 'roll': 56.54, 'pres': 175}
{'lipoC2': 0.0, 'lipoC3S1': 3.89, 'temp': 26.31, 'lipoC3S3': 11.84, 'lipoC3S2': 7.75, 'rot1': 6, 'rot0': 6, 'rot3': 33, 'rot2': 27, 'state': 'normal', 'yaw': -7.05, 'datetime': '2018-10-03 17:27:56.611007', 'mgs': 0, 'volt': 0.8545, 'depth': 0.851, 'time': 9, 'pitch': -60.95, 'roll': 55.48, 'pres': 175}
{'lipoC2': 0.0, 'lipoC3S1': 3.86, 'temp': 26.31, 'lipoC3S3': 11.83, 'lipoC3S2': 7.81, 'rot1': 7, 'rot0': 7, 'rot3': 33, 'rot2': 28, 'state': 'normal', 'yaw': -6.44, 'datetime': '2018-10-03 17:27:56.626836', 'mgs': 0, 'volt': 0.9229, 'depth': 1.92, 'time': 9, 'pitch': -60.76, 'roll': 54.97, 'pres': 189}
{'lipoC2': 0.0, 'lipoC3S1': 3.92, 'temp': 26.31, 'lipoC3S3': 11.81, 'lipoC3S2': 7.81, 'rot1': 8, 'rot0': 8, 'rot3': 34, 'rot2': 28, 'state': 'normal', 'yaw': -6.16, 'datetime': '2018-10-03 17:27:56.645502', 'mgs': 0, 'volt': 0.8789, 'depth': 1.233, 'time': 9, 'pitch': -60.66, 'roll': 54.73, 'pres': 180}
{'lipoC2': 0.0, 'lipoC3S1': 3.91, 'temp': 26.31, 'lipoC3S3': 11.64, 'lipoC3S2': 7.8, 'rot1': 10, 'rot0': 10, 'rot3': 34, 'rot2': 29, 'state': 'normal', 'yaw': -6.05, 'datetime': '2018-10-03 17:27:56.655233', 'mgs': 0, 'volt': 0.8545, 'depth': 0.851, 'time': 10, 'pitch': -60.54, 'roll': 54.6, 'pres': 175}
{'lipoC2': 0.0, 'lipoC3S1': 3.91, 'temp': 26.31, 'lipoC3S3': 11.75, 'lipoC3S2': 7.75, 'rot1': 11, 'rot0': 11, 'rot3': 35, 'rot2': 29, 'state': 'normal', 'yaw': -6.15, 'datetime': '2018-10-03 17:27:56.670835', 'mgs': 0, 'volt': 0.8594, 'depth': 0.928, 'time': 10, 'pitch': -60.43, 'roll': 54.6, 'pres': 176}
{'lipoC2': 0.0, 'lipoC3S1': 3.8, 'temp': 26.31, 'lipoC3S3': 11.84, 'lipoC3S2': 7.8, 'rot1': 12, 'rot0': 12, 'rot3': 35, 'rot2': 30, 'state': 'normal', 'yaw': -6.19, 'datetime': '2018-10-03 17:27:56.689190', 'mgs': 0, 'volt': 0.8789, 'depth': 1.233, 'time': 10, 'pitch': -60.43, 'roll': 54.46, 'pres': 180}
{'lipoC2': 0.0, 'lipoC3S1': 3.91, 'temp': 26.31, 'lipoC3S3': 11.71, 'lipoC3S2': 7.75, 'rot1': 13, 'rot0': 13, 'rot3': 36, 'rot2': 30, 'state': 'normal', 'yaw': -6.58, 'datetime': '2018-10-03 17:27:56.698804', 'mgs': 0, 'volt': 0.8545, 'depth': 0.851, 'time': 10, 'pitch': -60.55, 'roll': 54.64, 'pres': 175}
{'lipoC2': 0.0, 'lipoC3S1': 3.91, 'temp': 26.31, 'lipoC3S3': 11.71, 'lipoC3S2': 7.75, 'rot1': 14, 'rot0': 14, 'rot3': 36, 'rot2': 31, 'state': 'normal', 'yaw': -7.12, 'datetime': '2018-10-03 17:27:56.714299', 'mgs': 0, 'volt': 0.8594, 'depth': 0.928, 'time': 10, 'pitch': -60.73, 'roll': 55.1, 'pres': 176}
{'lipoC2': 0.0, 'lipoC3S1': 3.91, 'temp': 26.31, 'lipoC3S3': 11.72, 'lipoC3S2': 7.75, 'rot1': 15, 'rot0': 15, 'rot3': 37, 'rot2': 31, 'state': 'normal', 'yaw': -8.29, 'datetime': '2018-10-03 17:27:56.732538', 'mgs': 0, 'volt': 0.8545, 'depth': 0.851, 'time': 10, 'pitch': -60.77, 'roll': 56.54, 'pres': 175}
{'lipoC2': 0.0, 'lipoC3S1': 3.91, 'temp': 26.31, 'lipoC3S3': 11.79, 'lipoC3S2': 7.64, 'rot1': 16, 'rot0': 16, 'rot3': 37, 'rot2': 32, 'state': 'normal', 'yaw': -9.72, 'datetime': '2018-10-03 17:27:56.742069', 'mgs': 0, 'volt': 0.8545, 'depth': 0.851, 'time': 10, 'pitch': -60.49, 'roll': 58.62, 'pres': 175}
{'lipoC2': 0.0, 'lipoC3S1': 3.92, 'temp': 26.31, 'lipoC3S3': 11.83, 'lipoC3S2': 7.81, 'rot1': 18, 'rot0': 17, 'rot3': 38, 'rot2': 32, 'state': 'normal', 'yaw': -11.51, 'datetime': '2018-10-03 17:27:56.757517', 'mgs': 0, 'volt': 0.8691, 'depth': 1.08, 'time': 10, 'pitch': -59.71, 'roll': 61.41, 'pres': 178}
{'lipoC2': 0.0, 'lipoC3S1': 3.88, 'temp': 26.38, 'lipoC3S3': 11.87, 'lipoC3S2': 7.84, 'rot1': 19, 'rot0': 18, 'rot3': 38, 'rot2': 33, 'state': 'normal', 'yaw': -13.05, 'datetime': '2018-10-03 17:27:56.776163', 'mgs': 0, 'volt': 0.8545, 'depth': 0.851, 'time': 10, 'pitch': -58.74, 'roll': 63.83, 'pres': 175}
{'lipoC2': 0.0, 'lipoC3S1': 3.93, 'temp': 26.38, 'lipoC3S3': 11.89, 'lipoC3S2': 7.86, 'rot1': 20, 'rot0': 18, 'rot3': 38, 'rot2': 33, 'state': 'normal', 'yaw': -15.0, 'datetime': '2018-10-03 17:27:56.785761', 'mgs': 0, 'volt': 0.8545, 'depth': 0.851, 'time': 10, 'pitch': -58.0, 'roll': 66.4, 'pres': 175}
{'lipoC2': 0.0, 'lipoC3S1': 3.93, 'temp': 26.38, 'lipoC3S3': 11.89, 'lipoC3S2': 7.86, 'rot1': 20, 'rot0': 18, 'rot3': 38, 'rot2': 33, 'state': 'normal', 'yaw': -17.9, 'datetime': '2018-10-03 17:27:56.801186', 'mgs': 0, 'volt': 0.8496, 'depth': 0.775, 'time': 11, 'pitch': -57.31, 'roll': 69.47, 'pres': 174}
{'lipoC2': 0.0, 'lipoC3S1': 3.93, 'temp': 26.31, 'lipoC3S3': 11.89, 'lipoC3S2': 7.86, 'rot1': 20, 'rot0': 18, 'rot3': 38, 'rot2': 33, 'state': 'normal', 'yaw': -20.88, 'datetime': '2018-10-03 17:27:56.819381', 'mgs': 0, 'volt': 0.8496, 'depth': 0.775, 'time': 11, 'pitch': -56.55, 'roll': 72.03, 'pres': 174}
{'lipoC2': 0.0, 'lipoC3S1': 3.93, 'temp': 26.31, 'lipoC3S3': 11.89, 'lipoC3S2': 7.86, 'rot1': 20, 'rot0': 18, 'rot3': 38, 'rot2': 33, 'state': 'normal', 'yaw': -23.9, 'datetime': '2018-10-03 17:27:56.828910', 'mgs': 0, 'volt': 0.8496, 'depth': 0.775, 'time': 11, 'pitch': -55.57, 'roll': 74.1, 'pres': 174}
{'lipoC2': 0.0, 'lipoC3S1': 3.93, 'temp': 26.38, 'lipoC3S3': 11.89, 'lipoC3S2': 7.86, 'rot1': 20, 'rot0': 18, 'rot3': 38, 'rot2': 33, 'state': 'normal', 'yaw': -26.19, 'datetime': '2018-10-03 17:27:56.844344', 'mgs': 0, 'volt': 0.8496, 'depth': 0.775, 'time': 11, 'pitch': -54.56, 'roll': 75.28, 'pres': 174}
{'lipoC2': 0.0, 'lipoC3S1': 3.93, 'temp': 26.38, 'lipoC3S3': 11.89, 'lipoC3S2': 7.86, 'rot1': 20, 'rot0': 18, 'rot3': 38, 'rot2': 33, 'state': 'normal', 'yaw': -28.08, 'datetime': '2018-10-03 17:27:56.862642', 'mgs': 0, 'volt': 0.8496, 'depth': 0.775, 'time': 11, 'pitch': -53.52, 'roll': 75.97, 'pres': 174}
