{'lipoC2': 7.55, 'lipoC3S1': 4.13, 'temp': 30.88, 'lipoC3S3': 12.48, 'lipoC3S2': 8.26, 'rot1': 0, 'rot0': 0, 'rot3': 15, 'rot2': 13, 'state': 'normal', 'yaw': 0.71, 'datetime': '2018-10-09 12:06:11.209921', 'mgs': 0, 'volt': 0.8984, 'depth': 1.538, 'time': 10, 'pitch': 4.11, 'roll': 0.05, 'pres': 184}
{'lipoC2': 7.55, 'lipoC3S1': 4.13, 'temp': 30.88, 'lipoC3S3': 12.48, 'lipoC3S2': 8.26, 'rot1': 0, 'rot0': 0, 'rot3': 15, 'rot2': 13, 'state': 'normal', 'yaw': 0.71, 'datetime': '2018-10-09 12:06:11.234685', 'mgs': 0, 'volt': 0.8984, 'depth': 1.538, 'time': 10, 'pitch': 4.28, 'roll': 0.18, 'pres': 184}
{'lipoC2': 7.55, 'lipoC3S1': 4.13, 'temp': 30.88, 'lipoC3S3': 12.48, 'lipoC3S2': 8.26, 'rot1': 0, 'rot0': 0, 'rot3': 15, 'rot2': 13, 'state': 'normal', 'yaw': 0.73, 'datetime': '2018-10-09 12:06:11.259515', 'mgs': 0, 'volt': 0.8984, 'depth': 1.538, 'time': 10, 'pitch': 4.38, 'roll': 0.2, 'pres': 184}
{'lipoC2': 7.55, 'lipoC3S1': 4.13, 'temp': 30.88, 'lipoC3S3': 12.5, 'lipoC3S2': 8.26, 'rot1': 0, 'rot0': 0, 'rot3': 15, 'rot2': 13, 'state': 'normal', 'yaw': 0.74, 'datetime': '2018-10-09 12:06:11.277699', 'mgs': 0, 'volt': 0.9033, 'depth': 1.614, 'time': 10, 'pitch': 4.41, 'roll': 0.29, 'pres': 185}
{'lipoC2': 7.55, 'lipoC3S1': 4.13, 'temp': 30.88, 'lipoC3S3': 12.5, 'lipoC3S2': 8.26, 'rot1': 0, 'rot0': 0, 'rot3': 15, 'rot2': 13, 'state': 'normal', 'yaw': 0.73, 'datetime': '2018-10-09 12:06:11.289013', 'mgs': 0, 'volt': 0.8984, 'depth': 1.538, 'time': 10, 'pitch': 4.35, 'roll': 0.46, 'pres': 184}
{'lipoC2': 7.55, 'lipoC3S1': 4.13, 'temp': 30.94, 'lipoC3S3': 12.5, 'lipoC3S2': 8.26, 'rot1': 0, 'rot0': 0, 'rot3': 15, 'rot2': 13, 'state': 'normal', 'yaw': 0.69, 'datetime': '2018-10-09 12:06:11.299754', 'mgs': 0, 'volt': 0.9033, 'depth': 1.614, 'time': 10, 'pitch': 4.39, 'roll': 0.67, 'pres': 185}
{'lipoC2': 7.55, 'lipoC3S1': 4.13, 'temp': 30.94, 'lipoC3S3': 12.5, 'lipoC3S2': 8.26, 'rot1': 0, 'rot0': 0, 'rot3': 15, 'rot2': 13, 'state': 'normal', 'yaw': 0.65, 'datetime': '2018-10-09 12:06:11.310176', 'mgs': 0, 'volt': 0.9033, 'depth': 1.614, 'time': 11, 'pitch': 4.55, 'roll': 0.84, 'pres': 185}
{'lipoC2': 7.55, 'lipoC3S1': 4.13, 'temp': 30.94, 'lipoC3S3': 12.5, 'lipoC3S2': 8.26, 'rot1': 0, 'rot0': 0, 'rot3': 15, 'rot2': 13, 'state': 'normal', 'yaw': 0.66, 'datetime': '2018-10-09 12:06:11.320776', 'mgs': 0, 'volt': 0.9033, 'depth': 1.614, 'time': 11, 'pitch': 4.73, 'roll': 1.02, 'pres': 185}
{'lipoC2': 7.55, 'lipoC3S1': 4.13, 'temp': 30.94, 'lipoC3S3': 12.5, 'lipoC3S2': 8.26, 'rot1': 0, 'rot0': 0, 'rot3': 15, 'rot2': 13, 'state': 'normal', 'yaw': 0.67, 'datetime': '2018-10-09 12:06:11.331266', 'mgs': 0, 'volt': 0.9033, 'depth': 1.614, 'time': 11, 'pitch': 4.79, 'roll': 1.19, 'pres': 185}
{'lipoC2': 7.55, 'lipoC3S1': 4.13, 'temp': 30.88, 'lipoC3S3': 12.5, 'lipoC3S2': 8.26, 'rot1': 0, 'rot0': 0, 'rot3': 15, 'rot2': 13, 'state': 'normal', 'yaw': 0.67, 'datetime': '2018-10-09 12:06:11.341639', 'mgs': 0, 'volt': 0.9033, 'depth': 1.614, 'time': 11, 'pitch': 4.63, 'roll': 1.25, 'pres': 185}
{'lipoC2': 7.55, 'lipoC3S1': 4.13, 'temp': 30.88, 'lipoC3S3': 12.48, 'lipoC3S2': 8.26, 'rot1': 0, 'rot0': 0, 'rot3': 15, 'rot2': 13, 'state': 'normal', 'yaw': 0.76, 'datetime': '2018-10-09 12:06:11.352183', 'mgs': 0, 'volt': 0.8984, 'depth': 1.538, 'time': 11, 'pitch': 4.37, 'roll': 1.24, 'pres': 184}
{'lipoC2': 7.55, 'lipoC3S1': 4.13, 'temp': 30.88, 'lipoC3S3': 12.48, 'lipoC3S2': 8.25, 'rot1': 0, 'rot0': 0, 'rot3': 15, 'rot2': 13, 'state': 'normal', 'yaw': 0.91, 'datetime': '2018-10-09 12:06:11.362485', 'mgs': 0, 'volt': 0.9033, 'depth': 1.614, 'time': 11, 'pitch': 4.21, 'roll': 1.04, 'pres': 185}
{'lipoC2': 7.55, 'lipoC3S1': 4.13, 'temp': 30.94, 'lipoC3S3': 12.48, 'lipoC3S2': 8.26, 'rot1': 0, 'rot0': 0, 'rot3': 15, 'rot2': 13, 'state': 'normal', 'yaw': 1.07, 'datetime': '2018-10-09 12:06:11.372987', 'mgs': 0, 'volt': 0.9033, 'depth': 1.614, 'time': 11, 'pitch': 4.19, 'roll': 0.69, 'pres': 185}
{'lipoC2': 7.55, 'lipoC3S1': 4.13, 'temp': 30.94, 'lipoC3S3': 12.48, 'lipoC3S2': 8.26, 'rot1': 0, 'rot0': 0, 'rot3': 15, 'rot2': 13, 'state': 'normal', 'yaw': 1.22, 'datetime': '2018-10-09 12:06:11.383894', 'mgs': 0, 'volt': 0.9033, 'depth': 1.614, 'time': 11, 'pitch': 4.28, 'roll': 0.32, 'pres': 185}
{'lipoC2': 7.55, 'lipoC3S1': 4.13, 'temp': 30.94, 'lipoC3S3': 12.48, 'lipoC3S2': 8.26, 'rot1': 0, 'rot0': 0, 'rot3': 15, 'rot2': 13, 'state': 'normal', 'yaw': 1.36, 'datetime': '2018-10-09 12:06:11.401017', 'mgs': 0, 'volt': 0.8984, 'depth': 1.538, 'time': 11, 'pitch': 4.45, 'roll': -0.0, 'pres': 184}
{'lipoC2': 7.54, 'lipoC3S1': 4.13, 'temp': 30.94, 'lipoC3S3': 12.48, 'lipoC3S2': 8.26, 'rot1': 0, 'rot0': 0, 'rot3': 15, 'rot2': 13, 'state': 'normal', 'yaw': 1.46, 'datetime': '2018-10-09 12:06:11.411647', 'mgs': 0, 'volt': 0.8984, 'depth': 1.538, 'time': 12, 'pitch': 4.52, 'roll': -0.13, 'pres': 184}
{'lipoC2': 7.55, 'lipoC3S1': 4.13, 'temp': 30.94, 'lipoC3S3': 12.48, 'lipoC3S2': 8.26, 'rot1': 0, 'rot0': 0, 'rot3': 15, 'rot2': 13, 'state': 'normal', 'yaw': 1.58, 'datetime': '2018-10-09 12:06:11.422132', 'mgs': 0, 'volt': 0.9033, 'depth': 1.614, 'time': 12, 'pitch': 4.24, 'roll': -0.05, 'pres': 185}
{'lipoC2': 7.55, 'lipoC3S1': 4.13, 'temp': 30.94, 'lipoC3S3': 12.48, 'lipoC3S2': 8.26, 'rot1': 0, 'rot0': 0, 'rot3': 15, 'rot2': 13, 'state': 'normal', 'yaw': 1.75, 'datetime': '2018-10-09 12:06:11.431938', 'mgs': 0, 'volt': 0.9033, 'depth': 1.614, 'time': 12, 'pitch': 3.53, 'roll': 0.18, 'pres': 185}
{'lipoC2': 7.55, 'lipoC3S1': 4.13, 'temp': 30.94, 'lipoC3S3': 12.48, 'lipoC3S2': 8.26, 'rot1': 0, 'rot0': 0, 'rot3': 15, 'rot2': 13, 'state': 'normal', 'yaw': 1.95, 'datetime': '2018-10-09 12:06:11.441789', 'mgs': 0, 'volt': 0.8984, 'depth': 1.538, 'time': 12, 'pitch': 2.71, 'roll': 0.31, 'pres': 184}
{'lipoC2': 7.55, 'lipoC3S1': 4.13, 'temp': 30.94, 'lipoC3S3': 12.48, 'lipoC3S2': 8.26, 'rot1': 0, 'rot0': 0, 'rot3': 15, 'rot2': 13, 'state': 'normal', 'yaw': 2.16, 'datetime': '2018-10-09 12:06:11.451493', 'mgs': 0, 'volt': 0.8984, 'depth': 1.538, 'time': 12, 'pitch': 2.12, 'roll': 0.25, 'pres': 184}
{'lipoC2': 7.55, 'lipoC3S1': 4.13, 'temp': 30.94, 'lipoC3S3': 12.48, 'lipoC3S2': 8.26, 'rot1': 0, 'rot0': 0, 'rot3': 15, 'rot2': 13, 'state': 'normal', 'yaw': 2.43, 'datetime': '2018-10-09 12:06:11.461366', 'mgs': 0, 'volt': 0.8984, 'depth': 1.538, 'time': 12, 'pitch': 2.04, 'roll': -0.01, 'pres': 184}
{'lipoC2': 7.55, 'lipoC3S1': 4.13, 'temp': 30.94, 'lipoC3S3': 12.48, 'lipoC3S2': 8.26, 'rot1': 0, 'rot0': 0, 'rot3': 15, 'rot2': 13, 'state': 'normal', 'yaw': 2.67, 'datetime': '2018-10-09 12:06:11.471134', 'mgs': 0, 'volt': 0.8984, 'depth': 1.538, 'time': 12, 'pitch': 2.6, 'roll': -0.3, 'pres': 184}
{'lipoC2': 7.55, 'lipoC3S1': 4.13, 'temp': 30.94, 'lipoC3S3': 12.48, 'lipoC3S2': 8.26, 'rot1': 0, 'rot0': 0, 'rot3': 15, 'rot2': 13, 'state': 'normal', 'yaw': 2.89, 'datetime': '2018-10-09 12:06:11.481135', 'mgs': 0, 'volt': 0.8984, 'depth': 1.538, 'time': 12, 'pitch': 3.57, 'roll': -0.49, 'pres': 184}
{'lipoC2': 7.55, 'lipoC3S1': 4.13, 'temp': 30.94, 'lipoC3S3': 12.48, 'lipoC3S2': 8.26, 'rot1': 0, 'rot0': 0, 'rot3': 15, 'rot2': 13, 'state': 'normal', 'yaw': 3.11, 'datetime': '2018-10-09 12:06:11.491843', 'mgs': 0, 'volt': 0.9033, 'depth': 1.614, 'time': 12, 'pitch': 4.58, 'roll': -0.54, 'pres': 185}
{'lipoC2': 7.54, 'lipoC3S1': 4.13, 'temp': 30.94, 'lipoC3S3': 12.48, 'lipoC3S2': 8.26, 'rot1': 0, 'rot0': 0, 'rot3': 15, 'rot2': 13, 'state': 'normal', 'yaw': 3.27, 'datetime': '2018-10-09 12:06:11.502509', 'mgs': 0, 'volt': 0.9033, 'depth': 1.614, 'time': 12, 'pitch': 5.11, 'roll': -0.5, 'pres': 185}
{'lipoC2': 7.55, 'lipoC3S1': 4.13, 'temp': 30.94, 'lipoC3S3': 12.48, 'lipoC3S2': 8.26, 'rot1': 0, 'rot0': 0, 'rot3': 15, 'rot2': 13, 'state': 'normal', 'yaw': 3.43, 'datetime': '2018-10-09 12:06:11.512259', 'mgs': 0, 'volt': 0.9033, 'depth': 1.614, 'time': 13, 'pitch': 5.16, 'roll': -0.32, 'pres': 185}
{'lipoC2': 7.55, 'lipoC3S1': 4.13, 'temp': 30.94, 'lipoC3S3': 12.48, 'lipoC3S2': 8.26, 'rot1': 0, 'rot0': 0, 'rot3': 15, 'rot2': 13, 'state': 'normal', 'yaw': 3.66, 'datetime': '2018-10-09 12:06:11.522097', 'mgs': 0, 'volt': 0.9033, 'depth': 1.614, 'time': 13, 'pitch': 4.79, 'roll': -0.02, 'pres': 185}
{'lipoC2': 7.55, 'lipoC3S1': 4.13, 'temp': 30.94, 'lipoC3S3': 12.48, 'lipoC3S2': 8.26, 'rot1': 0, 'rot0': 0, 'rot3': 15, 'rot2': 13, 'state': 'normal', 'yaw': 3.9, 'datetime': '2018-10-09 12:06:11.531850', 'mgs': 0, 'volt': 0.9033, 'depth': 1.614, 'time': 13, 'pitch': 4.41, 'roll': 0.15, 'pres': 185}
{'lipoC2': 7.55, 'lipoC3S1': 4.13, 'temp': 30.94, 'lipoC3S3': 12.48, 'lipoC3S2': 8.26, 'rot1': 0, 'rot0': 0, 'rot3': 15, 'rot2': 13, 'state': 'normal', 'yaw': 4.17, 'datetime': '2018-10-09 12:06:11.542093', 'mgs': 0, 'volt': 0.8984, 'depth': 1.538, 'time': 13, 'pitch': 4.27, 'roll': 0.09, 'pres': 184}
{'lipoC2': 7.54, 'lipoC3S1': 4.13, 'temp': 30.94, 'lipoC3S3': 12.48, 'lipoC3S2': 8.26, 'rot1': 0, 'rot0': 0, 'rot3': 15, 'rot2': 13, 'state': 'normal', 'yaw': 4.43, 'datetime': '2018-10-09 12:06:11.551825', 'mgs': 0, 'volt': 0.9033, 'depth': 1.614, 'time': 13, 'pitch': 4.38, 'roll': -0.23, 'pres': 185}
{'lipoC2': 7.55, 'lipoC3S1': 4.13, 'temp': 30.94, 'lipoC3S3': 12.48, 'lipoC3S2': 8.26, 'rot1': 0, 'rot0': 0, 'rot3': 15, 'rot2': 13, 'state': 'normal', 'yaw': 4.64, 'datetime': '2018-10-09 12:06:11.561755', 'mgs': 0, 'volt': 0.9033, 'depth': 1.614, 'time': 13, 'pitch': 4.44, 'roll': -0.47, 'pres': 185}
{'lipoC2': 7.54, 'lipoC3S1': 4.13, 'temp': 30.94, 'lipoC3S3': 12.48, 'lipoC3S2': 8.26, 'rot1': 0, 'rot0': 0, 'rot3': 15, 'rot2': 13, 'state': 'normal', 'yaw': 4.8, 'datetime': '2018-10-09 12:06:11.571492', 'mgs': 0, 'volt': 0.9033, 'depth': 1.614, 'time': 13, 'pitch': 4.33, 'roll': -0.52, 'pres': 185}
{'lipoC2': 7.54, 'lipoC3S1': 4.13, 'temp': 30.94, 'lipoC3S3': 12.48, 'lipoC3S2': 8.26, 'rot1': 0, 'rot0': 0, 'rot3': 15, 'rot2': 13, 'state': 'normal', 'yaw': 4.97, 'datetime': '2018-10-09 12:06:11.581352', 'mgs': 0, 'volt': 0.9033, 'depth': 1.614, 'time': 13, 'pitch': 4.03, 'roll': -0.32, 'pres': 185}
{'lipoC2': 7.54, 'lipoC3S1': 4.13, 'temp': 30.94, 'lipoC3S3': 12.48, 'lipoC3S2': 8.26, 'rot1': 0, 'rot0': 0, 'rot3': 15, 'rot2': 13, 'state': 'normal', 'yaw': 5.13, 'datetime': '2018-10-09 12:06:11.592156', 'mgs': 0, 'volt': 0.9033, 'depth': 1.614, 'time': 13, 'pitch': 3.69, 'roll': 0.02, 'pres': 185}
{'lipoC2': 7.54, 'lipoC3S1': 4.13, 'temp': 30.94, 'lipoC3S3': 12.48, 'lipoC3S2': 8.26, 'rot1': 0, 'rot0': 0, 'rot3': 15, 'rot2': 13, 'state': 'normal', 'yaw': 5.32, 'datetime': '2018-10-09 12:06:11.605765', 'mgs': 0, 'volt': 0.8984, 'depth': 1.538, 'time': 13, 'pitch': 3.46, 'roll': 0.32, 'pres': 184}
{'lipoC2': 7.54, 'lipoC3S1': 4.13, 'temp': 30.88, 'lipoC3S3': 12.48, 'lipoC3S2': 8.26, 'rot1': 0, 'rot0': 0, 'rot3': 15, 'rot2': 13, 'state': 'normal', 'yaw': 5.57, 'datetime': '2018-10-09 12:06:11.709099', 'mgs': 0, 'volt': 0.9033, 'depth': 1.614, 'time': 14, 'pitch': 3.46, 'roll': 0.38, 'pres': 185}
{'lipoC2': 7.55, 'lipoC3S1': 4.13, 'temp': 30.88, 'lipoC3S3': 12.48, 'lipoC3S2': 8.26, 'rot1': 0, 'rot0': 0, 'rot3': 15, 'rot2': 13, 'state': 'normal', 'yaw': 5.81, 'datetime': '2018-10-09 12:06:11.812481', 'mgs': 0, 'volt': 0.8984, 'depth': 1.538, 'time': 14, 'pitch': 3.71, 'roll': 0.17, 'pres': 184}
{'lipoC2': 7.54, 'lipoC3S1': 4.13, 'temp': 30.94, 'lipoC3S3': 12.48, 'lipoC3S2': 8.26, 'rot1': 0, 'rot0': 0, 'rot3': 15, 'rot2': 13, 'state': 'normal', 'yaw': 6.04, 'datetime': '2018-10-09 12:06:11.916791', 'mgs': 0, 'volt': 0.9033, 'depth': 1.614, 'time': 14, 'pitch': 4.04, 'roll': -0.12, 'pres': 185}
{'lipoC2': 7.55, 'lipoC3S1': 4.13, 'temp': 30.94, 'lipoC3S3': 12.48, 'lipoC3S2': 8.26, 'rot1': 0, 'rot0': 0, 'rot3': 15, 'rot2': 13, 'state': 'normal', 'yaw': 6.25, 'datetime': '2018-10-09 12:06:12.020127', 'mgs': 0, 'volt': 0.9033, 'depth': 1.614, 'time': 14, 'pitch': 4.3, 'roll': -0.28, 'pres': 185}
{'lipoC2': 7.54, 'lipoC3S1': 4.13, 'temp': 30.94, 'lipoC3S3': 12.48, 'lipoC3S2': 8.26, 'rot1': 0, 'rot0': 0, 'rot3': 15, 'rot2': 13, 'state': 'normal', 'yaw': 6.46, 'datetime': '2018-10-09 12:06:12.124023', 'mgs': 0, 'volt': 0.9033, 'depth': 1.614, 'time': 14, 'pitch': 4.43, 'roll': -0.17, 'pres': 185}
{'lipoC2': 7.54, 'lipoC3S1': 4.13, 'temp': 30.88, 'lipoC3S3': 12.48, 'lipoC3S2': 8.26, 'rot1': 0, 'rot0': 0, 'rot3': 15, 'rot2': 13, 'state': 'normal', 'yaw': 6.69, 'datetime': '2018-10-09 12:06:12.228092', 'mgs': 0, 'volt': 0.9033, 'depth': 1.614, 'time': 14, 'pitch': 4.55, 'roll': 0.15, 'pres': 185}
{'lipoC2': 7.54, 'lipoC3S1': 4.13, 'temp': 30.88, 'lipoC3S3': 12.48, 'lipoC3S2': 8.26, 'rot1': 0, 'rot0': 0, 'rot3': 15, 'rot2': 13, 'state': 'normal', 'yaw': 6.96, 'datetime': '2018-10-09 12:06:12.331440', 'mgs': 0, 'volt': 0.9033, 'depth': 1.614, 'time': 14, 'pitch': 4.79, 'roll': 0.49, 'pres': 185}
{'lipoC2': 7.55, 'lipoC3S1': 4.13, 'temp': 30.94, 'lipoC3S3': 12.48, 'lipoC3S2': 8.26, 'rot1': 0, 'rot0': 0, 'rot3': 15, 'rot2': 13, 'state': 'normal', 'yaw': 7.21, 'datetime': '2018-10-09 12:06:12.435987', 'mgs': 0, 'volt': 0.9033, 'depth': 1.614, 'time': 14, 'pitch': 5.19, 'roll': 0.56, 'pres': 185}
{'lipoC2': 7.55, 'lipoC3S1': 4.13, 'temp': 30.94, 'lipoC3S3': 12.48, 'lipoC3S2': 8.26, 'rot1': 0, 'rot0': 0, 'rot3': 15, 'rot2': 13, 'state': 'normal', 'yaw': 7.45, 'datetime': '2018-10-09 12:06:12.539373', 'mgs': 0, 'volt': 0.9033, 'depth': 1.614, 'time': 14, 'pitch': 5.66, 'roll': 0.36, 'pres': 185}
{'lipoC2': 7.54, 'lipoC3S1': 4.13, 'temp': 30.88, 'lipoC3S3': 12.48, 'lipoC3S2': 8.26, 'rot1': 0, 'rot0': 0, 'rot3': 15, 'rot2': 13, 'state': 'normal', 'yaw': 7.65, 'datetime': '2018-10-09 12:06:12.642733', 'mgs': 0, 'volt': 0.9033, 'depth': 1.614, 'time': 15, 'pitch': 5.79, 'roll': 0.12, 'pres': 185}
{'lipoC2': 7.55, 'lipoC3S1': 4.13, 'temp': 30.88, 'lipoC3S3': 12.48, 'lipoC3S2': 8.26, 'rot1': 0, 'rot0': 0, 'rot3': 15, 'rot2': 13, 'state': 'normal', 'yaw': 7.82, 'datetime': '2018-10-09 12:06:12.749909', 'mgs': 0, 'volt': 0.9033, 'depth': 1.614, 'time': 15, 'pitch': 5.61, 'roll': -0.06, 'pres': 185}
{'lipoC2': 7.55, 'lipoC3S1': 4.13, 'temp': 30.88, 'lipoC3S3': 12.48, 'lipoC3S2': 8.25, 'rot1': 0, 'rot0': 0, 'rot3': 15, 'rot2': 13, 'state': 'normal', 'yaw': 8.02, 'datetime': '2018-10-09 12:06:12.853587', 'mgs': 0, 'volt': 0.8984, 'depth': 1.538, 'time': 15, 'pitch': 5.23, 'roll': -0.19, 'pres': 184}
{'lipoC2': 7.55, 'lipoC3S1': 4.13, 'temp': 30.88, 'lipoC3S3': 12.48, 'lipoC3S2': 8.26, 'rot1': 0, 'rot0': 0, 'rot3': 15, 'rot2': 13, 'state': 'normal', 'yaw': 8.2, 'datetime': '2018-10-09 12:06:12.956760', 'mgs': 0, 'volt': 0.9033, 'depth': 1.614, 'time': 15, 'pitch': 4.83, 'roll': -0.27, 'pres': 185}
{'lipoC2': 7.55, 'lipoC3S1': 4.13, 'temp': 30.88, 'lipoC3S3': 12.48, 'lipoC3S2': 8.26, 'rot1': 0, 'rot0': 0, 'rot3': 15, 'rot2': 13, 'state': 'normal', 'yaw': 8.4, 'datetime': '2018-10-09 12:06:13.060047', 'mgs': 0, 'volt': 0.9033, 'depth': 1.614, 'time': 15, 'pitch': 4.38, 'roll': -0.33, 'pres': 185}
{'lipoC2': 7.55, 'lipoC3S1': 4.13, 'temp': 30.94, 'lipoC3S3': 12.48, 'lipoC3S2': 8.26, 'rot1': 0, 'rot0': 0, 'rot3': 15, 'rot2': 13, 'state': 'normal', 'yaw': 8.59, 'datetime': '2018-10-09 12:06:13.163599', 'mgs': 0, 'volt': 0.9033, 'depth': 1.614, 'time': 15, 'pitch': 3.9, 'roll': -0.38, 'pres': 185}
{'lipoC2': 7.55, 'lipoC3S1': 4.13, 'temp': 30.94, 'lipoC3S3': 12.48, 'lipoC3S2': 8.26, 'rot1': 0, 'rot0': 0, 'rot3': 15, 'rot2': 13, 'state': 'normal', 'yaw': 8.81, 'datetime': '2018-10-09 12:06:13.266955', 'mgs': 0, 'volt': 0.9033, 'depth': 1.614, 'time': 15, 'pitch': 3.44, 'roll': -0.45, 'pres': 185}
{'lipoC2': 7.55, 'lipoC3S1': 4.13, 'temp': 30.94, 'lipoC3S3': 12.48, 'lipoC3S2': 8.26, 'rot1': 0, 'rot0': 0, 'rot3': 15, 'rot2': 13, 'state': 'normal', 'yaw': 9.07, 'datetime': '2018-10-09 12:06:13.370264', 'mgs': 0, 'volt': 0.9033, 'depth': 1.614, 'time': 15, 'pitch': 3.42, 'roll': -0.52, 'pres': 185}
{'lipoC2': 7.55, 'lipoC3S1': 4.13, 'temp': 30.94, 'lipoC3S3': 12.48, 'lipoC3S2': 8.26, 'rot1': 0, 'rot0': 0, 'rot3': 15, 'rot2': 13, 'state': 'normal', 'yaw': 9.34, 'datetime': '2018-10-09 12:06:13.479486', 'mgs': 0, 'volt': 0.9033, 'depth': 1.614, 'time': 15, 'pitch': 3.92, 'roll': -0.54, 'pres': 185}
{'lipoC2': 7.55, 'lipoC3S1': 4.13, 'temp': 30.94, 'lipoC3S3': 12.48, 'lipoC3S2': 8.26, 'rot1': 0, 'rot0': 0, 'rot3': 15, 'rot2': 13, 'state': 'normal', 'yaw': 9.62, 'datetime': '2018-10-09 12:06:13.584071', 'mgs': 0, 'volt': 0.9033, 'depth': 1.614, 'time': 15, 'pitch': 4.92, 'roll': -0.63, 'pres': 185}
{'lipoC2': 7.54, 'lipoC3S1': 4.13, 'temp': 30.94, 'lipoC3S3': 12.48, 'lipoC3S2': 8.26, 'rot1': 0, 'rot0': 0, 'rot3': 15, 'rot2': 13, 'state': 'normal', 'yaw': 9.93, 'datetime': '2018-10-09 12:06:13.688476', 'mgs': 0, 'volt': 0.9082, 'depth': 1.691, 'time': 16, 'pitch': 5.8, 'roll': -0.7, 'pres': 186}
{'lipoC2': 7.55, 'lipoC3S1': 4.13, 'temp': 30.94, 'lipoC3S3': 12.48, 'lipoC3S2': 8.26, 'rot1': 0, 'rot0': 0, 'rot3': 15, 'rot2': 13, 'state': 'normal', 'yaw': 10.32, 'datetime': '2018-10-09 12:06:13.792056', 'mgs': 0, 'volt': 0.9033, 'depth': 1.614, 'time': 16, 'pitch': 6.3, 'roll': -0.71, 'pres': 185}
{'lipoC2': 7.55, 'lipoC3S1': 4.13, 'temp': 30.94, 'lipoC3S3': 12.48, 'lipoC3S2': 8.26, 'rot1': 0, 'rot0': 0, 'rot3': 15, 'rot2': 13, 'state': 'normal', 'yaw': 10.69, 'datetime': '2018-10-09 12:06:13.895168', 'mgs': 0, 'volt': 0.9033, 'depth': 1.614, 'time': 16, 'pitch': 6.23, 'roll': -0.56, 'pres': 185}
{'lipoC2': 7.55, 'lipoC3S1': 4.13, 'temp': 30.94, 'lipoC3S3': 12.48, 'lipoC3S2': 8.26, 'rot1': 0, 'rot0': 0, 'rot3': 15, 'rot2': 13, 'state': 'normal', 'yaw': 11.05, 'datetime': '2018-10-09 12:06:13.999759', 'mgs': 0, 'volt': 0.9082, 'depth': 1.691, 'time': 16, 'pitch': 5.75, 'roll': -0.3, 'pres': 186}
{'lipoC2': 7.54, 'lipoC3S1': 4.13, 'temp': 30.94, 'lipoC3S3': 12.48, 'lipoC3S2': 8.26, 'rot1': 0, 'rot0': 0, 'rot3': 15, 'rot2': 13, 'state': 'normal', 'yaw': 11.48, 'datetime': '2018-10-09 12:06:14.103098', 'mgs': 0, 'volt': 0.9082, 'depth': 1.691, 'time': 16, 'pitch': 4.89, 'roll': 0.08, 'pres': 186}
{'lipoC2': 7.54, 'lipoC3S1': 4.13, 'temp': 30.94, 'lipoC3S3': 12.48, 'lipoC3S2': 8.26, 'rot1': 0, 'rot0': 0, 'rot3': 15, 'rot2': 13, 'state': 'normal', 'yaw': 11.94, 'datetime': '2018-10-09 12:06:14.206508', 'mgs': 0, 'volt': 0.9082, 'depth': 1.691, 'time': 16, 'pitch': 4.12, 'roll': 0.32, 'pres': 186}
{'lipoC2': 7.55, 'lipoC3S1': 4.13, 'temp': 30.94, 'lipoC3S3': 12.48, 'lipoC3S2': 8.26, 'rot1': 0, 'rot0': 0, 'rot3': 15, 'rot2': 13, 'state': 'normal', 'yaw': 12.42, 'datetime': '2018-10-09 12:06:14.310125', 'mgs': 0, 'volt': 0.9082, 'depth': 1.691, 'time': 16, 'pitch': 3.56, 'roll': 0.43, 'pres': 186}
{'lipoC2': 7.55, 'lipoC3S1': 4.13, 'temp': 30.94, 'lipoC3S3': 12.48, 'lipoC3S2': 8.26, 'rot1': 0, 'rot0': 0, 'rot3': 15, 'rot2': 13, 'state': 'normal', 'yaw': 12.94, 'datetime': '2018-10-09 12:06:14.413542', 'mgs': 0, 'volt': 0.9033, 'depth': 1.614, 'time': 16, 'pitch': 3.32, 'roll': 0.44, 'pres': 185}
{'lipoC2': 7.55, 'lipoC3S1': 4.13, 'temp': 30.94, 'lipoC3S3': 12.48, 'lipoC3S2': 8.26, 'rot1': 0, 'rot0': 0, 'rot3': 15, 'rot2': 13, 'state': 'normal', 'yaw': 13.52, 'datetime': '2018-10-09 12:06:14.516462', 'mgs': 0, 'volt': 0.9033, 'depth': 1.614, 'time': 16, 'pitch': 3.45, 'roll': 0.27, 'pres': 185}
{'lipoC2': 7.54, 'lipoC3S1': 4.13, 'temp': 30.94, 'lipoC3S3': 12.48, 'lipoC3S2': 8.26, 'rot1': 0, 'rot0': 0, 'rot3': 15, 'rot2': 13, 'state': 'normal', 'yaw': 14.06, 'datetime': '2018-10-09 12:06:14.619858', 'mgs': 1, 'volt': 0.9033, 'depth': 1.614, 'time': 16, 'pitch': 3.85, 'roll': -0.07, 'pres': 185}
{'lipoC2': 7.55, 'lipoC3S1': 4.13, 'temp': 30.94, 'lipoC3S3': 12.48, 'lipoC3S2': 8.26, 'rot1': 0, 'rot0': 0, 'rot3': 0, 'rot2': 0, 'state': 'normal', 'yaw': 0.06, 'datetime': '2018-10-09 12:06:17.656361', 'mgs': 1, 'volt': 0.918, 'depth': 1.843, 'time': 1, 'pitch': 6.24, 'roll': -2.22, 'pres': 188}
{'lipoC2': 7.54, 'lipoC3S1': 4.13, 'temp': 30.94, 'lipoC3S3': 12.48, 'lipoC3S2': 8.26, 'rot1': 0, 'rot0': 0, 'rot3': 0, 'rot2': 0, 'state': 'normal', 'yaw': 0.7, 'datetime': '2018-10-09 12:06:17.686050', 'mgs': 0, 'volt': 0.918, 'depth': 1.843, 'time': 1, 'pitch': 5.39, 'roll': -2.74, 'pres': 188}
{'lipoC2': 7.55, 'lipoC3S1': 4.13, 'temp': 30.94, 'lipoC3S3': 12.5, 'lipoC3S2': 8.26, 'rot1': 0, 'rot0': 0, 'rot3': 0, 'rot2': 0, 'state': 'normal', 'yaw': 1.3, 'datetime': '2018-10-09 12:06:17.715958', 'mgs': 0, 'volt': 0.918, 'depth': 1.843, 'time': 1, 'pitch': 4.96, 'roll': -3.6, 'pres': 188}
{'lipoC2': 7.55, 'lipoC3S1': 4.13, 'temp': 30.94, 'lipoC3S3': 12.5, 'lipoC3S2': 8.26, 'rot1': 0, 'rot0': 0, 'rot3': 0, 'rot2': 0, 'state': 'normal', 'yaw': 1.82, 'datetime': '2018-10-09 12:06:17.734352', 'mgs': 0, 'volt': 0.918, 'depth': 1.843, 'time': 1, 'pitch': 5.06, 'roll': -4.25, 'pres': 188}
{'lipoC2': 7.55, 'lipoC3S1': 4.13, 'temp': 30.94, 'lipoC3S3': 12.5, 'lipoC3S2': 8.26, 'rot1': 0, 'rot0': 0, 'rot3': 0, 'rot2': 0, 'state': 'normal', 'yaw': 2.29, 'datetime': '2018-10-09 12:06:17.750322', 'mgs': 0, 'volt': 0.9229, 'depth': 1.92, 'time': 1, 'pitch': 5.72, 'roll': -4.48, 'pres': 189}
{'lipoC2': 7.55, 'lipoC3S1': 4.13, 'temp': 30.94, 'lipoC3S3': 12.48, 'lipoC3S2': 8.26, 'rot1': 0, 'rot0': 0, 'rot3': 0, 'rot2': 0, 'state': 'normal', 'yaw': 2.64, 'datetime': '2018-10-09 12:06:17.765638', 'mgs': 0, 'volt': 0.9229, 'depth': 1.92, 'time': 1, 'pitch': 6.53, 'roll': -4.4, 'pres': 189}
{'lipoC2': 7.55, 'lipoC3S1': 4.13, 'temp': 30.94, 'lipoC3S3': 12.5, 'lipoC3S2': 8.26, 'rot1': 0, 'rot0': 0, 'rot3': 0, 'rot2': 0, 'state': 'normal', 'yaw': 2.97, 'datetime': '2018-10-09 12:06:17.780937', 'mgs': 0, 'volt': 0.9277, 'depth': 1.996, 'time': 1, 'pitch': 7.2, 'roll': -4.14, 'pres': 190}
{'lipoC2': 7.54, 'lipoC3S1': 4.13, 'temp': 30.94, 'lipoC3S3': 12.48, 'lipoC3S2': 8.26, 'rot1': 0, 'rot0': 0, 'rot3': 0, 'rot2': 0, 'state': 'normal', 'yaw': 3.4, 'datetime': '2018-10-09 12:06:17.796261', 'mgs': 0, 'volt': 0.9229, 'depth': 1.92, 'time': 1, 'pitch': 7.51, 'roll': -3.73, 'pres': 189}
{'lipoC2': 7.54, 'lipoC3S1': 4.13, 'temp': 30.94, 'lipoC3S3': 12.48, 'lipoC3S2': 8.26, 'rot1': 0, 'rot0': 0, 'rot3': 0, 'rot2': 0, 'state': 'normal', 'yaw': 3.85, 'datetime': '2018-10-09 12:06:17.811580', 'mgs': 0, 'volt': 0.9277, 'depth': 1.996, 'time': 2, 'pitch': 7.17, 'roll': -3.16, 'pres': 190}
{'lipoC2': 7.54, 'lipoC3S1': 4.13, 'temp': 30.94, 'lipoC3S3': 12.48, 'lipoC3S2': 8.26, 'rot1': 0, 'rot0': 0, 'rot3': 0, 'rot2': 0, 'state': 'normal', 'yaw': 4.33, 'datetime': '2018-10-09 12:06:17.828882', 'mgs': 0, 'volt': 0.9277, 'depth': 1.996, 'time': 2, 'pitch': 6.24, 'roll': -2.32, 'pres': 190}
{'lipoC2': 7.55, 'lipoC3S1': 4.13, 'temp': 30.94, 'lipoC3S3': 12.48, 'lipoC3S2': 8.26, 'rot1': 0, 'rot0': 0, 'rot3': 0, 'rot2': 0, 'state': 'normal', 'yaw': 4.81, 'datetime': '2018-10-09 12:06:17.846169', 'mgs': 0, 'volt': 0.9277, 'depth': 1.996, 'time': 2, 'pitch': 4.71, 'roll': -1.11, 'pres': 190}
{'lipoC2': 7.55, 'lipoC3S1': 4.13, 'temp': 30.94, 'lipoC3S3': 12.48, 'lipoC3S2': 8.26, 'rot1': 0, 'rot0': 0, 'rot3': 0, 'rot2': 0, 'state': 'normal', 'yaw': 5.18, 'datetime': '2018-10-09 12:06:17.861492', 'mgs': 0, 'volt': 0.9277, 'depth': 1.996, 'time': 2, 'pitch': 3.23, 'roll': 0.13, 'pres': 190}
{'lipoC2': 7.55, 'lipoC3S1': 4.13, 'temp': 30.94, 'lipoC3S3': 12.5, 'lipoC3S2': 8.26, 'rot1': 0, 'rot0': 0, 'rot3': 0, 'rot2': 0, 'state': 'normal', 'yaw': 5.47, 'datetime': '2018-10-09 12:06:17.876797', 'mgs': 0, 'volt': 0.9277, 'depth': 1.996, 'time': 2, 'pitch': 2.04, 'roll': 1.33, 'pres': 190}
{'lipoC2': 7.55, 'lipoC3S1': 4.13, 'temp': 30.94, 'lipoC3S3': 12.5, 'lipoC3S2': 8.26, 'rot1': 0, 'rot0': 0, 'rot3': 0, 'rot2': 0, 'state': 'normal', 'yaw': 5.74, 'datetime': '2018-10-09 12:06:17.892102', 'mgs': 0, 'volt': 0.9277, 'depth': 1.996, 'time': 2, 'pitch': 1.4, 'roll': 2.41, 'pres': 190}
{'lipoC2': 7.55, 'lipoC3S1': 4.13, 'temp': 30.94, 'lipoC3S3': 12.5, 'lipoC3S2': 8.26, 'rot1': 0, 'rot0': 0, 'rot3': 0, 'rot2': 0, 'state': 'normal', 'yaw': 6.01, 'datetime': '2018-10-09 12:06:17.907386', 'mgs': 0, 'volt': 0.9277, 'depth': 1.996, 'time': 2, 'pitch': 1.37, 'roll': 3.06, 'pres': 190}
{'lipoC2': 7.55, 'lipoC3S1': 4.13, 'temp': 30.94, 'lipoC3S3': 12.5, 'lipoC3S2': 8.26, 'rot1': 0, 'rot0': 0, 'rot3': 0, 'rot2': 0, 'state': 'normal', 'yaw': 6.3, 'datetime': '2018-10-09 12:06:17.922645', 'mgs': 0, 'volt': 0.9277, 'depth': 1.996, 'time': 2, 'pitch': 1.53, 'roll': 3.46, 'pres': 190}
{'lipoC2': 7.55, 'lipoC3S1': 4.13, 'temp': 30.94, 'lipoC3S3': 12.5, 'lipoC3S2': 8.26, 'rot1': 0, 'rot0': 0, 'rot3': 0, 'rot2': 0, 'state': 'normal', 'yaw': 6.6, 'datetime': '2018-10-09 12:06:17.940753', 'mgs': 0, 'volt': 0.9229, 'depth': 1.92, 'time': 2, 'pitch': 1.56, 'roll': 3.75, 'pres': 189}
{'lipoC2': 7.54, 'lipoC3S1': 4.12, 'temp': 30.94, 'lipoC3S3': 12.37, 'lipoC3S2': 8.22, 'rot1': 0, 'rot0': 0, 'rot3': 0, 'rot2': 0, 'state': 'normal', 'yaw': 6.79, 'datetime': '2018-10-09 12:06:17.956307', 'mgs': 0, 'volt': 0.9277, 'depth': 1.996, 'time': 3, 'pitch': 1.29, 'roll': 3.92, 'pres': 190}
{'lipoC2': 7.54, 'lipoC3S1': 4.12, 'temp': 30.94, 'lipoC3S3': 12.48, 'lipoC3S2': 8.23, 'rot1': 0, 'rot0': 0, 'rot3': 1, 'rot2': 0, 'state': 'normal', 'yaw': 6.95, 'datetime': '2018-10-09 12:06:17.972014', 'mgs': 0, 'volt': 0.9326, 'depth': 2.072, 'time': 3, 'pitch': 0.88, 'roll': 3.96, 'pres': 191}
{'lipoC2': 7.54, 'lipoC3S1': 4.12, 'temp': 30.94, 'lipoC3S3': 12.41, 'lipoC3S2': 8.23, 'rot1': 0, 'rot0': 0, 'rot3': 2, 'rot2': 1, 'state': 'normal', 'yaw': 7.12, 'datetime': '2018-10-09 12:06:17.987404', 'mgs': 0, 'volt': 0.9277, 'depth': 1.996, 'time': 3, 'pitch': 0.6, 'roll': 3.68, 'pres': 190}
{'lipoC2': 7.54, 'lipoC3S1': 4.12, 'temp': 30.94, 'lipoC3S3': 12.38, 'lipoC3S2': 8.22, 'rot1': 0, 'rot0': 0, 'rot3': 2, 'rot2': 2, 'state': 'normal', 'yaw': 7.32, 'datetime': '2018-10-09 12:06:18.049061', 'mgs': 0, 'volt': 0.9229, 'depth': 1.92, 'time': 3, 'pitch': 0.78, 'roll': 3.13, 'pres': 189}
{'lipoC2': 7.54, 'lipoC3S1': 4.12, 'temp': 30.88, 'lipoC3S3': 12.41, 'lipoC3S2': 8.16, 'rot1': 0, 'rot0': 0, 'rot3': 3, 'rot2': 2, 'state': 'normal', 'yaw': 7.53, 'datetime': '2018-10-09 12:06:18.152258', 'mgs': 0, 'volt': 0.9229, 'depth': 1.92, 'time': 3, 'pitch': 1.37, 'roll': 2.25, 'pres': 189}
{'lipoC2': 7.55, 'lipoC3S1': 4.12, 'temp': 30.88, 'lipoC3S3': 12.42, 'lipoC3S2': 8.17, 'rot1': 0, 'rot0': 0, 'rot3': 4, 'rot2': 3, 'state': 'normal', 'yaw': 7.76, 'datetime': '2018-10-09 12:06:18.255457', 'mgs': 0, 'volt': 0.9229, 'depth': 1.92, 'time': 3, 'pitch': 2.25, 'roll': 1.07, 'pres': 189}
{'lipoC2': 7.55, 'lipoC3S1': 4.11, 'temp': 30.94, 'lipoC3S3': 12.43, 'lipoC3S2': 8.17, 'rot1': 0, 'rot0': 0, 'rot3': 5, 'rot2': 4, 'state': 'normal', 'yaw': 7.97, 'datetime': '2018-10-09 12:06:18.358667', 'mgs': 0, 'volt': 0.9229, 'depth': 1.92, 'time': 3, 'pitch': 2.99, 'roll': 0.02, 'pres': 189}
{'lipoC2': 7.55, 'lipoC3S1': 4.12, 'temp': 30.94, 'lipoC3S3': 12.45, 'lipoC3S2': 8.19, 'rot1': 0, 'rot0': 0, 'rot3': 5, 'rot2': 4, 'state': 'normal', 'yaw': 8.14, 'datetime': '2018-10-09 12:06:18.471602', 'mgs': 0, 'volt': 0.9229, 'depth': 1.92, 'time': 3, 'pitch': 3.55, 'roll': -0.91, 'pres': 189}
{'lipoC2': 7.55, 'lipoC3S1': 4.07, 'temp': 30.94, 'lipoC3S3': 12.47, 'lipoC3S2': 8.2, 'rot1': 0, 'rot0': 0, 'rot3': 6, 'rot2': 5, 'state': 'normal', 'yaw': 8.3, 'datetime': '2018-10-09 12:06:18.568595', 'mgs': 0, 'volt': 0.9229, 'depth': 1.92, 'time': 3, 'pitch': 3.88, 'roll': -1.76, 'pres': 189}
{'lipoC2': 7.55, 'lipoC3S1': 4.08, 'temp': 30.94, 'lipoC3S3': 12.46, 'lipoC3S2': 8.22, 'rot1': 0, 'rot0': 0, 'rot3': 7, 'rot2': 5, 'state': 'normal', 'yaw': 8.42, 'datetime': '2018-10-09 12:06:18.674546', 'mgs': 0, 'volt': 0.9277, 'depth': 1.996, 'time': 3, 'pitch': 3.89, 'roll': -2.32, 'pres': 190}
{'lipoC2': 7.55, 'lipoC3S1': 4.12, 'temp': 30.94, 'lipoC3S3': 12.41, 'lipoC3S2': 8.17, 'rot1': 0, 'rot0': 0, 'rot3': 7, 'rot2': 6, 'state': 'normal', 'yaw': 8.5, 'datetime': '2018-10-09 12:06:18.779030', 'mgs': 0, 'volt': 0.9277, 'depth': 1.996, 'time': 4, 'pitch': 3.68, 'roll': -2.63, 'pres': 190}
{'lipoC2': 7.55, 'lipoC3S1': 4.11, 'temp': 30.94, 'lipoC3S3': 12.43, 'lipoC3S2': 8.18, 'rot1': 0, 'rot0': 0, 'rot3': 8, 'rot2': 7, 'state': 'normal', 'yaw': 8.6, 'datetime': '2018-10-09 12:06:18.882469', 'mgs': 0, 'volt': 0.9277, 'depth': 1.996, 'time': 4, 'pitch': 3.37, 'roll': -2.72, 'pres': 190}
{'lipoC2': 7.55, 'lipoC3S1': 4.07, 'temp': 30.94, 'lipoC3S3': 12.45, 'lipoC3S2': 8.19, 'rot1': 0, 'rot0': 0, 'rot3': 9, 'rot2': 7, 'state': 'normal', 'yaw': 8.67, 'datetime': '2018-10-09 12:06:18.985397', 'mgs': 0, 'volt': 0.9277, 'depth': 1.996, 'time': 4, 'pitch': 3.16, 'roll': -2.65, 'pres': 190}
{'lipoC2': 7.54, 'lipoC3S1': 4.12, 'temp': 30.88, 'lipoC3S3': 12.41, 'lipoC3S2': 8.23, 'rot1': 0, 'rot0': 0, 'rot3': 10, 'rot2': 9, 'state': 'normal', 'yaw': 8.69, 'datetime': '2018-10-09 12:06:19.090165', 'mgs': 0, 'volt': 0.9277, 'depth': 1.996, 'time': 4, 'pitch': 3.1, 'roll': -2.52, 'pres': 190}
{'lipoC2': 7.53, 'lipoC3S1': 4.12, 'temp': 30.88, 'lipoC3S3': 12.45, 'lipoC3S2': 8.23, 'rot1': 0, 'rot0': 0, 'rot3': 10, 'rot2': 10, 'state': 'normal', 'yaw': 8.68, 'datetime': '2018-10-09 12:06:19.193716', 'mgs': 0, 'volt': 0.9424, 'depth': 2.225, 'time': 4, 'pitch': 3.25, 'roll': -2.35, 'pres': 193}
{'lipoC2': 7.54, 'lipoC3S1': 4.1, 'temp': 30.88, 'lipoC3S3': 12.46, 'lipoC3S2': 8.23, 'rot1': 0, 'rot0': 0, 'rot3': 11, 'rot2': 10, 'state': 'normal', 'yaw': 8.67, 'datetime': '2018-10-09 12:06:19.297302', 'mgs': 0, 'volt': 0.9668, 'depth': 2.606, 'time': 4, 'pitch': 3.48, 'roll': -2.03, 'pres': 198}
{'lipoC2': 7.54, 'lipoC3S1': 4.12, 'temp': 30.94, 'lipoC3S3': 12.43, 'lipoC3S2': 8.18, 'rot1': 0, 'rot0': 0, 'rot3': 12, 'rot2': 11, 'state': 'normal', 'yaw': 8.68, 'datetime': '2018-10-09 12:06:19.400768', 'mgs': 0, 'volt': 0.9375, 'depth': 2.148, 'time': 4, 'pitch': 3.66, 'roll': -1.62, 'pres': 192}
{'lipoC2': 7.54, 'lipoC3S1': 4.12, 'temp': 30.94, 'lipoC3S3': 12.39, 'lipoC3S2': 8.23, 'rot1': 0, 'rot0': 0, 'rot3': 13, 'rot2': 11, 'state': 'normal', 'yaw': 8.69, 'datetime': '2018-10-09 12:06:19.504284', 'mgs': 0, 'volt': 0.9375, 'depth': 2.148, 'time': 4, 'pitch': 3.59, 'roll': -1.09, 'pres': 192}
{'lipoC2': 7.55, 'lipoC3S1': 4.1, 'temp': 30.94, 'lipoC3S3': 12.46, 'lipoC3S2': 8.23, 'rot1': 0, 'rot0': 0, 'rot3': 13, 'rot2': 12, 'state': 'normal', 'yaw': 8.69, 'datetime': '2018-10-09 12:06:19.607958', 'mgs': 0, 'volt': 0.9619, 'depth': 2.53, 'time': 4, 'pitch': 3.11, 'roll': -0.57, 'pres': 197}
{'lipoC2': 7.55, 'lipoC3S1': 4.07, 'temp': 30.94, 'lipoC3S3': 12.46, 'lipoC3S2': 8.19, 'rot1': 0, 'rot0': 0, 'rot3': 14, 'rot2': 13, 'state': 'normal', 'yaw': 8.7, 'datetime': '2018-10-09 12:06:19.711525', 'mgs': 0, 'volt': 0.9375, 'depth': 2.148, 'time': 4, 'pitch': 2.35, 'roll': -0.09, 'pres': 192}
{'lipoC2': 7.54, 'lipoC3S1': 4.12, 'temp': 30.94, 'lipoC3S3': 12.39, 'lipoC3S2': 8.22, 'rot1': 0, 'rot0': 0, 'rot3': 15, 'rot2': 13, 'state': 'normal', 'yaw': 8.71, 'datetime': '2018-10-09 12:06:19.814984', 'mgs': 0, 'volt': 0.9229, 'depth': 1.92, 'time': 5, 'pitch': 1.49, 'roll': 0.21, 'pres': 189}
{'lipoC2': 7.54, 'lipoC3S1': 4.12, 'temp': 30.94, 'lipoC3S3': 12.46, 'lipoC3S2': 8.23, 'rot1': 0, 'rot0': 0, 'rot3': 16, 'rot2': 14, 'state': 'normal', 'yaw': 8.7, 'datetime': '2018-10-09 12:06:19.918535', 'mgs': 0, 'volt': 0.9619, 'depth': 2.53, 'time': 5, 'pitch': 0.96, 'roll': 0.27, 'pres': 197}
{'lipoC2': 7.55, 'lipoC3S1': 4.12, 'temp': 30.94, 'lipoC3S3': 12.43, 'lipoC3S2': 8.19, 'rot1': 0, 'rot0': 0, 'rot3': 16, 'rot2': 15, 'state': 'normal', 'yaw': 8.7, 'datetime': '2018-10-09 12:06:20.023211', 'mgs': 0, 'volt': 0.9424, 'depth': 2.225, 'time': 5, 'pitch': 0.77, 'roll': 0.19, 'pres': 193}
{'lipoC2': 7.54, 'lipoC3S1': 4.12, 'temp': 30.94, 'lipoC3S3': 12.37, 'lipoC3S2': 8.23, 'rot1': 0, 'rot0': 0, 'rot3': 17, 'rot2': 15, 'state': 'normal', 'yaw': 8.71, 'datetime': '2018-10-09 12:06:20.126766', 'mgs': 0, 'volt': 0.9424, 'depth': 2.225, 'time': 5, 'pitch': 0.89, 'roll': 0.06, 'pres': 193}
{'lipoC2': 7.55, 'lipoC3S1': 4.13, 'temp': 30.94, 'lipoC3S3': 12.43, 'lipoC3S2': 8.2, 'rot1': 0, 'rot0': 0, 'rot3': 18, 'rot2': 16, 'state': 'normal', 'yaw': 8.71, 'datetime': '2018-10-09 12:06:20.231670', 'mgs': 0, 'volt': 0.9424, 'depth': 2.225, 'time': 5, 'pitch': 1.12, 'roll': -0.02, 'pres': 193}
{'lipoC2': 7.54, 'lipoC3S1': 4.12, 'temp': 30.94, 'lipoC3S3': 12.37, 'lipoC3S2': 8.22, 'rot1': 0, 'rot0': 0, 'rot3': 19, 'rot2': 17, 'state': 'normal', 'yaw': 8.72, 'datetime': '2018-10-09 12:06:20.335209', 'mgs': 0, 'volt': 0.9375, 'depth': 2.148, 'time': 5, 'pitch': 1.28, 'roll': -0.15, 'pres': 192}
{'lipoC2': 7.54, 'lipoC3S1': 4.12, 'temp': 30.94, 'lipoC3S3': 12.45, 'lipoC3S2': 8.23, 'rot1': 0, 'rot0': 0, 'rot3': 19, 'rot2': 17, 'state': 'normal', 'yaw': 8.72, 'datetime': '2018-10-09 12:06:20.439034', 'mgs': 0, 'volt': 0.9619, 'depth': 2.53, 'time': 5, 'pitch': 1.26, 'roll': -0.33, 'pres': 197}
{'lipoC2': 7.54, 'lipoC3S1': 4.12, 'temp': 30.94, 'lipoC3S3': 12.41, 'lipoC3S2': 8.24, 'rot1': 0, 'rot0': 0, 'rot3': 21, 'rot2': 18, 'state': 'normal', 'yaw': 8.72, 'datetime': '2018-10-09 12:06:20.543572', 'mgs': 0, 'volt': 0.9424, 'depth': 2.225, 'time': 5, 'pitch': 1.18, 'roll': -0.62, 'pres': 193}
{'lipoC2': 7.54, 'lipoC3S1': 4.12, 'temp': 30.94, 'lipoC3S3': 12.45, 'lipoC3S2': 8.23, 'rot1': 0, 'rot0': 0, 'rot3': 22, 'rot2': 19, 'state': 'normal', 'yaw': 8.72, 'datetime': '2018-10-09 12:06:20.647121', 'mgs': 0, 'volt': 0.957, 'depth': 2.454, 'time': 5, 'pitch': 1.24, 'roll': -1.02, 'pres': 196}
{'lipoC2': 7.55, 'lipoC3S1': 4.09, 'temp': 30.94, 'lipoC3S3': 12.46, 'lipoC3S2': 8.22, 'rot1': 0, 'rot0': 0, 'rot3': 23, 'rot2': 19, 'state': 'normal', 'yaw': 8.72, 'datetime': '2018-10-09 12:06:20.748915', 'mgs': 0, 'volt': 0.9375, 'depth': 2.148, 'time': 6, 'pitch': 1.42, 'roll': -1.42, 'pres': 192}
{'lipoC2': 7.54, 'lipoC3S1': 4.11, 'temp': 30.94, 'lipoC3S3': 12.43, 'lipoC3S2': 8.18, 'rot1': 0, 'rot0': 0, 'rot3': 23, 'rot2': 20, 'state': 'normal', 'yaw': 8.71, 'datetime': '2018-10-09 12:06:20.854121', 'mgs': 0, 'volt': 0.9424, 'depth': 2.225, 'time': 6, 'pitch': 1.67, 'roll': -1.82, 'pres': 193}
{'lipoC2': 7.54, 'lipoC3S1': 4.12, 'temp': 30.94, 'lipoC3S3': 12.38, 'lipoC3S2': 8.22, 'rot1': 0, 'rot0': 0, 'rot3': 24, 'rot2': 20, 'state': 'normal', 'yaw': 8.71, 'datetime': '2018-10-09 12:06:20.957730', 'mgs': 0, 'volt': 0.9424, 'depth': 2.225, 'time': 6, 'pitch': 1.79, 'roll': -2.17, 'pres': 193}
{'lipoC2': 7.55, 'lipoC3S1': 4.11, 'temp': 30.94, 'lipoC3S3': 12.45, 'lipoC3S2': 8.23, 'rot1': 0, 'rot0': 0, 'rot3': 26, 'rot2': 21, 'state': 'normal', 'yaw': 8.71, 'datetime': '2018-10-09 12:06:21.063072', 'mgs': 0, 'volt': 0.9717, 'depth': 2.682, 'time': 6, 'pitch': 1.7, 'roll': -2.4, 'pres': 199}
{'lipoC2': 7.54, 'lipoC3S1': 4.07, 'temp': 30.94, 'lipoC3S3': 12.48, 'lipoC3S2': 8.2, 'rot1': 0, 'rot0': 0, 'rot3': 27, 'rot2': 22, 'state': 'normal', 'yaw': 8.72, 'datetime': '2018-10-09 12:06:21.159544', 'mgs': 0, 'volt': 0.9473, 'depth': 2.301, 'time': 6, 'pitch': 1.48, 'roll': -2.61, 'pres': 194}
{'lipoC2': 7.54, 'lipoC3S1': 4.12, 'temp': 30.94, 'lipoC3S3': 12.39, 'lipoC3S2': 8.17, 'rot1': 0, 'rot0': 0, 'rot3': 27, 'rot2': 22, 'state': 'normal', 'yaw': 8.73, 'datetime': '2018-10-09 12:06:21.266516', 'mgs': 0, 'volt': 0.9473, 'depth': 2.301, 'time': 6, 'pitch': 1.15, 'roll': -2.79, 'pres': 194}
{'lipoC2': 7.54, 'lipoC3S1': 4.12, 'temp': 30.94, 'lipoC3S3': 12.45, 'lipoC3S2': 8.23, 'rot1': 0, 'rot0': 0, 'rot3': 28, 'rot2': 23, 'state': 'normal', 'yaw': 8.74, 'datetime': '2018-10-09 12:06:21.372186', 'mgs': 0, 'volt': 0.9668, 'depth': 2.606, 'time': 6, 'pitch': 0.89, 'roll': -2.91, 'pres': 198}
{'lipoC2': 7.55, 'lipoC3S1': 4.11, 'temp': 30.94, 'lipoC3S3': 12.45, 'lipoC3S2': 8.23, 'rot1': 0, 'rot0': 0, 'rot3': 29, 'rot2': 24, 'state': 'normal', 'yaw': 8.76, 'datetime': '2018-10-09 12:06:21.476381', 'mgs': 0, 'volt': 0.9717, 'depth': 2.682, 'time': 6, 'pitch': 0.75, 'roll': -2.89, 'pres': 199}
{'lipoC2': 7.55, 'lipoC3S1': 4.07, 'temp': 30.94, 'lipoC3S3': 12.47, 'lipoC3S2': 8.2, 'rot1': 0, 'rot0': 0, 'rot3': 30, 'rot2': 24, 'state': 'normal', 'yaw': 8.76, 'datetime': '2018-10-09 12:06:21.579761', 'mgs': 0, 'volt': 0.9473, 'depth': 2.301, 'time': 6, 'pitch': 0.73, 'roll': -2.72, 'pres': 194}
{'lipoC2': 7.54, 'lipoC3S1': 4.13, 'temp': 30.94, 'lipoC3S3': 12.45, 'lipoC3S2': 8.23, 'rot1': 0, 'rot0': 0, 'rot3': 30, 'rot2': 25, 'state': 'normal', 'yaw': 8.76, 'datetime': '2018-10-09 12:06:21.684531', 'mgs': 0, 'volt': 0.9668, 'depth': 2.606, 'time': 6, 'pitch': 0.75, 'roll': -2.45, 'pres': 198}
{'lipoC2': 7.55, 'lipoC3S1': 4.09, 'temp': 30.94, 'lipoC3S3': 12.46, 'lipoC3S2': 8.22, 'rot1': 0, 'rot0': 0, 'rot3': 31, 'rot2': 26, 'state': 'normal', 'yaw': 8.76, 'datetime': '2018-10-09 12:06:21.788153', 'mgs': 0, 'volt': 0.9521, 'depth': 2.377, 'time': 7, 'pitch': 0.77, 'roll': -2.12, 'pres': 195}
{'lipoC2': 7.54, 'lipoC3S1': 4.12, 'temp': 30.94, 'lipoC3S3': 12.41, 'lipoC3S2': 8.15, 'rot1': 0, 'rot0': 0, 'rot3': 33, 'rot2': 26, 'state': 'normal', 'yaw': 8.76, 'datetime': '2018-10-09 12:06:21.891933', 'mgs': 0, 'volt': 0.9521, 'depth': 2.377, 'time': 7, 'pitch': 0.87, 'roll': -1.83, 'pres': 195}
{'lipoC2': 7.54, 'lipoC3S1': 4.07, 'temp': 30.94, 'lipoC3S3': 12.46, 'lipoC3S2': 8.2, 'rot1': 0, 'rot0': 0, 'rot3': 33, 'rot2': 27, 'state': 'normal', 'yaw': 8.76, 'datetime': '2018-10-09 12:06:21.996580', 'mgs': 0, 'volt': 0.9521, 'depth': 2.377, 'time': 7, 'pitch': 1.03, 'roll': -1.62, 'pres': 195}
{'lipoC2': 7.54, 'lipoC3S1': 4.12, 'temp': 30.94, 'lipoC3S3': 12.41, 'lipoC3S2': 8.18, 'rot1': 0, 'rot0': 0, 'rot3': 34, 'rot2': 27, 'state': 'normal', 'yaw': 8.75, 'datetime': '2018-10-09 12:06:22.100126', 'mgs': 0, 'volt': 0.9521, 'depth': 2.377, 'time': 7, 'pitch': 1.15, 'roll': -1.41, 'pres': 195}
{'lipoC2': 7.54, 'lipoC3S1': 4.12, 'temp': 30.94, 'lipoC3S3': 12.45, 'lipoC3S2': 8.23, 'rot1': 0, 'rot0': 0, 'rot3': 35, 'rot2': 28, 'state': 'normal', 'yaw': 8.76, 'datetime': '2018-10-09 12:06:22.203637', 'mgs': 0, 'volt': 0.9619, 'depth': 2.53, 'time': 7, 'pitch': 1.1, 'roll': -1.21, 'pres': 197}
{'lipoC2': 7.55, 'lipoC3S1': 4.06, 'temp': 30.94, 'lipoC3S3': 12.45, 'lipoC3S2': 8.18, 'rot1': 0, 'rot0': 0, 'rot3': 36, 'rot2': 30, 'state': 'normal', 'yaw': 8.76, 'datetime': '2018-10-09 12:06:22.307388', 'mgs': 0, 'volt': 0.9521, 'depth': 2.377, 'time': 7, 'pitch': 0.86, 'roll': -1.01, 'pres': 195}
{'lipoC2': 7.54, 'lipoC3S1': 4.12, 'temp': 30.94, 'lipoC3S3': 12.39, 'lipoC3S2': 8.22, 'rot1': 0, 'rot0': 0, 'rot3': 36, 'rot2': 30, 'state': 'normal', 'yaw': 8.77, 'datetime': '2018-10-09 12:06:22.410922', 'mgs': 0, 'volt': 0.9521, 'depth': 2.377, 'time': 7, 'pitch': 0.47, 'roll': -0.76, 'pres': 195}
{'lipoC2': 7.54, 'lipoC3S1': 4.12, 'temp': 31.0, 'lipoC3S3': 12.45, 'lipoC3S2': 8.23, 'rot1': 0, 'rot0': 0, 'rot3': 37, 'rot2': 31, 'state': 'normal', 'yaw': 8.77, 'datetime': '2018-10-09 12:06:22.514416', 'mgs': 0, 'volt': 0.9668, 'depth': 2.606, 'time': 7, 'pitch': 0.14, 'roll': -0.51, 'pres': 198}
{'lipoC2': 7.54, 'lipoC3S1': 4.11, 'temp': 31.0, 'lipoC3S3': 12.42, 'lipoC3S2': 8.17, 'rot1': 0, 'rot0': 0, 'rot3': 38, 'rot2': 32, 'state': 'normal', 'yaw': 8.77, 'datetime': '2018-10-09 12:06:22.618197', 'mgs': 0, 'volt': 0.9521, 'depth': 2.377, 'time': 7, 'pitch': -0.01, 'roll': -0.31, 'pres': 195}
{'lipoC2': 7.54, 'lipoC3S1': 4.12, 'temp': 30.94, 'lipoC3S3': 12.37, 'lipoC3S2': 8.22, 'rot1': 0, 'rot0': 0, 'rot3': 39, 'rot2': 32, 'state': 'normal', 'yaw': 8.77, 'datetime': '2018-10-09 12:06:22.721729', 'mgs': 0, 'volt': 0.9521, 'depth': 2.377, 'time': 7, 'pitch': 0.12, 'roll': -0.22, 'pres': 195}
{'lipoC2': 7.55, 'lipoC3S1': 4.11, 'temp': 30.94, 'lipoC3S3': 12.45, 'lipoC3S2': 8.23, 'rot1': 0, 'rot0': 0, 'rot3': 39, 'rot2': 33, 'state': 'normal', 'yaw': 8.78, 'datetime': '2018-10-09 12:06:22.825280', 'mgs': 0, 'volt': 0.9814, 'depth': 2.835, 'time': 8, 'pitch': 0.52, 'roll': -0.25, 'pres': 201}
{'lipoC2': 7.54, 'lipoC3S1': 4.12, 'temp': 30.94, 'lipoC3S3': 12.38, 'lipoC3S2': 8.22, 'rot1': 0, 'rot0': 0, 'rot3': 40, 'rot2': 33, 'state': 'normal', 'yaw': 8.85, 'datetime': '2018-10-09 12:06:22.929217', 'mgs': 0, 'volt': 0.9473, 'depth': 2.301, 'time': 8, 'pitch': 1.06, 'roll': -0.4, 'pres': 194}
{'lipoC2': 7.55, 'lipoC3S1': 4.11, 'temp': 31.0, 'lipoC3S3': 12.45, 'lipoC3S2': 8.23, 'rot1': 0, 'rot0': 0, 'rot3': 41, 'rot2': 34, 'state': 'normal', 'yaw': 8.94, 'datetime': '2018-10-09 12:06:23.032752', 'mgs': 0, 'volt': 0.9717, 'depth': 2.682, 'time': 8, 'pitch': 1.6, 'roll': -0.64, 'pres': 199}
{'lipoC2': 7.54, 'lipoC3S1': 4.12, 'temp': 31.0, 'lipoC3S3': 12.38, 'lipoC3S2': 8.22, 'rot1': 0, 'rot0': 0, 'rot3': 42, 'rot2': 35, 'state': 'normal', 'yaw': 9.01, 'datetime': '2018-10-09 12:06:23.137506', 'mgs': 0, 'volt': 0.9521, 'depth': 2.377, 'time': 8, 'pitch': 1.87, 'roll': -0.84, 'pres': 195}
{'lipoC2': 7.53, 'lipoC3S1': 4.12, 'temp': 30.94, 'lipoC3S3': 12.45, 'lipoC3S2': 8.23, 'rot1': 0, 'rot0': 0, 'rot3': 42, 'rot2': 35, 'state': 'normal', 'yaw': 9.11, 'datetime': '2018-10-09 12:06:23.241155', 'mgs': 0, 'volt': 0.9668, 'depth': 2.606, 'time': 8, 'pitch': 1.82, 'roll': -0.99, 'pres': 198}
{'lipoC2': 7.55, 'lipoC3S1': 4.07, 'temp': 30.94, 'lipoC3S3': 12.46, 'lipoC3S2': 8.21, 'rot1': 0, 'rot0': 0, 'rot3': 43, 'rot2': 36, 'state': 'normal', 'yaw': 9.14, 'datetime': '2018-10-09 12:06:23.344573', 'mgs': 0, 'volt': 0.9521, 'depth': 2.377, 'time': 8, 'pitch': 1.5, 'roll': -1.07, 'pres': 195}
{'lipoC2': 7.54, 'lipoC3S1': 4.1, 'temp': 31.0, 'lipoC3S3': 12.45, 'lipoC3S2': 8.23, 'rot1': 0, 'rot0': 0, 'rot3': 44, 'rot2': 37, 'state': 'normal', 'yaw': 9.15, 'datetime': '2018-10-09 12:06:23.449791', 'mgs': 0, 'volt': 0.9863, 'depth': 2.911, 'time': 8, 'pitch': 1.0, 'roll': -1.08, 'pres': 202}
{'lipoC2': 7.55, 'lipoC3S1': 4.06, 'temp': 31.0, 'lipoC3S3': 12.45, 'lipoC3S2': 8.18, 'rot1': 0, 'rot0': 0, 'rot3': 45, 'rot2': 37, 'state': 'normal', 'yaw': 9.16, 'datetime': '2018-10-09 12:06:23.553191', 'mgs': 0, 'volt': 0.9521, 'depth': 2.377, 'time': 8, 'pitch': 0.52, 'roll': -1.04, 'pres': 195}
{'lipoC2': 7.54, 'lipoC3S1': 4.12, 'temp': 31.0, 'lipoC3S3': 12.37, 'lipoC3S2': 8.22, 'rot1': 0, 'rot0': 0, 'rot3': 45, 'rot2': 38, 'state': 'normal', 'yaw': 9.17, 'datetime': '2018-10-09 12:06:23.656692', 'mgs': 0, 'volt': 0.9424, 'depth': 2.225, 'time': 8, 'pitch': 0.33, 'roll': -1.09, 'pres': 193}
{'lipoC2': 7.55, 'lipoC3S1': 4.09, 'temp': 30.94, 'lipoC3S3': 12.45, 'lipoC3S2': 8.22, 'rot1': 0, 'rot0': 0, 'rot3': 46, 'rot2': 38, 'state': 'normal', 'yaw': 9.17, 'datetime': '2018-10-09 12:06:23.759293', 'mgs': 0, 'volt': 0.9521, 'depth': 2.377, 'time': 9, 'pitch': 0.36, 'roll': -1.24, 'pres': 195}
{'lipoC2': 7.55, 'lipoC3S1': 4.11, 'temp': 30.94, 'lipoC3S3': 12.42, 'lipoC3S2': 8.17, 'rot1': 0, 'rot0': 0, 'rot3': 47, 'rot2': 39, 'state': 'normal', 'yaw': 9.24, 'datetime': '2018-10-09 12:06:23.864073', 'mgs': 0, 'volt': 0.9473, 'depth': 2.301, 'time': 9, 'pitch': 0.57, 'roll': -1.48, 'pres': 194}
{'lipoC2': 7.53, 'lipoC3S1': 4.12, 'temp': 30.94, 'lipoC3S3': 12.45, 'lipoC3S2': 8.22, 'rot1': 0, 'rot0': 0, 'rot3': 47, 'rot2': 40, 'state': 'normal', 'yaw': 9.36, 'datetime': '2018-10-09 12:06:23.967573', 'mgs': 0, 'volt': 0.957, 'depth': 2.454, 'time': 9, 'pitch': 0.77, 'roll': -1.68, 'pres': 196}
{'lipoC2': 7.55, 'lipoC3S1': 4.08, 'temp': 30.94, 'lipoC3S3': 12.45, 'lipoC3S2': 8.21, 'rot1': 0, 'rot0': 0, 'rot3': 48, 'rot2': 40, 'state': 'normal', 'yaw': 9.48, 'datetime': '2018-10-09 12:06:24.071491', 'mgs': 0, 'volt': 0.9473, 'depth': 2.301, 'time': 9, 'pitch': 0.96, 'roll': -1.84, 'pres': 194}
{'lipoC2': 7.54, 'lipoC3S1': 4.11, 'temp': 30.94, 'lipoC3S3': 12.39, 'lipoC3S2': 8.16, 'rot1': 0, 'rot0': 0, 'rot3': 49, 'rot2': 41, 'state': 'normal', 'yaw': 9.59, 'datetime': '2018-10-09 12:06:24.174865', 'mgs': 0, 'volt': 0.9473, 'depth': 2.301, 'time': 9, 'pitch': 1.09, 'roll': -1.85, 'pres': 194}
{'lipoC2': 7.54, 'lipoC3S1': 4.12, 'temp': 31.0, 'lipoC3S3': 12.45, 'lipoC3S2': 8.22, 'rot1': 0, 'rot0': 0, 'rot3': 50, 'rot2': 43, 'state': 'normal', 'yaw': 9.69, 'datetime': '2018-10-09 12:06:24.278319', 'mgs': 0, 'volt': 0.9668, 'depth': 2.606, 'time': 9, 'pitch': 1.23, 'roll': -1.79, 'pres': 198}
{'lipoC2': 7.55, 'lipoC3S1': 4.08, 'temp': 31.0, 'lipoC3S3': 12.45, 'lipoC3S2': 8.2, 'rot1': 0, 'rot0': 0, 'rot3': 50, 'rot2': 43, 'state': 'normal', 'yaw': 9.76, 'datetime': '2018-10-09 12:06:24.382122', 'mgs': 0, 'volt': 0.9473, 'depth': 2.301, 'time': 9, 'pitch': 1.48, 'roll': -1.7, 'pres': 194}
{'lipoC2': 7.54, 'lipoC3S1': 4.11, 'temp': 30.94, 'lipoC3S3': 12.39, 'lipoC3S2': 8.14, 'rot1': 0, 'rot0': 0, 'rot3': 51, 'rot2': 44, 'state': 'normal', 'yaw': 9.84, 'datetime': '2018-10-09 12:06:24.485604', 'mgs': 0, 'volt': 0.9473, 'depth': 2.301, 'time': 9, 'pitch': 1.76, 'roll': -1.61, 'pres': 194}
{'lipoC2': 7.55, 'lipoC3S1': 4.08, 'temp': 30.94, 'lipoC3S3': 12.45, 'lipoC3S2': 8.22, 'rot1': 0, 'rot0': 0, 'rot3': 52, 'rot2': 45, 'state': 'normal', 'yaw': 9.92, 'datetime': '2018-10-09 12:06:24.590653', 'mgs': 0, 'volt': 0.9521, 'depth': 2.377, 'time': 9, 'pitch': 1.99, 'roll': -1.56, 'pres': 195}
{'lipoC2': 7.54, 'lipoC3S1': 4.11, 'temp': 30.94, 'lipoC3S3': 12.42, 'lipoC3S2': 8.17, 'rot1': 0, 'rot0': 0, 'rot3': 53, 'rot2': 45, 'state': 'normal', 'yaw': 10.03, 'datetime': '2018-10-09 12:06:24.693918', 'mgs': 0, 'volt': 0.9473, 'depth': 2.301, 'time': 9, 'pitch': 2.12, 'roll': -1.48, 'pres': 194}
{'lipoC2': 7.54, 'lipoC3S1': 4.12, 'temp': 30.94, 'lipoC3S3': 12.39, 'lipoC3S2': 8.22, 'rot1': 0, 'rot0': 0, 'rot3': 53, 'rot2': 46, 'state': 'normal', 'yaw': 10.21, 'datetime': '2018-10-09 12:06:24.797719', 'mgs': 0, 'volt': 0.9521, 'depth': 2.377, 'time': 10, 'pitch': 1.97, 'roll': -1.33, 'pres': 195}
{'lipoC2': 7.55, 'lipoC3S1': 4.11, 'temp': 31.0, 'lipoC3S3': 12.42, 'lipoC3S2': 8.16, 'rot1': 0, 'rot0': 0, 'rot3': 54, 'rot2': 46, 'state': 'normal', 'yaw': 10.37, 'datetime': '2018-10-09 12:06:24.902834', 'mgs': 0, 'volt': 0.9473, 'depth': 2.301, 'time': 10, 'pitch': 1.6, 'roll': -1.17, 'pres': 194}
{'lipoC2': 7.54, 'lipoC3S1': 4.12, 'temp': 31.0, 'lipoC3S3': 12.43, 'lipoC3S2': 8.23, 'rot1': 0, 'rot0': 0, 'rot3': 55, 'rot2': 47, 'state': 'normal', 'yaw': 10.5, 'datetime': '2018-10-09 12:06:25.006271', 'mgs': 0, 'volt': 0.9668, 'depth': 2.606, 'time': 10, 'pitch': 1.11, 'roll': -0.95, 'pres': 198}
{'lipoC2': 7.54, 'lipoC3S1': 4.08, 'temp': 31.0, 'lipoC3S3': 12.45, 'lipoC3S2': 8.19, 'rot1': 0, 'rot0': 0, 'rot3': 57, 'rot2': 48, 'state': 'normal', 'yaw': 10.63, 'datetime': '2018-10-09 12:06:25.109913', 'mgs': 0, 'volt': 0.9473, 'depth': 2.301, 'time': 10, 'pitch': 0.84, 'roll': -0.7, 'pres': 194}
{'lipoC2': 7.54, 'lipoC3S1': 4.12, 'temp': 30.94, 'lipoC3S3': 12.35, 'lipoC3S2': 8.22, 'rot1': 0, 'rot0': 0, 'rot3': 57, 'rot2': 48, 'state': 'normal', 'yaw': 10.75, 'datetime': '2018-10-09 12:06:25.213544', 'mgs': 0, 'volt': 0.9521, 'depth': 2.377, 'time': 10, 'pitch': 0.91, 'roll': -0.45, 'pres': 195}
{'lipoC2': 7.54, 'lipoC3S1': 4.09, 'temp': 30.94, 'lipoC3S3': 12.45, 'lipoC3S2': 8.22, 'rot1': 0, 'rot0': 0, 'rot3': 58, 'rot2': 49, 'state': 'normal', 'yaw': 10.85, 'datetime': '2018-10-09 12:06:25.317257', 'mgs': 0, 'volt': 0.9814, 'depth': 2.835, 'time': 10, 'pitch': 1.33, 'roll': -0.24, 'pres': 201}
{'lipoC2': 7.54, 'lipoC3S1': 4.11, 'temp': 30.94, 'lipoC3S3': 12.39, 'lipoC3S2': 8.15, 'rot1': 0, 'rot0': 0, 'rot3': 59, 'rot2': 50, 'state': 'normal', 'yaw': 10.93, 'datetime': '2018-10-09 12:06:25.420879', 'mgs': 0, 'volt': 0.9424, 'depth': 2.225, 'time': 10, 'pitch': 1.74, 'roll': -0.1, 'pres': 193}
{'lipoC2': 7.53, 'lipoC3S1': 4.11, 'temp': 30.94, 'lipoC3S3': 12.45, 'lipoC3S2': 8.23, 'rot1': 0, 'rot0': 0, 'rot3': 60, 'rot2': 50, 'state': 'normal', 'yaw': 11.04, 'datetime': '2018-10-09 12:06:25.524532', 'mgs': 0, 'volt': 0.9668, 'depth': 2.606, 'time': 10, 'pitch': 1.97, 'roll': -0.02, 'pres': 198}
{'lipoC2': 7.54, 'lipoC3S1': 4.12, 'temp': 30.94, 'lipoC3S3': 12.43, 'lipoC3S2': 8.17, 'rot1': 0, 'rot0': 0, 'rot3': 60, 'rot2': 51, 'state': 'normal', 'yaw': 11.13, 'datetime': '2018-10-09 12:06:25.628326', 'mgs': 0, 'volt': 0.9424, 'depth': 2.225, 'time': 10, 'pitch': 1.94, 'roll': 0.04, 'pres': 193}
{'lipoC2': 7.54, 'lipoC3S1': 4.09, 'temp': 30.94, 'lipoC3S3': 12.45, 'lipoC3S2': 8.22, 'rot1': 0, 'rot0': 0, 'rot3': 62, 'rot2': 51, 'state': 'normal', 'yaw': 11.18, 'datetime': '2018-10-09 12:06:25.733265', 'mgs': 0, 'volt': 0.9326, 'depth': 2.072, 'time': 10, 'pitch': 1.83, 'roll': 0.04, 'pres': 191}
{'lipoC2': 7.54, 'lipoC3S1': 4.11, 'temp': 30.94, 'lipoC3S3': 12.38, 'lipoC3S2': 8.15, 'rot1': 0, 'rot0': 0, 'rot3': 63, 'rot2': 52, 'state': 'normal', 'yaw': 11.2, 'datetime': '2018-10-09 12:06:25.836875', 'mgs': 0, 'volt': 0.9473, 'depth': 2.301, 'time': 11, 'pitch': 1.81, 'roll': -0.0, 'pres': 194}
{'lipoC2': 7.54, 'lipoC3S1': 4.07, 'temp': 31.0, 'lipoC3S3': 12.45, 'lipoC3S2': 8.2, 'rot1': 0, 'rot0': 0, 'rot3': 64, 'rot2': 53, 'state': 'normal', 'yaw': 11.25, 'datetime': '2018-10-09 12:06:25.941817', 'mgs': 0, 'volt': 0.9424, 'depth': 2.225, 'time': 11, 'pitch': 1.96, 'roll': -0.07, 'pres': 193}
{'lipoC2': 7.54, 'lipoC3S1': 4.11, 'temp': 31.0, 'lipoC3S3': 12.35, 'lipoC3S2': 8.22, 'rot1': 0, 'rot0': 0, 'rot3': 64, 'rot2': 53, 'state': 'normal', 'yaw': 11.35, 'datetime': '2018-10-09 12:06:26.045528', 'mgs': 0, 'volt': 0.9473, 'depth': 2.301, 'time': 11, 'pitch': 2.16, 'roll': -0.17, 'pres': 194}
{'lipoC2': 7.54, 'lipoC3S1': 4.09, 'temp': 30.94, 'lipoC3S3': 12.45, 'lipoC3S2': 8.23, 'rot1': 0, 'rot0': 0, 'rot3': 65, 'rot2': 54, 'state': 'normal', 'yaw': 11.4, 'datetime': '2018-10-09 12:06:26.149232', 'mgs': 0, 'volt': 0.9766, 'depth': 2.759, 'time': 11, 'pitch': 2.24, 'roll': -0.3, 'pres': 200}
{'lipoC2': 7.53, 'lipoC3S1': 4.13, 'temp': 30.94, 'lipoC3S3': 12.43, 'lipoC3S2': 8.22, 'rot1': 0, 'rot0': 0, 'rot3': 67, 'rot2': 55, 'state': 'normal', 'yaw': 11.43, 'datetime': '2018-10-09 12:06:26.254210', 'mgs': 0, 'volt': 0.9619, 'depth': 2.53, 'time': 11, 'pitch': 2.13, 'roll': -0.46, 'pres': 197}
{'lipoC2': 7.55, 'lipoC3S1': 4.07, 'temp': 30.94, 'lipoC3S3': 12.45, 'lipoC3S2': 8.18, 'rot1': 0, 'rot0': 0, 'rot3': 67, 'rot2': 55, 'state': 'normal', 'yaw': 11.44, 'datetime': '2018-10-09 12:06:26.358601', 'mgs': 0, 'volt': 0.9424, 'depth': 2.225, 'time': 11, 'pitch': 1.9, 'roll': -0.67, 'pres': 193}
{'lipoC2': 7.54, 'lipoC3S1': 4.12, 'temp': 30.94, 'lipoC3S3': 12.38, 'lipoC3S2': 8.22, 'rot1': 0, 'rot0': 0, 'rot3': 68, 'rot2': 57, 'state': 'normal', 'yaw': 11.45, 'datetime': '2018-10-09 12:06:26.461760', 'mgs': 0, 'volt': 0.9375, 'depth': 2.148, 'time': 11, 'pitch': 1.74, 'roll': -0.88, 'pres': 192}
{'lipoC2': 7.55, 'lipoC3S1': 4.06, 'temp': 30.94, 'lipoC3S3': 12.45, 'lipoC3S2': 8.18, 'rot1': 0, 'rot0': 0, 'rot3': 69, 'rot2': 57, 'state': 'normal', 'yaw': 11.47, 'datetime': '2018-10-09 12:06:26.565375', 'mgs': 0, 'volt': 0.9375, 'depth': 2.148, 'time': 11, 'pitch': 1.69, 'roll': -1.12, 'pres': 192}
{'lipoC2': 7.54, 'lipoC3S1': 4.12, 'temp': 30.94, 'lipoC3S3': 12.47, 'lipoC3S2': 8.22, 'rot1': 0, 'rot0': 0, 'rot3': 70, 'rot2': 58, 'state': 'normal', 'yaw': 11.56, 'datetime': '2018-10-09 12:06:26.669083', 'mgs': 0, 'volt': 0.9424, 'depth': 2.225, 'time': 11, 'pitch': 1.64, 'roll': -1.42, 'pres': 193}
{'lipoC2': 7.54, 'lipoC3S1': 4.08, 'temp': 30.94, 'lipoC3S3': 12.45, 'lipoC3S2': 8.22, 'rot1': 0, 'rot0': 0, 'rot3': 70, 'rot2': 59, 'state': 'normal', 'yaw': 11.66, 'datetime': '2018-10-09 12:06:26.772738', 'mgs': 0, 'volt': 0.9375, 'depth': 2.148, 'time': 12, 'pitch': 1.44, 'roll': -1.65, 'pres': 192}
{'lipoC2': 7.54, 'lipoC3S1': 4.12, 'temp': 30.94, 'lipoC3S3': 12.45, 'lipoC3S2': 8.23, 'rot1': 0, 'rot0': 0, 'rot3': 71, 'rot2': 59, 'state': 'normal', 'yaw': 11.76, 'datetime': '2018-10-09 12:06:26.876655', 'mgs': 0, 'volt': 0.9424, 'depth': 2.225, 'time': 12, 'pitch': 1.05, 'roll': -1.8, 'pres': 193}
{'lipoC2': 7.54, 'lipoC3S1': 4.08, 'temp': 30.94, 'lipoC3S3': 12.45, 'lipoC3S2': 8.21, 'rot1': 0, 'rot0': 0, 'rot3': 72, 'rot2': 60, 'state': 'normal', 'yaw': 11.8, 'datetime': '2018-10-09 12:06:26.980387', 'mgs': 0, 'volt': 0.9375, 'depth': 2.148, 'time': 12, 'pitch': 0.54, 'roll': -1.84, 'pres': 192}
{'lipoC2': 7.55, 'lipoC3S1': 4.11, 'temp': 30.94, 'lipoC3S3': 12.45, 'lipoC3S2': 8.22, 'rot1': 0, 'rot0': 0, 'rot3': 74, 'rot2': 61, 'state': 'normal', 'yaw': 11.84, 'datetime': '2018-10-09 12:06:27.087457', 'mgs': 0, 'volt': 0.957, 'depth': 2.454, 'time': 12, 'pitch': 0.34, 'roll': -1.81, 'pres': 196}
{'lipoC2': 7.54, 'lipoC3S1': 4.13, 'temp': 30.94, 'lipoC3S3': 12.43, 'lipoC3S2': 8.18, 'rot1': 0, 'rot0': 0, 'rot3': 74, 'rot2': 61, 'state': 'normal', 'yaw': 11.92, 'datetime': '2018-10-09 12:06:27.187020', 'mgs': 0, 'volt': 0.9375, 'depth': 2.148, 'time': 12, 'pitch': 0.72, 'roll': -1.75, 'pres': 192}
{'lipoC2': 7.53, 'lipoC3S1': 4.11, 'temp': 30.94, 'lipoC3S3': 12.43, 'lipoC3S2': 8.22, 'rot1': 0, 'rot0': 0, 'rot3': 75, 'rot2': 62, 'state': 'normal', 'yaw': 11.97, 'datetime': '2018-10-09 12:06:27.292536', 'mgs': 0, 'volt': 0.9473, 'depth': 2.301, 'time': 12, 'pitch': 1.53, 'roll': -1.69, 'pres': 194}
{'lipoC2': 7.54, 'lipoC3S1': 4.07, 'temp': 30.94, 'lipoC3S3': 12.45, 'lipoC3S2': 8.2, 'rot1': 0, 'rot0': 0, 'rot3': 76, 'rot2': 62, 'state': 'normal', 'yaw': 12.09, 'datetime': '2018-10-09 12:06:27.397414', 'mgs': 0, 'volt': 0.9375, 'depth': 2.148, 'time': 12, 'pitch': 2.4, 'roll': -1.7, 'pres': 192}
{'lipoC2': 7.54, 'lipoC3S1': 4.11, 'temp': 30.94, 'lipoC3S3': 12.37, 'lipoC3S2': 8.21, 'rot1': 0, 'rot0': 0, 'rot3': 77, 'rot2': 63, 'state': 'normal', 'yaw': 12.26, 'datetime': '2018-10-09 12:06:27.501017', 'mgs': 0, 'volt': 0.9277, 'depth': 1.996, 'time': 12, 'pitch': 2.93, 'roll': -1.68, 'pres': 190}
{'lipoC2': 7.55, 'lipoC3S1': 4.09, 'temp': 30.94, 'lipoC3S3': 12.45, 'lipoC3S2': 8.23, 'rot1': 0, 'rot0': 0, 'rot3': 77, 'rot2': 64, 'state': 'normal', 'yaw': 12.38, 'datetime': '2018-10-09 12:06:27.605482', 'mgs': 0, 'volt': 0.9619, 'depth': 2.53, 'time': 12, 'pitch': 2.77, 'roll': -1.61, 'pres': 197}
