{'lipoC2': 7.61, 'lipoC3S1': 4.17, 'temp': 29.56, 'lipoC3S3': 12.6, 'lipoC3S2': 8.35, 'rot1': 0, 'rot0': 0, 'rot3': 0, 'rot2': 0, 'state': 'normal', 'yaw': 0.0, 'datetime': '2018-10-10 00:17:56.073344', 'mgs': 0, 'volt': 0.8594, 'depth': 0.928, 'time': 1, 'pitch': 0.45, 'roll': 0.07, 'pres': 176}
{'lipoC2': 7.61, 'lipoC3S1': 4.17, 'temp': 29.56, 'lipoC3S3': 12.6, 'lipoC3S2': 8.35, 'rot1': 0, 'rot0': 0, 'rot3': 0, 'rot2': 0, 'state': 'normal', 'yaw': -1.11, 'datetime': '2018-10-10 00:17:56.099802', 'mgs': 0, 'volt': 0.8545, 'depth': 0.851, 'time': 1, 'pitch': 0.07, 'roll': 0.68, 'pres': 175}
{'lipoC2': 7.61, 'lipoC3S1': 4.17, 'temp': 29.63, 'lipoC3S3': 12.6, 'lipoC3S2': 8.35, 'rot1': 0, 'rot0': 0, 'rot3': 0, 'rot2': 0, 'state': 'normal', 'yaw': -1.95, 'datetime': '2018-10-10 00:17:56.125315', 'mgs': 0, 'volt': 0.8545, 'depth': 0.851, 'time': 1, 'pitch': -0.59, 'roll': 0.87, 'pres': 175}
{'lipoC2': 7.61, 'lipoC3S1': 4.17, 'temp': 29.63, 'lipoC3S3': 12.6, 'lipoC3S2': 8.35, 'rot1': 0, 'rot0': 0, 'rot3': 0, 'rot2': 0, 'state': 'normal', 'yaw': -2.66, 'datetime': '2018-10-10 00:17:56.150146', 'mgs': 0, 'volt': 0.8545, 'depth': 0.851, 'time': 1, 'pitch': -0.93, 'roll': 0.55, 'pres': 175}
{'lipoC2': 7.61, 'lipoC3S1': 4.17, 'temp': 29.63, 'lipoC3S3': 12.6, 'lipoC3S2': 8.35, 'rot1': 0, 'rot0': 0, 'rot3': 0, 'rot2': 0, 'state': 'normal', 'yaw': -3.28, 'datetime': '2018-10-10 00:17:56.171429', 'mgs': 0, 'volt': 0.8545, 'depth': 0.851, 'time': 1, 'pitch': -0.68, 'roll': -0.05, 'pres': 175}
{'lipoC2': 7.61, 'lipoC3S1': 4.17, 'temp': 29.56, 'lipoC3S3': 12.6, 'lipoC3S2': 8.35, 'rot1': 0, 'rot0': 0, 'rot3': 0, 'rot2': 0, 'state': 'normal', 'yaw': -3.94, 'datetime': '2018-10-10 00:17:56.181169', 'mgs': 0, 'volt': 0.8545, 'depth': 0.851, 'time': 1, 'pitch': -0.05, 'roll': -0.31, 'pres': 175}
{'lipoC2': 7.61, 'lipoC3S1': 4.17, 'temp': 29.56, 'lipoC3S3': 12.6, 'lipoC3S2': 8.35, 'rot1': 0, 'rot0': 0, 'rot3': 0, 'rot2': 0, 'state': 'normal', 'yaw': -4.54, 'datetime': '2018-10-10 00:17:56.192173', 'mgs': 0, 'volt': 0.8545, 'depth': 0.851, 'time': 1, 'pitch': 0.44, 'roll': -0.01, 'pres': 175}
{'lipoC2': 7.61, 'lipoC3S1': 4.17, 'temp': 29.56, 'lipoC3S3': 12.6, 'lipoC3S2': 8.35, 'rot1': 0, 'rot0': 0, 'rot3': 0, 'rot2': 0, 'state': 'normal', 'yaw': -4.9, 'datetime': '2018-10-10 00:17:56.201875', 'mgs': 0, 'volt': 0.8545, 'depth': 0.851, 'time': 1, 'pitch': 0.33, 'roll': 0.53, 'pres': 175}
{'lipoC2': 7.61, 'lipoC3S1': 4.17, 'temp': 29.56, 'lipoC3S3': 12.6, 'lipoC3S2': 8.35, 'rot1': 0, 'rot0': 0, 'rot3': 0, 'rot2': 0, 'state': 'normal', 'yaw': -4.78, 'datetime': '2018-10-10 00:17:56.211702', 'mgs': 0, 'volt': 0.8545, 'depth': 0.851, 'time': 2, 'pitch': -0.3, 'roll': 0.89, 'pres': 175}
{'lipoC2': 7.61, 'lipoC3S1': 4.17, 'temp': 29.56, 'lipoC3S3': 12.6, 'lipoC3S2': 8.35, 'rot1': 0, 'rot0': 0, 'rot3': 0, 'rot2': 0, 'state': 'normal', 'yaw': -4.28, 'datetime': '2018-10-10 00:17:56.221199', 'mgs': 0, 'volt': 0.8545, 'depth': 0.851, 'time': 2, 'pitch': -1.03, 'roll': 0.78, 'pres': 175}
{'lipoC2': 7.61, 'lipoC3S1': 4.17, 'temp': 29.56, 'lipoC3S3': 12.6, 'lipoC3S2': 8.35, 'rot1': 0, 'rot0': 0, 'rot3': 0, 'rot2': 0, 'state': 'normal', 'yaw': -3.73, 'datetime': '2018-10-10 00:17:56.230792', 'mgs': 0, 'volt': 0.8545, 'depth': 0.851, 'time': 2, 'pitch': -1.42, 'roll': 0.22, 'pres': 175}
{'lipoC2': 7.61, 'lipoC3S1': 4.17, 'temp': 29.56, 'lipoC3S3': 12.6, 'lipoC3S2': 8.35, 'rot1': 0, 'rot0': 0, 'rot3': 0, 'rot2': 0, 'state': 'normal', 'yaw': -3.41, 'datetime': '2018-10-10 00:17:56.240309', 'mgs': 0, 'volt': 0.8545, 'depth': 0.851, 'time': 2, 'pitch': -1.21, 'roll': -0.49, 'pres': 175}
{'lipoC2': 7.61, 'lipoC3S1': 4.17, 'temp': 29.56, 'lipoC3S3': 12.6, 'lipoC3S2': 8.35, 'rot1': 0, 'rot0': 0, 'rot3': 0, 'rot2': 0, 'state': 'normal', 'yaw': -3.47, 'datetime': '2018-10-10 00:17:56.249930', 'mgs': 0, 'volt': 0.8545, 'depth': 0.851, 'time': 2, 'pitch': -0.65, 'roll': -0.88, 'pres': 175}
{'lipoC2': 7.61, 'lipoC3S1': 4.17, 'temp': 29.56, 'lipoC3S3': 12.6, 'lipoC3S2': 8.35, 'rot1': 0, 'rot0': 0, 'rot3': 0, 'rot2': 0, 'state': 'normal', 'yaw': -3.62, 'datetime': '2018-10-10 00:17:56.259468', 'mgs': 0, 'volt': 0.8545, 'depth': 0.851, 'time': 2, 'pitch': -0.43, 'roll': -0.92, 'pres': 175}
{'lipoC2': 7.61, 'lipoC3S1': 4.17, 'temp': 29.56, 'lipoC3S3': 12.6, 'lipoC3S2': 8.35, 'rot1': 0, 'rot0': 0, 'rot3': 0, 'rot2': 0, 'state': 'normal', 'yaw': -3.81, 'datetime': '2018-10-10 00:17:56.269267', 'mgs': 0, 'volt': 0.8545, 'depth': 0.851, 'time': 2, 'pitch': -0.82, 'roll': -0.61, 'pres': 175}
{'lipoC2': 7.61, 'lipoC3S1': 4.17, 'temp': 29.56, 'lipoC3S3': 12.6, 'lipoC3S2': 8.35, 'rot1': 0, 'rot0': 0, 'rot3': 0, 'rot2': 0, 'state': 'normal', 'yaw': -4.06, 'datetime': '2018-10-10 00:17:56.280603', 'mgs': 0, 'volt': 0.8545, 'depth': 0.851, 'time': 2, 'pitch': -1.35, 'roll': -0.15, 'pres': 175}
{'lipoC2': 7.61, 'lipoC3S1': 4.17, 'temp': 29.56, 'lipoC3S3': 12.6, 'lipoC3S2': 8.35, 'rot1': 0, 'rot0': 0, 'rot3': 0, 'rot2': 0, 'state': 'normal', 'yaw': -4.33, 'datetime': '2018-10-10 00:17:56.290249', 'mgs': 0, 'volt': 0.8545, 'depth': 0.851, 'time': 2, 'pitch': -1.81, 'roll': 0.2, 'pres': 175}
{'lipoC2': 7.61, 'lipoC3S1': 4.17, 'temp': 29.56, 'lipoC3S3': 12.6, 'lipoC3S2': 8.35, 'rot1': 0, 'rot0': 0, 'rot3': 0, 'rot2': 0, 'state': 'normal', 'yaw': -4.71, 'datetime': '2018-10-10 00:17:56.300526', 'mgs': 0, 'volt': 0.8545, 'depth': 0.851, 'time': 3, 'pitch': -2.19, 'roll': 0.25, 'pres': 175}
{'lipoC2': 7.61, 'lipoC3S1': 4.17, 'temp': 29.56, 'lipoC3S3': 12.6, 'lipoC3S2': 8.35, 'rot1': 0, 'rot0': 0, 'rot3': 0, 'rot2': 0, 'state': 'normal', 'yaw': -5.13, 'datetime': '2018-10-10 00:17:56.310089', 'mgs': 0, 'volt': 0.8545, 'depth': 0.851, 'time': 3, 'pitch': -2.27, 'roll': 0.07, 'pres': 175}
{'lipoC2': 7.61, 'lipoC3S1': 4.17, 'temp': 29.5, 'lipoC3S3': 12.6, 'lipoC3S2': 8.35, 'rot1': 0, 'rot0': 0, 'rot3': 0, 'rot2': 0, 'state': 'normal', 'yaw': -5.62, 'datetime': '2018-10-10 00:17:56.319737', 'mgs': 0, 'volt': 0.8545, 'depth': 0.851, 'time': 3, 'pitch': -2.08, 'roll': -0.11, 'pres': 175}
{'lipoC2': 7.61, 'lipoC3S1': 4.17, 'temp': 29.5, 'lipoC3S3': 12.6, 'lipoC3S2': 8.35, 'rot1': 0, 'rot0': 0, 'rot3': 0, 'rot2': 0, 'state': 'normal', 'yaw': -6.16, 'datetime': '2018-10-10 00:17:56.329278', 'mgs': 0, 'volt': 0.8594, 'depth': 0.928, 'time': 3, 'pitch': -1.76, 'roll': -0.06, 'pres': 176}
{'lipoC2': 7.61, 'lipoC3S1': 4.17, 'temp': 29.56, 'lipoC3S3': 12.6, 'lipoC3S2': 8.35, 'rot1': 0, 'rot0': 0, 'rot3': 0, 'rot2': 0, 'state': 'normal', 'yaw': -6.84, 'datetime': '2018-10-10 00:17:56.338910', 'mgs': 0, 'volt': 0.8545, 'depth': 0.851, 'time': 3, 'pitch': -1.7, 'roll': 0.29, 'pres': 175}
{'lipoC2': 7.61, 'lipoC3S1': 4.17, 'temp': 29.56, 'lipoC3S3': 12.6, 'lipoC3S2': 8.35, 'rot1': 0, 'rot0': 0, 'rot3': 0, 'rot2': 0, 'state': 'normal', 'yaw': -7.42, 'datetime': '2018-10-10 00:17:56.395762', 'mgs': 0, 'volt': 0.8545, 'depth': 0.851, 'time': 3, 'pitch': -2.2, 'roll': 0.58, 'pres': 175}
{'lipoC2': 7.61, 'lipoC3S1': 4.17, 'temp': 29.5, 'lipoC3S3': 12.6, 'lipoC3S2': 8.35, 'rot1': 0, 'rot0': 0, 'rot3': 0, 'rot2': 0, 'state': 'normal', 'yaw': -7.88, 'datetime': '2018-10-10 00:17:56.498980', 'mgs': 0, 'volt': 0.8545, 'depth': 0.851, 'time': 3, 'pitch': -2.97, 'roll': 0.62, 'pres': 175}
{'lipoC2': 7.61, 'lipoC3S1': 4.17, 'temp': 29.5, 'lipoC3S3': 12.6, 'lipoC3S2': 8.35, 'rot1': 0, 'rot0': 0, 'rot3': 0, 'rot2': 0, 'state': 'normal', 'yaw': -8.23, 'datetime': '2018-10-10 00:17:56.602201', 'mgs': 0, 'volt': 0.8545, 'depth': 0.851, 'time': 3, 'pitch': -3.71, 'roll': 0.49, 'pres': 175}
{'lipoC2': 7.61, 'lipoC3S1': 4.17, 'temp': 29.5, 'lipoC3S3': 12.6, 'lipoC3S2': 8.35, 'rot1': 0, 'rot0': 0, 'rot3': 0, 'rot2': 0, 'state': 'normal', 'yaw': -8.43, 'datetime': '2018-10-10 00:17:56.705405', 'mgs': 0, 'volt': 0.8545, 'depth': 0.851, 'time': 3, 'pitch': -4.08, 'roll': 0.43, 'pres': 175}
{'lipoC2': 7.61, 'lipoC3S1': 4.17, 'temp': 29.56, 'lipoC3S3': 12.6, 'lipoC3S2': 8.35, 'rot1': 0, 'rot0': 0, 'rot3': 0, 'rot2': 0, 'state': 'normal', 'yaw': -8.51, 'datetime': '2018-10-10 00:17:56.809005', 'mgs': 0, 'volt': 0.8545, 'depth': 0.851, 'time': 3, 'pitch': -4.21, 'roll': 0.53, 'pres': 175}
{'lipoC2': 7.61, 'lipoC3S1': 4.17, 'temp': 29.56, 'lipoC3S3': 12.6, 'lipoC3S2': 8.35, 'rot1': 0, 'rot0': 0, 'rot3': 0, 'rot2': 0, 'state': 'normal', 'yaw': -8.55, 'datetime': '2018-10-10 00:17:56.918530', 'mgs': 0, 'volt': 0.8545, 'depth': 0.851, 'time': 4, 'pitch': -4.29, 'roll': 0.96, 'pres': 175}
{'lipoC2': 7.61, 'lipoC3S1': 4.17, 'temp': 29.56, 'lipoC3S3': 12.6, 'lipoC3S2': 8.35, 'rot1': 0, 'rot0': 0, 'rot3': 0, 'rot2': 0, 'state': 'normal', 'yaw': -8.72, 'datetime': '2018-10-10 00:17:57.022090', 'mgs': 0, 'volt': 0.8545, 'depth': 0.851, 'time': 4, 'pitch': -4.28, 'roll': 1.68, 'pres': 175}
{'lipoC2': 7.61, 'lipoC3S1': 4.17, 'temp': 29.56, 'lipoC3S3': 12.6, 'lipoC3S2': 8.35, 'rot1': 0, 'rot0': 0, 'rot3': 0, 'rot2': 0, 'state': 'normal', 'yaw': -8.75, 'datetime': '2018-10-10 00:17:57.126540', 'mgs': 0, 'volt': 0.8545, 'depth': 0.851, 'time': 4, 'pitch': -4.17, 'roll': 2.36, 'pres': 175}
{'lipoC2': 7.61, 'lipoC3S1': 4.17, 'temp': 29.56, 'lipoC3S3': 12.6, 'lipoC3S2': 8.35, 'rot1': 0, 'rot0': 0, 'rot3': 0, 'rot2': 0, 'state': 'normal', 'yaw': -8.66, 'datetime': '2018-10-10 00:17:57.229743', 'mgs': 0, 'volt': 0.8545, 'depth': 0.851, 'time': 4, 'pitch': -4.0, 'roll': 2.93, 'pres': 175}
{'lipoC2': 7.61, 'lipoC3S1': 4.17, 'temp': 29.56, 'lipoC3S3': 12.6, 'lipoC3S2': 8.35, 'rot1': 0, 'rot0': 0, 'rot3': 0, 'rot2': 0, 'state': 'normal', 'yaw': -8.31, 'datetime': '2018-10-10 00:17:57.333006', 'mgs': 0, 'volt': 0.8545, 'depth': 0.851, 'time': 4, 'pitch': -4.03, 'roll': 3.1, 'pres': 175}
{'lipoC2': 7.61, 'lipoC3S1': 4.17, 'temp': 29.56, 'lipoC3S3': 12.6, 'lipoC3S2': 8.35, 'rot1': 0, 'rot0': 0, 'rot3': 0, 'rot2': 0, 'state': 'normal', 'yaw': -7.68, 'datetime': '2018-10-10 00:17:57.437563', 'mgs': 0, 'volt': 0.8545, 'depth': 0.851, 'time': 4, 'pitch': -4.35, 'roll': 2.84, 'pres': 175}
{'lipoC2': 7.61, 'lipoC3S1': 4.17, 'temp': 29.56, 'lipoC3S3': 12.6, 'lipoC3S2': 8.35, 'rot1': 0, 'rot0': 0, 'rot3': 0, 'rot2': 0, 'state': 'normal', 'yaw': -6.75, 'datetime': '2018-10-10 00:17:57.540674', 'mgs': 0, 'volt': 0.8545, 'depth': 0.851, 'time': 4, 'pitch': -4.92, 'roll': 2.21, 'pres': 175}
{'lipoC2': 7.61, 'lipoC3S1': 4.17, 'temp': 29.56, 'lipoC3S3': 12.6, 'lipoC3S2': 8.35, 'rot1': 0, 'rot0': 0, 'rot3': 0, 'rot2': 0, 'state': 'normal', 'yaw': -5.88, 'datetime': '2018-10-10 00:17:57.644008', 'mgs': 0, 'volt': 0.8594, 'depth': 0.928, 'time': 4, 'pitch': -5.26, 'roll': 1.61, 'pres': 176}
{'lipoC2': 7.61, 'lipoC3S1': 4.17, 'temp': 29.56, 'lipoC3S3': 12.6, 'lipoC3S2': 8.35, 'rot1': 0, 'rot0': 0, 'rot3': 0, 'rot2': 0, 'state': 'normal', 'yaw': -5.11, 'datetime': '2018-10-10 00:17:57.747356', 'mgs': 0, 'volt': 0.8545, 'depth': 0.851, 'time': 4, 'pitch': -5.24, 'roll': 1.03, 'pres': 175}
{'lipoC2': 7.61, 'lipoC3S1': 4.17, 'temp': 29.56, 'lipoC3S3': 12.6, 'lipoC3S2': 8.35, 'rot1': 0, 'rot0': 0, 'rot3': 0, 'rot2': 0, 'state': 'normal', 'yaw': -4.65, 'datetime': '2018-10-10 00:17:57.850359', 'mgs': 0, 'volt': 0.8545, 'depth': 0.851, 'time': 4, 'pitch': -4.72, 'roll': 0.69, 'pres': 175}
{'lipoC2': 7.61, 'lipoC3S1': 4.17, 'temp': 29.56, 'lipoC3S3': 12.6, 'lipoC3S2': 8.35, 'rot1': 0, 'rot0': 0, 'rot3': 0, 'rot2': 0, 'state': 'normal', 'yaw': -4.69, 'datetime': '2018-10-10 00:17:57.953593', 'mgs': 0, 'volt': 0.8545, 'depth': 0.851, 'time': 5, 'pitch': -4.14, 'roll': 0.69, 'pres': 175}
{'lipoC2': 7.61, 'lipoC3S1': 4.17, 'temp': 29.56, 'lipoC3S3': 12.6, 'lipoC3S2': 8.35, 'rot1': 0, 'rot0': 0, 'rot3': 0, 'rot2': 0, 'state': 'normal', 'yaw': -5.02, 'datetime': '2018-10-10 00:17:58.056807', 'mgs': 0, 'volt': 0.8545, 'depth': 0.851, 'time': 5, 'pitch': -3.89, 'roll': 1.07, 'pres': 175}
{'lipoC2': 7.61, 'lipoC3S1': 4.17, 'temp': 29.56, 'lipoC3S3': 12.6, 'lipoC3S2': 8.35, 'rot1': 0, 'rot0': 0, 'rot3': 0, 'rot2': 0, 'state': 'normal', 'yaw': -5.31, 'datetime': '2018-10-10 00:17:58.160226', 'mgs': 0, 'volt': 0.8594, 'depth': 0.928, 'time': 5, 'pitch': -4.24, 'roll': 1.52, 'pres': 176}
{'lipoC2': 7.61, 'lipoC3S1': 4.17, 'temp': 29.56, 'lipoC3S3': 12.6, 'lipoC3S2': 8.35, 'rot1': 0, 'rot0': 0, 'rot3': 0, 'rot2': 0, 'state': 'normal', 'yaw': -5.35, 'datetime': '2018-10-10 00:17:58.263419', 'mgs': 0, 'volt': 0.8545, 'depth': 0.851, 'time': 5, 'pitch': -4.55, 'roll': 1.87, 'pres': 175}
{'lipoC2': 7.61, 'lipoC3S1': 4.17, 'temp': 29.56, 'lipoC3S3': 12.6, 'lipoC3S2': 8.35, 'rot1': 0, 'rot0': 0, 'rot3': 0, 'rot2': 0, 'state': 'normal', 'yaw': -5.19, 'datetime': '2018-10-10 00:17:58.360802', 'mgs': 0, 'volt': 0.8545, 'depth': 0.851, 'time': 5, 'pitch': -4.32, 'roll': 1.95, 'pres': 175}
{'lipoC2': 7.61, 'lipoC3S1': 4.17, 'temp': 29.56, 'lipoC3S3': 12.6, 'lipoC3S2': 8.35, 'rot1': 0, 'rot0': 0, 'rot3': 0, 'rot2': 0, 'state': 'normal', 'yaw': -4.99, 'datetime': '2018-10-10 00:17:58.469864', 'mgs': 0, 'volt': 0.8545, 'depth': 0.851, 'time': 5, 'pitch': -3.78, 'roll': 1.62, 'pres': 175}
{'lipoC2': 7.61, 'lipoC3S1': 4.17, 'temp': 29.56, 'lipoC3S3': 12.6, 'lipoC3S2': 8.35, 'rot1': 0, 'rot0': 0, 'rot3': 0, 'rot2': 0, 'state': 'normal', 'yaw': -4.84, 'datetime': '2018-10-10 00:17:58.573208', 'mgs': 0, 'volt': 0.8545, 'depth': 0.851, 'time': 5, 'pitch': -3.29, 'roll': 0.68, 'pres': 175}
{'lipoC2': 7.61, 'lipoC3S1': 4.17, 'temp': 29.56, 'lipoC3S3': 12.6, 'lipoC3S2': 8.35, 'rot1': 0, 'rot0': 0, 'rot3': 0, 'rot2': 0, 'state': 'normal', 'yaw': -4.87, 'datetime': '2018-10-10 00:17:58.676285', 'mgs': 0, 'volt': 0.8594, 'depth': 0.928, 'time': 5, 'pitch': -3.05, 'roll': -0.25, 'pres': 176}
{'lipoC2': 7.61, 'lipoC3S1': 4.17, 'temp': 29.56, 'lipoC3S3': 12.6, 'lipoC3S2': 8.35, 'rot1': 0, 'rot0': 0, 'rot3': 0, 'rot2': 0, 'state': 'normal', 'yaw': -4.96, 'datetime': '2018-10-10 00:17:58.780699', 'mgs': 0, 'volt': 0.8545, 'depth': 0.851, 'time': 5, 'pitch': -2.79, 'roll': -0.83, 'pres': 175}
{'lipoC2': 7.61, 'lipoC3S1': 4.17, 'temp': 29.56, 'lipoC3S3': 12.6, 'lipoC3S2': 8.35, 'rot1': 0, 'rot0': 0, 'rot3': 0, 'rot2': 0, 'state': 'normal', 'yaw': -5.13, 'datetime': '2018-10-10 00:17:58.883958', 'mgs': 0, 'volt': 0.8545, 'depth': 0.851, 'time': 6, 'pitch': -2.31, 'roll': -0.83, 'pres': 175}
{'lipoC2': 7.61, 'lipoC3S1': 4.17, 'temp': 29.56, 'lipoC3S3': 12.6, 'lipoC3S2': 8.35, 'rot1': 0, 'rot0': 0, 'rot3': 0, 'rot2': 0, 'state': 'normal', 'yaw': -5.29, 'datetime': '2018-10-10 00:17:58.987267', 'mgs': 0, 'volt': 0.8496, 'depth': 0.775, 'time': 6, 'pitch': -1.72, 'roll': -0.24, 'pres': 174}
{'lipoC2': 7.61, 'lipoC3S1': 4.17, 'temp': 29.56, 'lipoC3S3': 12.6, 'lipoC3S2': 8.35, 'rot1': 0, 'rot0': 0, 'rot3': 0, 'rot2': 0, 'state': 'normal', 'yaw': -5.43, 'datetime': '2018-10-10 00:17:59.091727', 'mgs': 0, 'volt': 0.8545, 'depth': 0.851, 'time': 6, 'pitch': -1.18, 'roll': 0.74, 'pres': 175}
{'lipoC2': 7.61, 'lipoC3S1': 4.17, 'temp': 29.56, 'lipoC3S3': 12.6, 'lipoC3S2': 8.35, 'rot1': 0, 'rot0': 0, 'rot3': 0, 'rot2': 0, 'state': 'normal', 'yaw': -5.61, 'datetime': '2018-10-10 00:17:59.195140', 'mgs': 0, 'volt': 0.8545, 'depth': 0.851, 'time': 6, 'pitch': -0.81, 'roll': 1.8, 'pres': 175}
{'lipoC2': 7.61, 'lipoC3S1': 4.17, 'temp': 29.56, 'lipoC3S3': 12.6, 'lipoC3S2': 8.35, 'rot1': 0, 'rot0': 0, 'rot3': 0, 'rot2': 0, 'state': 'normal', 'yaw': -5.77, 'datetime': '2018-10-10 00:17:59.298201', 'mgs': 0, 'volt': 0.8545, 'depth': 0.851, 'time': 6, 'pitch': -0.67, 'roll': 2.48, 'pres': 175}
{'lipoC2': 7.61, 'lipoC3S1': 4.17, 'temp': 29.56, 'lipoC3S3': 12.6, 'lipoC3S2': 8.35, 'rot1': 0, 'rot0': 0, 'rot3': 0, 'rot2': 0, 'state': 'normal', 'yaw': -5.86, 'datetime': '2018-10-10 00:17:59.401268', 'mgs': 0, 'volt': 0.8545, 'depth': 0.851, 'time': 6, 'pitch': -0.57, 'roll': 2.81, 'pres': 175}
{'lipoC2': 7.61, 'lipoC3S1': 4.17, 'temp': 29.56, 'lipoC3S3': 12.6, 'lipoC3S2': 8.35, 'rot1': 0, 'rot0': 0, 'rot3': 0, 'rot2': 0, 'state': 'normal', 'yaw': -5.84, 'datetime': '2018-10-10 00:17:59.504453', 'mgs': 0, 'volt': 0.8545, 'depth': 0.851, 'time': 6, 'pitch': -0.25, 'roll': 2.83, 'pres': 175}
{'lipoC2': 7.61, 'lipoC3S1': 4.17, 'temp': 29.56, 'lipoC3S3': 12.6, 'lipoC3S2': 8.35, 'rot1': 0, 'rot0': 0, 'rot3': 0, 'rot2': 0, 'state': 'normal', 'yaw': -5.93, 'datetime': '2018-10-10 00:17:59.607686', 'mgs': 0, 'volt': 0.8496, 'depth': 0.775, 'time': 6, 'pitch': 0.03, 'roll': 2.86, 'pres': 174}
{'lipoC2': 7.61, 'lipoC3S1': 4.17, 'temp': 29.56, 'lipoC3S3': 12.6, 'lipoC3S2': 8.35, 'rot1': 0, 'rot0': 0, 'rot3': 0, 'rot2': 0, 'state': 'normal', 'yaw': -6.18, 'datetime': '2018-10-10 00:17:59.710921', 'mgs': 0, 'volt': 0.8545, 'depth': 0.851, 'time': 6, 'pitch': -0.13, 'roll': 2.88, 'pres': 175}
{'lipoC2': 7.61, 'lipoC3S1': 4.17, 'temp': 29.56, 'lipoC3S3': 12.6, 'lipoC3S2': 8.35, 'rot1': 0, 'rot0': 0, 'rot3': 0, 'rot2': 0, 'state': 'normal', 'yaw': -6.46, 'datetime': '2018-10-10 00:17:59.814451', 'mgs': 0, 'volt': 0.8545, 'depth': 0.851, 'time': 6, 'pitch': -0.83, 'roll': 2.75, 'pres': 175}
{'lipoC2': 7.61, 'lipoC3S1': 4.17, 'temp': 29.56, 'lipoC3S3': 12.6, 'lipoC3S2': 8.35, 'rot1': 0, 'rot0': 0, 'rot3': 0, 'rot2': 0, 'state': 'normal', 'yaw': -6.69, 'datetime': '2018-10-10 00:17:59.917601', 'mgs': 0, 'volt': 0.8545, 'depth': 0.851, 'time': 7, 'pitch': -1.53, 'roll': 2.54, 'pres': 175}
{'lipoC2': 7.61, 'lipoC3S1': 4.17, 'temp': 29.56, 'lipoC3S3': 12.6, 'lipoC3S2': 8.35, 'rot1': 0, 'rot0': 0, 'rot3': 0, 'rot2': 0, 'state': 'normal', 'yaw': -6.69, 'datetime': '2018-10-10 00:18:00.020852', 'mgs': 0, 'volt': 0.8545, 'depth': 0.851, 'time': 7, 'pitch': -1.83, 'roll': 2.29, 'pres': 175}
{'lipoC2': 7.61, 'lipoC3S1': 4.17, 'temp': 29.56, 'lipoC3S3': 12.6, 'lipoC3S2': 8.35, 'rot1': 0, 'rot0': 0, 'rot3': 0, 'rot2': 0, 'state': 'normal', 'yaw': -6.65, 'datetime': '2018-10-10 00:18:00.124911', 'mgs': 0, 'volt': 0.8496, 'depth': 0.775, 'time': 7, 'pitch': -1.71, 'roll': 2.04, 'pres': 174}
{'lipoC2': 7.61, 'lipoC3S1': 4.17, 'temp': 29.56, 'lipoC3S3': 12.6, 'lipoC3S2': 8.35, 'rot1': 0, 'rot0': 0, 'rot3': 0, 'rot2': 0, 'state': 'normal', 'yaw': -6.8, 'datetime': '2018-10-10 00:18:00.228081', 'mgs': 0, 'volt': 0.8496, 'depth': 0.775, 'time': 7, 'pitch': -1.41, 'roll': 1.94, 'pres': 174}
{'lipoC2': 7.61, 'lipoC3S1': 4.17, 'temp': 29.56, 'lipoC3S3': 12.6, 'lipoC3S2': 8.35, 'rot1': 0, 'rot0': 0, 'rot3': 0, 'rot2': 0, 'state': 'normal', 'yaw': -7.19, 'datetime': '2018-10-10 00:18:00.331433', 'mgs': 0, 'volt': 0.8496, 'depth': 0.775, 'time': 7, 'pitch': -1.35, 'roll': 2.02, 'pres': 174}
{'lipoC2': 7.61, 'lipoC3S1': 4.17, 'temp': 29.56, 'lipoC3S3': 12.6, 'lipoC3S2': 8.35, 'rot1': 0, 'rot0': 0, 'rot3': 0, 'rot2': 0, 'state': 'normal', 'yaw': -7.68, 'datetime': '2018-10-10 00:18:00.435682', 'mgs': 0, 'volt': 0.8496, 'depth': 0.775, 'time': 7, 'pitch': -1.41, 'roll': 2.32, 'pres': 174}
{'lipoC2': 7.61, 'lipoC3S1': 4.17, 'temp': 29.56, 'lipoC3S3': 12.6, 'lipoC3S2': 8.35, 'rot1': 0, 'rot0': 0, 'rot3': 0, 'rot2': 0, 'state': 'normal', 'yaw': -7.91, 'datetime': '2018-10-10 00:18:00.538911', 'mgs': 1, 'volt': 0.8496, 'depth': 0.775, 'time': 7, 'pitch': -1.8, 'roll': 2.48, 'pres': 174}
{'lipoC2': 7.61, 'lipoC3S1': 4.17, 'temp': 29.56, 'lipoC3S3': 12.6, 'lipoC3S2': 8.35, 'rot1': 0, 'rot0': 0, 'rot3': 0, 'rot2': 0, 'state': 'normal', 'yaw': -0.01, 'datetime': '2018-10-10 00:18:05.081216', 'mgs': 1, 'volt': 0.8545, 'depth': 0.851, 'time': 1, 'pitch': -5.97, 'roll': 1.54, 'pres': 175}
{'lipoC2': 7.61, 'lipoC3S1': 4.17, 'temp': 29.56, 'lipoC3S3': 12.6, 'lipoC3S2': 8.35, 'rot1': 0, 'rot0': 0, 'rot3': 0, 'rot2': 0, 'state': 'normal', 'yaw': -0.13, 'datetime': '2018-10-10 00:18:08.129312', 'mgs': 0, 'volt': 0.8496, 'depth': 0.775, 'time': 1, 'pitch': -6.09, 'roll': 1.64, 'pres': 174}
{'lipoC2': 7.61, 'lipoC3S1': 4.17, 'temp': 29.56, 'lipoC3S3': 12.6, 'lipoC3S2': 8.35, 'rot1': 0, 'rot0': 0, 'rot3': 0, 'rot2': 0, 'state': 'normal', 'yaw': -0.25, 'datetime': '2018-10-10 00:18:08.158632', 'mgs': 0, 'volt': 0.8496, 'depth': 0.775, 'time': 1, 'pitch': -6.11, 'roll': 1.51, 'pres': 174}
{'lipoC2': 7.61, 'lipoC3S1': 4.17, 'temp': 29.56, 'lipoC3S3': 12.6, 'lipoC3S2': 8.35, 'rot1': 0, 'rot0': 0, 'rot3': 0, 'rot2': 0, 'state': 'normal', 'yaw': -0.36, 'datetime': '2018-10-10 00:18:08.178603', 'mgs': 0, 'volt': 0.8545, 'depth': 0.851, 'time': 1, 'pitch': -6.11, 'roll': 1.17, 'pres': 175}
{'lipoC2': 7.61, 'lipoC3S1': 4.17, 'temp': 29.56, 'lipoC3S3': 12.6, 'lipoC3S2': 8.35, 'rot1': 0, 'rot0': 0, 'rot3': 0, 'rot2': 0, 'state': 'normal', 'yaw': -0.6, 'datetime': '2018-10-10 00:18:08.196668', 'mgs': 1, 'volt': 0.8545, 'depth': 0.851, 'time': 1, 'pitch': -6.15, 'roll': 0.86, 'pres': 175}
{'lipoC2': 7.61, 'lipoC3S1': 4.17, 'temp': 29.56, 'lipoC3S3': 12.6, 'lipoC3S2': 8.35, 'rot1': 0, 'rot0': 0, 'rot3': 0, 'rot2': 0, 'state': 'normal', 'yaw': -1.17, 'datetime': '2018-10-10 00:18:08.212723', 'mgs': 1, 'volt': 0.8496, 'depth': 0.775, 'time': 1, 'pitch': -6.27, 'roll': 0.93, 'pres': 174}
{'lipoC2': 7.61, 'lipoC3S1': 4.17, 'temp': 29.56, 'lipoC3S3': 12.6, 'lipoC3S2': 8.35, 'rot1': 0, 'rot0': 0, 'rot3': 0, 'rot2': 0, 'state': 'normal', 'yaw': -1.84, 'datetime': '2018-10-10 00:18:08.225994', 'mgs': 0, 'volt': 0.8545, 'depth': 0.851, 'time': 1, 'pitch': -6.33, 'roll': 1.37, 'pres': 175}
{'lipoC2': 7.61, 'lipoC3S1': 4.17, 'temp': 29.56, 'lipoC3S3': 12.62, 'lipoC3S2': 8.35, 'rot1': 0, 'rot0': 0, 'rot3': 0, 'rot2': 0, 'state': 'normal', 'yaw': -2.42, 'datetime': '2018-10-10 00:18:08.245075', 'mgs': 1, 'volt': 0.8545, 'depth': 0.851, 'time': 1, 'pitch': -6.29, 'roll': 1.97, 'pres': 175}
{'lipoC2': 7.61, 'lipoC3S1': 4.17, 'temp': 29.56, 'lipoC3S3': 12.6, 'lipoC3S2': 8.36, 'rot1': 0, 'rot0': 0, 'rot3': 0, 'rot2': 0, 'state': 'normal', 'yaw': -2.82, 'datetime': '2018-10-10 00:18:08.264199', 'mgs': 0, 'volt': 0.8545, 'depth': 0.851, 'time': 2, 'pitch': -6.18, 'roll': 2.52, 'pres': 175}
{'lipoC2': 7.61, 'lipoC3S1': 4.17, 'temp': 29.56, 'lipoC3S3': 12.6, 'lipoC3S2': 8.35, 'rot1': 0, 'rot0': 0, 'rot3': 0, 'rot2': 0, 'state': 'normal', 'yaw': -3.01, 'datetime': '2018-10-10 00:18:08.277378', 'mgs': 0, 'volt': 0.8545, 'depth': 0.851, 'time': 2, 'pitch': -6.16, 'roll': 2.8, 'pres': 175}
{'lipoC2': 7.61, 'lipoC3S1': 4.17, 'temp': 29.56, 'lipoC3S3': 12.62, 'lipoC3S2': 8.36, 'rot1': 0, 'rot0': 0, 'rot3': 0, 'rot2': 0, 'state': 'normal', 'yaw': -3.11, 'datetime': '2018-10-10 00:18:08.296195', 'mgs': 0, 'volt': 0.8594, 'depth': 0.928, 'time': 2, 'pitch': -6.07, 'roll': 2.84, 'pres': 176}
{'lipoC2': 7.61, 'lipoC3S1': 4.17, 'temp': 29.56, 'lipoC3S3': 12.6, 'lipoC3S2': 8.36, 'rot1': 0, 'rot0': 0, 'rot3': 0, 'rot2': 0, 'state': 'normal', 'yaw': -3.18, 'datetime': '2018-10-10 00:18:08.312491', 'mgs': 0, 'volt': 0.8594, 'depth': 0.928, 'time': 2, 'pitch': -5.71, 'roll': 2.73, 'pres': 176}
{'lipoC2': 7.61, 'lipoC3S1': 4.17, 'temp': 29.56, 'lipoC3S3': 12.6, 'lipoC3S2': 8.35, 'rot1': 0, 'rot0': 0, 'rot3': 0, 'rot2': 0, 'state': 'normal', 'yaw': -3.24, 'datetime': '2018-10-10 00:18:08.325752', 'mgs': 0, 'volt': 0.8594, 'depth': 0.928, 'time': 2, 'pitch': -5.36, 'roll': 2.49, 'pres': 176}
{'lipoC2': 7.61, 'lipoC3S1': 4.17, 'temp': 29.56, 'lipoC3S3': 12.6, 'lipoC3S2': 8.35, 'rot1': 0, 'rot0': 0, 'rot3': 0, 'rot2': 0, 'state': 'normal', 'yaw': -3.4, 'datetime': '2018-10-10 00:18:08.344967', 'mgs': 0, 'volt': 0.8594, 'depth': 0.928, 'time': 2, 'pitch': -4.95, 'roll': 2.33, 'pres': 176}
{'lipoC2': 7.61, 'lipoC3S1': 4.17, 'temp': 29.56, 'lipoC3S3': 12.6, 'lipoC3S2': 8.35, 'rot1': 0, 'rot0': 0, 'rot3': 0, 'rot2': 0, 'state': 'normal', 'yaw': -3.44, 'datetime': '2018-10-10 00:18:08.364206', 'mgs': 0, 'volt': 0.8594, 'depth': 0.928, 'time': 2, 'pitch': -4.54, 'roll': 2.21, 'pres': 176}
{'lipoC2': 7.61, 'lipoC3S1': 4.17, 'temp': 29.56, 'lipoC3S3': 12.6, 'lipoC3S2': 8.35, 'rot1': 0, 'rot0': 0, 'rot3': 0, 'rot2': 0, 'state': 'normal', 'yaw': -3.1, 'datetime': '2018-10-10 00:18:08.377492', 'mgs': 0, 'volt': 0.8594, 'depth': 0.928, 'time': 2, 'pitch': -4.27, 'roll': 1.87, 'pres': 176}
{'lipoC2': 7.61, 'lipoC3S1': 4.17, 'temp': 29.56, 'lipoC3S3': 12.6, 'lipoC3S2': 8.35, 'rot1': 0, 'rot0': 0, 'rot3': 0, 'rot2': 0, 'state': 'normal', 'yaw': -2.77, 'datetime': '2018-10-10 00:18:08.396199', 'mgs': 0, 'volt': 0.8545, 'depth': 0.851, 'time': 2, 'pitch': -4.2, 'roll': 1.68, 'pres': 175}
{'lipoC2': 7.61, 'lipoC3S1': 4.17, 'temp': 29.56, 'lipoC3S3': 12.62, 'lipoC3S2': 8.35, 'rot1': 0, 'rot0': 0, 'rot3': 0, 'rot2': 0, 'state': 'normal', 'yaw': -2.43, 'datetime': '2018-10-10 00:18:08.415804', 'mgs': 0, 'volt': 0.8545, 'depth': 0.851, 'time': 3, 'pitch': -4.38, 'roll': 1.48, 'pres': 175}
{'lipoC2': 7.61, 'lipoC3S1': 4.17, 'temp': 29.56, 'lipoC3S3': 12.6, 'lipoC3S2': 8.35, 'rot1': 0, 'rot0': 0, 'rot3': 0, 'rot2': 0, 'state': 'normal', 'yaw': -1.87, 'datetime': '2018-10-10 00:18:08.429094', 'mgs': 0, 'volt': 0.8594, 'depth': 0.928, 'time': 3, 'pitch': -4.63, 'roll': 0.88, 'pres': 176}
{'lipoC2': 7.61, 'lipoC3S1': 4.17, 'temp': 29.56, 'lipoC3S3': 12.62, 'lipoC3S2': 8.36, 'rot1': 0, 'rot0': 0, 'rot3': 0, 'rot2': 0, 'state': 'normal', 'yaw': -1.15, 'datetime': '2018-10-10 00:18:08.448449', 'mgs': 0, 'volt': 0.8545, 'depth': 0.851, 'time': 3, 'pitch': -4.8, 'roll': 0.06, 'pres': 175}
{'lipoC2': 7.61, 'lipoC3S1': 4.17, 'temp': 29.56, 'lipoC3S3': 12.6, 'lipoC3S2': 8.36, 'rot1': 0, 'rot0': 0, 'rot3': 0, 'rot2': 0, 'state': 'normal', 'yaw': -0.49, 'datetime': '2018-10-10 00:18:08.467651', 'mgs': 0, 'volt': 0.8545, 'depth': 0.851, 'time': 3, 'pitch': -4.87, 'roll': -0.54, 'pres': 175}
{'lipoC2': 7.61, 'lipoC3S1': 4.17, 'temp': 29.56, 'lipoC3S3': 12.6, 'lipoC3S2': 8.35, 'rot1': 0, 'rot0': 0, 'rot3': 0, 'rot2': 0, 'state': 'normal', 'yaw': 0.05, 'datetime': '2018-10-10 00:18:08.480922', 'mgs': 0, 'volt': 0.8545, 'depth': 0.851, 'time': 3, 'pitch': -4.79, 'roll': -0.63, 'pres': 175}
{'lipoC2': 7.61, 'lipoC3S1': 4.17, 'temp': 29.56, 'lipoC3S3': 12.6, 'lipoC3S2': 8.35, 'rot1': 0, 'rot0': 0, 'rot3': 0, 'rot2': 0, 'state': 'normal', 'yaw': 0.42, 'datetime': '2018-10-10 00:18:08.501421', 'mgs': 0, 'volt': 0.8496, 'depth': 0.775, 'time': 3, 'pitch': -4.63, 'roll': -0.13, 'pres': 174}
{'lipoC2': 7.61, 'lipoC3S1': 4.17, 'temp': 29.56, 'lipoC3S3': 12.6, 'lipoC3S2': 8.35, 'rot1': 0, 'rot0': 0, 'rot3': 0, 'rot2': 0, 'state': 'normal', 'yaw': 0.61, 'datetime': '2018-10-10 00:18:08.521067', 'mgs': 0, 'volt': 0.8496, 'depth': 0.775, 'time': 3, 'pitch': -4.53, 'roll': 0.71, 'pres': 174}
{'lipoC2': 7.61, 'lipoC3S1': 4.17, 'temp': 29.56, 'lipoC3S3': 12.6, 'lipoC3S2': 8.35, 'rot1': 0, 'rot0': 0, 'rot3': 0, 'rot2': 0, 'state': 'normal', 'yaw': 0.92, 'datetime': '2018-10-10 00:18:08.534291', 'mgs': 0, 'volt': 0.8496, 'depth': 0.775, 'time': 3, 'pitch': -4.44, 'roll': 1.61, 'pres': 174}
{'lipoC2': 7.61, 'lipoC3S1': 4.17, 'temp': 29.56, 'lipoC3S3': 12.6, 'lipoC3S2': 8.35, 'rot1': 0, 'rot0': 0, 'rot3': 0, 'rot2': 0, 'state': 'normal', 'yaw': 1.43, 'datetime': '2018-10-10 00:18:08.553409', 'mgs': 0, 'volt': 0.8447, 'depth': 0.699, 'time': 3, 'pitch': -4.41, 'roll': 2.24, 'pres': 173}
{'lipoC2': 7.61, 'lipoC3S1': 4.17, 'temp': 29.5, 'lipoC3S3': 12.6, 'lipoC3S2': 8.35, 'rot1': 0, 'rot0': 0, 'rot3': 0, 'rot2': 0, 'state': 'normal', 'yaw': 2.12, 'datetime': '2018-10-10 00:18:08.572501', 'mgs': 0, 'volt': 0.8447, 'depth': 0.699, 'time': 3, 'pitch': -4.61, 'roll': 2.38, 'pres': 173}
{'lipoC2': 7.61, 'lipoC3S1': 4.17, 'temp': 29.5, 'lipoC3S3': 12.6, 'lipoC3S2': 8.36, 'rot1': 0, 'rot0': 0, 'rot3': 0, 'rot2': 0, 'state': 'normal', 'yaw': 2.7, 'datetime': '2018-10-10 00:18:08.585640', 'mgs': 0, 'volt': 0.8447, 'depth': 0.699, 'time': 4, 'pitch': -5.08, 'roll': 1.96, 'pres': 173}
{'lipoC2': 7.61, 'lipoC3S1': 4.17, 'temp': 29.5, 'lipoC3S3': 12.6, 'lipoC3S2': 8.35, 'rot1': 0, 'rot0': 0, 'rot3': 0, 'rot2': 0, 'state': 'normal', 'yaw': 3.26, 'datetime': '2018-10-10 00:18:08.605626', 'mgs': 0, 'volt': 0.8447, 'depth': 0.699, 'time': 4, 'pitch': -5.71, 'roll': 1.17, 'pres': 173}
{'lipoC2': 7.61, 'lipoC3S1': 4.17, 'temp': 29.5, 'lipoC3S3': 12.6, 'lipoC3S2': 8.36, 'rot1': 0, 'rot0': 0, 'rot3': 0, 'rot2': 0, 'state': 'normal', 'yaw': 3.81, 'datetime': '2018-10-10 00:18:08.621727', 'mgs': 0, 'volt': 0.8447, 'depth': 0.699, 'time': 4, 'pitch': -6.16, 'roll': 0.3, 'pres': 173}
{'lipoC2': 7.61, 'lipoC3S1': 4.17, 'temp': 29.5, 'lipoC3S3': 12.6, 'lipoC3S2': 8.35, 'rot1': 0, 'rot0': 0, 'rot3': 0, 'rot2': 0, 'state': 'normal', 'yaw': 4.12, 'datetime': '2018-10-10 00:18:08.634830', 'mgs': 0, 'volt': 0.8447, 'depth': 0.699, 'time': 4, 'pitch': -6.1, 'roll': -0.1, 'pres': 173}
{'lipoC2': 7.61, 'lipoC3S1': 4.17, 'temp': 29.56, 'lipoC3S3': 12.6, 'lipoC3S2': 8.35, 'rot1': 0, 'rot0': 0, 'rot3': 0, 'rot2': 0, 'state': 'normal', 'yaw': 4.22, 'datetime': '2018-10-10 00:18:08.653959', 'mgs': 0, 'volt': 0.8398, 'depth': 0.623, 'time': 4, 'pitch': -5.71, 'roll': -0.03, 'pres': 172}
{'lipoC2': 7.59, 'lipoC3S1': 4.1, 'temp': 29.56, 'lipoC3S3': 12.48, 'lipoC3S2': 8.28, 'rot1': 0, 'rot0': 0, 'rot3': 1, 'rot2': 1, 'state': 'normal', 'yaw': 4.02, 'datetime': '2018-10-10 00:18:08.673007', 'mgs': 0, 'volt': 0.874, 'depth': 1.157, 'time': 4, 'pitch': -5.18, 'roll': 0.41, 'pres': 179}
{'lipoC2': 7.59, 'lipoC3S1': 4.11, 'temp': 29.56, 'lipoC3S3': 12.5, 'lipoC3S2': 8.27, 'rot1': 0, 'rot0': 0, 'rot3': 2, 'rot2': 2, 'state': 'normal', 'yaw': 3.66, 'datetime': '2018-10-10 00:18:08.686307', 'mgs': 0, 'volt': 0.8398, 'depth': 0.623, 'time': 4, 'pitch': -4.57, 'roll': 0.94, 'pres': 172}
{'lipoC2': 7.59, 'lipoC3S1': 4.13, 'temp': 29.56, 'lipoC3S3': 12.54, 'lipoC3S2': 8.33, 'rot1': 0, 'rot0': 0, 'rot3': 4, 'rot2': 3, 'state': 'normal', 'yaw': 3.45, 'datetime': '2018-10-10 00:18:08.704837', 'mgs': 0, 'volt': 0.8594, 'depth': 0.928, 'time': 4, 'pitch': -4.09, 'roll': 1.01, 'pres': 176}
{'lipoC2': 7.59, 'lipoC3S1': 4.14, 'temp': 29.5, 'lipoC3S3': 12.5, 'lipoC3S2': 8.27, 'rot1': 0, 'rot0': 0, 'rot3': 5, 'rot2': 4, 'state': 'normal', 'yaw': 3.38, 'datetime': '2018-10-10 00:18:08.722192', 'mgs': 0, 'volt': 0.8398, 'depth': 0.623, 'time': 4, 'pitch': -3.74, 'roll': 0.8, 'pres': 172}
{'lipoC2': 7.59, 'lipoC3S1': 4.12, 'temp': 29.5, 'lipoC3S3': 12.54, 'lipoC3S2': 8.31, 'rot1': 0, 'rot0': 0, 'rot3': 7, 'rot2': 6, 'state': 'normal', 'yaw': 3.25, 'datetime': '2018-10-10 00:18:08.735309', 'mgs': 0, 'volt': 0.8691, 'depth': 1.08, 'time': 4, 'pitch': -3.61, 'roll': 0.73, 'pres': 178}
{'lipoC2': 7.61, 'lipoC3S1': 4.14, 'temp': 29.5, 'lipoC3S3': 12.5, 'lipoC3S2': 8.27, 'rot1': 0, 'rot0': 0, 'rot3': 8, 'rot2': 7, 'state': 'normal', 'yaw': 3.21, 'datetime': '2018-10-10 00:18:08.754398', 'mgs': 0, 'volt': 0.8398, 'depth': 0.623, 'time': 5, 'pitch': -3.74, 'roll': 1.06, 'pres': 172}
{'lipoC2': 7.59, 'lipoC3S1': 4.12, 'temp': 29.5, 'lipoC3S3': 12.54, 'lipoC3S2': 8.31, 'rot1': 0, 'rot0': 0, 'rot3': 9, 'rot2': 8, 'state': 'normal', 'yaw': 3.31, 'datetime': '2018-10-10 00:18:08.773458', 'mgs': 0, 'volt': 0.8643, 'depth': 1.004, 'time': 5, 'pitch': -4.08, 'roll': 1.51, 'pres': 177}
{'lipoC2': 7.61, 'lipoC3S1': 4.11, 'temp': 29.5, 'lipoC3S3': 12.52, 'lipoC3S2': 8.28, 'rot1': 0, 'rot0': 0, 'rot3': 10, 'rot2': 9, 'state': 'normal', 'yaw': 3.48, 'datetime': '2018-10-10 00:18:08.786695', 'mgs': 0, 'volt': 0.8447, 'depth': 0.699, 'time': 5, 'pitch': -4.31, 'roll': 1.76, 'pres': 173}
{'lipoC2': 7.61, 'lipoC3S1': 4.12, 'temp': 29.5, 'lipoC3S3': 12.56, 'lipoC3S2': 8.3, 'rot1': 0, 'rot0': 0, 'rot3': 12, 'rot2': 11, 'state': 'normal', 'yaw': 3.72, 'datetime': '2018-10-10 00:18:08.805406', 'mgs': 0, 'volt': 0.8643, 'depth': 1.004, 'time': 5, 'pitch': -4.12, 'roll': 1.66, 'pres': 177}
{'lipoC2': 7.61, 'lipoC3S1': 4.12, 'temp': 29.5, 'lipoC3S3': 12.54, 'lipoC3S2': 8.29, 'rot1': 0, 'rot0': 0, 'rot3': 13, 'rot2': 12, 'state': 'normal', 'yaw': 3.98, 'datetime': '2018-10-10 00:18:08.823271', 'mgs': 0, 'volt': 0.8594, 'depth': 0.928, 'time': 5, 'pitch': -3.63, 'roll': 1.24, 'pres': 176}
{'lipoC2': 7.61, 'lipoC3S1': 4.12, 'temp': 29.56, 'lipoC3S3': 12.55, 'lipoC3S2': 8.3, 'rot1': 0, 'rot0': 0, 'rot3': 14, 'rot2': 13, 'state': 'normal', 'yaw': 4.23, 'datetime': '2018-10-10 00:18:08.836655', 'mgs': 0, 'volt': 0.8643, 'depth': 1.004, 'time': 5, 'pitch': -3.1, 'roll': 0.57, 'pres': 177}
{'lipoC2': 7.59, 'lipoC3S1': 4.13, 'temp': 29.56, 'lipoC3S3': 12.52, 'lipoC3S2': 8.31, 'rot1': 0, 'rot0': 0, 'rot3': 16, 'rot2': 14, 'state': 'normal', 'yaw': 4.3, 'datetime': '2018-10-10 00:18:08.855851', 'mgs': 0, 'volt': 0.8594, 'depth': 0.928, 'time': 5, 'pitch': -2.9, 'roll': -0.02, 'pres': 176}
{'lipoC2': 7.61, 'lipoC3S1': 4.12, 'temp': 29.56, 'lipoC3S3': 12.54, 'lipoC3S2': 8.3, 'rot1': 0, 'rot0': 0, 'rot3': 17, 'rot2': 15, 'state': 'normal', 'yaw': 4.28, 'datetime': '2018-10-10 00:18:08.874977', 'mgs': 0, 'volt': 0.8691, 'depth': 1.08, 'time': 5, 'pitch': -3.01, 'roll': -0.34, 'pres': 178}
{'lipoC2': 7.59, 'lipoC3S1': 4.12, 'temp': 29.56, 'lipoC3S3': 12.54, 'lipoC3S2': 8.3, 'rot1': 0, 'rot0': 0, 'rot3': 18, 'rot2': 16, 'state': 'normal', 'yaw': 4.01, 'datetime': '2018-10-10 00:18:08.888255', 'mgs': 0, 'volt': 0.8691, 'depth': 1.08, 'time': 5, 'pitch': -3.21, 'roll': -0.08, 'pres': 178}
{'lipoC2': 7.59, 'lipoC3S1': 4.14, 'temp': 29.56, 'lipoC3S3': 12.47, 'lipoC3S2': 8.31, 'rot1': 0, 'rot0': 0, 'rot3': 20, 'rot2': 17, 'state': 'normal', 'yaw': 3.6, 'datetime': '2018-10-10 00:18:08.908327', 'mgs': 0, 'volt': 0.8643, 'depth': 1.004, 'time': 5, 'pitch': -3.14, 'roll': 0.62, 'pres': 177}
{'lipoC2': 7.59, 'lipoC3S1': 4.12, 'temp': 29.56, 'lipoC3S3': 12.52, 'lipoC3S2': 8.31, 'rot1': 0, 'rot0': 0, 'rot3': 21, 'rot2': 18, 'state': 'normal', 'yaw': 3.23, 'datetime': '2018-10-10 00:18:08.928412', 'mgs': 0, 'volt': 0.8691, 'depth': 1.08, 'time': 6, 'pitch': -2.7, 'roll': 1.42, 'pres': 178}
{'lipoC2': 7.59, 'lipoC3S1': 4.13, 'temp': 29.56, 'lipoC3S3': 12.54, 'lipoC3S2': 8.31, 'rot1': 0, 'rot0': 0, 'rot3': 22, 'rot2': 19, 'state': 'normal', 'yaw': 3.01, 'datetime': '2018-10-10 00:18:08.941670', 'mgs': 0, 'volt': 0.8643, 'depth': 1.004, 'time': 6, 'pitch': -2.01, 'roll': 1.88, 'pres': 177}
{'lipoC2': 7.59, 'lipoC3S1': 4.15, 'temp': 29.56, 'lipoC3S3': 12.47, 'lipoC3S2': 8.3, 'rot1': 0, 'rot0': 0, 'rot3': 23, 'rot2': 20, 'state': 'normal', 'yaw': 3.04, 'datetime': '2018-10-10 00:18:08.960878', 'mgs': 0, 'volt': 0.8643, 'depth': 1.004, 'time': 6, 'pitch': -1.5, 'roll': 1.77, 'pres': 177}
{'lipoC2': 7.61, 'lipoC3S1': 4.13, 'temp': 29.56, 'lipoC3S3': 12.47, 'lipoC3S2': 8.26, 'rot1': 0, 'rot0': 0, 'rot3': 25, 'rot2': 22, 'state': 'normal', 'yaw': 3.15, 'datetime': '2018-10-10 00:18:08.980062', 'mgs': 0, 'volt': 0.8594, 'depth': 0.928, 'time': 6, 'pitch': -1.32, 'roll': 1.29, 'pres': 176}
{'lipoC2': 7.59, 'lipoC3S1': 4.14, 'temp': 29.56, 'lipoC3S3': 12.47, 'lipoC3S2': 8.26, 'rot1': 0, 'rot0': 0, 'rot3': 26, 'rot2': 23, 'state': 'normal', 'yaw': 3.18, 'datetime': '2018-10-10 00:18:08.993337', 'mgs': 0, 'volt': 0.8594, 'depth': 0.928, 'time': 6, 'pitch': -1.41, 'roll': 0.73, 'pres': 176}
{'lipoC2': 7.61, 'lipoC3S1': 4.1, 'temp': 29.56, 'lipoC3S3': 12.48, 'lipoC3S2': 8.27, 'rot1': 0, 'rot0': 0, 'rot3': 27, 'rot2': 24, 'state': 'normal', 'yaw': 3.12, 'datetime': '2018-10-10 00:18:09.012355', 'mgs': 0, 'volt': 0.8643, 'depth': 1.004, 'time': 6, 'pitch': -1.71, 'roll': 0.3, 'pres': 177}
{'lipoC2': 7.61, 'lipoC3S1': 4.11, 'temp': 29.56, 'lipoC3S3': 12.51, 'lipoC3S2': 8.27, 'rot1': 0, 'rot0': 0, 'rot3': 29, 'rot2': 25, 'state': 'normal', 'yaw': 2.97, 'datetime': '2018-10-10 00:18:09.031653', 'mgs': 0, 'volt': 0.8496, 'depth': 0.775, 'time': 6, 'pitch': -2.17, 'roll': 0.19, 'pres': 174}
{'lipoC2': 7.61, 'lipoC3S1': 4.11, 'temp': 29.63, 'lipoC3S3': 12.52, 'lipoC3S2': 8.28, 'rot1': 0, 'rot0': 0, 'rot3': 30, 'rot2': 28, 'state': 'normal', 'yaw': 2.79, 'datetime': '2018-10-10 00:18:09.041598', 'mgs': 0, 'volt': 0.8789, 'depth': 1.233, 'time': 6, 'pitch': -2.68, 'roll': 0.51, 'pres': 180}
{'lipoC2': 7.59, 'lipoC3S1': 4.12, 'temp': 29.63, 'lipoC3S3': 12.52, 'lipoC3S2': 8.29, 'rot1': 0, 'rot0': 0, 'rot3': 31, 'rot2': 29, 'state': 'normal', 'yaw': 2.74, 'datetime': '2018-10-10 00:18:09.057203', 'mgs': 0, 'volt': 0.874, 'depth': 1.157, 'time': 6, 'pitch': -2.99, 'roll': 1.22, 'pres': 179}
{'lipoC2': 7.61, 'lipoC3S1': 4.13, 'temp': 29.56, 'lipoC3S3': 12.52, 'lipoC3S2': 8.32, 'rot1': 0, 'rot0': 0, 'rot3': 32, 'rot2': 30, 'state': 'normal', 'yaw': 2.9, 'datetime': '2018-10-10 00:18:09.072717', 'mgs': 0, 'volt': 0.8691, 'depth': 1.08, 'time': 7, 'pitch': -2.91, 'roll': 1.79, 'pres': 178}
{'lipoC2': 7.61, 'lipoC3S1': 4.11, 'temp': 29.56, 'lipoC3S3': 12.54, 'lipoC3S2': 8.29, 'rot1': 0, 'rot0': 0, 'rot3': 34, 'rot2': 31, 'state': 'normal', 'yaw': 3.25, 'datetime': '2018-10-10 00:18:09.082328', 'mgs': 0, 'volt': 0.8643, 'depth': 1.004, 'time': 7, 'pitch': -2.53, 'roll': 1.9, 'pres': 177}
{'lipoC2': 7.59, 'lipoC3S1': 4.12, 'temp': 29.56, 'lipoC3S3': 12.52, 'lipoC3S2': 8.31, 'rot1': 0, 'rot0': 0, 'rot3': 35, 'rot2': 32, 'state': 'normal', 'yaw': 3.84, 'datetime': '2018-10-10 00:18:09.097971', 'mgs': 0, 'volt': 0.874, 'depth': 1.157, 'time': 7, 'pitch': -2.05, 'roll': 1.23, 'pres': 179}
{'lipoC2': 7.59, 'lipoC3S1': 4.13, 'temp': 29.56, 'lipoC3S3': 12.52, 'lipoC3S2': 8.31, 'rot1': 0, 'rot0': 0, 'rot3': 36, 'rot2': 33, 'state': 'normal', 'yaw': 4.35, 'datetime': '2018-10-10 00:18:09.114816', 'mgs': 0, 'volt': 0.8691, 'depth': 1.08, 'time': 7, 'pitch': -1.8, 'roll': 0.17, 'pres': 178}
{'lipoC2': 7.61, 'lipoC3S1': 4.11, 'temp': 29.56, 'lipoC3S3': 12.55, 'lipoC3S2': 8.29, 'rot1': 0, 'rot0': 0, 'rot3': 38, 'rot2': 34, 'state': 'normal', 'yaw': 4.61, 'datetime': '2018-10-10 00:18:09.124670', 'mgs': 0, 'volt': 0.874, 'depth': 1.157, 'time': 7, 'pitch': -1.77, 'roll': -0.73, 'pres': 179}
{'lipoC2': 7.61, 'lipoC3S1': 4.17, 'temp': 29.56, 'lipoC3S3': 12.59, 'lipoC3S2': 8.34, 'rot1': 0, 'rot0': 0, 'rot3': 38, 'rot2': 34, 'state': 'normal', 'yaw': 4.41, 'datetime': '2018-10-10 00:18:09.140223', 'mgs': 0, 'volt': 0.8496, 'depth': 0.775, 'time': 7, 'pitch': -1.94, 'roll': -0.89, 'pres': 174}
{'lipoC2': 7.61, 'lipoC3S1': 4.08, 'temp': 29.56, 'lipoC3S3': 12.52, 'lipoC3S2': 8.26, 'rot1': 0, 'rot0': 0, 'rot3': 38, 'rot2': 34, 'state': 'normal', 'yaw': 3.86, 'datetime': '2018-10-10 00:18:09.155786', 'mgs': 0, 'volt': 0.8496, 'depth': 0.775, 'time': 7, 'pitch': -2.17, 'roll': -0.22, 'pres': 174}
{'lipoC2': 7.61, 'lipoC3S1': 4.13, 'temp': 29.56, 'lipoC3S3': 12.46, 'lipoC3S2': 8.12, 'rot1': 1, 'rot0': 1, 'rot3': 38, 'rot2': 34, 'state': 'normal', 'yaw': 3.3, 'datetime': '2018-10-10 00:18:09.165384', 'mgs': 0, 'volt': 0.8496, 'depth': 0.775, 'time': 7, 'pitch': -1.78, 'roll': 0.67, 'pres': 174}
{'lipoC2': 7.61, 'lipoC3S1': 4.12, 'temp': 29.56, 'lipoC3S3': 12.52, 'lipoC3S2': 8.23, 'rot1': 2, 'rot0': 3, 'rot3': 38, 'rot2': 34, 'state': 'normal', 'yaw': 2.9, 'datetime': '2018-10-10 00:18:09.180931', 'mgs': 0, 'volt': 0.8545, 'depth': 0.851, 'time': 7, 'pitch': -0.76, 'roll': 1.28, 'pres': 175}
{'lipoC2': 7.61, 'lipoC3S1': 4.1, 'temp': 29.56, 'lipoC3S3': 12.55, 'lipoC3S2': 8.34, 'rot1': 3, 'rot0': 4, 'rot3': 38, 'rot2': 34, 'state': 'normal', 'yaw': 2.7, 'datetime': '2018-10-10 00:18:09.196522', 'mgs': 0, 'volt': 0.8545, 'depth': 0.851, 'time': 7, 'pitch': 0.36, 'roll': 1.2, 'pres': 175}
{'lipoC2': 7.61, 'lipoC3S1': 4.11, 'temp': 29.5, 'lipoC3S3': 12.54, 'lipoC3S2': 8.32, 'rot1': 4, 'rot0': 5, 'rot3': 38, 'rot2': 34, 'state': 'normal', 'yaw': 2.43, 'datetime': '2018-10-10 00:18:09.206174', 'mgs': 0, 'volt': 0.8398, 'depth': 0.623, 'time': 8, 'pitch': 1.15, 'roll': 0.57, 'pres': 172}
{'lipoC2': 7.61, 'lipoC3S1': 4.15, 'temp': 29.5, 'lipoC3S3': 12.54, 'lipoC3S2': 8.31, 'rot1': 5, 'rot0': 6, 'rot3': 38, 'rot2': 34, 'state': 'normal', 'yaw': 1.77, 'datetime': '2018-10-10 00:18:09.223611', 'mgs': 0, 'volt': 0.8838, 'depth': 1.309, 'time': 8, 'pitch': 1.09, 'roll': -0.36, 'pres': 181}
{'lipoC2': 7.59, 'lipoC3S1': 4.15, 'temp': 29.5, 'lipoC3S3': 12.52, 'lipoC3S2': 8.31, 'rot1': 5, 'rot0': 7, 'rot3': 38, 'rot2': 34, 'state': 'normal', 'yaw': 0.91, 'datetime': '2018-10-10 00:18:09.239689', 'mgs': 0, 'volt': 0.8545, 'depth': 0.851, 'time': 8, 'pitch': 0.38, 'roll': -0.89, 'pres': 175}
{'lipoC2': 7.59, 'lipoC3S1': 4.15, 'temp': 29.5, 'lipoC3S3': 12.43, 'lipoC3S2': 8.31, 'rot1': 6, 'rot0': 9, 'rot3': 38, 'rot2': 34, 'state': 'normal', 'yaw': -0.19, 'datetime': '2018-10-10 00:18:09.249310', 'mgs': 0, 'volt': 0.8545, 'depth': 0.851, 'time': 8, 'pitch': -0.53, 'roll': -0.91, 'pres': 175}
{'lipoC2': 7.59, 'lipoC3S1': 4.14, 'temp': 29.56, 'lipoC3S3': 12.43, 'lipoC3S2': 8.31, 'rot1': 7, 'rot0': 10, 'rot3': 38, 'rot2': 34, 'state': 'normal', 'yaw': -1.5, 'datetime': '2018-10-10 00:18:09.264937', 'mgs': 0, 'volt': 0.8545, 'depth': 0.851, 'time': 8, 'pitch': -1.19, 'roll': -0.55, 'pres': 175}
{'lipoC2': 7.59, 'lipoC3S1': 4.14, 'temp': 29.56, 'lipoC3S3': 12.41, 'lipoC3S2': 8.31, 'rot1': 8, 'rot0': 11, 'rot3': 38, 'rot2': 34, 'state': 'normal', 'yaw': -3.1, 'datetime': '2018-10-10 00:18:09.280542', 'mgs': 0, 'volt': 0.8594, 'depth': 0.928, 'time': 8, 'pitch': -1.0, 'roll': -0.08, 'pres': 176}
{'lipoC2': 7.61, 'lipoC3S1': 4.02, 'temp': 29.56, 'lipoC3S3': 12.52, 'lipoC3S2': 8.28, 'rot1': 8, 'rot0': 12, 'rot3': 38, 'rot2': 34, 'state': 'normal', 'yaw': -4.6, 'datetime': '2018-10-10 00:18:09.337104', 'mgs': 0, 'volt': 0.8643, 'depth': 1.004, 'time': 8, 'pitch': 0.05, 'roll': 0.02, 'pres': 177}
{'lipoC2': 7.57, 'lipoC3S1': 4.14, 'temp': 29.5, 'lipoC3S3': 12.5, 'lipoC3S2': 8.3, 'rot1': 9, 'rot0': 13, 'rot3': 38, 'rot2': 34, 'state': 'normal', 'yaw': -5.99, 'datetime': '2018-10-10 00:18:09.441016', 'mgs': 0, 'volt': 0.8984, 'depth': 1.538, 'time': 8, 'pitch': 1.41, 'roll': -0.26, 'pres': 184}
{'lipoC2': 7.61, 'lipoC3S1': 4.15, 'temp': 29.5, 'lipoC3S3': 12.54, 'lipoC3S2': 8.32, 'rot1': 11, 'rot0': 14, 'rot3': 38, 'rot2': 34, 'state': 'normal', 'yaw': -7.15, 'datetime': '2018-10-10 00:18:09.544567', 'mgs': 0, 'volt': 0.9131, 'depth': 1.767, 'time': 8, 'pitch': 2.57, 'roll': -0.6, 'pres': 187}
{'lipoC2': 7.61, 'lipoC3S1': 4.14, 'temp': 29.56, 'lipoC3S3': 12.5, 'lipoC3S2': 8.23, 'rot1': 12, 'rot0': 15, 'rot3': 38, 'rot2': 34, 'state': 'normal', 'yaw': -7.62, 'datetime': '2018-10-10 00:18:09.649370', 'mgs': 0, 'volt': 0.8691, 'depth': 1.08, 'time': 8, 'pitch': 3.0, 'roll': -0.73, 'pres': 178}
{'lipoC2': 7.59, 'lipoC3S1': 4.15, 'temp': 29.56, 'lipoC3S3': 12.42, 'lipoC3S2': 8.31, 'rot1': 13, 'rot0': 16, 'rot3': 38, 'rot2': 34, 'state': 'normal', 'yaw': -7.47, 'datetime': '2018-10-10 00:18:09.752920', 'mgs': 0, 'volt': 0.874, 'depth': 1.157, 'time': 9, 'pitch': 3.2, 'roll': -0.56, 'pres': 179}
{'lipoC2': 7.61, 'lipoC3S1': 4.15, 'temp': 29.5, 'lipoC3S3': 12.54, 'lipoC3S2': 8.32, 'rot1': 14, 'rot0': 17, 'rot3': 38, 'rot2': 34, 'state': 'normal', 'yaw': -6.9, 'datetime': '2018-10-10 00:18:09.856378', 'mgs': 0, 'volt': 0.9082, 'depth': 1.691, 'time': 9, 'pitch': 3.66, 'roll': -0.24, 'pres': 186}
{'lipoC2': 7.61, 'lipoC3S1': 4.14, 'temp': 29.5, 'lipoC3S3': 12.55, 'lipoC3S2': 8.26, 'rot1': 15, 'rot0': 17, 'rot3': 38, 'rot2': 34, 'state': 'normal', 'yaw': -6.0, 'datetime': '2018-10-10 00:18:09.961215', 'mgs': 0, 'volt': 0.874, 'depth': 1.157, 'time': 9, 'pitch': 4.54, 'roll': 0.06, 'pres': 179}
{'lipoC2': 7.61, 'lipoC3S1': 4.15, 'temp': 29.5, 'lipoC3S3': 12.45, 'lipoC3S2': 8.3, 'rot1': 16, 'rot0': 18, 'rot3': 38, 'rot2': 34, 'state': 'normal', 'yaw': -4.74, 'datetime': '2018-10-10 00:18:10.064769', 'mgs': 0, 'volt': 0.8789, 'depth': 1.233, 'time': 9, 'pitch': 5.83, 'roll': 0.23, 'pres': 180}
{'lipoC2': 7.59, 'lipoC3S1': 4.15, 'temp': 29.5, 'lipoC3S3': 12.54, 'lipoC3S2': 8.32, 'rot1': 17, 'rot0': 19, 'rot3': 38, 'rot2': 34, 'state': 'normal', 'yaw': -3.39, 'datetime': '2018-10-10 00:18:10.168305', 'mgs': 0, 'volt': 0.8838, 'depth': 1.309, 'time': 9, 'pitch': 6.86, 'roll': 0.19, 'pres': 181}
{'lipoC2': 7.61, 'lipoC3S1': 4.13, 'temp': 29.5, 'lipoC3S3': 12.54, 'lipoC3S2': 8.32, 'rot1': 19, 'rot0': 19, 'rot3': 38, 'rot2': 34, 'state': 'normal', 'yaw': -1.86, 'datetime': '2018-10-10 00:18:10.271873', 'mgs': 0, 'volt': 0.9326, 'depth': 2.072, 'time': 9, 'pitch': 7.41, 'roll': 0.04, 'pres': 191}
{'lipoC2': 7.61, 'lipoC3S1': 4.03, 'temp': 29.56, 'lipoC3S3': 12.5, 'lipoC3S2': 8.25, 'rot1': 20, 'rot0': 20, 'rot3': 39, 'rot2': 35, 'state': 'normal', 'yaw': 0.01, 'datetime': '2018-10-10 00:18:10.382278', 'mgs': 0, 'volt': 0.8887, 'depth': 1.385, 'time': 9, 'pitch': 7.69, 'roll': -0.13, 'pres': 182}
{'lipoC2': 7.61, 'lipoC3S1': 4.06, 'temp': 29.56, 'lipoC3S3': 12.42, 'lipoC3S2': 8.07, 'rot1': 21, 'rot0': 21, 'rot3': 39, 'rot2': 35, 'state': 'normal', 'yaw': 1.82, 'datetime': '2018-10-10 00:18:10.485725', 'mgs': 0, 'volt': 0.8887, 'depth': 1.385, 'time': 9, 'pitch': 8.07, 'roll': 0.04, 'pres': 182}
{'lipoC2': 7.59, 'lipoC3S1': 4.12, 'temp': 29.63, 'lipoC3S3': 12.19, 'lipoC3S2': 8.23, 'rot1': 22, 'rot0': 22, 'rot3': 40, 'rot2': 38, 'state': 'normal', 'yaw': 3.27, 'datetime': '2018-10-10 00:18:10.589322', 'mgs': 0, 'volt': 0.8887, 'depth': 1.385, 'time': 9, 'pitch': 8.72, 'roll': 0.5, 'pres': 182}
{'lipoC2': 7.61, 'lipoC3S1': 4.12, 'temp': 29.63, 'lipoC3S3': 12.46, 'lipoC3S2': 8.28, 'rot1': 23, 'rot0': 23, 'rot3': 41, 'rot2': 38, 'state': 'normal', 'yaw': 4.34, 'datetime': '2018-10-10 00:18:10.693027', 'mgs': 0, 'volt': 0.9473, 'depth': 2.301, 'time': 10, 'pitch': 9.66, 'roll': 1.13, 'pres': 194}
{'lipoC2': 7.61, 'lipoC3S1': 4.04, 'temp': 29.63, 'lipoC3S3': 12.51, 'lipoC3S2': 8.26, 'rot1': 24, 'rot0': 24, 'rot3': 41, 'rot2': 39, 'state': 'normal', 'yaw': 4.91, 'datetime': '2018-10-10 00:18:10.796795', 'mgs': 0, 'volt': 0.8887, 'depth': 1.385, 'time': 10, 'pitch': 10.51, 'roll': 1.48, 'pres': 182}
{'lipoC2': 7.61, 'lipoC3S1': 4.12, 'temp': 29.5, 'lipoC3S3': 12.38, 'lipoC3S2': 8.23, 'rot1': 25, 'rot0': 26, 'rot3': 42, 'rot2': 39, 'state': 'normal', 'yaw': 4.89, 'datetime': '2018-10-10 00:18:10.901565', 'mgs': 0, 'volt': 0.8838, 'depth': 1.309, 'time': 10, 'pitch': 10.89, 'roll': 1.25, 'pres': 181}
{'lipoC2': 7.61, 'lipoC3S1': 4.15, 'temp': 29.5, 'lipoC3S3': 12.52, 'lipoC3S2': 8.31, 'rot1': 26, 'rot0': 27, 'rot3': 42, 'rot2': 40, 'state': 'normal', 'yaw': 4.22, 'datetime': '2018-10-10 00:18:11.005001', 'mgs': 0, 'volt': 0.9082, 'depth': 1.691, 'time': 10, 'pitch': 10.27, 'roll': 0.49, 'pres': 186}
{'lipoC2': 7.59, 'lipoC3S1': 4.14, 'temp': 29.5, 'lipoC3S3': 12.54, 'lipoC3S2': 8.31, 'rot1': 27, 'rot0': 29, 'rot3': 42, 'rot2': 40, 'state': 'normal', 'yaw': 3.21, 'datetime': '2018-10-10 00:18:11.108680', 'mgs': 0, 'volt': 0.8838, 'depth': 1.309, 'time': 10, 'pitch': 8.77, 'roll': 0.09, 'pres': 181}
{'lipoC2': 7.61, 'lipoC3S1': 4.12, 'temp': 29.5, 'lipoC3S3': 12.54, 'lipoC3S2': 8.31, 'rot1': 27, 'rot0': 30, 'rot3': 42, 'rot2': 40, 'state': 'normal', 'yaw': 1.84, 'datetime': '2018-10-10 00:18:11.213983', 'mgs': 0, 'volt': 0.8643, 'depth': 1.004, 'time': 10, 'pitch': 6.99, 'roll': 0.24, 'pres': 177}
{'lipoC2': 7.61, 'lipoC3S1': 4.08, 'temp': 29.56, 'lipoC3S3': 12.54, 'lipoC3S2': 8.29, 'rot1': 28, 'rot0': 31, 'rot3': 42, 'rot2': 40, 'state': 'normal', 'yaw': 0.36, 'datetime': '2018-10-10 00:18:11.318202', 'mgs': 0, 'volt': 0.8789, 'depth': 1.233, 'time': 10, 'pitch': 5.89, 'roll': 0.5, 'pres': 180}
{'lipoC2': 7.61, 'lipoC3S1': 4.13, 'temp': 29.56, 'lipoC3S3': 12.33, 'lipoC3S2': 8.28, 'rot1': 29, 'rot0': 32, 'rot3': 42, 'rot2': 40, 'state': 'normal', 'yaw': -1.35, 'datetime': '2018-10-10 00:18:11.422798', 'mgs': 0, 'volt': 0.8789, 'depth': 1.233, 'time': 10, 'pitch': 5.37, 'roll': 0.42, 'pres': 180}
{'lipoC2': 7.61, 'lipoC3S1': 4.14, 'temp': 29.56, 'lipoC3S3': 12.51, 'lipoC3S2': 8.3, 'rot1': 30, 'rot0': 33, 'rot3': 42, 'rot2': 40, 'state': 'normal', 'yaw': -3.09, 'datetime': '2018-10-10 00:18:11.526571', 'mgs': 0, 'volt': 0.9668, 'depth': 2.606, 'time': 10, 'pitch': 5.2, 'roll': -0.12, 'pres': 198}
{'lipoC2': 7.61, 'lipoC3S1': 4.05, 'temp': 29.56, 'lipoC3S3': 12.47, 'lipoC3S2': 8.11, 'rot1': 31, 'rot0': 35, 'rot3': 43, 'rot2': 40, 'state': 'normal', 'yaw': -4.37, 'datetime': '2018-10-10 00:18:11.630290', 'mgs': 0, 'volt': 0.8838, 'depth': 1.309, 'time': 10, 'pitch': 5.36, 'roll': -0.6, 'pres': 181}
{'lipoC2': 7.57, 'lipoC3S1': 4.12, 'temp': 29.56, 'lipoC3S3': 12.37, 'lipoC3S2': 8.26, 'rot1': 32, 'rot0': 36, 'rot3': 43, 'rot2': 41, 'state': 'normal', 'yaw': -5.57, 'datetime': '2018-10-10 00:18:11.734070', 'mgs': 0, 'volt': 0.8936, 'depth': 1.462, 'time': 11, 'pitch': 5.98, 'roll': -0.62, 'pres': 183}
{'lipoC2': 7.61, 'lipoC3S1': 4.01, 'temp': 29.5, 'lipoC3S3': 12.47, 'lipoC3S2': 8.28, 'rot1': 33, 'rot0': 37, 'rot3': 44, 'rot2': 41, 'state': 'normal', 'yaw': -6.49, 'datetime': '2018-10-10 00:18:11.837624', 'mgs': 0, 'volt': 0.9131, 'depth': 1.767, 'time': 11, 'pitch': 6.47, 'roll': -0.33, 'pres': 187}
{'lipoC2': 7.61, 'lipoC3S1': 4.11, 'temp': 29.5, 'lipoC3S3': 12.29, 'lipoC3S2': 8.2, 'rot1': 34, 'rot0': 38, 'rot3': 45, 'rot2': 42, 'state': 'normal', 'yaw': -7.31, 'datetime': '2018-10-10 00:18:11.941268', 'mgs': 0, 'volt': 0.874, 'depth': 1.157, 'time': 11, 'pitch': 6.77, 'roll': 0.01, 'pres': 179}
{'lipoC2': 7.59, 'lipoC3S1': 4.13, 'temp': 29.63, 'lipoC3S3': 12.48, 'lipoC3S2': 8.29, 'rot1': 36, 'rot0': 39, 'rot3': 45, 'rot2': 43, 'state': 'normal', 'yaw': -8.07, 'datetime': '2018-10-10 00:18:12.045034', 'mgs': 0, 'volt': 0.9375, 'depth': 2.148, 'time': 11, 'pitch': 7.13, 'roll': 0.18, 'pres': 192}
{'lipoC2': 7.61, 'lipoC3S1': 4.08, 'temp': 29.63, 'lipoC3S3': 12.51, 'lipoC3S2': 8.19, 'rot1': 37, 'rot0': 40, 'rot3': 46, 'rot2': 43, 'state': 'normal', 'yaw': -8.34, 'datetime': '2018-10-10 00:18:12.148741', 'mgs': 0, 'volt': 0.8789, 'depth': 1.233, 'time': 11, 'pitch': 7.42, 'roll': 0.18, 'pres': 180}
{'lipoC2': 7.61, 'lipoC3S1': 4.08, 'temp': 29.63, 'lipoC3S3': 12.54, 'lipoC3S2': 8.32, 'rot1': 38, 'rot0': 41, 'rot3': 47, 'rot2': 44, 'state': 'normal', 'yaw': -8.11, 'datetime': '2018-10-10 00:18:12.253771', 'mgs': 0, 'volt': 0.8789, 'depth': 1.233, 'time': 11, 'pitch': 7.64, 'roll': 0.31, 'pres': 180}
{'lipoC2': 7.61, 'lipoC3S1': 4.14, 'temp': 29.56, 'lipoC3S3': 12.42, 'lipoC3S2': 8.3, 'rot1': 39, 'rot0': 41, 'rot3': 47, 'rot2': 44, 'state': 'normal', 'yaw': -7.35, 'datetime': '2018-10-10 00:18:12.357396', 'mgs': 0, 'volt': 0.8789, 'depth': 1.233, 'time': 11, 'pitch': 6.95, 'roll': 0.63, 'pres': 180}
{'lipoC2': 7.61, 'lipoC3S1': 4.09, 'temp': 29.56, 'lipoC3S3': 12.54, 'lipoC3S2': 8.29, 'rot1': 40, 'rot0': 42, 'rot3': 47, 'rot2': 44, 'state': 'normal', 'yaw': -6.31, 'datetime': '2018-10-10 00:18:12.462436', 'mgs': 0, 'volt': 0.8789, 'depth': 1.233, 'time': 11, 'pitch': 5.52, 'roll': 0.76, 'pres': 180}
{'lipoC2': 7.59, 'lipoC3S1': 4.14, 'temp': 29.5, 'lipoC3S3': 12.42, 'lipoC3S2': 8.31, 'rot1': 42, 'rot0': 43, 'rot3': 47, 'rot2': 44, 'state': 'normal', 'yaw': -4.86, 'datetime': '2018-10-10 00:18:12.566003', 'mgs': 0, 'volt': 0.8789, 'depth': 1.233, 'time': 11, 'pitch': 4.23, 'roll': 0.46, 'pres': 180}
{'lipoC2': 7.61, 'lipoC3S1': 4.11, 'temp': 29.5, 'lipoC3S3': 12.54, 'lipoC3S2': 8.31, 'rot1': 43, 'rot0': 43, 'rot3': 47, 'rot2': 44, 'state': 'normal', 'yaw': -3.37, 'datetime': '2018-10-10 00:18:12.669923', 'mgs': 0, 'volt': 0.8789, 'depth': 1.233, 'time': 12, 'pitch': 4.16, 'roll': -0.07, 'pres': 180}
{'lipoC2': 7.59, 'lipoC3S1': 4.14, 'temp': 29.56, 'lipoC3S3': 12.52, 'lipoC3S2': 8.31, 'rot1': 44, 'rot0': 44, 'rot3': 47, 'rot2': 44, 'state': 'normal', 'yaw': -1.82, 'datetime': '2018-10-10 00:18:12.774900', 'mgs': 0, 'volt': 0.9131, 'depth': 1.767, 'time': 12, 'pitch': 4.57, 'roll': -0.43, 'pres': 187}
{'lipoC2': 7.61, 'lipoC3S1': 4.04, 'temp': 29.56, 'lipoC3S3': 12.5, 'lipoC3S2': 8.26, 'rot1': 45, 'rot0': 45, 'rot3': 47, 'rot2': 44, 'state': 'normal', 'yaw': -0.05, 'datetime': '2018-10-10 00:18:12.878497', 'mgs': 0, 'volt': 0.8789, 'depth': 1.233, 'time': 12, 'pitch': 4.47, 'roll': -0.59, 'pres': 180}
{'lipoC2': 7.59, 'lipoC3S1': 4.11, 'temp': 29.56, 'lipoC3S3': 12.23, 'lipoC3S2': 8.19, 'rot1': 46, 'rot0': 46, 'rot3': 47, 'rot2': 45, 'state': 'normal', 'yaw': 1.65, 'datetime': '2018-10-10 00:18:12.980017', 'mgs': 0, 'volt': 0.8789, 'depth': 1.233, 'time': 12, 'pitch': 3.99, 'roll': -0.56, 'pres': 180}
{'lipoC2': 7.61, 'lipoC3S1': 3.98, 'temp': 29.5, 'lipoC3S3': 12.48, 'lipoC3S2': 8.26, 'rot1': 48, 'rot0': 47, 'rot3': 49, 'rot2': 45, 'state': 'normal', 'yaw': 3.05, 'datetime': '2018-10-10 00:18:13.086093', 'mgs': 0, 'volt': 0.8887, 'depth': 1.385, 'time': 12, 'pitch': 4.06, 'roll': -0.52, 'pres': 182}
{'lipoC2': 7.59, 'lipoC3S1': 4.11, 'temp': 29.5, 'lipoC3S3': 12.19, 'lipoC3S2': 8.25, 'rot1': 49, 'rot0': 48, 'rot3': 50, 'rot2': 46, 'state': 'normal', 'yaw': 4.07, 'datetime': '2018-10-10 00:18:13.189582', 'mgs': 0, 'volt': 0.8838, 'depth': 1.309, 'time': 12, 'pitch': 5.28, 'roll': -0.55, 'pres': 181}
{'lipoC2': 7.61, 'lipoC3S1': 4.1, 'temp': 29.56, 'lipoC3S3': 12.48, 'lipoC3S2': 8.29, 'rot1': 50, 'rot0': 50, 'rot3': 50, 'rot2': 46, 'state': 'normal', 'yaw': 4.59, 'datetime': '2018-10-10 00:18:13.292318', 'mgs': 0, 'volt': 0.9082, 'depth': 1.691, 'time': 12, 'pitch': 6.89, 'roll': -0.63, 'pres': 186}
{'lipoC2': 7.58, 'lipoC3S1': 4.13, 'temp': 29.56, 'lipoC3S3': 12.41, 'lipoC3S2': 8.28, 'rot1': 51, 'rot0': 51, 'rot3': 51, 'rot2': 47, 'state': 'normal', 'yaw': 4.53, 'datetime': '2018-10-10 00:18:13.397860', 'mgs': 0, 'volt': 0.8838, 'depth': 1.309, 'time': 12, 'pitch': 8.02, 'roll': -0.65, 'pres': 181}
{'lipoC2': 7.61, 'lipoC3S1': 4.08, 'temp': 29.5, 'lipoC3S3': 12.52, 'lipoC3S2': 8.31, 'rot1': 51, 'rot0': 52, 'rot3': 51, 'rot2': 47, 'state': 'normal', 'yaw': 3.81, 'datetime': '2018-10-10 00:18:13.501326', 'mgs': 0, 'volt': 0.8887, 'depth': 1.385, 'time': 12, 'pitch': 8.18, 'roll': -0.48, 'pres': 182}
{'lipoC2': 7.59, 'lipoC3S1': 4.14, 'temp': 29.5, 'lipoC3S3': 12.52, 'lipoC3S2': 8.31, 'rot1': 52, 'rot0': 53, 'rot3': 51, 'rot2': 47, 'state': 'normal', 'yaw': 2.7, 'datetime': '2018-10-10 00:18:13.605104', 'mgs': 0, 'volt': 0.9229, 'depth': 1.92, 'time': 12, 'pitch': 7.57, 'roll': -0.23, 'pres': 189}
{'lipoC2': 7.61, 'lipoC3S1': 4.08, 'temp': 29.5, 'lipoC3S3': 12.52, 'lipoC3S2': 8.27, 'rot1': 53, 'rot0': 55, 'rot3': 51, 'rot2': 47, 'state': 'normal', 'yaw': 1.0, 'datetime': '2018-10-10 00:18:13.711230', 'mgs': 0, 'volt': 0.8838, 'depth': 1.309, 'time': 13, 'pitch': 6.67, 'roll': 0.06, 'pres': 181}
{'lipoC2': 7.59, 'lipoC3S1': 4.14, 'temp': 29.56, 'lipoC3S3': 12.51, 'lipoC3S2': 8.3, 'rot1': 53, 'rot0': 56, 'rot3': 51, 'rot2': 47, 'state': 'normal', 'yaw': -0.92, 'datetime': '2018-10-10 00:18:13.814697', 'mgs': 0, 'volt': 0.8838, 'depth': 1.309, 'time': 13, 'pitch': 6.26, 'roll': 0.27, 'pres': 181}
{'lipoC2': 7.59, 'lipoC3S1': 4.13, 'temp': 29.56, 'lipoC3S3': 12.42, 'lipoC3S2': 8.28, 'rot1': 54, 'rot0': 57, 'rot3': 51, 'rot2': 47, 'state': 'normal', 'yaw': -3.06, 'datetime': '2018-10-10 00:18:13.913663', 'mgs': 0, 'volt': 0.8887, 'depth': 1.385, 'time': 13, 'pitch': 6.48, 'roll': 0.39, 'pres': 182}
{'lipoC2': 7.61, 'lipoC3S1': 4.09, 'temp': 29.56, 'lipoC3S3': 12.51, 'lipoC3S2': 8.3, 'rot1': 55, 'rot0': 58, 'rot3': 51, 'rot2': 47, 'state': 'normal', 'yaw': -5.23, 'datetime': '2018-10-10 00:18:14.022024', 'mgs': 0, 'volt': 0.8936, 'depth': 1.462, 'time': 13, 'pitch': 7.34, 'roll': 0.53, 'pres': 183}
{'lipoC2': 7.58, 'lipoC3S1': 4.12, 'temp': 29.56, 'lipoC3S3': 12.43, 'lipoC3S2': 8.27, 'rot1': 56, 'rot0': 60, 'rot3': 52, 'rot2': 47, 'state': 'normal', 'yaw': -6.86, 'datetime': '2018-10-10 00:18:14.127503', 'mgs': 0, 'volt': 0.9326, 'depth': 2.072, 'time': 13, 'pitch': 8.24, 'roll': 0.72, 'pres': 191}
{'lipoC2': 7.61, 'lipoC3S1': 4.03, 'temp': 29.56, 'lipoC3S3': 12.5, 'lipoC3S2': 8.24, 'rot1': 58, 'rot0': 61, 'rot3': 52, 'rot2': 48, 'state': 'normal', 'yaw': -8.43, 'datetime': '2018-10-10 00:18:14.231342', 'mgs': 0, 'volt': 0.8936, 'depth': 1.462, 'time': 13, 'pitch': 8.82, 'roll': 0.99, 'pres': 183}
{'lipoC2': 7.59, 'lipoC3S1': 4.13, 'temp': 29.56, 'lipoC3S3': 12.33, 'lipoC3S2': 8.27, 'rot1': 59, 'rot0': 61, 'rot3': 53, 'rot2': 49, 'state': 'normal', 'yaw': -9.42, 'datetime': '2018-10-10 00:18:14.335104', 'mgs': 0, 'volt': 0.8838, 'depth': 1.309, 'time': 13, 'pitch': 8.81, 'roll': 1.09, 'pres': 181}
{'lipoC2': 7.61, 'lipoC3S1': 4.11, 'temp': 29.56, 'lipoC3S3': 12.52, 'lipoC3S2': 8.31, 'rot1': 60, 'rot0': 62, 'rot3': 53, 'rot2': 49, 'state': 'normal', 'yaw': -9.9, 'datetime': '2018-10-10 00:18:14.438734', 'mgs': 0, 'volt': 0.8887, 'depth': 1.385, 'time': 13, 'pitch': 8.52, 'roll': 1.16, 'pres': 182}
{'lipoC2': 7.61, 'lipoC3S1': 4.14, 'temp': 29.56, 'lipoC3S3': 12.43, 'lipoC3S2': 8.33, 'rot1': 61, 'rot0': 63, 'rot3': 53, 'rot2': 49, 'state': 'normal', 'yaw': -9.84, 'datetime': '2018-10-10 00:18:14.542424', 'mgs': 0, 'volt': 0.8887, 'depth': 1.385, 'time': 13, 'pitch': 8.12, 'roll': 1.41, 'pres': 182}
{'lipoC2': 7.61, 'lipoC3S1': 4.06, 'temp': 29.56, 'lipoC3S3': 12.54, 'lipoC3S2': 8.26, 'rot1': 62, 'rot0': 64, 'rot3': 53, 'rot2': 49, 'state': 'normal', 'yaw': -9.34, 'datetime': '2018-10-10 00:18:14.647529', 'mgs': 0, 'volt': 0.8887, 'depth': 1.385, 'time': 13, 'pitch': 7.78, 'roll': 1.83, 'pres': 182}
{'lipoC2': 7.59, 'lipoC3S1': 4.12, 'temp': 29.56, 'lipoC3S3': 12.27, 'lipoC3S2': 8.27, 'rot1': 63, 'rot0': 64, 'rot3': 53, 'rot2': 49, 'state': 'normal', 'yaw': -8.37, 'datetime': '2018-10-10 00:18:14.751045', 'mgs': 0, 'volt': 0.8887, 'depth': 1.385, 'time': 14, 'pitch': 7.1, 'roll': 2.43, 'pres': 182}
{'lipoC2': 7.61, 'lipoC3S1': 4.09, 'temp': 29.56, 'lipoC3S3': 12.5, 'lipoC3S2': 8.29, 'rot1': 65, 'rot0': 65, 'rot3': 54, 'rot2': 50, 'state': 'normal', 'yaw': -7.17, 'datetime': '2018-10-10 00:18:14.854884', 'mgs': 0, 'volt': 0.918, 'depth': 1.843, 'time': 14, 'pitch': 6.17, 'roll': 2.9, 'pres': 188}
{'lipoC2': 7.59, 'lipoC3S1': 4.13, 'temp': 29.5, 'lipoC3S3': 12.47, 'lipoC3S2': 8.28, 'rot1': 66, 'rot0': 66, 'rot3': 55, 'rot2': 50, 'state': 'normal', 'yaw': -5.79, 'datetime': '2018-10-10 00:18:14.959864', 'mgs': 0, 'volt': 0.9277, 'depth': 1.996, 'time': 14, 'pitch': 5.24, 'roll': 3.06, 'pres': 190}
{'lipoC2': 7.61, 'lipoC3S1': 4.05, 'temp': 29.5, 'lipoC3S3': 12.5, 'lipoC3S2': 8.28, 'rot1': 67, 'rot0': 67, 'rot3': 55, 'rot2': 51, 'state': 'normal', 'yaw': -4.09, 'datetime': '2018-10-10 00:18:15.061141', 'mgs': 0, 'volt': 0.8838, 'depth': 1.309, 'time': 14, 'pitch': 4.96, 'roll': 2.97, 'pres': 181}
{'lipoC2': 7.61, 'lipoC3S1': 3.96, 'temp': 29.5, 'lipoC3S3': 12.47, 'lipoC3S2': 8.22, 'rot1': 68, 'rot0': 67, 'rot3': 56, 'rot2': 51, 'state': 'normal', 'yaw': -2.37, 'datetime': '2018-10-10 00:18:15.167841', 'mgs': 0, 'volt': 0.8887, 'depth': 1.385, 'time': 14, 'pitch': 5.66, 'roll': 2.85, 'pres': 182}
{'lipoC2': 7.61, 'lipoC3S1': 4.08, 'temp': 29.56, 'lipoC3S3': 12.47, 'lipoC3S2': 8.17, 'rot1': 69, 'rot0': 69, 'rot3': 57, 'rot2': 52, 'state': 'normal', 'yaw': -0.9, 'datetime': '2018-10-10 00:18:15.272201', 'mgs': 0, 'volt': 0.8936, 'depth': 1.462, 'time': 14, 'pitch': 6.85, 'roll': 2.8, 'pres': 183}
{'lipoC2': 7.58, 'lipoC3S1': 4.11, 'temp': 29.56, 'lipoC3S3': 12.37, 'lipoC3S2': 8.26, 'rot1': 70, 'rot0': 70, 'rot3': 57, 'rot2': 53, 'state': 'normal', 'yaw': 0.35, 'datetime': '2018-10-10 00:18:15.375955', 'mgs': 0, 'volt': 0.8887, 'depth': 1.385, 'time': 14, 'pitch': 7.6, 'roll': 2.61, 'pres': 182}
{'lipoC2': 7.61, 'lipoC3S1': 4.11, 'temp': 29.56, 'lipoC3S3': 12.39, 'lipoC3S2': 8.14, 'rot1': 71, 'rot0': 71, 'rot3': 58, 'rot2': 53, 'state': 'normal', 'yaw': 1.24, 'datetime': '2018-10-10 00:18:15.480853', 'mgs': 0, 'volt': 0.8838, 'depth': 1.309, 'time': 14, 'pitch': 7.36, 'roll': 2.25, 'pres': 181}
{'lipoC2': 7.57, 'lipoC3S1': 4.12, 'temp': 29.56, 'lipoC3S3': 12.45, 'lipoC3S2': 8.27, 'rot1': 73, 'rot0': 73, 'rot3': 59, 'rot2': 54, 'state': 'normal', 'yaw': 2.05, 'datetime': '2018-10-10 00:18:15.584593', 'mgs': 0, 'volt': 0.9326, 'depth': 2.072, 'time': 14, 'pitch': 6.89, 'roll': 1.77, 'pres': 191}
{'lipoC2': 7.61, 'lipoC3S1': 3.96, 'temp': 29.63, 'lipoC3S3': 12.47, 'lipoC3S2': 8.21, 'rot1': 74, 'rot0': 74, 'rot3': 59, 'rot2': 55, 'state': 'normal', 'yaw': 2.55, 'datetime': '2018-10-10 00:18:15.689208', 'mgs': 0, 'volt': 0.8936, 'depth': 1.462, 'time': 15, 'pitch': 7.0, 'roll': 1.39, 'pres': 183}
{'lipoC2': 7.58, 'lipoC3S1': 4.12, 'temp': 29.63, 'lipoC3S3': 12.39, 'lipoC3S2': 8.26, 'rot1': 75, 'rot0': 75, 'rot3': 60, 'rot2': 55, 'state': 'normal', 'yaw': 2.89, 'datetime': '2018-10-10 00:18:15.791973', 'mgs': 0, 'volt': 0.8838, 'depth': 1.309, 'time': 15, 'pitch': 7.68, 'roll': 1.05, 'pres': 181}
