{'lipoC2': 7.3, 'lipoC3S1': 3.85, 'temp': 30.19, 'lipoC3S3': 11.63, 'lipoC3S2': 7.7, 'rot1': 0, 'rot0': 0, 'rot3': 0, 'rot2': 0, 'state': 'normal', 'yaw': 0.0, 'datetime': '2018-10-09 23:38:30.500990', 'mgs': 0, 'volt': 0.8545, 'depth': 0.851, 'time': 1, 'pitch': -1.42, 'roll': 2.1, 'pres': 175}
{'lipoC2': 7.32, 'lipoC3S1': 3.85, 'temp': 30.19, 'lipoC3S3': 11.63, 'lipoC3S2': 7.7, 'rot1': 0, 'rot0': 0, 'rot3': 0, 'rot2': 0, 'state': 'normal', 'yaw': -0.25, 'datetime': '2018-10-09 23:38:30.522657', 'mgs': 0, 'volt': 0.8545, 'depth': 0.851, 'time': 1, 'pitch': -2.62, 'roll': 1.92, 'pres': 175}
{'lipoC2': 7.3, 'lipoC3S1': 3.85, 'temp': 30.25, 'lipoC3S3': 11.63, 'lipoC3S2': 7.7, 'rot1': 0, 'rot0': 0, 'rot3': 0, 'rot2': 0, 'state': 'normal', 'yaw': -0.58, 'datetime': '2018-10-09 23:38:30.538468', 'mgs': 0, 'volt': 0.8545, 'depth': 0.851, 'time': 1, 'pitch': -3.89, 'roll': 1.59, 'pres': 175}
{'lipoC2': 7.32, 'lipoC3S1': 3.85, 'temp': 30.25, 'lipoC3S3': 11.63, 'lipoC3S2': 7.7, 'rot1': 0, 'rot0': 0, 'rot3': 0, 'rot2': 0, 'state': 'normal', 'yaw': -1.14, 'datetime': '2018-10-09 23:38:30.548003', 'mgs': 0, 'volt': 0.8545, 'depth': 0.851, 'time': 1, 'pitch': -4.85, 'roll': 1.34, 'pres': 175}
{'lipoC2': 7.3, 'lipoC3S1': 3.85, 'temp': 30.25, 'lipoC3S3': 11.63, 'lipoC3S2': 7.7, 'rot1': 0, 'rot0': 0, 'rot3': 0, 'rot2': 0, 'state': 'normal', 'yaw': -1.8, 'datetime': '2018-10-09 23:38:30.557492', 'mgs': 0, 'volt': 0.8545, 'depth': 0.851, 'time': 1, 'pitch': -5.32, 'roll': 1.32, 'pres': 175}
{'lipoC2': 7.3, 'lipoC3S1': 3.85, 'temp': 30.19, 'lipoC3S3': 11.63, 'lipoC3S2': 7.7, 'rot1': 0, 'rot0': 0, 'rot3': 0, 'rot2': 0, 'state': 'normal', 'yaw': -2.5, 'datetime': '2018-10-09 23:38:30.566990', 'mgs': 0, 'volt': 0.8545, 'depth': 0.851, 'time': 1, 'pitch': -5.46, 'roll': 1.54, 'pres': 175}
{'lipoC2': 7.32, 'lipoC3S1': 3.85, 'temp': 30.19, 'lipoC3S3': 11.63, 'lipoC3S2': 7.7, 'rot1': 0, 'rot0': 0, 'rot3': 0, 'rot2': 0, 'state': 'normal', 'yaw': -2.99, 'datetime': '2018-10-09 23:38:30.576508', 'mgs': 0, 'volt': 0.8545, 'depth': 0.851, 'time': 1, 'pitch': -5.51, 'roll': 1.81, 'pres': 175}
{'lipoC2': 7.3, 'lipoC3S1': 3.85, 'temp': 30.13, 'lipoC3S3': 11.63, 'lipoC3S2': 7.71, 'rot1': 0, 'rot0': 0, 'rot3': 0, 'rot2': 0, 'state': 'normal', 'yaw': -3.29, 'datetime': '2018-10-09 23:38:30.585950', 'mgs': 0, 'volt': 0.8545, 'depth': 0.851, 'time': 1, 'pitch': -5.63, 'roll': 1.91, 'pres': 175}
{'lipoC2': 7.3, 'lipoC3S1': 3.85, 'temp': 30.13, 'lipoC3S3': 11.63, 'lipoC3S2': 7.7, 'rot1': 0, 'rot0': 0, 'rot3': 0, 'rot2': 0, 'state': 'normal', 'yaw': -3.48, 'datetime': '2018-10-09 23:38:30.595373', 'mgs': 0, 'volt': 0.8545, 'depth': 0.851, 'time': 2, 'pitch': -5.57, 'roll': 1.8, 'pres': 175}
{'lipoC2': 7.3, 'lipoC3S1': 3.85, 'temp': 30.31, 'lipoC3S3': 11.63, 'lipoC3S2': 7.7, 'rot1': 0, 'rot0': 0, 'rot3': 0, 'rot2': 0, 'state': 'normal', 'yaw': -3.63, 'datetime': '2018-10-09 23:38:30.604791', 'mgs': 0, 'volt': 0.8594, 'depth': 0.928, 'time': 2, 'pitch': -5.23, 'roll': 1.54, 'pres': 176}
{'lipoC2': 7.3, 'lipoC3S1': 3.85, 'temp': 30.31, 'lipoC3S3': 11.63, 'lipoC3S2': 7.7, 'rot1': 0, 'rot0': 0, 'rot3': 0, 'rot2': 0, 'state': 'normal', 'yaw': -3.79, 'datetime': '2018-10-09 23:38:30.614228', 'mgs': 0, 'volt': 0.8545, 'depth': 0.851, 'time': 2, 'pitch': -4.8, 'roll': 1.22, 'pres': 175}
{'lipoC2': 7.3, 'lipoC3S1': 3.85, 'temp': 30.31, 'lipoC3S3': 11.63, 'lipoC3S2': 7.7, 'rot1': 0, 'rot0': 0, 'rot3': 0, 'rot2': 0, 'state': 'normal', 'yaw': -3.91, 'datetime': '2018-10-09 23:38:30.623622', 'mgs': 0, 'volt': 0.8545, 'depth': 0.851, 'time': 2, 'pitch': -4.62, 'roll': 0.88, 'pres': 175}
{'lipoC2': 7.3, 'lipoC3S1': 3.85, 'temp': 30.19, 'lipoC3S3': 11.63, 'lipoC3S2': 7.7, 'rot1': 0, 'rot0': 0, 'rot3': 0, 'rot2': 0, 'state': 'normal', 'yaw': -3.92, 'datetime': '2018-10-09 23:38:30.633029', 'mgs': 0, 'volt': 0.8496, 'depth': 0.775, 'time': 2, 'pitch': -4.66, 'roll': 0.63, 'pres': 174}
{'lipoC2': 7.3, 'lipoC3S1': 3.85, 'temp': 30.19, 'lipoC3S3': 11.63, 'lipoC3S2': 7.7, 'rot1': 0, 'rot0': 0, 'rot3': 0, 'rot2': 0, 'state': 'normal', 'yaw': -3.77, 'datetime': '2018-10-09 23:38:30.642466', 'mgs': 0, 'volt': 0.8496, 'depth': 0.775, 'time': 2, 'pitch': -4.75, 'roll': 0.43, 'pres': 174}
{'lipoC2': 7.3, 'lipoC3S1': 3.85, 'temp': 30.19, 'lipoC3S3': 11.63, 'lipoC3S2': 7.7, 'rot1': 0, 'rot0': 0, 'rot3': 0, 'rot2': 0, 'state': 'normal', 'yaw': -3.4, 'datetime': '2018-10-09 23:38:30.652112', 'mgs': 0, 'volt': 0.8447, 'depth': 0.699, 'time': 2, 'pitch': -5.09, 'roll': 0.12, 'pres': 173}
{'lipoC2': 7.3, 'lipoC3S1': 3.85, 'temp': 30.19, 'lipoC3S3': 11.63, 'lipoC3S2': 7.7, 'rot1': 0, 'rot0': 0, 'rot3': 0, 'rot2': 0, 'state': 'normal', 'yaw': -3.07, 'datetime': '2018-10-09 23:38:30.661665', 'mgs': 0, 'volt': 0.8447, 'depth': 0.699, 'time': 2, 'pitch': -5.72, 'roll': -0.04, 'pres': 173}
{'lipoC2': 7.3, 'lipoC3S1': 3.85, 'temp': 30.25, 'lipoC3S3': 11.63, 'lipoC3S2': 7.7, 'rot1': 0, 'rot0': 0, 'rot3': 0, 'rot2': 0, 'state': 'normal', 'yaw': -2.7, 'datetime': '2018-10-09 23:38:30.671138', 'mgs': 0, 'volt': 0.8447, 'depth': 0.699, 'time': 2, 'pitch': -6.37, 'roll': 0.02, 'pres': 173}
{'lipoC2': 7.3, 'lipoC3S1': 3.85, 'temp': 30.25, 'lipoC3S3': 11.63, 'lipoC3S2': 7.7, 'rot1': 0, 'rot0': 0, 'rot3': 0, 'rot2': 0, 'state': 'normal', 'yaw': -2.2, 'datetime': '2018-10-09 23:38:30.680570', 'mgs': 0, 'volt': 0.8398, 'depth': 0.623, 'time': 3, 'pitch': -6.84, 'roll': 0.3, 'pres': 172}
{'lipoC2': 7.3, 'lipoC3S1': 3.85, 'temp': 30.25, 'lipoC3S3': 11.63, 'lipoC3S2': 7.7, 'rot1': 0, 'rot0': 0, 'rot3': 0, 'rot2': 0, 'state': 'normal', 'yaw': -1.78, 'datetime': '2018-10-09 23:38:30.689993', 'mgs': 0, 'volt': 0.835, 'depth': 0.546, 'time': 3, 'pitch': -6.85, 'roll': 0.81, 'pres': 171}
{'lipoC2': 7.3, 'lipoC3S1': 3.85, 'temp': 30.19, 'lipoC3S3': 11.63, 'lipoC3S2': 7.7, 'rot1': 0, 'rot0': 0, 'rot3': 0, 'rot2': 0, 'state': 'normal', 'yaw': -1.46, 'datetime': '2018-10-09 23:38:30.760621', 'mgs': 0, 'volt': 0.835, 'depth': 0.546, 'time': 3, 'pitch': -6.63, 'roll': 1.39, 'pres': 171}
{'lipoC2': 7.3, 'lipoC3S1': 3.85, 'temp': 30.19, 'lipoC3S3': 11.63, 'lipoC3S2': 7.7, 'rot1': 0, 'rot0': 0, 'rot3': 0, 'rot2': 0, 'state': 'normal', 'yaw': -1.09, 'datetime': '2018-10-09 23:38:30.863905', 'mgs': 0, 'volt': 0.835, 'depth': 0.546, 'time': 3, 'pitch': -6.35, 'roll': 1.72, 'pres': 171}
{'lipoC2': 7.3, 'lipoC3S1': 3.85, 'temp': 30.13, 'lipoC3S3': 11.63, 'lipoC3S2': 7.7, 'rot1': 0, 'rot0': 0, 'rot3': 0, 'rot2': 0, 'state': 'normal', 'yaw': -0.75, 'datetime': '2018-10-09 23:38:30.967092', 'mgs': 0, 'volt': 0.8301, 'depth': 0.47, 'time': 3, 'pitch': -6.06, 'roll': 1.7, 'pres': 170}
{'lipoC2': 7.3, 'lipoC3S1': 3.85, 'temp': 30.13, 'lipoC3S3': 11.63, 'lipoC3S2': 7.7, 'rot1': 0, 'rot0': 0, 'rot3': 0, 'rot2': 0, 'state': 'normal', 'yaw': -0.47, 'datetime': '2018-10-09 23:38:31.070321', 'mgs': 0, 'volt': 0.8301, 'depth': 0.47, 'time': 3, 'pitch': -5.75, 'roll': 1.6, 'pres': 170}
{'lipoC2': 7.3, 'lipoC3S1': 3.85, 'temp': 30.19, 'lipoC3S3': 11.63, 'lipoC3S2': 7.7, 'rot1': 0, 'rot0': 0, 'rot3': 0, 'rot2': 0, 'state': 'normal', 'yaw': -0.44, 'datetime': '2018-10-09 23:38:31.174204', 'mgs': 0, 'volt': 0.8301, 'depth': 0.47, 'time': 3, 'pitch': -5.52, 'roll': 1.75, 'pres': 170}
{'lipoC2': 7.3, 'lipoC3S1': 3.85, 'temp': 30.19, 'lipoC3S3': 11.63, 'lipoC3S2': 7.7, 'rot1': 0, 'rot0': 0, 'rot3': 0, 'rot2': 0, 'state': 'normal', 'yaw': -0.64, 'datetime': '2018-10-09 23:38:31.278075', 'mgs': 0, 'volt': 0.8252, 'depth': 0.394, 'time': 3, 'pitch': -5.66, 'roll': 2.27, 'pres': 169}
{'lipoC2': 7.3, 'lipoC3S1': 3.85, 'temp': 30.19, 'lipoC3S3': 11.63, 'lipoC3S2': 7.7, 'rot1': 0, 'rot0': 0, 'rot3': 0, 'rot2': 0, 'state': 'normal', 'yaw': -0.69, 'datetime': '2018-10-09 23:38:31.385413', 'mgs': 0, 'volt': 0.8252, 'depth': 0.394, 'time': 3, 'pitch': -5.94, 'roll': 2.8, 'pres': 169}
{'lipoC2': 7.3, 'lipoC3S1': 3.85, 'temp': 30.19, 'lipoC3S3': 11.63, 'lipoC3S2': 7.7, 'rot1': 0, 'rot0': 0, 'rot3': 0, 'rot2': 0, 'state': 'normal', 'yaw': -0.76, 'datetime': '2018-10-09 23:38:31.489516', 'mgs': 0, 'volt': 0.8252, 'depth': 0.394, 'time': 3, 'pitch': -5.86, 'roll': 3.47, 'pres': 169}
{'lipoC2': 7.3, 'lipoC3S1': 3.85, 'temp': 30.19, 'lipoC3S3': 11.63, 'lipoC3S2': 7.7, 'rot1': 0, 'rot0': 0, 'rot3': 0, 'rot2': 0, 'state': 'normal', 'yaw': -0.66, 'datetime': '2018-10-09 23:38:31.594018', 'mgs': 0, 'volt': 0.8252, 'depth': 0.394, 'time': 4, 'pitch': -5.16, 'roll': 4.24, 'pres': 169}
{'lipoC2': 7.3, 'lipoC3S1': 3.85, 'temp': 30.25, 'lipoC3S3': 11.63, 'lipoC3S2': 7.7, 'rot1': 0, 'rot0': 0, 'rot3': 0, 'rot2': 0, 'state': 'normal', 'yaw': -0.45, 'datetime': '2018-10-09 23:38:31.697185', 'mgs': 0, 'volt': 0.8203, 'depth': 0.317, 'time': 4, 'pitch': -3.86, 'roll': 4.71, 'pres': 168}
{'lipoC2': 7.3, 'lipoC3S1': 3.85, 'temp': 30.25, 'lipoC3S3': 11.63, 'lipoC3S2': 7.7, 'rot1': 0, 'rot0': 0, 'rot3': 0, 'rot2': 0, 'state': 'normal', 'yaw': -0.46, 'datetime': '2018-10-09 23:38:31.801799', 'mgs': 0, 'volt': 0.8203, 'depth': 0.317, 'time': 4, 'pitch': -2.72, 'roll': 4.99, 'pres': 168}
{'lipoC2': 7.3, 'lipoC3S1': 3.85, 'temp': 30.25, 'lipoC3S3': 11.63, 'lipoC3S2': 7.7, 'rot1': 0, 'rot0': 0, 'rot3': 0, 'rot2': 0, 'state': 'normal', 'yaw': -0.35, 'datetime': '2018-10-09 23:38:31.904834', 'mgs': 0, 'volt': 0.8203, 'depth': 0.317, 'time': 4, 'pitch': -2.29, 'roll': 4.55, 'pres': 168}
{'lipoC2': 7.3, 'lipoC3S1': 3.85, 'temp': 30.25, 'lipoC3S3': 11.63, 'lipoC3S2': 7.7, 'rot1': 0, 'rot0': 0, 'rot3': 0, 'rot2': 0, 'state': 'normal', 'yaw': -0.08, 'datetime': '2018-10-09 23:38:32.008412', 'mgs': 0, 'volt': 0.8203, 'depth': 0.317, 'time': 4, 'pitch': -2.65, 'roll': 3.42, 'pres': 168}
{'lipoC2': 7.3, 'lipoC3S1': 3.85, 'temp': 30.25, 'lipoC3S3': 11.63, 'lipoC3S2': 7.7, 'rot1': 0, 'rot0': 0, 'rot3': 0, 'rot2': 0, 'state': 'normal', 'yaw': 0.08, 'datetime': '2018-10-09 23:38:32.112695', 'mgs': 0, 'volt': 0.8203, 'depth': 0.317, 'time': 4, 'pitch': -3.41, 'roll': 2.25, 'pres': 168}
{'lipoC2': 7.3, 'lipoC3S1': 3.85, 'temp': 30.19, 'lipoC3S3': 11.63, 'lipoC3S2': 7.7, 'rot1': 0, 'rot0': 0, 'rot3': 0, 'rot2': 0, 'state': 'normal', 'yaw': 0.06, 'datetime': '2018-10-09 23:38:32.215773', 'mgs': 0, 'volt': 0.8203, 'depth': 0.317, 'time': 4, 'pitch': -4.31, 'roll': 1.38, 'pres': 168}
{'lipoC2': 7.3, 'lipoC3S1': 3.85, 'temp': 30.19, 'lipoC3S3': 11.63, 'lipoC3S2': 7.7, 'rot1': 0, 'rot0': 0, 'rot3': 0, 'rot2': 0, 'state': 'normal', 'yaw': -0.06, 'datetime': '2018-10-09 23:38:32.319057', 'mgs': 0, 'volt': 0.8203, 'depth': 0.317, 'time': 4, 'pitch': -4.7, 'roll': 1.09, 'pres': 168}
{'lipoC2': 7.3, 'lipoC3S1': 3.85, 'temp': 30.19, 'lipoC3S3': 11.63, 'lipoC3S2': 7.71, 'rot1': 0, 'rot0': 0, 'rot3': 0, 'rot2': 0, 'state': 'normal', 'yaw': -0.32, 'datetime': '2018-10-09 23:38:32.422029', 'mgs': 0, 'volt': 0.8203, 'depth': 0.317, 'time': 4, 'pitch': -4.64, 'roll': 1.32, 'pres': 168}
{'lipoC2': 7.3, 'lipoC3S1': 3.85, 'temp': 30.19, 'lipoC3S3': 11.63, 'lipoC3S2': 7.7, 'rot1': 0, 'rot0': 0, 'rot3': 0, 'rot2': 0, 'state': 'normal', 'yaw': -0.65, 'datetime': '2018-10-09 23:38:32.525345', 'mgs': 0, 'volt': 0.8154, 'depth': 0.241, 'time': 4, 'pitch': -4.31, 'roll': 2.18, 'pres': 167}
{'lipoC2': 7.3, 'lipoC3S1': 3.85, 'temp': 30.25, 'lipoC3S3': 11.63, 'lipoC3S2': 7.7, 'rot1': 0, 'rot0': 0, 'rot3': 0, 'rot2': 0, 'state': 'normal', 'yaw': -0.62, 'datetime': '2018-10-09 23:38:32.628507', 'mgs': 0, 'volt': 0.8203, 'depth': 0.317, 'time': 5, 'pitch': -4.04, 'roll': 3.05, 'pres': 168}
{'lipoC2': 7.3, 'lipoC3S1': 3.85, 'temp': 30.25, 'lipoC3S3': 11.63, 'lipoC3S2': 7.71, 'rot1': 0, 'rot0': 0, 'rot3': 0, 'rot2': 0, 'state': 'normal', 'yaw': -0.1, 'datetime': '2018-10-09 23:38:32.731713', 'mgs': 0, 'volt': 0.8154, 'depth': 0.241, 'time': 5, 'pitch': -4.16, 'roll': 3.42, 'pres': 167}
{'lipoC2': 7.3, 'lipoC3S1': 3.85, 'temp': 30.25, 'lipoC3S3': 11.63, 'lipoC3S2': 7.7, 'rot1': 0, 'rot0': 0, 'rot3': 0, 'rot2': 0, 'state': 'normal', 'yaw': 0.76, 'datetime': '2018-10-09 23:38:32.834951', 'mgs': 0, 'volt': 0.8154, 'depth': 0.241, 'time': 5, 'pitch': -4.89, 'roll': 3.0, 'pres': 167}
{'lipoC2': 7.32, 'lipoC3S1': 3.85, 'temp': 30.25, 'lipoC3S3': 11.63, 'lipoC3S2': 7.7, 'rot1': 0, 'rot0': 0, 'rot3': 0, 'rot2': 0, 'state': 'normal', 'yaw': 1.84, 'datetime': '2018-10-09 23:38:32.938153', 'mgs': 0, 'volt': 0.8154, 'depth': 0.241, 'time': 5, 'pitch': -6.26, 'roll': 1.84, 'pres': 167}
{'lipoC2': 7.3, 'lipoC3S1': 3.85, 'temp': 30.25, 'lipoC3S3': 11.63, 'lipoC3S2': 7.7, 'rot1': 0, 'rot0': 0, 'rot3': 0, 'rot2': 0, 'state': 'normal', 'yaw': 2.66, 'datetime': '2018-10-09 23:38:33.041259', 'mgs': 0, 'volt': 0.8203, 'depth': 0.317, 'time': 5, 'pitch': -7.49, 'roll': 0.72, 'pres': 168}
{'lipoC2': 7.3, 'lipoC3S1': 3.85, 'temp': 30.19, 'lipoC3S3': 11.63, 'lipoC3S2': 7.7, 'rot1': 0, 'rot0': 0, 'rot3': 0, 'rot2': 0, 'state': 'normal', 'yaw': 3.1, 'datetime': '2018-10-09 23:38:33.145180', 'mgs': 0, 'volt': 0.8154, 'depth': 0.241, 'time': 5, 'pitch': -8.32, 'roll': 0.1, 'pres': 167}
{'lipoC2': 7.3, 'lipoC3S1': 3.85, 'temp': 30.19, 'lipoC3S3': 11.63, 'lipoC3S2': 7.7, 'rot1': 0, 'rot0': 0, 'rot3': 0, 'rot2': 0, 'state': 'normal', 'yaw': 3.12, 'datetime': '2018-10-09 23:38:33.248364', 'mgs': 0, 'volt': 0.8203, 'depth': 0.317, 'time': 5, 'pitch': -8.65, 'roll': 0.32, 'pres': 168}
{'lipoC2': 7.3, 'lipoC3S1': 3.85, 'temp': 30.19, 'lipoC3S3': 11.63, 'lipoC3S2': 7.7, 'rot1': 0, 'rot0': 0, 'rot3': 0, 'rot2': 0, 'state': 'normal', 'yaw': 2.82, 'datetime': '2018-10-09 23:38:33.353005', 'mgs': 0, 'volt': 0.8203, 'depth': 0.317, 'time': 5, 'pitch': -8.38, 'roll': 1.29, 'pres': 168}
{'lipoC2': 7.3, 'lipoC3S1': 3.85, 'temp': 30.19, 'lipoC3S3': 11.63, 'lipoC3S2': 7.7, 'rot1': 0, 'rot0': 0, 'rot3': 0, 'rot2': 0, 'state': 'normal', 'yaw': 2.31, 'datetime': '2018-10-09 23:38:33.456204', 'mgs': 0, 'volt': 0.8203, 'depth': 0.317, 'time': 5, 'pitch': -7.61, 'roll': 3.03, 'pres': 168}
{'lipoC2': 7.3, 'lipoC3S1': 3.85, 'temp': 30.19, 'lipoC3S3': 11.63, 'lipoC3S2': 7.7, 'rot1': 0, 'rot0': 0, 'rot3': 0, 'rot2': 0, 'state': 'normal', 'yaw': 1.98, 'datetime': '2018-10-09 23:38:33.557601', 'mgs': 0, 'volt': 0.8203, 'depth': 0.317, 'time': 6, 'pitch': -6.65, 'roll': 4.58, 'pres': 168}
{'lipoC2': 7.3, 'lipoC3S1': 3.85, 'temp': 30.19, 'lipoC3S3': 11.63, 'lipoC3S2': 7.7, 'rot1': 0, 'rot0': 0, 'rot3': 0, 'rot2': 0, 'state': 'normal', 'yaw': 1.86, 'datetime': '2018-10-09 23:38:33.663798', 'mgs': 0, 'volt': 0.8203, 'depth': 0.317, 'time': 6, 'pitch': -5.94, 'roll': 5.46, 'pres': 168}
{'lipoC2': 7.3, 'lipoC3S1': 3.85, 'temp': 30.19, 'lipoC3S3': 11.63, 'lipoC3S2': 7.7, 'rot1': 0, 'rot0': 0, 'rot3': 0, 'rot2': 0, 'state': 'normal', 'yaw': 1.94, 'datetime': '2018-10-09 23:38:33.767015', 'mgs': 0, 'volt': 0.8252, 'depth': 0.394, 'time': 6, 'pitch': -5.89, 'roll': 5.31, 'pres': 169}
{'lipoC2': 7.3, 'lipoC3S1': 3.85, 'temp': 30.25, 'lipoC3S3': 11.63, 'lipoC3S2': 7.7, 'rot1': 0, 'rot0': 0, 'rot3': 0, 'rot2': 0, 'state': 'normal', 'yaw': 2.23, 'datetime': '2018-10-09 23:38:33.870196', 'mgs': 0, 'volt': 0.8252, 'depth': 0.394, 'time': 6, 'pitch': -6.25, 'roll': 4.42, 'pres': 169}
{'lipoC2': 7.3, 'lipoC3S1': 3.85, 'temp': 30.25, 'lipoC3S3': 11.63, 'lipoC3S2': 7.7, 'rot1': 0, 'rot0': 0, 'rot3': 0, 'rot2': 0, 'state': 'normal', 'yaw': 2.3, 'datetime': '2018-10-09 23:38:33.973461', 'mgs': 0, 'volt': 0.8301, 'depth': 0.47, 'time': 6, 'pitch': -7.14, 'roll': 3.4, 'pres': 170}
{'lipoC2': 7.3, 'lipoC3S1': 3.85, 'temp': 30.25, 'lipoC3S3': 11.63, 'lipoC3S2': 7.7, 'rot1': 0, 'rot0': 0, 'rot3': 0, 'rot2': 0, 'state': 'normal', 'yaw': 2.02, 'datetime': '2018-10-09 23:38:34.076837', 'mgs': 0, 'volt': 0.8301, 'depth': 0.47, 'time': 6, 'pitch': -8.03, 'roll': 2.82, 'pres': 170}
{'lipoC2': 7.3, 'lipoC3S1': 3.85, 'temp': 30.19, 'lipoC3S3': 11.63, 'lipoC3S2': 7.7, 'rot1': 0, 'rot0': 0, 'rot3': 0, 'rot2': 0, 'state': 'normal', 'yaw': 1.13, 'datetime': '2018-10-09 23:38:34.180053', 'mgs': 0, 'volt': 0.8301, 'depth': 0.47, 'time': 6, 'pitch': -8.14, 'roll': 3.07, 'pres': 170}
{'lipoC2': 7.3, 'lipoC3S1': 3.85, 'temp': 30.19, 'lipoC3S3': 11.63, 'lipoC3S2': 7.7, 'rot1': 0, 'rot0': 0, 'rot3': 0, 'rot2': 0, 'state': 'normal', 'yaw': 0.49, 'datetime': '2018-10-09 23:38:34.283115', 'mgs': 0, 'volt': 0.8301, 'depth': 0.47, 'time': 6, 'pitch': -7.22, 'roll': 3.42, 'pres': 170}
{'lipoC2': 7.3, 'lipoC3S1': 3.85, 'temp': 30.19, 'lipoC3S3': 11.63, 'lipoC3S2': 7.7, 'rot1': 0, 'rot0': 0, 'rot3': 0, 'rot2': 0, 'state': 'normal', 'yaw': -0.34, 'datetime': '2018-10-09 23:38:34.386486', 'mgs': 0, 'volt': 0.8301, 'depth': 0.47, 'time': 6, 'pitch': -5.79, 'roll': 3.76, 'pres': 170}
{'lipoC2': 7.3, 'lipoC3S1': 3.85, 'temp': 30.19, 'lipoC3S3': 11.63, 'lipoC3S2': 7.7, 'rot1': 0, 'rot0': 0, 'rot3': 0, 'rot2': 0, 'state': 'normal', 'yaw': -1.13, 'datetime': '2018-10-09 23:38:34.489636', 'mgs': 0, 'volt': 0.8301, 'depth': 0.47, 'time': 6, 'pitch': -4.78, 'roll': 3.79, 'pres': 170}
{'lipoC2': 7.3, 'lipoC3S1': 3.85, 'temp': 30.19, 'lipoC3S3': 11.63, 'lipoC3S2': 7.7, 'rot1': 0, 'rot0': 0, 'rot3': 0, 'rot2': 0, 'state': 'normal', 'yaw': -1.6, 'datetime': '2018-10-09 23:38:34.592837', 'mgs': 0, 'volt': 0.8301, 'depth': 0.47, 'time': 7, 'pitch': -5.1, 'roll': 3.45, 'pres': 170}
{'lipoC2': 7.3, 'lipoC3S1': 3.85, 'temp': 30.19, 'lipoC3S3': 11.63, 'lipoC3S2': 7.7, 'rot1': 0, 'rot0': 0, 'rot3': 0, 'rot2': 0, 'state': 'normal', 'yaw': -2.07, 'datetime': '2018-10-09 23:38:34.696102', 'mgs': 0, 'volt': 0.8301, 'depth': 0.47, 'time': 7, 'pitch': -6.2, 'roll': 3.06, 'pres': 170}
{'lipoC2': 7.3, 'lipoC3S1': 3.85, 'temp': 30.19, 'lipoC3S3': 11.63, 'lipoC3S2': 7.7, 'rot1': 0, 'rot0': 0, 'rot3': 0, 'rot2': 0, 'state': 'normal', 'yaw': -3.03, 'datetime': '2018-10-09 23:38:34.799426', 'mgs': 0, 'volt': 0.835, 'depth': 0.546, 'time': 7, 'pitch': -7.51, 'roll': 3.05, 'pres': 171}
{'lipoC2': 7.3, 'lipoC3S1': 3.85, 'temp': 30.25, 'lipoC3S3': 11.63, 'lipoC3S2': 7.71, 'rot1': 0, 'rot0': 0, 'rot3': 0, 'rot2': 0, 'state': 'normal', 'yaw': -4.22, 'datetime': '2018-10-09 23:38:34.902939', 'mgs': 0, 'volt': 0.835, 'depth': 0.546, 'time': 7, 'pitch': -7.92, 'roll': 3.45, 'pres': 171}
{'lipoC2': 7.3, 'lipoC3S1': 3.85, 'temp': 30.25, 'lipoC3S3': 11.63, 'lipoC3S2': 7.7, 'rot1': 0, 'rot0': 0, 'rot3': 0, 'rot2': 0, 'state': 'normal', 'yaw': -5.43, 'datetime': '2018-10-09 23:38:35.007355', 'mgs': 0, 'volt': 0.835, 'depth': 0.546, 'time': 7, 'pitch': -7.55, 'roll': 3.82, 'pres': 171}
{'lipoC2': 7.3, 'lipoC3S1': 3.85, 'temp': 30.19, 'lipoC3S3': 11.63, 'lipoC3S2': 7.7, 'rot1': 0, 'rot0': 0, 'rot3': 0, 'rot2': 0, 'state': 'normal', 'yaw': -6.55, 'datetime': '2018-10-09 23:38:35.110258', 'mgs': 0, 'volt': 0.8301, 'depth': 0.47, 'time': 7, 'pitch': -6.54, 'roll': 3.9, 'pres': 170}
{'lipoC2': 7.3, 'lipoC3S1': 3.85, 'temp': 30.19, 'lipoC3S3': 11.63, 'lipoC3S2': 7.7, 'rot1': 0, 'rot0': 0, 'rot3': 0, 'rot2': 0, 'state': 'normal', 'yaw': -7.24, 'datetime': '2018-10-09 23:38:35.213473', 'mgs': 0, 'volt': 0.8301, 'depth': 0.47, 'time': 7, 'pitch': -5.26, 'roll': 3.53, 'pres': 170}
{'lipoC2': 7.3, 'lipoC3S1': 3.85, 'temp': 30.19, 'lipoC3S3': 11.63, 'lipoC3S2': 7.7, 'rot1': 0, 'rot0': 0, 'rot3': 0, 'rot2': 0, 'state': 'normal', 'yaw': -7.59, 'datetime': '2018-10-09 23:38:35.317946', 'mgs': 0, 'volt': 0.8252, 'depth': 0.394, 'time': 7, 'pitch': -4.02, 'roll': 2.86, 'pres': 169}
{'lipoC2': 7.3, 'lipoC3S1': 3.85, 'temp': 30.19, 'lipoC3S3': 11.63, 'lipoC3S2': 7.7, 'rot1': 0, 'rot0': 0, 'rot3': 0, 'rot2': 0, 'state': 'normal', 'yaw': -7.51, 'datetime': '2018-10-09 23:38:35.421295', 'mgs': 0, 'volt': 0.8252, 'depth': 0.394, 'time': 7, 'pitch': -3.24, 'roll': 1.8, 'pres': 169}
{'lipoC2': 7.3, 'lipoC3S1': 3.85, 'temp': 30.19, 'lipoC3S3': 11.63, 'lipoC3S2': 7.7, 'rot1': 0, 'rot0': 0, 'rot3': 0, 'rot2': 0, 'state': 'normal', 'yaw': -7.1, 'datetime': '2018-10-09 23:38:35.524471', 'mgs': 0, 'volt': 0.8252, 'depth': 0.394, 'time': 7, 'pitch': -3.71, 'roll': 0.82, 'pres': 169}
{'lipoC2': 7.3, 'lipoC3S1': 3.85, 'temp': 30.19, 'lipoC3S3': 11.63, 'lipoC3S2': 7.7, 'rot1': 0, 'rot0': 0, 'rot3': 0, 'rot2': 0, 'state': 'normal', 'yaw': -6.59, 'datetime': '2018-10-09 23:38:35.627976', 'mgs': 0, 'volt': 0.8252, 'depth': 0.394, 'time': 8, 'pitch': -4.79, 'roll': 0.08, 'pres': 169}
{'lipoC2': 7.3, 'lipoC3S1': 3.85, 'temp': 30.19, 'lipoC3S3': 11.63, 'lipoC3S2': 7.7, 'rot1': 0, 'rot0': 0, 'rot3': 0, 'rot2': 0, 'state': 'normal', 'yaw': -6.24, 'datetime': '2018-10-09 23:38:35.730893', 'mgs': 0, 'volt': 0.8252, 'depth': 0.394, 'time': 8, 'pitch': -5.37, 'roll': -0.22, 'pres': 169}
{'lipoC2': 7.3, 'lipoC3S1': 3.85, 'temp': 30.25, 'lipoC3S3': 11.63, 'lipoC3S2': 7.7, 'rot1': 0, 'rot0': 0, 'rot3': 0, 'rot2': 0, 'state': 'normal', 'yaw': -5.38, 'datetime': '2018-10-09 23:38:35.834127', 'mgs': 0, 'volt': 0.8203, 'depth': 0.317, 'time': 8, 'pitch': -5.19, 'roll': -0.45, 'pres': 168}
{'lipoC2': 7.3, 'lipoC3S1': 3.85, 'temp': 30.25, 'lipoC3S3': 11.63, 'lipoC3S2': 7.7, 'rot1': 0, 'rot0': 0, 'rot3': 0, 'rot2': 0, 'state': 'normal', 'yaw': -4.9, 'datetime': '2018-10-09 23:38:35.937323', 'mgs': 0, 'volt': 0.8154, 'depth': 0.241, 'time': 8, 'pitch': -4.56, 'roll': -0.14, 'pres': 167}
{'lipoC2': 7.3, 'lipoC3S1': 3.85, 'temp': 30.13, 'lipoC3S3': 11.63, 'lipoC3S2': 7.7, 'rot1': 0, 'rot0': 0, 'rot3': 0, 'rot2': 0, 'state': 'normal', 'yaw': -4.54, 'datetime': '2018-10-09 23:38:36.040821', 'mgs': 0, 'volt': 0.8154, 'depth': 0.241, 'time': 8, 'pitch': -3.78, 'roll': 0.41, 'pres': 167}
{'lipoC2': 7.3, 'lipoC3S1': 3.85, 'temp': 30.13, 'lipoC3S3': 11.63, 'lipoC3S2': 7.7, 'rot1': 0, 'rot0': 0, 'rot3': 0, 'rot2': 0, 'state': 'normal', 'yaw': -4.22, 'datetime': '2018-10-09 23:38:36.144119', 'mgs': 0, 'volt': 0.8154, 'depth': 0.241, 'time': 8, 'pitch': -2.86, 'roll': 1.0, 'pres': 167}
{'lipoC2': 7.3, 'lipoC3S1': 3.85, 'temp': 30.13, 'lipoC3S3': 11.63, 'lipoC3S2': 7.7, 'rot1': 0, 'rot0': 0, 'rot3': 0, 'rot2': 0, 'state': 'normal', 'yaw': -3.65, 'datetime': '2018-10-09 23:38:36.247208', 'mgs': 0, 'volt': 0.8154, 'depth': 0.241, 'time': 8, 'pitch': -2.36, 'roll': 1.31, 'pres': 167}
{'lipoC2': 7.3, 'lipoC3S1': 3.85, 'temp': 30.13, 'lipoC3S3': 11.63, 'lipoC3S2': 7.7, 'rot1': 0, 'rot0': 0, 'rot3': 0, 'rot2': 0, 'state': 'normal', 'yaw': -2.63, 'datetime': '2018-10-09 23:38:36.351336', 'mgs': 0, 'volt': 0.8154, 'depth': 0.241, 'time': 8, 'pitch': -2.68, 'roll': 1.36, 'pres': 167}
{'lipoC2': 7.3, 'lipoC3S1': 3.85, 'temp': 30.13, 'lipoC3S3': 11.63, 'lipoC3S2': 7.7, 'rot1': 0, 'rot0': 0, 'rot3': 0, 'rot2': 0, 'state': 'normal', 'yaw': -1.29, 'datetime': '2018-10-09 23:38:36.454569', 'mgs': 0, 'volt': 0.8105, 'depth': 0.165, 'time': 8, 'pitch': -3.51, 'roll': 1.27, 'pres': 166}
{'lipoC2': 7.3, 'lipoC3S1': 3.85, 'temp': 30.19, 'lipoC3S3': 11.63, 'lipoC3S2': 7.7, 'rot1': 0, 'rot0': 0, 'rot3': 0, 'rot2': 0, 'state': 'normal', 'yaw': -0.17, 'datetime': '2018-10-09 23:38:36.558242', 'mgs': 0, 'volt': 0.8105, 'depth': 0.165, 'time': 9, 'pitch': -4.14, 'roll': 1.29, 'pres': 166}
{'lipoC2': 7.3, 'lipoC3S1': 3.85, 'temp': 30.19, 'lipoC3S3': 11.63, 'lipoC3S2': 7.7, 'rot1': 0, 'rot0': 0, 'rot3': 0, 'rot2': 0, 'state': 'normal', 'yaw': 0.88, 'datetime': '2018-10-09 23:38:36.662241', 'mgs': 0, 'volt': 0.8154, 'depth': 0.241, 'time': 9, 'pitch': -4.63, 'roll': 1.32, 'pres': 167}
{'lipoC2': 7.3, 'lipoC3S1': 3.85, 'temp': 30.25, 'lipoC3S3': 11.63, 'lipoC3S2': 7.7, 'rot1': 0, 'rot0': 0, 'rot3': 0, 'rot2': 0, 'state': 'normal', 'yaw': 1.85, 'datetime': '2018-10-09 23:38:36.765399', 'mgs': 0, 'volt': 0.8154, 'depth': 0.241, 'time': 9, 'pitch': -5.1, 'roll': 1.32, 'pres': 167}
{'lipoC2': 7.3, 'lipoC3S1': 3.85, 'temp': 30.25, 'lipoC3S3': 11.63, 'lipoC3S2': 7.7, 'rot1': 0, 'rot0': 0, 'rot3': 0, 'rot2': 0, 'state': 'normal', 'yaw': 2.41, 'datetime': '2018-10-09 23:38:36.869152', 'mgs': 0, 'volt': 0.8105, 'depth': 0.165, 'time': 9, 'pitch': -5.33, 'roll': 1.52, 'pres': 166}
{'lipoC2': 7.3, 'lipoC3S1': 3.85, 'temp': 30.25, 'lipoC3S3': 11.63, 'lipoC3S2': 7.7, 'rot1': 0, 'rot0': 0, 'rot3': 0, 'rot2': 0, 'state': 'normal', 'yaw': 2.84, 'datetime': '2018-10-09 23:38:36.973234', 'mgs': 0, 'volt': 0.8154, 'depth': 0.241, 'time': 9, 'pitch': -5.43, 'roll': 1.94, 'pres': 167}
{'lipoC2': 7.3, 'lipoC3S1': 3.85, 'temp': 30.25, 'lipoC3S3': 11.63, 'lipoC3S2': 7.7, 'rot1': 0, 'rot0': 0, 'rot3': 0, 'rot2': 0, 'state': 'normal', 'yaw': 3.44, 'datetime': '2018-10-09 23:38:37.076605', 'mgs': 0, 'volt': 0.8154, 'depth': 0.241, 'time': 9, 'pitch': -5.38, 'roll': 2.53, 'pres': 167}
{'lipoC2': 7.3, 'lipoC3S1': 3.85, 'temp': 30.25, 'lipoC3S3': 11.63, 'lipoC3S2': 7.7, 'rot1': 0, 'rot0': 0, 'rot3': 0, 'rot2': 0, 'state': 'normal', 'yaw': 4.01, 'datetime': '2018-10-09 23:38:37.179702', 'mgs': 0, 'volt': 0.8154, 'depth': 0.241, 'time': 9, 'pitch': -5.5, 'roll': 3.09, 'pres': 167}
{'lipoC2': 7.3, 'lipoC3S1': 3.85, 'temp': 30.19, 'lipoC3S3': 11.63, 'lipoC3S2': 7.7, 'rot1': 0, 'rot0': 0, 'rot3': 0, 'rot2': 0, 'state': 'normal', 'yaw': 4.61, 'datetime': '2018-10-09 23:38:37.282881', 'mgs': 0, 'volt': 0.8154, 'depth': 0.241, 'time': 9, 'pitch': -5.81, 'roll': 3.52, 'pres': 167}
{'lipoC2': 7.3, 'lipoC3S1': 3.85, 'temp': 30.19, 'lipoC3S3': 11.63, 'lipoC3S2': 7.7, 'rot1': 0, 'rot0': 0, 'rot3': 0, 'rot2': 0, 'state': 'normal', 'yaw': 5.25, 'datetime': '2018-10-09 23:38:37.386123', 'mgs': 0, 'volt': 0.8154, 'depth': 0.241, 'time': 9, 'pitch': -6.03, 'roll': 3.65, 'pres': 167}
{'lipoC2': 7.3, 'lipoC3S1': 3.85, 'temp': 30.19, 'lipoC3S3': 11.63, 'lipoC3S2': 7.7, 'rot1': 0, 'rot0': 0, 'rot3': 0, 'rot2': 0, 'state': 'normal', 'yaw': 5.68, 'datetime': '2018-10-09 23:38:37.489367', 'mgs': 0, 'volt': 0.8203, 'depth': 0.317, 'time': 9, 'pitch': -6.06, 'roll': 3.45, 'pres': 168}
{'lipoC2': 7.3, 'lipoC3S1': 3.85, 'temp': 30.19, 'lipoC3S3': 11.63, 'lipoC3S2': 7.7, 'rot1': 0, 'rot0': 0, 'rot3': 0, 'rot2': 0, 'state': 'normal', 'yaw': 6.08, 'datetime': '2018-10-09 23:38:37.592671', 'mgs': 0, 'volt': 0.8203, 'depth': 0.317, 'time': 10, 'pitch': -5.78, 'roll': 3.22, 'pres': 168}
{'lipoC2': 7.3, 'lipoC3S1': 3.85, 'temp': 30.19, 'lipoC3S3': 11.63, 'lipoC3S2': 7.7, 'rot1': 0, 'rot0': 0, 'rot3': 0, 'rot2': 0, 'state': 'normal', 'yaw': 6.71, 'datetime': '2018-10-09 23:38:37.696093', 'mgs': 0, 'volt': 0.8203, 'depth': 0.317, 'time': 10, 'pitch': -5.28, 'roll': 3.1, 'pres': 168}
{'lipoC2': 7.3, 'lipoC3S1': 3.85, 'temp': 30.25, 'lipoC3S3': 11.63, 'lipoC3S2': 7.7, 'rot1': 0, 'rot0': 0, 'rot3': 0, 'rot2': 0, 'state': 'normal', 'yaw': 7.39, 'datetime': '2018-10-09 23:38:37.800095', 'mgs': 0, 'volt': 0.8203, 'depth': 0.317, 'time': 10, 'pitch': -5.07, 'roll': 3.23, 'pres': 168}
{'lipoC2': 7.3, 'lipoC3S1': 3.85, 'temp': 30.25, 'lipoC3S3': 11.63, 'lipoC3S2': 7.7, 'rot1': 0, 'rot0': 0, 'rot3': 0, 'rot2': 0, 'state': 'normal', 'yaw': 8.18, 'datetime': '2018-10-09 23:38:37.902646', 'mgs': 0, 'volt': 0.8203, 'depth': 0.317, 'time': 10, 'pitch': -5.35, 'roll': 3.38, 'pres': 168}
{'lipoC2': 7.3, 'lipoC3S1': 3.85, 'temp': 30.19, 'lipoC3S3': 11.63, 'lipoC3S2': 7.7, 'rot1': 0, 'rot0': 0, 'rot3': 0, 'rot2': 0, 'state': 'normal', 'yaw': 8.74, 'datetime': '2018-10-09 23:38:38.006340', 'mgs': 0, 'volt': 0.8252, 'depth': 0.394, 'time': 10, 'pitch': -6.1, 'roll': 3.58, 'pres': 169}
{'lipoC2': 7.3, 'lipoC3S1': 3.85, 'temp': 30.19, 'lipoC3S3': 11.63, 'lipoC3S2': 7.71, 'rot1': 0, 'rot0': 0, 'rot3': 0, 'rot2': 0, 'state': 'normal', 'yaw': 9.05, 'datetime': '2018-10-09 23:38:38.109476', 'mgs': 0, 'volt': 0.8252, 'depth': 0.394, 'time': 10, 'pitch': -6.82, 'roll': 3.7, 'pres': 169}
{'lipoC2': 7.3, 'lipoC3S1': 3.85, 'temp': 30.19, 'lipoC3S3': 11.63, 'lipoC3S2': 7.7, 'rot1': 0, 'rot0': 0, 'rot3': 0, 'rot2': 0, 'state': 'normal', 'yaw': 9.49, 'datetime': '2018-10-09 23:38:38.214094', 'mgs': 0, 'volt': 0.8252, 'depth': 0.394, 'time': 10, 'pitch': -7.0, 'roll': 3.4, 'pres': 169}
{'lipoC2': 7.3, 'lipoC3S1': 3.85, 'temp': 30.19, 'lipoC3S3': 11.63, 'lipoC3S2': 7.7, 'rot1': 0, 'rot0': 0, 'rot3': 0, 'rot2': 0, 'state': 'normal', 'yaw': 9.68, 'datetime': '2018-10-09 23:38:38.317480', 'mgs': 0, 'volt': 0.8203, 'depth': 0.317, 'time': 10, 'pitch': -6.61, 'roll': 3.01, 'pres': 168}
{'lipoC2': 7.3, 'lipoC3S1': 3.85, 'temp': 30.19, 'lipoC3S3': 11.63, 'lipoC3S2': 7.7, 'rot1': 0, 'rot0': 0, 'rot3': 0, 'rot2': 0, 'state': 'normal', 'yaw': 9.62, 'datetime': '2018-10-09 23:38:38.420791', 'mgs': 0, 'volt': 0.8252, 'depth': 0.394, 'time': 10, 'pitch': -6.01, 'roll': 2.8, 'pres': 169}
{'lipoC2': 7.3, 'lipoC3S1': 3.85, 'temp': 30.19, 'lipoC3S3': 11.63, 'lipoC3S2': 7.7, 'rot1': 0, 'rot0': 0, 'rot3': 0, 'rot2': 0, 'state': 'normal', 'yaw': 9.45, 'datetime': '2018-10-09 23:38:38.525400', 'mgs': 0, 'volt': 0.8252, 'depth': 0.394, 'time': 10, 'pitch': -5.69, 'roll': 2.85, 'pres': 169}
{'lipoC2': 7.3, 'lipoC3S1': 3.85, 'temp': 30.19, 'lipoC3S3': 11.63, 'lipoC3S2': 7.7, 'rot1': 0, 'rot0': 0, 'rot3': 0, 'rot2': 0, 'state': 'normal', 'yaw': 8.95, 'datetime': '2018-10-09 23:38:38.628806', 'mgs': 0, 'volt': 0.8252, 'depth': 0.394, 'time': 11, 'pitch': -6.0, 'roll': 3.32, 'pres': 169}
{'lipoC2': 7.3, 'lipoC3S1': 3.85, 'temp': 30.19, 'lipoC3S3': 11.63, 'lipoC3S2': 7.7, 'rot1': 0, 'rot0': 0, 'rot3': 0, 'rot2': 0, 'state': 'normal', 'yaw': 8.85, 'datetime': '2018-10-09 23:38:38.732147', 'mgs': 0, 'volt': 0.8301, 'depth': 0.47, 'time': 11, 'pitch': -6.87, 'roll': 3.63, 'pres': 170}
{'lipoC2': 7.3, 'lipoC3S1': 3.85, 'temp': 30.19, 'lipoC3S3': 11.63, 'lipoC3S2': 7.7, 'rot1': 0, 'rot0': 0, 'rot3': 0, 'rot2': 0, 'state': 'normal', 'yaw': 8.9, 'datetime': '2018-10-09 23:38:38.835561', 'mgs': 0, 'volt': 0.8301, 'depth': 0.47, 'time': 11, 'pitch': -7.49, 'roll': 3.83, 'pres': 170}
{'lipoC2': 7.3, 'lipoC3S1': 3.85, 'temp': 30.19, 'lipoC3S3': 11.63, 'lipoC3S2': 7.7, 'rot1': 0, 'rot0': 0, 'rot3': 0, 'rot2': 0, 'state': 'normal', 'yaw': 9.04, 'datetime': '2018-10-09 23:38:38.938807', 'mgs': 0, 'volt': 0.8301, 'depth': 0.47, 'time': 11, 'pitch': -7.55, 'roll': 3.8, 'pres': 170}
{'lipoC2': 7.3, 'lipoC3S1': 3.85, 'temp': 30.19, 'lipoC3S3': 11.63, 'lipoC3S2': 7.7, 'rot1': 0, 'rot0': 0, 'rot3': 0, 'rot2': 0, 'state': 'normal', 'yaw': 9.19, 'datetime': '2018-10-09 23:38:39.042155', 'mgs': 0, 'volt': 0.8252, 'depth': 0.394, 'time': 11, 'pitch': -6.95, 'roll': 3.13, 'pres': 169}
{'lipoC2': 7.3, 'lipoC3S1': 3.85, 'temp': 30.19, 'lipoC3S3': 11.63, 'lipoC3S2': 7.71, 'rot1': 0, 'rot0': 0, 'rot3': 0, 'rot2': 0, 'state': 'normal', 'yaw': 8.9, 'datetime': '2018-10-09 23:38:39.145609', 'mgs': 0, 'volt': 0.8301, 'depth': 0.47, 'time': 11, 'pitch': -6.19, 'roll': 2.2, 'pres': 170}
{'lipoC2': 7.3, 'lipoC3S1': 3.85, 'temp': 30.13, 'lipoC3S3': 11.63, 'lipoC3S2': 7.7, 'rot1': 0, 'rot0': 0, 'rot3': 0, 'rot2': 0, 'state': 'normal', 'yaw': 8.87, 'datetime': '2018-10-09 23:38:39.248907', 'mgs': 0, 'volt': 0.8301, 'depth': 0.47, 'time': 11, 'pitch': -5.3, 'roll': 1.01, 'pres': 170}
{'lipoC2': 7.3, 'lipoC3S1': 3.85, 'temp': 30.13, 'lipoC3S3': 11.61, 'lipoC3S2': 7.7, 'rot1': 0, 'rot0': 0, 'rot3': 0, 'rot2': 0, 'state': 'normal', 'yaw': 8.87, 'datetime': '2018-10-09 23:38:39.352191', 'mgs': 0, 'volt': 0.8301, 'depth': 0.47, 'time': 11, 'pitch': -5.06, 'roll': 0.01, 'pres': 170}
{'lipoC2': 7.3, 'lipoC3S1': 3.85, 'temp': 30.19, 'lipoC3S3': 11.63, 'lipoC3S2': 7.7, 'rot1': 0, 'rot0': 0, 'rot3': 0, 'rot2': 0, 'state': 'normal', 'yaw': 8.7, 'datetime': '2018-10-09 23:38:39.455589', 'mgs': 0, 'volt': 0.8301, 'depth': 0.47, 'time': 11, 'pitch': -6.0, 'roll': -0.13, 'pres': 170}
{'lipoC2': 7.3, 'lipoC3S1': 3.85, 'temp': 30.19, 'lipoC3S3': 11.63, 'lipoC3S2': 7.7, 'rot1': 0, 'rot0': 0, 'rot3': 0, 'rot2': 0, 'state': 'normal', 'yaw': 8.43, 'datetime': '2018-10-09 23:38:39.559570', 'mgs': 0, 'volt': 0.8301, 'depth': 0.47, 'time': 11, 'pitch': -7.3, 'roll': 0.26, 'pres': 170}
{'lipoC2': 7.3, 'lipoC3S1': 3.85, 'temp': 30.19, 'lipoC3S3': 11.63, 'lipoC3S2': 7.7, 'rot1': 0, 'rot0': 0, 'rot3': 0, 'rot2': 0, 'state': 'normal', 'yaw': 8.25, 'datetime': '2018-10-09 23:38:39.662809', 'mgs': 0, 'volt': 0.8252, 'depth': 0.394, 'time': 12, 'pitch': -7.96, 'roll': 0.66, 'pres': 169}
{'lipoC2': 7.3, 'lipoC3S1': 3.85, 'temp': 30.19, 'lipoC3S3': 11.63, 'lipoC3S2': 7.71, 'rot1': 0, 'rot0': 0, 'rot3': 0, 'rot2': 0, 'state': 'normal', 'yaw': 7.59, 'datetime': '2018-10-09 23:38:39.767407', 'mgs': 0, 'volt': 0.8252, 'depth': 0.394, 'time': 12, 'pitch': -8.28, 'roll': 0.83, 'pres': 169}
{'lipoC2': 7.3, 'lipoC3S1': 3.85, 'temp': 30.19, 'lipoC3S3': 11.63, 'lipoC3S2': 7.7, 'rot1': 0, 'rot0': 0, 'rot3': 0, 'rot2': 0, 'state': 'normal', 'yaw': 6.56, 'datetime': '2018-10-09 23:38:39.870637', 'mgs': 0, 'volt': 0.8203, 'depth': 0.317, 'time': 12, 'pitch': -8.64, 'roll': 0.74, 'pres': 168}
{'lipoC2': 7.3, 'lipoC3S1': 3.85, 'temp': 30.19, 'lipoC3S3': 11.63, 'lipoC3S2': 7.7, 'rot1': 0, 'rot0': 0, 'rot3': 0, 'rot2': 0, 'state': 'normal', 'yaw': 5.39, 'datetime': '2018-10-09 23:38:39.974024', 'mgs': 0, 'volt': 0.8203, 'depth': 0.317, 'time': 12, 'pitch': -8.65, 'roll': 0.61, 'pres': 168}
{'lipoC2': 7.3, 'lipoC3S1': 3.85, 'temp': 30.19, 'lipoC3S3': 11.63, 'lipoC3S2': 7.7, 'rot1': 0, 'rot0': 0, 'rot3': 0, 'rot2': 0, 'state': 'normal', 'yaw': 4.4, 'datetime': '2018-10-09 23:38:40.078530', 'mgs': 0, 'volt': 0.8203, 'depth': 0.317, 'time': 12, 'pitch': -8.43, 'roll': 0.45, 'pres': 168}
{'lipoC2': 7.3, 'lipoC3S1': 3.85, 'temp': 30.19, 'lipoC3S3': 11.63, 'lipoC3S2': 7.7, 'rot1': 0, 'rot0': 0, 'rot3': 0, 'rot2': 0, 'state': 'normal', 'yaw': 3.53, 'datetime': '2018-10-09 23:38:40.181991', 'mgs': 0, 'volt': 0.8154, 'depth': 0.241, 'time': 12, 'pitch': -8.27, 'roll': 0.55, 'pres': 167}
{'lipoC2': 7.3, 'lipoC3S1': 3.85, 'temp': 30.19, 'lipoC3S3': 11.63, 'lipoC3S2': 7.7, 'rot1': 0, 'rot0': 0, 'rot3': 0, 'rot2': 0, 'state': 'normal', 'yaw': 2.85, 'datetime': '2018-10-09 23:38:40.285296', 'mgs': 0, 'volt': 0.8105, 'depth': 0.165, 'time': 12, 'pitch': -8.17, 'roll': 0.99, 'pres': 166}
{'lipoC2': 7.3, 'lipoC3S1': 3.85, 'temp': 30.19, 'lipoC3S3': 11.63, 'lipoC3S2': 7.7, 'rot1': 0, 'rot0': 0, 'rot3': 0, 'rot2': 0, 'state': 'normal', 'yaw': 2.04, 'datetime': '2018-10-09 23:38:40.388619', 'mgs': 0, 'volt': 0.8105, 'depth': 0.165, 'time': 12, 'pitch': -8.1, 'roll': 1.93, 'pres': 166}
{'lipoC2': 7.3, 'lipoC3S1': 3.85, 'temp': 30.19, 'lipoC3S3': 11.63, 'lipoC3S2': 7.7, 'rot1': 0, 'rot0': 0, 'rot3': 0, 'rot2': 0, 'state': 'normal', 'yaw': 1.17, 'datetime': '2018-10-09 23:38:40.491890', 'mgs': 0, 'volt': 0.8105, 'depth': 0.165, 'time': 12, 'pitch': -7.75, 'roll': 3.36, 'pres': 166}
{'lipoC2': 7.3, 'lipoC3S1': 3.85, 'temp': 30.19, 'lipoC3S3': 11.63, 'lipoC3S2': 7.7, 'rot1': 0, 'rot0': 0, 'rot3': 0, 'rot2': 0, 'state': 'normal', 'yaw': 0.67, 'datetime': '2018-10-09 23:38:40.595356', 'mgs': 0, 'volt': 0.8105, 'depth': 0.165, 'time': 13, 'pitch': -7.17, 'roll': 4.6, 'pres': 166}
{'lipoC2': 7.3, 'lipoC3S1': 3.85, 'temp': 30.19, 'lipoC3S3': 11.63, 'lipoC3S2': 7.7, 'rot1': 0, 'rot0': 0, 'rot3': 0, 'rot2': 0, 'state': 'normal', 'yaw': 0.85, 'datetime': '2018-10-09 23:38:40.698627', 'mgs': 0, 'volt': 0.8105, 'depth': 0.165, 'time': 13, 'pitch': -6.15, 'roll': 5.21, 'pres': 166}
{'lipoC2': 7.3, 'lipoC3S1': 3.85, 'temp': 30.19, 'lipoC3S3': 11.63, 'lipoC3S2': 7.7, 'rot1': 0, 'rot0': 0, 'rot3': 0, 'rot2': 0, 'state': 'normal', 'yaw': 1.72, 'datetime': '2018-10-09 23:38:40.802004', 'mgs': 0, 'volt': 0.8105, 'depth': 0.165, 'time': 13, 'pitch': -4.71, 'roll': 4.99, 'pres': 166}
{'lipoC2': 7.3, 'lipoC3S1': 3.85, 'temp': 30.19, 'lipoC3S3': 11.63, 'lipoC3S2': 7.7, 'rot1': 0, 'rot0': 0, 'rot3': 0, 'rot2': 0, 'state': 'normal', 'yaw': 2.82, 'datetime': '2018-10-09 23:38:40.905337', 'mgs': 0, 'volt': 0.8105, 'depth': 0.165, 'time': 13, 'pitch': -3.65, 'roll': 4.22, 'pres': 166}
{'lipoC2': 7.3, 'lipoC3S1': 3.85, 'temp': 30.19, 'lipoC3S3': 11.63, 'lipoC3S2': 7.7, 'rot1': 0, 'rot0': 0, 'rot3': 0, 'rot2': 0, 'state': 'normal', 'yaw': 4.1, 'datetime': '2018-10-09 23:38:41.008880', 'mgs': 0, 'volt': 0.8105, 'depth': 0.165, 'time': 13, 'pitch': -2.87, 'roll': 3.06, 'pres': 166}
{'lipoC2': 7.3, 'lipoC3S1': 3.85, 'temp': 30.13, 'lipoC3S3': 11.63, 'lipoC3S2': 7.7, 'rot1': 0, 'rot0': 0, 'rot3': 0, 'rot2': 0, 'state': 'normal', 'yaw': 5.39, 'datetime': '2018-10-09 23:38:41.112734', 'mgs': 0, 'volt': 0.8105, 'depth': 0.165, 'time': 13, 'pitch': -2.67, 'roll': 2.0, 'pres': 166}
{'lipoC2': 7.3, 'lipoC3S1': 3.85, 'temp': 30.13, 'lipoC3S3': 11.63, 'lipoC3S2': 7.7, 'rot1': 0, 'rot0': 0, 'rot3': 0, 'rot2': 0, 'state': 'normal', 'yaw': 6.76, 'datetime': '2018-10-09 23:38:41.216005', 'mgs': 0, 'volt': 0.8105, 'depth': 0.165, 'time': 13, 'pitch': -3.37, 'roll': 0.94, 'pres': 166}
{'lipoC2': 7.3, 'lipoC3S1': 3.85, 'temp': 30.13, 'lipoC3S3': 11.63, 'lipoC3S2': 7.7, 'rot1': 0, 'rot0': 0, 'rot3': 0, 'rot2': 0, 'state': 'normal', 'yaw': 7.54, 'datetime': '2018-10-09 23:38:41.320612', 'mgs': 0, 'volt': 0.8154, 'depth': 0.241, 'time': 13, 'pitch': -4.0, 'roll': 0.75, 'pres': 167}
{'lipoC2': 7.3, 'lipoC3S1': 3.85, 'temp': 30.19, 'lipoC3S3': 11.63, 'lipoC3S2': 7.7, 'rot1': 0, 'rot0': 0, 'rot3': 0, 'rot2': 0, 'state': 'normal', 'yaw': 8.2, 'datetime': '2018-10-09 23:38:41.423913', 'mgs': 0, 'volt': 0.8154, 'depth': 0.241, 'time': 13, 'pitch': -4.27, 'roll': 1.36, 'pres': 167}
{'lipoC2': 7.3, 'lipoC3S1': 3.85, 'temp': 30.19, 'lipoC3S3': 11.63, 'lipoC3S2': 7.7, 'rot1': 0, 'rot0': 0, 'rot3': 0, 'rot2': 0, 'state': 'normal', 'yaw': 8.58, 'datetime': '2018-10-09 23:38:41.527426', 'mgs': 0, 'volt': 0.8154, 'depth': 0.241, 'time': 13, 'pitch': -4.26, 'roll': 2.36, 'pres': 167}
{'lipoC2': 7.3, 'lipoC3S1': 3.85, 'temp': 30.19, 'lipoC3S3': 11.63, 'lipoC3S2': 7.7, 'rot1': 0, 'rot0': 0, 'rot3': 0, 'rot2': 0, 'state': 'normal', 'yaw': 8.92, 'datetime': '2018-10-09 23:38:41.631914', 'mgs': 0, 'volt': 0.8154, 'depth': 0.241, 'time': 14, 'pitch': -3.94, 'roll': 3.3, 'pres': 167}
{'lipoC2': 7.3, 'lipoC3S1': 3.85, 'temp': 30.19, 'lipoC3S3': 11.63, 'lipoC3S2': 7.7, 'rot1': 0, 'rot0': 0, 'rot3': 0, 'rot2': 0, 'state': 'normal', 'yaw': 9.41, 'datetime': '2018-10-09 23:38:41.735297', 'mgs': 0, 'volt': 0.8203, 'depth': 0.317, 'time': 14, 'pitch': -3.05, 'roll': 3.79, 'pres': 168}
{'lipoC2': 7.3, 'lipoC3S1': 3.85, 'temp': 30.13, 'lipoC3S3': 11.63, 'lipoC3S2': 7.7, 'rot1': 0, 'rot0': 0, 'rot3': 0, 'rot2': 0, 'state': 'normal', 'yaw': 9.82, 'datetime': '2018-10-09 23:38:41.838590', 'mgs': 0, 'volt': 0.8203, 'depth': 0.317, 'time': 14, 'pitch': -2.15, 'roll': 3.82, 'pres': 168}
{'lipoC2': 7.3, 'lipoC3S1': 3.85, 'temp': 30.13, 'lipoC3S3': 11.63, 'lipoC3S2': 7.7, 'rot1': 0, 'rot0': 0, 'rot3': 0, 'rot2': 0, 'state': 'normal', 'yaw': 10.1, 'datetime': '2018-10-09 23:38:41.941919', 'mgs': 0, 'volt': 0.8252, 'depth': 0.394, 'time': 14, 'pitch': -1.85, 'roll': 3.62, 'pres': 169}
{'lipoC2': 7.3, 'lipoC3S1': 3.85, 'temp': 30.13, 'lipoC3S3': 11.63, 'lipoC3S2': 7.7, 'rot1': 0, 'rot0': 0, 'rot3': 0, 'rot2': 0, 'state': 'normal', 'yaw': 10.33, 'datetime': '2018-10-09 23:38:42.045199', 'mgs': 0, 'volt': 0.8252, 'depth': 0.394, 'time': 14, 'pitch': -2.01, 'roll': 3.37, 'pres': 169}
{'lipoC2': 7.3, 'lipoC3S1': 3.85, 'temp': 30.19, 'lipoC3S3': 11.63, 'lipoC3S2': 7.7, 'rot1': 0, 'rot0': 0, 'rot3': 0, 'rot2': 0, 'state': 'normal', 'yaw': 10.67, 'datetime': '2018-10-09 23:38:42.148660', 'mgs': 0, 'volt': 0.8301, 'depth': 0.47, 'time': 14, 'pitch': -2.26, 'roll': 3.13, 'pres': 170}
{'lipoC2': 7.3, 'lipoC3S1': 3.85, 'temp': 30.19, 'lipoC3S3': 11.63, 'lipoC3S2': 7.7, 'rot1': 0, 'rot0': 0, 'rot3': 0, 'rot2': 0, 'state': 'normal', 'yaw': 10.93, 'datetime': '2018-10-09 23:38:42.251922', 'mgs': 0, 'volt': 0.8301, 'depth': 0.47, 'time': 14, 'pitch': -2.41, 'roll': 2.94, 'pres': 170}
{'lipoC2': 7.3, 'lipoC3S1': 3.85, 'temp': 30.19, 'lipoC3S3': 11.63, 'lipoC3S2': 7.7, 'rot1': 0, 'rot0': 0, 'rot3': 0, 'rot2': 0, 'state': 'normal', 'yaw': 10.79, 'datetime': '2018-10-09 23:38:42.355399', 'mgs': 0, 'volt': 0.835, 'depth': 0.546, 'time': 14, 'pitch': -2.39, 'roll': 2.91, 'pres': 171}
{'lipoC2': 7.3, 'lipoC3S1': 3.85, 'temp': 30.19, 'lipoC3S3': 11.63, 'lipoC3S2': 7.7, 'rot1': 0, 'rot0': 0, 'rot3': 0, 'rot2': 0, 'state': 'normal', 'yaw': 10.17, 'datetime': '2018-10-09 23:38:42.458725', 'mgs': 0, 'volt': 0.835, 'depth': 0.546, 'time': 14, 'pitch': -1.97, 'roll': 3.21, 'pres': 171}
{'lipoC2': 7.3, 'lipoC3S1': 3.85, 'temp': 30.13, 'lipoC3S3': 11.61, 'lipoC3S2': 7.7, 'rot1': 0, 'rot0': 0, 'rot3': 0, 'rot2': 0, 'state': 'normal', 'yaw': 9.31, 'datetime': '2018-10-09 23:38:42.562249', 'mgs': 0, 'volt': 0.8398, 'depth': 0.623, 'time': 14, 'pitch': -1.31, 'roll': 3.61, 'pres': 172}
{'lipoC2': 7.3, 'lipoC3S1': 3.85, 'temp': 30.13, 'lipoC3S3': 11.63, 'lipoC3S2': 7.71, 'rot1': 0, 'rot0': 0, 'rot3': 0, 'rot2': 0, 'state': 'normal', 'yaw': 8.39, 'datetime': '2018-10-09 23:38:42.665939', 'mgs': 0, 'volt': 0.8447, 'depth': 0.699, 'time': 15, 'pitch': -0.6, 'roll': 3.91, 'pres': 173}
{'lipoC2': 7.3, 'lipoC3S1': 3.85, 'temp': 30.13, 'lipoC3S3': 11.63, 'lipoC3S2': 7.7, 'rot1': 0, 'rot0': 0, 'rot3': 0, 'rot2': 0, 'state': 'normal', 'yaw': 7.92, 'datetime': '2018-10-09 23:38:42.769296', 'mgs': 0, 'volt': 0.8447, 'depth': 0.699, 'time': 15, 'pitch': -0.17, 'roll': 3.64, 'pres': 173}
{'lipoC2': 7.3, 'lipoC3S1': 3.85, 'temp': 30.19, 'lipoC3S3': 11.63, 'lipoC3S2': 7.7, 'rot1': 0, 'rot0': 0, 'rot3': 0, 'rot2': 0, 'state': 'normal', 'yaw': 7.87, 'datetime': '2018-10-09 23:38:42.873988', 'mgs': 0, 'volt': 0.8398, 'depth': 0.623, 'time': 15, 'pitch': -0.6, 'roll': 2.87, 'pres': 172}
{'lipoC2': 7.3, 'lipoC3S1': 3.85, 'temp': 30.19, 'lipoC3S3': 11.63, 'lipoC3S2': 7.7, 'rot1': 0, 'rot0': 0, 'rot3': 0, 'rot2': 0, 'state': 'normal', 'yaw': 7.9, 'datetime': '2018-10-09 23:38:42.977255', 'mgs': 0, 'volt': 0.8447, 'depth': 0.699, 'time': 15, 'pitch': -1.63, 'roll': 1.78, 'pres': 173}
{'lipoC2': 7.3, 'lipoC3S1': 3.85, 'temp': 30.13, 'lipoC3S3': 11.63, 'lipoC3S2': 7.7, 'rot1': 0, 'rot0': 0, 'rot3': 0, 'rot2': 0, 'state': 'normal', 'yaw': 7.77, 'datetime': '2018-10-09 23:38:43.080639', 'mgs': 0, 'volt': 0.8447, 'depth': 0.699, 'time': 15, 'pitch': -2.41, 'roll': 0.88, 'pres': 173}
{'lipoC2': 7.3, 'lipoC3S1': 3.85, 'temp': 30.13, 'lipoC3S3': 11.63, 'lipoC3S2': 7.7, 'rot1': 0, 'rot0': 0, 'rot3': 0, 'rot2': 0, 'state': 'normal', 'yaw': 7.23, 'datetime': '2018-10-09 23:38:43.185220', 'mgs': 0, 'volt': 0.8447, 'depth': 0.699, 'time': 15, 'pitch': -2.91, 'roll': 0.41, 'pres': 173}
{'lipoC2': 7.3, 'lipoC3S1': 3.85, 'temp': 30.19, 'lipoC3S3': 11.63, 'lipoC3S2': 7.7, 'rot1': 0, 'rot0': 0, 'rot3': 0, 'rot2': 0, 'state': 'normal', 'yaw': 6.33, 'datetime': '2018-10-09 23:38:43.288553', 'mgs': 0, 'volt': 0.8398, 'depth': 0.623, 'time': 15, 'pitch': -2.81, 'roll': 0.4, 'pres': 172}
{'lipoC2': 7.3, 'lipoC3S1': 3.85, 'temp': 30.19, 'lipoC3S3': 11.63, 'lipoC3S2': 7.7, 'rot1': 0, 'rot0': 0, 'rot3': 0, 'rot2': 0, 'state': 'normal', 'yaw': 5.64, 'datetime': '2018-10-09 23:38:43.391950', 'mgs': 0, 'volt': 0.8447, 'depth': 0.699, 'time': 15, 'pitch': -1.7, 'roll': 0.64, 'pres': 173}
{'lipoC2': 7.3, 'lipoC3S1': 3.85, 'temp': 30.19, 'lipoC3S3': 11.63, 'lipoC3S2': 7.71, 'rot1': 0, 'rot0': 0, 'rot3': 0, 'rot2': 0, 'state': 'normal', 'yaw': 5.41, 'datetime': '2018-10-09 23:38:43.495219', 'mgs': 0, 'volt': 0.8398, 'depth': 0.623, 'time': 15, 'pitch': -0.32, 'roll': 0.85, 'pres': 172}
{'lipoC2': 7.3, 'lipoC3S1': 3.85, 'temp': 30.13, 'lipoC3S3': 11.63, 'lipoC3S2': 7.7, 'rot1': 0, 'rot0': 0, 'rot3': 0, 'rot2': 0, 'state': 'normal', 'yaw': 5.59, 'datetime': '2018-10-09 23:38:43.598600', 'mgs': 0, 'volt': 0.8398, 'depth': 0.623, 'time': 16, 'pitch': 0.01, 'roll': 0.78, 'pres': 172}
{'lipoC2': 7.3, 'lipoC3S1': 3.85, 'temp': 30.13, 'lipoC3S3': 11.63, 'lipoC3S2': 7.7, 'rot1': 0, 'rot0': 0, 'rot3': 0, 'rot2': 0, 'state': 'normal', 'yaw': 5.95, 'datetime': '2018-10-09 23:38:43.701945', 'mgs': 0, 'volt': 0.8398, 'depth': 0.623, 'time': 16, 'pitch': -0.81, 'roll': 0.46, 'pres': 172}
{'lipoC2': 7.3, 'lipoC3S1': 3.85, 'temp': 30.19, 'lipoC3S3': 11.63, 'lipoC3S2': 7.7, 'rot1': 0, 'rot0': 0, 'rot3': 0, 'rot2': 0, 'state': 'normal', 'yaw': 6.12, 'datetime': '2018-10-09 23:38:43.805267', 'mgs': 0, 'volt': 0.8447, 'depth': 0.699, 'time': 16, 'pitch': -2.18, 'roll': 0.22, 'pres': 173}
{'lipoC2': 7.3, 'lipoC3S1': 3.85, 'temp': 30.19, 'lipoC3S3': 11.63, 'lipoC3S2': 7.7, 'rot1': 0, 'rot0': 0, 'rot3': 0, 'rot2': 0, 'state': 'normal', 'yaw': 6.16, 'datetime': '2018-10-09 23:38:43.908665', 'mgs': 0, 'volt': 0.8447, 'depth': 0.699, 'time': 16, 'pitch': -2.94, 'roll': 0.25, 'pres': 173}
{'lipoC2': 7.3, 'lipoC3S1': 3.85, 'temp': 30.13, 'lipoC3S3': 11.63, 'lipoC3S2': 7.7, 'rot1': 0, 'rot0': 0, 'rot3': 0, 'rot2': 0, 'state': 'normal', 'yaw': 6.25, 'datetime': '2018-10-09 23:38:44.012269', 'mgs': 0, 'volt': 0.8447, 'depth': 0.699, 'time': 16, 'pitch': -2.43, 'roll': 0.47, 'pres': 173}
{'lipoC2': 7.3, 'lipoC3S1': 3.85, 'temp': 30.13, 'lipoC3S3': 11.63, 'lipoC3S2': 7.7, 'rot1': 0, 'rot0': 0, 'rot3': 0, 'rot2': 0, 'state': 'normal', 'yaw': 6.41, 'datetime': '2018-10-09 23:38:44.115693', 'mgs': 0, 'volt': 0.8496, 'depth': 0.775, 'time': 16, 'pitch': -0.52, 'roll': 1.06, 'pres': 174}
{'lipoC2': 7.3, 'lipoC3S1': 3.85, 'temp': 30.13, 'lipoC3S3': 11.63, 'lipoC3S2': 7.7, 'rot1': 0, 'rot0': 0, 'rot3': 0, 'rot2': 0, 'state': 'normal', 'yaw': 6.66, 'datetime': '2018-10-09 23:38:44.219263', 'mgs': 0, 'volt': 0.8447, 'depth': 0.699, 'time': 16, 'pitch': 2.15, 'roll': 1.96, 'pres': 173}
{'lipoC2': 7.3, 'lipoC3S1': 3.85, 'temp': 30.19, 'lipoC3S3': 11.63, 'lipoC3S2': 7.7, 'rot1': 0, 'rot0': 0, 'rot3': 0, 'rot2': 0, 'state': 'normal', 'yaw': 6.96, 'datetime': '2018-10-09 23:38:44.322592', 'mgs': 0, 'volt': 0.8447, 'depth': 0.699, 'time': 16, 'pitch': 4.83, 'roll': 3.13, 'pres': 173}
{'lipoC2': 7.3, 'lipoC3S1': 3.85, 'temp': 30.19, 'lipoC3S3': 11.63, 'lipoC3S2': 7.7, 'rot1': 0, 'rot0': 0, 'rot3': 0, 'rot2': 0, 'state': 'normal', 'yaw': 7.45, 'datetime': '2018-10-09 23:38:44.427269', 'mgs': 0, 'volt': 0.8496, 'depth': 0.775, 'time': 16, 'pitch': 5.5, 'roll': 3.92, 'pres': 174}
{'lipoC2': 7.3, 'lipoC3S1': 3.85, 'temp': 30.13, 'lipoC3S3': 11.63, 'lipoC3S2': 7.7, 'rot1': 0, 'rot0': 0, 'rot3': 0, 'rot2': 0, 'state': 'normal', 'yaw': 8.38, 'datetime': '2018-10-09 23:38:44.530530', 'mgs': 0, 'volt': 0.8496, 'depth': 0.775, 'time': 16, 'pitch': 4.5, 'roll': 4.36, 'pres': 174}
{'lipoC2': 7.3, 'lipoC3S1': 3.85, 'temp': 30.13, 'lipoC3S3': 11.63, 'lipoC3S2': 7.7, 'rot1': 0, 'rot0': 0, 'rot3': 0, 'rot2': 0, 'state': 'normal', 'yaw': 8.63, 'datetime': '2018-10-09 23:38:44.633921', 'mgs': 0, 'volt': 0.8496, 'depth': 0.775, 'time': 17, 'pitch': 2.97, 'roll': 4.73, 'pres': 174}
{'lipoC2': 7.3, 'lipoC3S1': 3.85, 'temp': 30.19, 'lipoC3S3': 11.63, 'lipoC3S2': 7.7, 'rot1': 0, 'rot0': 0, 'rot3': 0, 'rot2': 0, 'state': 'normal', 'yaw': 8.75, 'datetime': '2018-10-09 23:38:44.738464', 'mgs': 0, 'volt': 0.8496, 'depth': 0.775, 'time': 17, 'pitch': 1.6, 'roll': 5.17, 'pres': 174}
{'lipoC2': 7.3, 'lipoC3S1': 3.85, 'temp': 30.19, 'lipoC3S3': 11.63, 'lipoC3S2': 7.7, 'rot1': 0, 'rot0': 0, 'rot3': 0, 'rot2': 0, 'state': 'normal', 'yaw': 8.68, 'datetime': '2018-10-09 23:38:44.841798', 'mgs': 0, 'volt': 0.8447, 'depth': 0.699, 'time': 17, 'pitch': -0.34, 'roll': 5.05, 'pres': 173}
{'lipoC2': 7.3, 'lipoC3S1': 3.85, 'temp': 30.19, 'lipoC3S3': 11.63, 'lipoC3S2': 7.7, 'rot1': 0, 'rot0': 0, 'rot3': 0, 'rot2': 0, 'state': 'normal', 'yaw': 8.56, 'datetime': '2018-10-09 23:38:44.945089', 'mgs': 0, 'volt': 0.8398, 'depth': 0.623, 'time': 17, 'pitch': -1.78, 'roll': 4.52, 'pres': 172}
{'lipoC2': 7.3, 'lipoC3S1': 3.85, 'temp': 30.25, 'lipoC3S3': 11.63, 'lipoC3S2': 7.7, 'rot1': 0, 'rot0': 0, 'rot3': 0, 'rot2': 0, 'state': 'normal', 'yaw': 8.46, 'datetime': '2018-10-09 23:38:45.048483', 'mgs': 0, 'volt': 0.835, 'depth': 0.546, 'time': 17, 'pitch': -2.46, 'roll': 4.09, 'pres': 171}
{'lipoC2': 7.3, 'lipoC3S1': 3.85, 'temp': 30.25, 'lipoC3S3': 11.63, 'lipoC3S2': 7.7, 'rot1': 0, 'rot0': 0, 'rot3': 0, 'rot2': 0, 'state': 'normal', 'yaw': 8.19, 'datetime': '2018-10-09 23:38:45.151837', 'mgs': 0, 'volt': 0.835, 'depth': 0.546, 'time': 17, 'pitch': -2.2, 'roll': 3.94, 'pres': 171}
{'lipoC2': 7.3, 'lipoC3S1': 3.85, 'temp': 30.25, 'lipoC3S3': 11.63, 'lipoC3S2': 7.7, 'rot1': 0, 'rot0': 0, 'rot3': 0, 'rot2': 0, 'state': 'normal', 'yaw': 7.78, 'datetime': '2018-10-09 23:38:45.255162', 'mgs': 0, 'volt': 0.8301, 'depth': 0.47, 'time': 17, 'pitch': -2.35, 'roll': 4.07, 'pres': 170}
{'lipoC2': 7.3, 'lipoC3S1': 3.85, 'temp': 30.25, 'lipoC3S3': 11.63, 'lipoC3S2': 7.7, 'rot1': 0, 'rot0': 0, 'rot3': 0, 'rot2': 0, 'state': 'normal', 'yaw': 7.34, 'datetime': '2018-10-09 23:38:45.358525', 'mgs': 0, 'volt': 0.8252, 'depth': 0.394, 'time': 17, 'pitch': -3.93, 'roll': 4.05, 'pres': 169}
{'lipoC2': 7.3, 'lipoC3S1': 3.85, 'temp': 30.25, 'lipoC3S3': 11.63, 'lipoC3S2': 7.7, 'rot1': 0, 'rot0': 0, 'rot3': 0, 'rot2': 0, 'state': 'normal', 'yaw': 7.11, 'datetime': '2018-10-09 23:38:45.462126', 'mgs': 0, 'volt': 0.8252, 'depth': 0.394, 'time': 17, 'pitch': -6.33, 'roll': 3.75, 'pres': 169}
{'lipoC2': 7.3, 'lipoC3S1': 3.85, 'temp': 30.13, 'lipoC3S3': 11.63, 'lipoC3S2': 7.7, 'rot1': 0, 'rot0': 0, 'rot3': 0, 'rot2': 0, 'state': 'normal', 'yaw': 6.98, 'datetime': '2018-10-09 23:38:45.565654', 'mgs': 0, 'volt': 0.8252, 'depth': 0.394, 'time': 17, 'pitch': -9.16, 'roll': 2.83, 'pres': 169}
{'lipoC2': 7.3, 'lipoC3S1': 3.85, 'temp': 30.13, 'lipoC3S3': 11.63, 'lipoC3S2': 7.7, 'rot1': 0, 'rot0': 0, 'rot3': 0, 'rot2': 0, 'state': 'normal', 'yaw': 7.03, 'datetime': '2018-10-09 23:38:45.669116', 'mgs': 0, 'volt': 0.8252, 'depth': 0.394, 'time': 18, 'pitch': -10.21, 'roll': 1.74, 'pres': 169}
{'lipoC2': 7.3, 'lipoC3S1': 3.85, 'temp': 30.13, 'lipoC3S3': 11.63, 'lipoC3S2': 7.7, 'rot1': 0, 'rot0': 0, 'rot3': 0, 'rot2': 0, 'state': 'normal', 'yaw': 7.48, 'datetime': '2018-10-09 23:38:45.772700', 'mgs': 0, 'volt': 0.8252, 'depth': 0.394, 'time': 18, 'pitch': -10.56, 'roll': 0.1, 'pres': 169}
{'lipoC2': 7.3, 'lipoC3S1': 3.85, 'temp': 30.13, 'lipoC3S3': 11.63, 'lipoC3S2': 7.7, 'rot1': 0, 'rot0': 0, 'rot3': 0, 'rot2': 0, 'state': 'normal', 'yaw': 7.52, 'datetime': '2018-10-09 23:38:45.876093', 'mgs': 0, 'volt': 0.8203, 'depth': 0.317, 'time': 18, 'pitch': -9.64, 'roll': -0.71, 'pres': 168}
{'lipoC2': 7.3, 'lipoC3S1': 3.85, 'temp': 30.19, 'lipoC3S3': 11.63, 'lipoC3S2': 7.7, 'rot1': 0, 'rot0': 0, 'rot3': 0, 'rot2': 0, 'state': 'normal', 'yaw': 7.43, 'datetime': '2018-10-09 23:38:45.980671', 'mgs': 0, 'volt': 0.8252, 'depth': 0.394, 'time': 18, 'pitch': -8.39, 'roll': -1.0, 'pres': 169}
{'lipoC2': 7.3, 'lipoC3S1': 3.85, 'temp': 30.19, 'lipoC3S3': 11.63, 'lipoC3S2': 7.7, 'rot1': 0, 'rot0': 0, 'rot3': 0, 'rot2': 0, 'state': 'normal', 'yaw': 7.12, 'datetime': '2018-10-09 23:38:46.084023', 'mgs': 0, 'volt': 0.8203, 'depth': 0.317, 'time': 18, 'pitch': -7.16, 'roll': -0.86, 'pres': 168}
{'lipoC2': 7.3, 'lipoC3S1': 3.85, 'temp': 30.19, 'lipoC3S3': 11.63, 'lipoC3S2': 7.7, 'rot1': 0, 'rot0': 0, 'rot3': 0, 'rot2': 0, 'state': 'normal', 'yaw': 6.88, 'datetime': '2018-10-09 23:38:46.187529', 'mgs': 0, 'volt': 0.8203, 'depth': 0.317, 'time': 18, 'pitch': -7.55, 'roll': -0.66, 'pres': 168}
{'lipoC2': 7.3, 'lipoC3S1': 3.85, 'temp': 30.13, 'lipoC3S3': 11.63, 'lipoC3S2': 7.7, 'rot1': 0, 'rot0': 0, 'rot3': 0, 'rot2': 0, 'state': 'normal', 'yaw': 6.6, 'datetime': '2018-10-09 23:38:46.292019', 'mgs': 0, 'volt': 0.8203, 'depth': 0.317, 'time': 18, 'pitch': -9.84, 'roll': -0.61, 'pres': 168}
{'lipoC2': 7.3, 'lipoC3S1': 3.85, 'temp': 30.13, 'lipoC3S3': 11.63, 'lipoC3S2': 7.7, 'rot1': 0, 'rot0': 0, 'rot3': 0, 'rot2': 0, 'state': 'normal', 'yaw': 6.77, 'datetime': '2018-10-09 23:38:46.395377', 'mgs': 0, 'volt': 0.8252, 'depth': 0.394, 'time': 18, 'pitch': -12.94, 'roll': -1.16, 'pres': 169}
{'lipoC2': 7.3, 'lipoC3S1': 3.85, 'temp': 30.19, 'lipoC3S3': 11.63, 'lipoC3S2': 7.7, 'rot1': 0, 'rot0': 0, 'rot3': 0, 'rot2': 0, 'state': 'normal', 'yaw': 6.7, 'datetime': '2018-10-09 23:38:46.498850', 'mgs': 0, 'volt': 0.8301, 'depth': 0.47, 'time': 18, 'pitch': -14.7, 'roll': -1.62, 'pres': 170}
{'lipoC2': 7.3, 'lipoC3S1': 3.85, 'temp': 30.19, 'lipoC3S3': 11.63, 'lipoC3S2': 7.7, 'rot1': 0, 'rot0': 0, 'rot3': 0, 'rot2': 0, 'state': 'normal', 'yaw': 6.25, 'datetime': '2018-10-09 23:38:46.602174', 'mgs': 0, 'volt': 0.835, 'depth': 0.546, 'time': 19, 'pitch': -14.37, 'roll': -1.72, 'pres': 171}
{'lipoC2': 7.3, 'lipoC3S1': 3.85, 'temp': 30.19, 'lipoC3S3': 11.63, 'lipoC3S2': 7.7, 'rot1': 0, 'rot0': 0, 'rot3': 0, 'rot2': 0, 'state': 'normal', 'yaw': 5.72, 'datetime': '2018-10-09 23:38:46.705530', 'mgs': 0, 'volt': 0.8301, 'depth': 0.47, 'time': 19, 'pitch': -11.41, 'roll': -1.4, 'pres': 170}
{'lipoC2': 7.3, 'lipoC3S1': 3.85, 'temp': 30.19, 'lipoC3S3': 11.63, 'lipoC3S2': 7.7, 'rot1': 0, 'rot0': 0, 'rot3': 0, 'rot2': 0, 'state': 'normal', 'yaw': 5.32, 'datetime': '2018-10-09 23:38:46.808897', 'mgs': 0, 'volt': 0.8301, 'depth': 0.47, 'time': 19, 'pitch': -8.51, 'roll': -0.63, 'pres': 170}
{'lipoC2': 7.3, 'lipoC3S1': 3.85, 'temp': 30.19, 'lipoC3S3': 11.63, 'lipoC3S2': 7.7, 'rot1': 0, 'rot0': 0, 'rot3': 0, 'rot2': 0, 'state': 'normal', 'yaw': 5.27, 'datetime': '2018-10-09 23:38:46.912226', 'mgs': 0, 'volt': 0.8301, 'depth': 0.47, 'time': 19, 'pitch': -6.62, 'roll': 0.29, 'pres': 170}
{'lipoC2': 7.3, 'lipoC3S1': 3.85, 'temp': 30.13, 'lipoC3S3': 11.63, 'lipoC3S2': 7.7, 'rot1': 0, 'rot0': 0, 'rot3': 0, 'rot2': 0, 'state': 'normal', 'yaw': 5.6, 'datetime': '2018-10-09 23:38:47.015829', 'mgs': 0, 'volt': 0.8301, 'depth': 0.47, 'time': 19, 'pitch': -6.31, 'roll': 1.24, 'pres': 170}
{'lipoC2': 7.3, 'lipoC3S1': 3.85, 'temp': 30.13, 'lipoC3S3': 11.63, 'lipoC3S2': 7.7, 'rot1': 0, 'rot0': 0, 'rot3': 0, 'rot2': 0, 'state': 'normal', 'yaw': 6.26, 'datetime': '2018-10-09 23:38:47.118929', 'mgs': 0, 'volt': 0.8301, 'depth': 0.47, 'time': 19, 'pitch': -7.31, 'roll': 2.04, 'pres': 170}
{'lipoC2': 7.3, 'lipoC3S1': 3.85, 'temp': 30.13, 'lipoC3S3': 11.63, 'lipoC3S2': 7.7, 'rot1': 0, 'rot0': 0, 'rot3': 0, 'rot2': 0, 'state': 'normal', 'yaw': 6.53, 'datetime': '2018-10-09 23:38:47.222222', 'mgs': 0, 'volt': 0.8301, 'depth': 0.47, 'time': 19, 'pitch': -8.51, 'roll': 2.51, 'pres': 170}
{'lipoC2': 7.3, 'lipoC3S1': 3.85, 'temp': 30.13, 'lipoC3S3': 11.63, 'lipoC3S2': 7.7, 'rot1': 0, 'rot0': 0, 'rot3': 0, 'rot2': 0, 'state': 'normal', 'yaw': 6.31, 'datetime': '2018-10-09 23:38:47.325947', 'mgs': 0, 'volt': 0.8301, 'depth': 0.47, 'time': 19, 'pitch': -9.11, 'roll': 2.79, 'pres': 170}
{'lipoC2': 7.3, 'lipoC3S1': 3.85, 'temp': 30.19, 'lipoC3S3': 11.63, 'lipoC3S2': 7.7, 'rot1': 0, 'rot0': 0, 'rot3': 0, 'rot2': 0, 'state': 'normal', 'yaw': 5.67, 'datetime': '2018-10-09 23:38:47.429336', 'mgs': 0, 'volt': 0.8252, 'depth': 0.394, 'time': 19, 'pitch': -8.59, 'roll': 2.93, 'pres': 169}
{'lipoC2': 7.3, 'lipoC3S1': 3.85, 'temp': 30.19, 'lipoC3S3': 11.63, 'lipoC3S2': 7.7, 'rot1': 0, 'rot0': 0, 'rot3': 0, 'rot2': 0, 'state': 'normal', 'yaw': 4.93, 'datetime': '2018-10-09 23:38:47.534083', 'mgs': 0, 'volt': 0.8203, 'depth': 0.317, 'time': 19, 'pitch': -7.54, 'roll': 3.04, 'pres': 168}
{'lipoC2': 7.3, 'lipoC3S1': 3.85, 'temp': 30.19, 'lipoC3S3': 11.63, 'lipoC3S2': 7.71, 'rot1': 0, 'rot0': 0, 'rot3': 0, 'rot2': 0, 'state': 'normal', 'yaw': 4.27, 'datetime': '2018-10-09 23:38:47.637353', 'mgs': 0, 'volt': 0.8154, 'depth': 0.241, 'time': 20, 'pitch': -6.18, 'roll': 3.12, 'pres': 167}
{'lipoC2': 7.3, 'lipoC3S1': 3.85, 'temp': 30.19, 'lipoC3S3': 11.63, 'lipoC3S2': 7.7, 'rot1': 0, 'rot0': 0, 'rot3': 0, 'rot2': 0, 'state': 'normal', 'yaw': 3.93, 'datetime': '2018-10-09 23:38:47.740678', 'mgs': 0, 'volt': 0.8154, 'depth': 0.241, 'time': 20, 'pitch': -4.64, 'roll': 3.04, 'pres': 167}
{'lipoC2': 7.3, 'lipoC3S1': 3.85, 'temp': 30.19, 'lipoC3S3': 11.63, 'lipoC3S2': 7.7, 'rot1': 0, 'rot0': 0, 'rot3': 0, 'rot2': 0, 'state': 'normal', 'yaw': 3.85, 'datetime': '2018-10-09 23:38:47.845325', 'mgs': 0, 'volt': 0.8154, 'depth': 0.241, 'time': 20, 'pitch': -3.16, 'roll': 2.78, 'pres': 167}
{'lipoC2': 7.3, 'lipoC3S1': 3.85, 'temp': 30.13, 'lipoC3S3': 11.63, 'lipoC3S2': 7.7, 'rot1': 0, 'rot0': 0, 'rot3': 0, 'rot2': 0, 'state': 'normal', 'yaw': 4.07, 'datetime': '2018-10-09 23:38:47.948642', 'mgs': 0, 'volt': 0.8105, 'depth': 0.165, 'time': 20, 'pitch': -2.05, 'roll': 2.33, 'pres': 166}
{'lipoC2': 7.3, 'lipoC3S1': 3.85, 'temp': 30.13, 'lipoC3S3': 11.63, 'lipoC3S2': 7.7, 'rot1': 0, 'rot0': 0, 'rot3': 0, 'rot2': 0, 'state': 'normal', 'yaw': 4.55, 'datetime': '2018-10-09 23:38:48.051888', 'mgs': 0, 'volt': 0.8105, 'depth': 0.165, 'time': 20, 'pitch': -2.29, 'roll': 1.76, 'pres': 166}
{'lipoC2': 7.3, 'lipoC3S1': 3.85, 'temp': 30.13, 'lipoC3S3': 11.63, 'lipoC3S2': 7.7, 'rot1': 0, 'rot0': 0, 'rot3': 0, 'rot2': 0, 'state': 'normal', 'yaw': 4.95, 'datetime': '2018-10-09 23:38:48.155272', 'mgs': 0, 'volt': 0.8057, 'depth': 0.089, 'time': 20, 'pitch': -3.72, 'roll': 1.22, 'pres': 165}
{'lipoC2': 7.3, 'lipoC3S1': 3.85, 'temp': 30.13, 'lipoC3S3': 11.63, 'lipoC3S2': 7.7, 'rot1': 0, 'rot0': 0, 'rot3': 0, 'rot2': 0, 'state': 'normal', 'yaw': 5.2, 'datetime': '2018-10-09 23:38:48.258649', 'mgs': 0, 'volt': 0.8057, 'depth': 0.089, 'time': 20, 'pitch': -5.53, 'roll': 0.85, 'pres': 165}
{'lipoC2': 7.3, 'lipoC3S1': 3.85, 'temp': 30.13, 'lipoC3S3': 11.63, 'lipoC3S2': 7.7, 'rot1': 0, 'rot0': 0, 'rot3': 0, 'rot2': 0, 'state': 'normal', 'yaw': 5.22, 'datetime': '2018-10-09 23:38:48.361967', 'mgs': 0, 'volt': 0.8057, 'depth': 0.089, 'time': 20, 'pitch': -6.71, 'roll': 0.8, 'pres': 165}
{'lipoC2': 7.3, 'lipoC3S1': 3.85, 'temp': 30.19, 'lipoC3S3': 11.63, 'lipoC3S2': 7.7, 'rot1': 0, 'rot0': 0, 'rot3': 0, 'rot2': 0, 'state': 'normal', 'yaw': 4.99, 'datetime': '2018-10-09 23:38:48.465317', 'mgs': 0, 'volt': 0.8105, 'depth': 0.165, 'time': 20, 'pitch': -6.98, 'roll': 1.02, 'pres': 166}
{'lipoC2': 7.3, 'lipoC3S1': 3.85, 'temp': 30.19, 'lipoC3S3': 11.63, 'lipoC3S2': 7.7, 'rot1': 0, 'rot0': 0, 'rot3': 0, 'rot2': 0, 'state': 'normal', 'yaw': 4.78, 'datetime': '2018-10-09 23:38:48.569029', 'mgs': 0, 'volt': 0.8105, 'depth': 0.165, 'time': 20, 'pitch': -6.52, 'roll': 1.37, 'pres': 166}
{'lipoC2': 7.3, 'lipoC3S1': 3.85, 'temp': 30.13, 'lipoC3S3': 11.63, 'lipoC3S2': 7.7, 'rot1': 0, 'rot0': 0, 'rot3': 0, 'rot2': 0, 'state': 'normal', 'yaw': 4.69, 'datetime': '2018-10-09 23:38:48.671080', 'mgs': 0, 'volt': 0.8105, 'depth': 0.165, 'time': 21, 'pitch': -5.43, 'roll': 1.8, 'pres': 166}
{'lipoC2': 7.3, 'lipoC3S1': 3.85, 'temp': 30.13, 'lipoC3S3': 11.63, 'lipoC3S2': 7.7, 'rot1': 0, 'rot0': 0, 'rot3': 0, 'rot2': 0, 'state': 'normal', 'yaw': 4.9, 'datetime': '2018-10-09 23:38:48.775538', 'mgs': 0, 'volt': 0.8105, 'depth': 0.165, 'time': 21, 'pitch': -4.21, 'roll': 2.11, 'pres': 166}
{'lipoC2': 7.3, 'lipoC3S1': 3.85, 'temp': 30.19, 'lipoC3S3': 11.63, 'lipoC3S2': 7.7, 'rot1': 0, 'rot0': 0, 'rot3': 0, 'rot2': 0, 'state': 'normal', 'yaw': 5.39, 'datetime': '2018-10-09 23:38:48.879412', 'mgs': 0, 'volt': 0.8105, 'depth': 0.165, 'time': 21, 'pitch': -3.51, 'roll': 2.19, 'pres': 166}
{'lipoC2': 7.3, 'lipoC3S1': 3.85, 'temp': 30.19, 'lipoC3S3': 11.63, 'lipoC3S2': 7.7, 'rot1': 0, 'rot0': 0, 'rot3': 0, 'rot2': 0, 'state': 'normal', 'yaw': 6.33, 'datetime': '2018-10-09 23:38:48.982754', 'mgs': 0, 'volt': 0.8154, 'depth': 0.241, 'time': 21, 'pitch': -3.78, 'roll': 1.93, 'pres': 167}
{'lipoC2': 7.3, 'lipoC3S1': 3.85, 'temp': 30.19, 'lipoC3S3': 11.63, 'lipoC3S2': 7.7, 'rot1': 0, 'rot0': 0, 'rot3': 0, 'rot2': 0, 'state': 'normal', 'yaw': 7.21, 'datetime': '2018-10-09 23:38:49.087396', 'mgs': 0, 'volt': 0.8154, 'depth': 0.241, 'time': 21, 'pitch': -4.36, 'roll': 1.63, 'pres': 167}
{'lipoC2': 7.3, 'lipoC3S1': 3.85, 'temp': 30.19, 'lipoC3S3': 11.63, 'lipoC3S2': 7.7, 'rot1': 0, 'rot0': 0, 'rot3': 0, 'rot2': 0, 'state': 'normal', 'yaw': 7.73, 'datetime': '2018-10-09 23:38:49.190755', 'mgs': 0, 'volt': 0.8154, 'depth': 0.241, 'time': 21, 'pitch': -5.07, 'roll': 1.81, 'pres': 167}
{'lipoC2': 7.3, 'lipoC3S1': 3.85, 'temp': 30.19, 'lipoC3S3': 11.63, 'lipoC3S2': 7.7, 'rot1': 0, 'rot0': 0, 'rot3': 0, 'rot2': 0, 'state': 'normal', 'yaw': 7.89, 'datetime': '2018-10-09 23:38:49.294065', 'mgs': 0, 'volt': 0.8203, 'depth': 0.317, 'time': 21, 'pitch': -5.87, 'roll': 2.22, 'pres': 168}
{'lipoC2': 7.3, 'lipoC3S1': 3.85, 'temp': 30.19, 'lipoC3S3': 11.63, 'lipoC3S2': 7.7, 'rot1': 0, 'rot0': 0, 'rot3': 0, 'rot2': 0, 'state': 'normal', 'yaw': 7.57, 'datetime': '2018-10-09 23:38:49.398678', 'mgs': 0, 'volt': 0.8203, 'depth': 0.317, 'time': 21, 'pitch': -6.42, 'roll': 3.02, 'pres': 168}
